Time:	0.046	Roll Set Point:	0.002	Pitch Set Point:	-0.017	Yaw Set Point:	2.168	X_WP:	0.000	Y_WP:	0.000	Z_WP:	0.500	X:	0.015	Y:	0.010	Z:	0.049	yaw:	-124.226	yaw rate:	2.426	Roll:	-0.173	Pitch:	0.067	Yaw:	-173.452	Thrust:	24.800
Time:	0.067	Roll Set Point:	0.002	Pitch Set Point:	-0.017	Yaw Set Point:	2.168	X_WP:	0.000	Y_WP:	0.000	Z_WP:	0.500	X:	0.015	Y:	0.010	Z:	0.049	yaw:	-124.213	yaw rate:	-1.282	Roll:	-0.150	Pitch:	0.090	Yaw:	-174.187	Thrust:	25.889
Time:	0.085	Roll Set Point:	0.002	Pitch Set Point:	-0.017	Yaw Set Point:	2.168	X_WP:	0.000	Y_WP:	0.000	Z_WP:	0.500	X:	0.015	Y:	0.011	Z:	0.049	yaw:	-124.201	yaw rate:	-1.263	Roll:	-0.202	Pitch:	0.045	Yaw:	-174.751	Thrust:	26.761
Time:	0.106	Roll Set Point:	0.002	Pitch Set Point:	-0.017	Yaw Set Point:	2.168	X_WP:	0.000	Y_WP:	0.000	Z_WP:	0.500	X:	0.015	Y:	0.010	Z:	0.049	yaw:	-124.234	yaw rate:	3.321	Roll:	-0.172	Pitch:	0.062	Yaw:	-176.615	Thrust:	28.202
Time:	0.125	Roll Set Point:	0.002	Pitch Set Point:	-0.017	Yaw Set Point:	2.168	X_WP:	0.000	Y_WP:	0.000	Z_WP:	0.500	X:	0.015	Y:	0.010	Z:	0.049	yaw:	-124.222	yaw rate:	-1.198	Roll:	-0.172	Pitch:	0.077	Yaw:	-176.586	Thrust:	28.919
Time:	0.145	Roll Set Point:	0.002	Pitch Set Point:	-0.017	Yaw Set Point:	2.167	X_WP:	0.000	Y_WP:	0.000	Z_WP:	0.500	X:	0.015	Y:	0.010	Z:	0.049	yaw:	-124.184	yaw rate:	-3.811	Roll:	-0.159	Pitch:	0.085	Yaw:	-176.907	Thrust:	30.234
Time:	0.165	Roll Set Point:	0.002	Pitch Set Point:	-0.017	Yaw Set Point:	2.168	X_WP:	0.000	Y_WP:	0.000	Z_WP:	0.500	X:	0.015	Y:	0.010	Z:	0.049	yaw:	-124.200	yaw rate:	1.639	Roll:	-0.192	Pitch:	0.063	Yaw:	-177.641	Thrust:	31.295
Time:	0.186	Roll Set Point:	0.002	Pitch Set Point:	-0.017	Yaw Set Point:	2.168	X_WP:	0.000	Y_WP:	0.000	Z_WP:	0.500	X:	0.015	Y:	0.011	Z:	0.049	yaw:	-124.201	yaw rate:	0.056	Roll:	-0.185	Pitch:	0.052	Yaw:	-177.585	Thrust:	32.689
Time:	0.205	Roll Set Point:	0.002	Pitch Set Point:	-0.017	Yaw Set Point:	2.167	X_WP:	0.000	Y_WP:	0.000	Z_WP:	0.500	X:	0.015	Y:	0.010	Z:	0.049	yaw:	-124.179	yaw rate:	-2.171	Roll:	-0.153	Pitch:	0.097	Yaw:	-176.899	Thrust:	33.019
Time:	0.226	Roll Set Point:	0.002	Pitch Set Point:	-0.017	Yaw Set Point:	2.168	X_WP:	0.000	Y_WP:	0.000	Z_WP:	0.500	X:	0.015	Y:	0.010	Z:	0.049	yaw:	-124.222	yaw rate:	4.247	Roll:	-0.190	Pitch:	0.046	Yaw:	-178.010	Thrust:	34.623
Time:	0.246	Roll Set Point:	0.002	Pitch Set Point:	-0.017	Yaw Set Point:	2.168	X_WP:	0.000	Y_WP:	0.000	Z_WP:	0.500	X:	0.015	Y:	0.010	Z:	0.049	yaw:	-124.225	yaw rate:	0.380	Roll:	-0.193	Pitch:	0.077	Yaw:	-177.710	Thrust:	36.160
Time:	0.268	Roll Set Point:	0.002	Pitch Set Point:	-0.017	Yaw Set Point:	2.168	X_WP:	0.000	Y_WP:	0.000	Z_WP:	0.500	X:	0.015	Y:	0.010	Z:	0.049	yaw:	-124.226	yaw rate:	0.089	Roll:	-0.160	Pitch:	0.067	Yaw:	-177.789	Thrust:	37.658
Time:	0.285	Roll Set Point:	0.002	Pitch Set Point:	-0.017	Yaw Set Point:	2.168	X_WP:	0.000	Y_WP:	0.000	Z_WP:	0.500	X:	0.015	Y:	0.010	Z:	0.049	yaw:	-124.203	yaw rate:	-2.353	Roll:	-0.185	Pitch:	0.068	Yaw:	-176.470	Thrust:	35.923
Time:	0.306	Roll Set Point:	0.002	Pitch Set Point:	-0.017	Yaw Set Point:	2.168	X_WP:	0.000	Y_WP:	0.000	Z_WP:	0.500	X:	0.015	Y:	0.010	Z:	0.049	yaw:	-124.241	yaw rate:	3.783	Roll:	-0.202	Pitch:	0.082	Yaw:	-178.154	Thrust:	39.512
Time:	0.326	Roll Set Point:	0.002	Pitch Set Point:	-0.017	Yaw Set Point:	2.168	X_WP:	0.000	Y_WP:	0.000	Z_WP:	0.500	X:	0.015	Y:	0.010	Z:	0.049	yaw:	-124.242	yaw rate:	0.138	Roll:	-0.176	Pitch:	0.067	Yaw:	-177.503	Thrust:	40.084
Time:	0.345	Roll Set Point:	0.002	Pitch Set Point:	-0.017	Yaw Set Point:	2.167	X_WP:	0.000	Y_WP:	0.000	Z_WP:	0.500	X:	0.015	Y:	0.010	Z:	0.049	yaw:	-124.188	yaw rate:	-5.352	Roll:	-0.186	Pitch:	0.087	Yaw:	-176.475	Thrust:	40.279
Time:	0.367	Roll Set Point:	0.002	Pitch Set Point:	-0.017	Yaw Set Point:	2.168	X_WP:	0.000	Y_WP:	0.000	Z_WP:	0.500	X:	0.015	Y:	0.010	Z:	0.049	yaw:	-124.211	yaw rate:	2.225	Roll:	-0.181	Pitch:	0.067	Yaw:	-178.016	Thrust:	43.409
Time:	0.385	Roll Set Point:	0.002	Pitch Set Point:	-0.017	Yaw Set Point:	2.168	X_WP:	0.000	Y_WP:	0.000	Z_WP:	0.500	X:	0.015	Y:	0.010	Z:	0.049	yaw:	-124.231	yaw rate:	1.990	Roll:	-0.201	Pitch:	0.056	Yaw:	-177.450	Thrust:	41.857
Time:	0.404	Roll Set Point:	0.002	Pitch Set Point:	-0.017	Yaw Set Point:	2.168	X_WP:	0.000	Y_WP:	0.000	Z_WP:	0.500	X:	0.015	Y:	0.010	Z:	0.049	yaw:	-124.208	yaw rate:	-2.227	Roll:	-0.174	Pitch:	0.087	Yaw:	-176.933	Thrust:	43.454
Time:	0.425	Roll Set Point:	0.002	Pitch Set Point:	-0.017	Yaw Set Point:	2.168	X_WP:	0.000	Y_WP:	0.000	Z_WP:	0.500	X:	0.015	Y:	0.010	Z:	0.049	yaw:	-124.207	yaw rate:	-0.086	Roll:	-0.177	Pitch:	0.083	Yaw:	-177.625	Thrust:	46.388
Time:	0.444	Roll Set Point:	0.002	Pitch Set Point:	-0.017	Yaw Set Point:	2.168	X_WP:	0.000	Y_WP:	0.000	Z_WP:	0.500	X:	0.015	Y:	0.010	Z:	0.049	yaw:	-124.236	yaw rate:	2.900	Roll:	-0.216	Pitch:	0.056	Yaw:	-177.676	Thrust:	45.397
Time:	0.465	Roll Set Point:	0.002	Pitch Set Point:	-0.017	Yaw Set Point:	2.168	X_WP:	0.000	Y_WP:	0.000	Z_WP:	0.500	X:	0.015	Y:	0.010	Z:	0.049	yaw:	-124.212	yaw rate:	-2.399	Roll:	-0.188	Pitch:	0.074	Yaw:	-177.346	Thrust:	48.757
Time:	0.484	Roll Set Point:	0.002	Pitch Set Point:	-0.017	Yaw Set Point:	2.168	X_WP:	0.000	Y_WP:	0.000	Z_WP:	0.500	X:	0.015	Y:	0.010	Z:	0.049	yaw:	-124.189	yaw rate:	-2.315	Roll:	-0.171	Pitch:	0.112	Yaw:	-176.883	Thrust:	47.367
Time:	0.504	Roll Set Point:	0.002	Pitch Set Point:	-0.017	Yaw Set Point:	2.168	X_WP:	0.000	Y_WP:	0.000	Z_WP:	0.500	X:	0.015	Y:	0.010	Z:	0.049	yaw:	-124.234	yaw rate:	4.496	Roll:	-0.212	Pitch:	0.031	Yaw:	-178.061	Thrust:	49.800
Time:	0.525	Roll Set Point:	0.002	Pitch Set Point:	-0.017	Yaw Set Point:	2.168	X_WP:	0.000	Y_WP:	0.000	Z_WP:	0.500	X:	0.015	Y:	0.011	Z:	0.049	yaw:	-124.192	yaw rate:	-4.173	Roll:	-0.202	Pitch:	0.088	Yaw:	-177.098	Thrust:	52.141
Time:	0.545	Roll Set Point:	0.002	Pitch Set Point:	-0.017	Yaw Set Point:	2.168	X_WP:	0.000	Y_WP:	0.000	Z_WP:	0.500	X:	0.015	Y:	0.010	Z:	0.049	yaw:	-124.194	yaw rate:	0.139	Roll:	-0.167	Pitch:	0.088	Yaw:	-177.436	Thrust:	50.579
Time:	0.565	Roll Set Point:	0.002	Pitch Set Point:	-0.017	Yaw Set Point:	2.168	X_WP:	0.000	Y_WP:	0.000	Z_WP:	0.500	X:	0.015	Y:	0.010	Z:	0.049	yaw:	-124.213	yaw rate:	1.918	Roll:	-0.215	Pitch:	0.074	Yaw:	-177.695	Thrust:	54.390
Time:	0.584	Roll Set Point:	0.002	Pitch Set Point:	-0.017	Yaw Set Point:	2.168	X_WP:	0.000	Y_WP:	0.000	Z_WP:	0.500	X:	0.015	Y:	0.011	Z:	0.049	yaw:	-124.226	yaw rate:	1.256	Roll:	-0.206	Pitch:	0.058	Yaw:	-177.361	Thrust:	52.061
Time:	0.605	Roll Set Point:	0.002	Pitch Set Point:	-0.017	Yaw Set Point:	2.168	X_WP:	0.000	Y_WP:	0.000	Z_WP:	0.500	X:	0.015	Y:	0.010	Z:	0.049	yaw:	-124.209	yaw rate:	-1.684	Roll:	-0.166	Pitch:	0.098	Yaw:	-177.437	Thrust:	56.755
Time:	0.625	Roll Set Point:	0.002	Pitch Set Point:	-0.017	Yaw Set Point:	2.168	X_WP:	0.000	Y_WP:	0.000	Z_WP:	0.500	X:	0.015	Y:	0.010	Z:	0.049	yaw:	-124.194	yaw rate:	-1.497	Roll:	-0.216	Pitch:	0.072	Yaw:	-177.222	Thrust:	54.610
Time:	0.645	Roll Set Point:	0.002	Pitch Set Point:	-0.017	Yaw Set Point:	2.168	X_WP:	0.000	Y_WP:	0.000	Z_WP:	0.500	X:	0.015	Y:	0.011	Z:	0.049	yaw:	-124.215	yaw rate:	2.092	Roll:	-0.210	Pitch:	0.049	Yaw:	-177.721	Thrust:	59.119
Time:	0.665	Roll Set Point:	0.002	Pitch Set Point:	-0.017	Yaw Set Point:	2.168	X_WP:	0.000	Y_WP:	0.000	Z_WP:	0.500	X:	0.015	Y:	0.010	Z:	0.049	yaw:	-124.217	yaw rate:	0.242	Roll:	-0.174	Pitch:	0.120	Yaw:	-177.475	Thrust:	56.609
Time:	0.685	Roll Set Point:	0.002	Pitch Set Point:	-0.017	Yaw Set Point:	2.168	X_WP:	0.000	Y_WP:	0.000	Z_WP:	0.500	X:	0.015	Y:	0.010	Z:	0.049	yaw:	-124.213	yaw rate:	-0.367	Roll:	-0.210	Pitch:	0.045	Yaw:	-177.386	Thrust:	61.279
Time:	0.705	Roll Set Point:	0.002	Pitch Set Point:	-0.017	Yaw Set Point:	2.168	X_WP:	0.000	Y_WP:	0.000	Z_WP:	0.500	X:	0.015	Y:	0.010	Z:	0.049	yaw:	-124.232	yaw rate:	1.866	Roll:	-0.201	Pitch:	0.096	Yaw:	-177.750	Thrust:	60.829
Time:	0.725	Roll Set Point:	0.002	Pitch Set Point:	-0.017	Yaw Set Point:	2.168	X_WP:	0.000	Y_WP:	0.000	Z_WP:	0.500	X:	0.015	Y:	0.010	Z:	0.049	yaw:	-124.214	yaw rate:	-1.798	Roll:	-0.194	Pitch:	0.073	Yaw:	-177.022	Thrust:	60.051
Time:	0.745	Roll Set Point:	0.002	Pitch Set Point:	-0.017	Yaw Set Point:	2.168	X_WP:	0.000	Y_WP:	0.000	Z_WP:	0.500	X:	0.015	Y:	0.011	Z:	0.049	yaw:	-124.206	yaw rate:	-0.836	Roll:	-0.222	Pitch:	0.073	Yaw:	-177.352	Thrust:	63.117
Time:	0.765	Roll Set Point:	0.002	Pitch Set Point:	-0.017	Yaw Set Point:	2.168	X_WP:	0.000	Y_WP:	0.000	Z_WP:	0.500	X:	0.015	Y:	0.010	Z:	0.049	yaw:	-124.199	yaw rate:	-0.714	Roll:	-0.173	Pitch:	0.105	Yaw:	-177.337	Thrust:	63.744
Time:	0.785	Roll Set Point:	0.002	Pitch Set Point:	-0.017	Yaw Set Point:	2.168	X_WP:	0.000	Y_WP:	0.000	Z_WP:	0.500	X:	0.015	Y:	0.010	Z:	0.049	yaw:	-124.214	yaw rate:	1.578	Roll:	-0.220	Pitch:	0.060	Yaw:	-177.577	Thrust:	64.329
Time:	0.805	Roll Set Point:	0.002	Pitch Set Point:	-0.017	Yaw Set Point:	2.167	X_WP:	0.000	Y_WP:	0.000	Z_WP:	0.500	X:	0.015	Y:	0.010	Z:	0.049	yaw:	-124.178	yaw rate:	-3.686	Roll:	-0.199	Pitch:	0.090	Yaw:	-177.069	Thrust:	65.301
Time:	0.824	Roll Set Point:	0.002	Pitch Set Point:	-0.017	Yaw Set Point:	2.168	X_WP:	0.000	Y_WP:	0.000	Z_WP:	0.500	X:	0.015	Y:	0.010	Z:	0.049	yaw:	-124.197	yaw rate:	1.920	Roll:	-0.202	Pitch:	0.070	Yaw:	-177.494	Thrust:	67.229
Time:	0.852	Roll Set Point:	0.002	Pitch Set Point:	-0.017	Yaw Set Point:	2.168	X_WP:	0.000	Y_WP:	0.000	Z_WP:	0.500	X:	0.015	Y:	0.010	Z:	0.049	yaw:	-124.211	yaw rate:	1.437	Roll:	-0.224	Pitch:	0.085	Yaw:	-178.991	Thrust:	83.504
Time:	0.865	Roll Set Point:	0.002	Pitch Set Point:	-0.017	Yaw Set Point:	2.168	X_WP:	0.000	Y_WP:	0.000	Z_WP:	0.500	X:	0.015	Y:	0.010	Z:	0.049	yaw:	-124.234	yaw rate:	2.315	Roll:	-0.172	Pitch:	0.076	Yaw:	-176.594	Thrust:	54.355
Time:	0.885	Roll Set Point:	0.002	Pitch Set Point:	-0.017	Yaw Set Point:	2.168	X_WP:	0.000	Y_WP:	0.000	Z_WP:	0.500	X:	0.015	Y:	0.010	Z:	0.049	yaw:	-124.221	yaw rate:	-1.374	Roll:	-0.202	Pitch:	0.065	Yaw:	-177.391	Thrust:	71.639
Time:	0.904	Roll Set Point:	0.002	Pitch Set Point:	-0.017	Yaw Set Point:	2.168	X_WP:	0.000	Y_WP:	0.000	Z_WP:	0.500	X:	0.015	Y:	0.010	Z:	0.049	yaw:	-124.223	yaw rate:	0.290	Roll:	-0.221	Pitch:	0.102	Yaw:	-177.300	Thrust:	69.175
Time:	0.924	Roll Set Point:	0.002	Pitch Set Point:	-0.017	Yaw Set Point:	2.168	X_WP:	0.000	Y_WP:	0.000	Z_WP:	0.500	X:	0.015	Y:	0.010	Z:	0.049	yaw:	-124.224	yaw rate:	0.075	Roll:	-0.198	Pitch:	0.070	Yaw:	-177.444	Thrust:	72.245
Time:	0.945	Roll Set Point:	0.002	Pitch Set Point:	-0.017	Yaw Set Point:	2.168	X_WP:	0.000	Y_WP:	0.000	Z_WP:	0.500	X:	0.015	Y:	0.010	Z:	0.049	yaw:	-124.232	yaw rate:	0.781	Roll:	-0.223	Pitch:	0.092	Yaw:	-177.688	Thrust:	74.971
Time:	0.965	Roll Set Point:	0.002	Pitch Set Point:	-0.017	Yaw Set Point:	2.168	X_WP:	0.000	Y_WP:	0.000	Z_WP:	0.500	X:	0.015	Y:	0.010	Z:	0.049	yaw:	-124.217	yaw rate:	-1.518	Roll:	-0.218	Pitch:	0.071	Yaw:	-177.294	Thrust:	75.290
Time:	0.985	Roll Set Point:	0.002	Pitch Set Point:	-0.017	Yaw Set Point:	2.168	X_WP:	0.000	Y_WP:	0.000	Z_WP:	0.500	X:	0.015	Y:	0.010	Z:	0.049	yaw:	-124.198	yaw rate:	-1.928	Roll:	-0.218	Pitch:	0.089	Yaw:	-177.122	Thrust:	75.228
Time:	1.004	Roll Set Point:	0.002	Pitch Set Point:	-0.017	Yaw Set Point:	2.168	X_WP:	0.000	Y_WP:	0.000	Z_WP:	0.500	X:	0.015	Y:	0.010	Z:	0.049	yaw:	-124.196	yaw rate:	-0.103	Roll:	-0.198	Pitch:	0.108	Yaw:	-177.243	Thrust:	74.689
Time:	1.024	Roll Set Point:	0.002	Pitch Set Point:	-0.017	Yaw Set Point:	2.168	X_WP:	0.000	Y_WP:	0.000	Z_WP:	0.500	X:	0.015	Y:	0.010	Z:	0.049	yaw:	-124.226	yaw rate:	2.983	Roll:	-0.233	Pitch:	0.061	Yaw:	-177.853	Thrust:	77.961
Time:	1.045	Roll Set Point:	0.002	Pitch Set Point:	-0.017	Yaw Set Point:	2.168	X_WP:	0.000	Y_WP:	0.000	Z_WP:	0.500	X:	0.015	Y:	0.010	Z:	0.049	yaw:	-124.223	yaw rate:	-0.372	Roll:	-0.205	Pitch:	0.074	Yaw:	-177.513	Thrust:	80.520
Time:	1.064	Roll Set Point:	0.002	Pitch Set Point:	-0.017	Yaw Set Point:	2.168	X_WP:	0.000	Y_WP:	0.000	Z_WP:	0.500	X:	0.015	Y:	0.010	Z:	0.049	yaw:	-124.207	yaw rate:	-1.551	Roll:	-0.217	Pitch:	0.109	Yaw:	-177.105	Thrust:	78.435
Time:	1.085	Roll Set Point:	0.002	Pitch Set Point:	-0.017	Yaw Set Point:	2.168	X_WP:	0.000	Y_WP:	0.000	Z_WP:	0.500	X:	0.015	Y:	0.010	Z:	0.049	yaw:	-124.228	yaw rate:	2.135	Roll:	-0.236	Pitch:	0.077	Yaw:	-177.847	Thrust:	81.275
Time:	1.105	Roll Set Point:	0.002	Pitch Set Point:	-0.017	Yaw Set Point:	2.168	X_WP:	0.000	Y_WP:	0.000	Z_WP:	0.500	X:	0.015	Y:	0.011	Z:	0.049	yaw:	-124.218	yaw rate:	-1.003	Roll:	-0.218	Pitch:	0.067	Yaw:	-177.338	Thrust:	81.135
Time:	1.125	Roll Set Point:	0.002	Pitch Set Point:	-0.017	Yaw Set Point:	2.168	X_WP:	0.000	Y_WP:	0.000	Z_WP:	0.500	X:	0.015	Y:	0.010	Z:	0.049	yaw:	-124.206	yaw rate:	-1.218	Roll:	-0.205	Pitch:	0.114	Yaw:	-177.204	Thrust:	85.321
Time:	1.145	Roll Set Point:	0.002	Pitch Set Point:	-0.017	Yaw Set Point:	2.168	X_WP:	0.000	Y_WP:	0.000	Z_WP:	0.500	X:	0.015	Y:	0.010	Z:	0.049	yaw:	-124.216	yaw rate:	0.974	Roll:	-0.219	Pitch:	0.095	Yaw:	-177.581	Thrust:	84.513
Time:	1.165	Roll Set Point:	0.002	Pitch Set Point:	-0.017	Yaw Set Point:	2.168	X_WP:	0.000	Y_WP:	0.000	Z_WP:	0.500	X:	0.015	Y:	0.010	Z:	0.049	yaw:	-124.222	yaw rate:	0.639	Roll:	-0.227	Pitch:	0.046	Yaw:	-177.574	Thrust:	86.039
Time:	1.185	Roll Set Point:	0.002	Pitch Set Point:	-0.017	Yaw Set Point:	2.168	X_WP:	0.000	Y_WP:	0.000	Z_WP:	0.500	X:	0.015	Y:	0.010	Z:	0.049	yaw:	-124.198	yaw rate:	-2.466	Roll:	-0.224	Pitch:	0.104	Yaw:	-177.094	Thrust:	86.566
Time:	1.204	Roll Set Point:	0.002	Pitch Set Point:	-0.017	Yaw Set Point:	2.168	X_WP:	0.000	Y_WP:	0.000	Z_WP:	0.500	X:	0.015	Y:	0.010	Z:	0.049	yaw:	-124.189	yaw rate:	-0.885	Roll:	-0.215	Pitch:	0.102	Yaw:	-177.126	Thrust:	85.184
Time:	1.225	Roll Set Point:	0.002	Pitch Set Point:	-0.017	Yaw Set Point:	2.168	X_WP:	0.000	Y_WP:	0.000	Z_WP:	0.500	X:	0.015	Y:	0.010	Z:	0.049	yaw:	-124.211	yaw rate:	2.238	Roll:	-0.231	Pitch:	0.075	Yaw:	-177.880	Thrust:	91.310
Time:	1.245	Roll Set Point:	0.002	Pitch Set Point:	-0.017	Yaw Set Point:	2.168	X_WP:	0.000	Y_WP:	0.000	Z_WP:	0.500	X:	0.015	Y:	0.010	Z:	0.049	yaw:	-124.219	yaw rate:	0.810	Roll:	-0.217	Pitch:	0.085	Yaw:	-177.578	Thrust:	88.403
Time:	1.265	Roll Set Point:	0.002	Pitch Set Point:	-0.017	Yaw Set Point:	2.168	X_WP:	0.000	Y_WP:	0.000	Z_WP:	0.500	X:	0.015	Y:	0.010	Z:	0.049	yaw:	-124.223	yaw rate:	0.388	Roll:	-0.231	Pitch:	0.082	Yaw:	-177.471	Thrust:	92.175
Time:	1.284	Roll Set Point:	0.002	Pitch Set Point:	-0.017	Yaw Set Point:	2.168	X_WP:	0.000	Y_WP:	0.000	Z_WP:	0.500	X:	0.015	Y:	0.010	Z:	0.049	yaw:	-124.230	yaw rate:	0.695	Roll:	-0.206	Pitch:	0.081	Yaw:	-177.393	Thrust:	89.234
Time:	1.305	Roll Set Point:	0.002	Pitch Set Point:	-0.017	Yaw Set Point:	2.168	X_WP:	0.000	Y_WP:	0.000	Z_WP:	0.500	X:	0.015	Y:	0.010	Z:	0.049	yaw:	-124.229	yaw rate:	-0.098	Roll:	-0.241	Pitch:	0.093	Yaw:	-177.454	Thrust:	93.067
Time:	1.326	Roll Set Point:	0.002	Pitch Set Point:	-0.017	Yaw Set Point:	2.168	X_WP:	0.000	Y_WP:	0.000	Z_WP:	0.500	X:	0.015	Y:	0.010	Z:	0.049	yaw:	-124.212	yaw rate:	-1.673	Roll:	-0.239	Pitch:	0.093	Yaw:	-177.445	Thrust:	97.913
Time:	1.349	Roll Set Point:	0.002	Pitch Set Point:	-0.017	Yaw Set Point:	2.168	X_WP:	0.000	Y_WP:	0.000	Z_WP:	0.500	X:	0.015	Y:	0.010	Z:	0.049	yaw:	-124.191	yaw rate:	-2.102	Roll:	-0.217	Pitch:	0.111	Yaw:	-177.558	Thrust:	100.000
Time:	1.366	Roll Set Point:	0.002	Pitch Set Point:	-0.017	Yaw Set Point:	2.167	X_WP:	0.000	Y_WP:	0.000	Z_WP:	0.500	X:	0.015	Y:	0.010	Z:	0.049	yaw:	-124.178	yaw rate:	-1.364	Roll:	-0.232	Pitch:	0.069	Yaw:	-176.797	Thrust:	89.188
Time:	1.386	Roll Set Point:	0.002	Pitch Set Point:	-0.017	Yaw Set Point:	2.168	X_WP:	0.000	Y_WP:	0.000	Z_WP:	0.500	X:	0.015	Y:	0.010	Z:	0.049	yaw:	-124.217	yaw rate:	3.905	Roll:	-0.241	Pitch:	0.078	Yaw:	-177.937	Thrust:	96.991
Time:	1.406	Roll Set Point:	0.002	Pitch Set Point:	-0.017	Yaw Set Point:	2.168	X_WP:	0.000	Y_WP:	0.000	Z_WP:	0.500	X:	0.015	Y:	0.010	Z:	0.049	yaw:	-124.206	yaw rate:	-1.104	Roll:	-0.221	Pitch:	0.114	Yaw:	-177.291	Thrust:	98.674
Time:	1.426	Roll Set Point:	0.002	Pitch Set Point:	-0.017	Yaw Set Point:	2.168	X_WP:	0.000	Y_WP:	0.000	Z_WP:	0.500	X:	0.015	Y:	0.010	Z:	0.049	yaw:	-124.207	yaw rate:	0.096	Roll:	-0.230	Pitch:	0.100	Yaw:	-177.448	Thrust:	99.648
Time:	1.446	Roll Set Point:	0.002	Pitch Set Point:	-0.017	Yaw Set Point:	2.168	X_WP:	0.000	Y_WP:	0.000	Z_WP:	0.500	X:	0.015	Y:	0.010	Z:	0.049	yaw:	-124.205	yaw rate:	-0.222	Roll:	-0.249	Pitch:	0.078	Yaw:	-177.407	Thrust:	100.000
Time:	1.466	Roll Set Point:	0.002	Pitch Set Point:	-0.017	Yaw Set Point:	2.168	X_WP:	0.000	Y_WP:	0.000	Z_WP:	0.500	X:	0.015	Y:	0.011	Z:	0.049	yaw:	-124.220	yaw rate:	1.530	Roll:	-0.234	Pitch:	0.057	Yaw:	-177.652	Thrust:	100.000
Time:	1.485	Roll Set Point:	0.002	Pitch Set Point:	-0.017	Yaw Set Point:	2.168	X_WP:	0.000	Y_WP:	0.000	Z_WP:	0.500	X:	0.015	Y:	0.010	Z:	0.049	yaw:	-124.204	yaw rate:	-1.559	Roll:	-0.222	Pitch:	0.126	Yaw:	-177.152	Thrust:	100.000
Time:	1.506	Roll Set Point:	0.002	Pitch Set Point:	-0.017	Yaw Set Point:	2.167	X_WP:	0.000	Y_WP:	0.000	Z_WP:	0.500	X:	0.015	Y:	0.010	Z:	0.049	yaw:	-124.179	yaw rate:	-2.572	Roll:	-0.227	Pitch:	0.106	Yaw:	-177.064	Thrust:	100.000
Time:	1.526	Roll Set Point:	0.002	Pitch Set Point:	-0.017	Yaw Set Point:	2.169	X_WP:	0.000	Y_WP:	0.000	Z_WP:	0.500	X:	0.015	Y:	0.011	Z:	0.049	yaw:	-124.251	yaw rate:	7.221	Roll:	-0.287	Pitch:	0.045	Yaw:	-178.437	Thrust:	100.000
Time:	1.546	Roll Set Point:	0.002	Pitch Set Point:	-0.017	Yaw Set Point:	2.167	X_WP:	0.000	Y_WP:	0.000	Z_WP:	0.500	X:	0.015	Y:	0.010	Z:	0.049	yaw:	-124.181	yaw rate:	-6.951	Roll:	-0.188	Pitch:	0.107	Yaw:	-176.493	Thrust:	100.000
Time:	1.568	Roll Set Point:	0.002	Pitch Set Point:	-0.017	Yaw Set Point:	2.168	X_WP:	0.000	Y_WP:	0.000	Z_WP:	0.500	X:	0.015	Y:	0.010	Z:	0.049	yaw:	-124.207	yaw rate:	2.626	Roll:	-0.233	Pitch:	0.110	Yaw:	-178.162	Thrust:	100.000
Time:	1.587	Roll Set Point:	0.002	Pitch Set Point:	-0.017	Yaw Set Point:	2.168	X_WP:	0.000	Y_WP:	0.000	Z_WP:	0.500	X:	0.015	Y:	0.010	Z:	0.049	yaw:	-124.229	yaw rate:	2.153	Roll:	-0.254	Pitch:	0.080	Yaw:	-177.668	Thrust:	100.000
Time:	1.605	Roll Set Point:	0.002	Pitch Set Point:	-0.017	Yaw Set Point:	2.168	X_WP:	0.000	Y_WP:	0.000	Z_WP:	0.500	X:	0.015	Y:	0.010	Z:	0.049	yaw:	-124.215	yaw rate:	-1.448	Roll:	-0.229	Pitch:	0.094	Yaw:	-176.836	Thrust:	100.000
Time:	1.627	Roll Set Point:	0.002	Pitch Set Point:	-0.017	Yaw Set Point:	2.168	X_WP:	0.000	Y_WP:	0.000	Z_WP:	0.500	X:	0.015	Y:	0.010	Z:	0.049	yaw:	-124.209	yaw rate:	-0.515	Roll:	-0.249	Pitch:	0.091	Yaw:	-177.779	Thrust:	100.000
Time:	1.646	Roll Set Point:	0.002	Pitch Set Point:	-0.017	Yaw Set Point:	2.168	X_WP:	0.000	Y_WP:	0.000	Z_WP:	0.500	X:	0.015	Y:	0.010	Z:	0.049	yaw:	-124.211	yaw rate:	0.140	Roll:	-0.240	Pitch:	0.076	Yaw:	-177.061	Thrust:	100.000
Time:	1.666	Roll Set Point:	0.002	Pitch Set Point:	-0.017	Yaw Set Point:	2.168	X_WP:	0.000	Y_WP:	0.000	Z_WP:	0.500	X:	0.015	Y:	0.011	Z:	0.049	yaw:	-124.235	yaw rate:	2.392	Roll:	-0.266	Pitch:	0.104	Yaw:	-177.788	Thrust:	100.000
Time:	1.685	Roll Set Point:	0.002	Pitch Set Point:	-0.017	Yaw Set Point:	2.168	X_WP:	0.000	Y_WP:	0.000	Z_WP:	0.500	X:	0.015	Y:	0.010	Z:	0.049	yaw:	-124.203	yaw rate:	-3.177	Roll:	-0.200	Pitch:	0.107	Yaw:	-176.932	Thrust:	100.000
Time:	1.705	Roll Set Point:	0.002	Pitch Set Point:	-0.017	Yaw Set Point:	2.168	X_WP:	0.000	Y_WP:	0.000	Z_WP:	0.500	X:	0.015	Y:	0.010	Z:	0.049	yaw:	-124.211	yaw rate:	0.794	Roll:	-0.258	Pitch:	0.097	Yaw:	-177.356	Thrust:	100.000
Time:	1.725	Roll Set Point:	0.002	Pitch Set Point:	-0.017	Yaw Set Point:	2.168	X_WP:	0.000	Y_WP:	0.000	Z_WP:	0.500	X:	0.015	Y:	0.010	Z:	0.049	yaw:	-124.215	yaw rate:	0.421	Roll:	-0.250	Pitch:	0.092	Yaw:	-177.695	Thrust:	100.000
Time:	1.745	Roll Set Point:	0.002	Pitch Set Point:	-0.017	Yaw Set Point:	2.168	X_WP:	0.000	Y_WP:	0.000	Z_WP:	0.500	X:	0.015	Y:	0.010	Z:	0.049	yaw:	-124.210	yaw rate:	-0.461	Roll:	-0.249	Pitch:	0.072	Yaw:	-177.381	Thrust:	100.000
Time:	1.766	Roll Set Point:	0.002	Pitch Set Point:	-0.017	Yaw Set Point:	2.167	X_WP:	0.000	Y_WP:	0.000	Z_WP:	0.500	X:	0.015	Y:	0.010	Z:	0.049	yaw:	-124.184	yaw rate:	-2.615	Roll:	-0.241	Pitch:	0.135	Yaw:	-177.279	Thrust:	100.000
Time:	1.785	Roll Set Point:	0.002	Pitch Set Point:	-0.017	Yaw Set Point:	2.168	X_WP:	0.000	Y_WP:	0.000	Z_WP:	0.500	X:	0.015	Y:	0.010	Z:	0.049	yaw:	-124.193	yaw rate:	0.871	Roll:	-0.243	Pitch:	0.094	Yaw:	-177.311	Thrust:	100.000
Time:	1.805	Roll Set Point:	0.002	Pitch Set Point:	-0.017	Yaw Set Point:	2.168	X_WP:	0.000	Y_WP:	0.000	Z_WP:	0.500	X:	0.015	Y:	0.010	Z:	0.049	yaw:	-124.230	yaw rate:	3.704	Roll:	-0.252	Pitch:	0.071	Yaw:	-177.953	Thrust:	100.000
Time:	1.828	Roll Set Point:	0.002	Pitch Set Point:	-0.017	Yaw Set Point:	2.168	X_WP:	0.000	Y_WP:	0.000	Z_WP:	0.500	X:	0.015	Y:	0.010	Z:	0.049	yaw:	-124.231	yaw rate:	0.047	Roll:	-0.241	Pitch:	0.100	Yaw:	-177.876	Thrust:	100.000
Time:	1.848	Roll Set Point:	0.002	Pitch Set Point:	-0.017	Yaw Set Point:	2.168	X_WP:	0.000	Y_WP:	0.000	Z_WP:	0.500	X:	0.015	Y:	0.010	Z:	0.049	yaw:	-124.197	yaw rate:	-3.369	Roll:	-0.263	Pitch:	0.114	Yaw:	-176.981	Thrust:	100.000
Time:	1.868	Roll Set Point:	0.002	Pitch Set Point:	-0.017	Yaw Set Point:	2.167	X_WP:	0.000	Y_WP:	0.000	Z_WP:	0.500	X:	0.015	Y:	0.010	Z:	0.049	yaw:	-124.186	yaw rate:	-1.125	Roll:	-0.257	Pitch:	0.094	Yaw:	-177.262	Thrust:	100.000
Time:	1.889	Roll Set Point:	0.002	Pitch Set Point:	-0.017	Yaw Set Point:	2.168	X_WP:	0.000	Y_WP:	0.000	Z_WP:	0.500	X:	0.015	Y:	0.010	Z:	0.049	yaw:	-124.238	yaw rate:	5.213	Roll:	-0.247	Pitch:	0.087	Yaw:	-178.146	Thrust:	100.000
Time:	1.908	Roll Set Point:	0.002	Pitch Set Point:	-0.017	Yaw Set Point:	2.168	X_WP:	0.000	Y_WP:	0.000	Z_WP:	0.500	X:	0.015	Y:	0.010	Z:	0.049	yaw:	-124.199	yaw rate:	-3.857	Roll:	-0.242	Pitch:	0.113	Yaw:	-176.921	Thrust:	100.000
Time:	1.928	Roll Set Point:	0.002	Pitch Set Point:	-0.017	Yaw Set Point:	2.168	X_WP:	0.000	Y_WP:	0.000	Z_WP:	0.500	X:	0.015	Y:	0.010	Z:	0.049	yaw:	-124.200	yaw rate:	0.115	Roll:	-0.266	Pitch:	0.098	Yaw:	-177.442	Thrust:	100.000
Time:	1.948	Roll Set Point:	0.002	Pitch Set Point:	-0.017	Yaw Set Point:	2.168	X_WP:	0.000	Y_WP:	0.000	Z_WP:	0.500	X:	0.015	Y:	0.010	Z:	0.049	yaw:	-124.215	yaw rate:	1.423	Roll:	-0.261	Pitch:	0.088	Yaw:	-177.633	Thrust:	100.000
Time:	1.967	Roll Set Point:	0.002	Pitch Set Point:	-0.017	Yaw Set Point:	2.168	X_WP:	0.000	Y_WP:	0.000	Z_WP:	0.500	X:	0.015	Y:	0.010	Z:	0.049	yaw:	-124.203	yaw rate:	-1.163	Roll:	-0.237	Pitch:	0.105	Yaw:	-177.168	Thrust:	100.000
Time:	1.987	Roll Set Point:	0.002	Pitch Set Point:	-0.017	Yaw Set Point:	2.167	X_WP:	0.000	Y_WP:	0.000	Z_WP:	0.500	X:	0.015	Y:	0.010	Z:	0.049	yaw:	-124.182	yaw rate:	-2.119	Roll:	-0.246	Pitch:	0.131	Yaw:	-176.999	Thrust:	100.000
Time:	2.007	Roll Set Point:	0.002	Pitch Set Point:	-0.017	Yaw Set Point:	2.168	X_WP:	0.000	Y_WP:	0.000	Z_WP:	0.500	X:	0.015	Y:	0.010	Z:	0.049	yaw:	-124.219	yaw rate:	3.716	Roll:	-0.280	Pitch:	0.069	Yaw:	-177.937	Thrust:	100.000
Time:	2.026	Roll Set Point:	0.002	Pitch Set Point:	-0.017	Yaw Set Point:	2.168	X_WP:	0.000	Y_WP:	0.000	Z_WP:	0.500	X:	0.015	Y:	0.010	Z:	0.049	yaw:	-124.230	yaw rate:	1.140	Roll:	-0.258	Pitch:	0.094	Yaw:	-177.425	Thrust:	100.000
Time:	2.046	Roll Set Point:	0.002	Pitch Set Point:	-0.017	Yaw Set Point:	2.168	X_WP:	0.000	Y_WP:	0.000	Z_WP:	0.500	X:	0.015	Y:	0.010	Z:	0.049	yaw:	-124.213	yaw rate:	-1.686	Roll:	-0.230	Pitch:	0.118	Yaw:	-177.225	Thrust:	100.000
Time:	2.067	Roll Set Point:	0.002	Pitch Set Point:	-0.017	Yaw Set Point:	2.168	X_WP:	0.000	Y_WP:	0.000	Z_WP:	0.500	X:	0.015	Y:	0.010	Z:	0.049	yaw:	-124.204	yaw rate:	-0.932	Roll:	-0.280	Pitch:	0.100	Yaw:	-177.311	Thrust:	100.000
Time:	2.088	Roll Set Point:	0.002	Pitch Set Point:	-0.017	Yaw Set Point:	2.168	X_WP:	0.000	Y_WP:	0.000	Z_WP:	0.500	X:	0.015	Y:	0.010	Z:	0.049	yaw:	-124.225	yaw rate:	2.093	Roll:	-0.266	Pitch:	0.095	Yaw:	-178.028	Thrust:	100.000
Time:	2.106	Roll Set Point:	0.002	Pitch Set Point:	-0.017	Yaw Set Point:	2.168	X_WP:	0.000	Y_WP:	0.000	Z_WP:	0.500	X:	0.015	Y:	0.010	Z:	0.049	yaw:	-124.217	yaw rate:	-0.769	Roll:	-0.251	Pitch:	0.093	Yaw:	-176.939	Thrust:	100.000
Time:	2.127	Roll Set Point:	0.002	Pitch Set Point:	-0.017	Yaw Set Point:	2.167	X_WP:	0.000	Y_WP:	0.000	Z_WP:	0.500	X:	0.015	Y:	0.011	Z:	0.049	yaw:	-124.174	yaw rate:	-4.379	Roll:	-0.279	Pitch:	0.114	Yaw:	-176.816	Thrust:	100.000
Time:	2.147	Roll Set Point:	0.002	Pitch Set Point:	-0.017	Yaw Set Point:	2.168	X_WP:	0.000	Y_WP:	0.000	Z_WP:	0.500	X:	0.015	Y:	0.010	Z:	0.049	yaw:	-124.209	yaw rate:	3.578	Roll:	-0.242	Pitch:	0.109	Yaw:	-177.907	Thrust:	100.000
Time:	2.166	Roll Set Point:	0.002	Pitch Set Point:	-0.017	Yaw Set Point:	2.168	X_WP:	0.000	Y_WP:	0.000	Z_WP:	0.500	X:	0.015	Y:	0.010	Z:	0.049	yaw:	-124.195	yaw rate:	-1.388	Roll:	-0.271	Pitch:	0.097	Yaw:	-177.239	Thrust:	100.000
Time:	2.186	Roll Set Point:	0.002	Pitch Set Point:	-0.017	Yaw Set Point:	2.168	X_WP:	0.000	Y_WP:	0.000	Z_WP:	0.500	X:	0.015	Y:	0.010	Z:	0.049	yaw:	-124.194	yaw rate:	-0.180	Roll:	-0.262	Pitch:	0.085	Yaw:	-177.290	Thrust:	100.000
Time:	2.206	Roll Set Point:	0.002	Pitch Set Point:	-0.017	Yaw Set Point:	2.168	X_WP:	0.000	Y_WP:	0.000	Z_WP:	0.500	X:	0.015	Y:	0.010	Z:	0.049	yaw:	-124.228	yaw rate:	3.428	Roll:	-0.262	Pitch:	0.109	Yaw:	-178.097	Thrust:	100.000
Time:	2.225	Roll Set Point:	0.002	Pitch Set Point:	-0.017	Yaw Set Point:	2.168	X_WP:	0.000	Y_WP:	0.000	Z_WP:	0.500	X:	0.015	Y:	0.010	Z:	0.049	yaw:	-124.209	yaw rate:	-1.872	Roll:	-0.266	Pitch:	0.108	Yaw:	-176.982	Thrust:	100.000
Time:	2.245	Roll Set Point:	0.002	Pitch Set Point:	-0.017	Yaw Set Point:	2.168	X_WP:	0.000	Y_WP:	0.000	Z_WP:	0.500	X:	0.015	Y:	0.010	Z:	0.049	yaw:	-124.207	yaw rate:	-0.234	Roll:	-0.275	Pitch:	0.102	Yaw:	-177.405	Thrust:	100.000
Time:	2.266	Roll Set Point:	0.002	Pitch Set Point:	-0.017	Yaw Set Point:	2.168	X_WP:	0.000	Y_WP:	0.000	Z_WP:	0.500	X:	0.015	Y:	0.010	Z:	0.049	yaw:	-124.209	yaw rate:	0.209	Roll:	-0.256	Pitch:	0.111	Yaw:	-177.462	Thrust:	100.000
Time:	2.285	Roll Set Point:	0.002	Pitch Set Point:	-0.017	Yaw Set Point:	2.168	X_WP:	0.000	Y_WP:	0.000	Z_WP:	0.500	X:	0.015	Y:	0.010	Z:	0.049	yaw:	-124.221	yaw rate:	1.165	Roll:	-0.265	Pitch:	0.100	Yaw:	-177.579	Thrust:	100.000
Time:	2.308	Roll Set Point:	0.002	Pitch Set Point:	-0.017	Yaw Set Point:	2.168	X_WP:	0.000	Y_WP:	0.000	Z_WP:	0.500	X:	0.015	Y:	0.010	Z:	0.049	yaw:	-124.223	yaw rate:	0.209	Roll:	-0.287	Pitch:	0.086	Yaw:	-177.686	Thrust:	100.000
Time:	2.328	Roll Set Point:	0.002	Pitch Set Point:	-0.017	Yaw Set Point:	2.168	X_WP:	0.000	Y_WP:	0.000	Z_WP:	0.500	X:	0.015	Y:	0.010	Z:	0.049	yaw:	-124.233	yaw rate:	0.995	Roll:	-0.268	Pitch:	0.138	Yaw:	-177.788	Thrust:	100.000
Time:	2.348	Roll Set Point:	0.002	Pitch Set Point:	-0.017	Yaw Set Point:	2.168	X_WP:	0.000	Y_WP:	0.000	Z_WP:	0.500	X:	0.015	Y:	0.010	Z:	0.049	yaw:	-124.198	yaw rate:	-3.507	Roll:	-0.281	Pitch:	0.100	Yaw:	-176.741	Thrust:	100.000
Time:	2.368	Roll Set Point:	0.002	Pitch Set Point:	-0.017	Yaw Set Point:	2.168	X_WP:	0.000	Y_WP:	0.000	Z_WP:	0.500	X:	0.015	Y:	0.010	Z:	0.049	yaw:	-124.210	yaw rate:	1.204	Roll:	-0.278	Pitch:	0.108	Yaw:	-177.888	Thrust:	100.000
Time:	2.388	Roll Set Point:	0.002	Pitch Set Point:	-0.017	Yaw Set Point:	2.168	X_WP:	0.000	Y_WP:	0.000	Z_WP:	0.500	X:	0.015	Y:	0.010	Z:	0.049	yaw:	-124.221	yaw rate:	1.145	Roll:	-0.254	Pitch:	0.080	Yaw:	-177.525	Thrust:	100.000
Time:	2.408	Roll Set Point:	0.002	Pitch Set Point:	-0.017	Yaw Set Point:	2.168	X_WP:	0.000	Y_WP:	0.000	Z_WP:	0.500	X:	0.015	Y:	0.010	Z:	0.049	yaw:	-124.210	yaw rate:	-1.134	Roll:	-0.276	Pitch:	0.133	Yaw:	-177.284	Thrust:	100.000
Time:	2.426	Roll Set Point:	0.002	Pitch Set Point:	-0.017	Yaw Set Point:	2.168	X_WP:	0.000	Y_WP:	0.000	Z_WP:	0.500	X:	0.015	Y:	0.010	Z:	0.049	yaw:	-124.234	yaw rate:	2.392	Roll:	-0.291	Pitch:	0.101	Yaw:	-177.427	Thrust:	100.000
Time:	2.446	Roll Set Point:	0.002	Pitch Set Point:	-0.017	Yaw Set Point:	2.168	X_WP:	0.000	Y_WP:	0.000	Z_WP:	0.500	X:	0.015	Y:	0.010	Z:	0.049	yaw:	-124.207	yaw rate:	-2.635	Roll:	-0.267	Pitch:	0.110	Yaw:	-177.084	Thrust:	100.000
Time:	2.466	Roll Set Point:	0.002	Pitch Set Point:	-0.017	Yaw Set Point:	2.168	X_WP:	0.000	Y_WP:	0.000	Z_WP:	0.500	X:	0.015	Y:	0.010	Z:	0.049	yaw:	-124.218	yaw rate:	1.068	Roll:	-0.279	Pitch:	0.096	Yaw:	-177.599	Thrust:	100.000
Time:	2.488	Roll Set Point:	0.002	Pitch Set Point:	-0.017	Yaw Set Point:	2.167	X_WP:	0.000	Y_WP:	0.000	Z_WP:	0.500	X:	0.015	Y:	0.010	Z:	0.049	yaw:	-124.162	yaw rate:	-5.574	Roll:	-0.277	Pitch:	0.126	Yaw:	-176.784	Thrust:	100.000
Time:	2.508	Roll Set Point:	0.002	Pitch Set Point:	-0.017	Yaw Set Point:	2.168	X_WP:	0.000	Y_WP:	0.000	Z_WP:	0.500	X:	0.015	Y:	0.010	Z:	0.049	yaw:	-124.207	yaw rate:	4.499	Roll:	-0.282	Pitch:	0.108	Yaw:	-178.024	Thrust:	100.000
Time:	2.528	Roll Set Point:	0.002	Pitch Set Point:	-0.017	Yaw Set Point:	2.167	X_WP:	0.000	Y_WP:	0.000	Z_WP:	0.500	X:	0.015	Y:	0.010	Z:	0.049	yaw:	-124.177	yaw rate:	-3.059	Roll:	-0.283	Pitch:	0.107	Yaw:	-177.222	Thrust:	100.000
Time:	2.546	Roll Set Point:	0.002	Pitch Set Point:	-0.017	Yaw Set Point:	2.168	X_WP:	0.000	Y_WP:	0.000	Z_WP:	0.500	X:	0.015	Y:	0.011	Z:	0.049	yaw:	-124.194	yaw rate:	1.718	Roll:	-0.280	Pitch:	0.100	Yaw:	-177.260	Thrust:	100.000
Time:	2.567	Roll Set Point:	0.002	Pitch Set Point:	-0.017	Yaw Set Point:	2.168	X_WP:	0.000	Y_WP:	0.000	Z_WP:	0.500	X:	0.015	Y:	0.010	Z:	0.049	yaw:	-124.204	yaw rate:	1.006	Roll:	-0.285	Pitch:	0.110	Yaw:	-177.756	Thrust:	100.000
Time:	2.589	Roll Set Point:	0.002	Pitch Set Point:	-0.017	Yaw Set Point:	2.168	X_WP:	0.000	Y_WP:	0.000	Z_WP:	0.500	X:	0.015	Y:	0.011	Z:	0.049	yaw:	-124.189	yaw rate:	-1.511	Roll:	-0.300	Pitch:	0.117	Yaw:	-177.601	Thrust:	100.000
Time:	2.606	Roll Set Point:	0.002	Pitch Set Point:	-0.017	Yaw Set Point:	2.168	X_WP:	0.000	Y_WP:	0.000	Z_WP:	0.500	X:	0.015	Y:	0.010	Z:	0.049	yaw:	-124.203	yaw rate:	1.404	Roll:	-0.248	Pitch:	0.106	Yaw:	-177.044	Thrust:	100.000
Time:	2.626	Roll Set Point:	0.002	Pitch Set Point:	-0.017	Yaw Set Point:	2.168	X_WP:	0.000	Y_WP:	0.000	Z_WP:	0.500	X:	0.015	Y:	0.010	Z:	0.049	yaw:	-124.211	yaw rate:	0.818	Roll:	-0.279	Pitch:	0.125	Yaw:	-177.550	Thrust:	100.000
Time:	2.646	Roll Set Point:	0.002	Pitch Set Point:	-0.017	Yaw Set Point:	2.168	X_WP:	0.000	Y_WP:	0.000	Z_WP:	0.500	X:	0.015	Y:	0.011	Z:	0.049	yaw:	-124.198	yaw rate:	-1.260	Roll:	-0.307	Pitch:	0.086	Yaw:	-177.260	Thrust:	100.000
Time:	2.668	Roll Set Point:	0.002	Pitch Set Point:	-0.017	Yaw Set Point:	2.168	X_WP:	0.000	Y_WP:	0.000	Z_WP:	0.500	X:	0.015	Y:	0.011	Z:	0.049	yaw:	-124.202	yaw rate:	0.404	Roll:	-0.303	Pitch:	0.116	Yaw:	-177.681	Thrust:	100.000
Time:	2.686	Roll Set Point:	0.002	Pitch Set Point:	-0.017	Yaw Set Point:	2.168	X_WP:	0.000	Y_WP:	0.000	Z_WP:	0.500	X:	0.015	Y:	0.010	Z:	0.049	yaw:	-124.218	yaw rate:	1.587	Roll:	-0.244	Pitch:	0.141	Yaw:	-177.484	Thrust:	100.000
Time:	2.706	Roll Set Point:	0.002	Pitch Set Point:	-0.017	Yaw Set Point:	2.168	X_WP:	0.000	Y_WP:	0.000	Z_WP:	0.500	X:	0.015	Y:	0.011	Z:	0.049	yaw:	-124.194	yaw rate:	-2.407	Roll:	-0.312	Pitch:	0.089	Yaw:	-177.103	Thrust:	100.000
Time:	2.726	Roll Set Point:	0.002	Pitch Set Point:	-0.017	Yaw Set Point:	2.169	X_WP:	0.000	Y_WP:	0.000	Z_WP:	0.500	X:	0.015	Y:	0.010	Z:	0.049	yaw:	-124.249	yaw rate:	5.458	Roll:	-0.283	Pitch:	0.097	Yaw:	-178.208	Thrust:	100.000
Time:	2.746	Roll Set Point:	0.002	Pitch Set Point:	-0.017	Yaw Set Point:	2.167	X_WP:	0.000	Y_WP:	0.000	Z_WP:	0.500	X:	0.015	Y:	0.010	Z:	0.049	yaw:	-124.183	yaw rate:	-6.553	Roll:	-0.269	Pitch:	0.138	Yaw:	-176.302	Thrust:	100.000
Time:	2.767	Roll Set Point:	0.002	Pitch Set Point:	-0.017	Yaw Set Point:	2.168	X_WP:	0.000	Y_WP:	0.000	Z_WP:	0.500	X:	0.015	Y:	0.010	Z:	0.049	yaw:	-124.224	yaw rate:	4.079	Roll:	-0.312	Pitch:	0.106	Yaw:	-178.167	Thrust:	100.000
Time:	2.786	Roll Set Point:	0.002	Pitch Set Point:	-0.017	Yaw Set Point:	2.167	X_WP:	0.000	Y_WP:	0.000	Z_WP:	0.500	X:	0.015	Y:	0.010	Z:	0.049	yaw:	-124.182	yaw rate:	-4.184	Roll:	-0.284	Pitch:	0.111	Yaw:	-176.849	Thrust:	100.000
Time:	2.806	Roll Set Point:	0.002	Pitch Set Point:	-0.017	Yaw Set Point:	2.168	X_WP:	0.000	Y_WP:	0.000	Z_WP:	0.500	X:	0.015	Y:	0.010	Z:	0.049	yaw:	-124.241	yaw rate:	5.859	Roll:	-0.284	Pitch:	0.090	Yaw:	-178.248	Thrust:	100.000
Time:	2.826	Roll Set Point:	0.002	Pitch Set Point:	-0.017	Yaw Set Point:	2.168	X_WP:	0.000	Y_WP:	0.000	Z_WP:	0.500	X:	0.015	Y:	0.010	Z:	0.049	yaw:	-124.191	yaw rate:	-5.026	Roll:	-0.284	Pitch:	0.136	Yaw:	-176.757	Thrust:	100.000
Time:	2.847	Roll Set Point:	0.002	Pitch Set Point:	-0.017	Yaw Set Point:	2.168	X_WP:	0.000	Y_WP:	0.000	Z_WP:	0.500	X:	0.015	Y:	0.010	Z:	0.049	yaw:	-124.213	yaw rate:	2.265	Roll:	-0.298	Pitch:	0.106	Yaw:	-177.750	Thrust:	100.000
Time:	2.867	Roll Set Point:	0.002	Pitch Set Point:	-0.017	Yaw Set Point:	2.168	X_WP:	0.000	Y_WP:	0.000	Z_WP:	0.500	X:	0.015	Y:	0.010	Z:	0.049	yaw:	-124.230	yaw rate:	1.630	Roll:	-0.299	Pitch:	0.112	Yaw:	-177.671	Thrust:	100.000
Time:	2.886	Roll Set Point:	0.002	Pitch Set Point:	-0.017	Yaw Set Point:	2.168	X_WP:	0.000	Y_WP:	0.000	Z_WP:	0.500	X:	0.015	Y:	0.010	Z:	0.049	yaw:	-124.196	yaw rate:	-3.324	Roll:	-0.277	Pitch:	0.104	Yaw:	-176.600	Thrust:	100.000
Time:	2.905	Roll Set Point:	0.002	Pitch Set Point:	-0.017	Yaw Set Point:	2.168	X_WP:	0.000	Y_WP:	0.000	Z_WP:	0.500	X:	0.015	Y:	0.010	Z:	0.049	yaw:	-124.218	yaw rate:	2.174	Roll:	-0.298	Pitch:	0.115	Yaw:	-177.735	Thrust:	100.000
Time:	2.925	Roll Set Point:	0.002	Pitch Set Point:	-0.017	Yaw Set Point:	2.168	X_WP:	0.000	Y_WP:	0.000	Z_WP:	0.500	X:	0.015	Y:	0.010	Z:	0.049	yaw:	-124.206	yaw rate:	-1.247	Roll:	-0.305	Pitch:	0.136	Yaw:	-177.271	Thrust:	100.000
Time:	2.945	Roll Set Point:	0.002	Pitch Set Point:	-0.017	Yaw Set Point:	2.168	X_WP:	0.000	Y_WP:	0.000	Z_WP:	0.500	X:	0.015	Y:	0.010	Z:	0.049	yaw:	-124.203	yaw rate:	-0.237	Roll:	-0.304	Pitch:	0.117	Yaw:	-177.400	Thrust:	100.000
Time:	2.965	Roll Set Point:	0.002	Pitch Set Point:	-0.017	Yaw Set Point:	2.168	X_WP:	0.000	Y_WP:	0.000	Z_WP:	0.500	X:	0.015	Y:	0.010	Z:	0.049	yaw:	-124.227	yaw rate:	2.360	Roll:	-0.297	Pitch:	0.097	Yaw:	-177.772	Thrust:	100.000
Time:	2.985	Roll Set Point:	0.002	Pitch Set Point:	-0.017	Yaw Set Point:	2.168	X_WP:	0.000	Y_WP:	0.000	Z_WP:	0.500	X:	0.015	Y:	0.010	Z:	0.049	yaw:	-124.204	yaw rate:	-2.281	Roll:	-0.293	Pitch:	0.131	Yaw:	-177.023	Thrust:	100.000
Time:	3.005	Roll Set Point:	0.002	Pitch Set Point:	-0.017	Yaw Set Point:	2.168	X_WP:	0.000	Y_WP:	0.000	Z_WP:	0.500	X:	0.015	Y:	0.010	Z:	0.049	yaw:	-124.225	yaw rate:	2.137	Roll:	-0.299	Pitch:	0.106	Yaw:	-177.741	Thrust:	100.000
Time:	3.025	Roll Set Point:	0.002	Pitch Set Point:	-0.017	Yaw Set Point:	2.168	X_WP:	0.000	Y_WP:	0.000	Z_WP:	0.500	X:	0.015	Y:	0.010	Z:	0.049	yaw:	-124.220	yaw rate:	-0.544	Roll:	-0.312	Pitch:	0.129	Yaw:	-177.383	Thrust:	100.000
Time:	3.045	Roll Set Point:	0.002	Pitch Set Point:	-0.017	Yaw Set Point:	2.168	X_WP:	0.000	Y_WP:	0.000	Z_WP:	0.500	X:	0.015	Y:	0.010	Z:	0.049	yaw:	-124.201	yaw rate:	-1.847	Roll:	-0.289	Pitch:	0.097	Yaw:	-177.190	Thrust:	100.000
Time:	3.073	Roll Set Point:	0.002	Pitch Set Point:	-0.017	Yaw Set Point:	2.168	X_WP:	0.000	Y_WP:	0.000	Z_WP:	0.500	X:	0.015	Y:	0.010	Z:	0.049	yaw:	-124.202	yaw rate:	0.027	Roll:	-0.357	Pitch:	0.151	Yaw:	-179.140	Thrust:	100.000
Time:	3.085	Roll Set Point:	0.002	Pitch Set Point:	-0.017	Yaw Set Point:	2.168	X_WP:	0.000	Y_WP:	0.000	Z_WP:	0.500	X:	0.015	Y:	0.010	Z:	0.049	yaw:	-124.222	yaw rate:	2.066	Roll:	-0.257	Pitch:	0.062	Yaw:	-176.196	Thrust:	100.000
Time:	3.105	Roll Set Point:	0.002	Pitch Set Point:	-0.017	Yaw Set Point:	2.168	X_WP:	0.000	Y_WP:	0.000	Z_WP:	0.500	X:	0.015	Y:	0.010	Z:	0.049	yaw:	-124.206	yaw rate:	-1.639	Roll:	-0.310	Pitch:	0.128	Yaw:	-177.222	Thrust:	100.000
Time:	3.125	Roll Set Point:	0.002	Pitch Set Point:	-0.017	Yaw Set Point:	2.168	X_WP:	0.000	Y_WP:	0.000	Z_WP:	0.500	X:	0.015	Y:	0.010	Z:	0.049	yaw:	-124.202	yaw rate:	-0.434	Roll:	-0.292	Pitch:	0.129	Yaw:	-177.372	Thrust:	100.000
Time:	3.148	Roll Set Point:	0.002	Pitch Set Point:	-0.017	Yaw Set Point:	2.168	X_WP:	0.000	Y_WP:	0.000	Z_WP:	0.500	X:	0.015	Y:	0.010	Z:	0.049	yaw:	-124.199	yaw rate:	-0.247	Roll:	-0.334	Pitch:	0.130	Yaw:	-177.999	Thrust:	100.000
Time:	3.168	Roll Set Point:	0.002	Pitch Set Point:	-0.017	Yaw Set Point:	2.168	X_WP:	0.000	Y_WP:	0.000	Z_WP:	0.500	X:	0.015	Y:	0.011	Z:	0.049	yaw:	-124.211	yaw rate:	1.174	Roll:	-0.315	Pitch:	0.096	Yaw:	-177.595	Thrust:	100.000
Time:	3.189	Roll Set Point:	0.002	Pitch Set Point:	-0.017	Yaw Set Point:	2.168	X_WP:	0.000	Y_WP:	0.000	Z_WP:	0.500	X:	0.015	Y:	0.010	Z:	0.049	yaw:	-124.208	yaw rate:	-0.303	Roll:	-0.293	Pitch:	0.147	Yaw:	-177.333	Thrust:	100.000
Time:	3.209	Roll Set Point:	0.002	Pitch Set Point:	-0.017	Yaw Set Point:	2.168	X_WP:	0.000	Y_WP:	0.000	Z_WP:	0.500	X:	0.015	Y:	0.010	Z:	0.049	yaw:	-124.219	yaw rate:	1.067	Roll:	-0.298	Pitch:	0.108	Yaw:	-177.593	Thrust:	100.000
Time:	3.228	Roll Set Point:	0.002	Pitch Set Point:	-0.017	Yaw Set Point:	2.168	X_WP:	0.000	Y_WP:	0.000	Z_WP:	0.500	X:	0.015	Y:	0.011	Z:	0.049	yaw:	-124.218	yaw rate:	-0.044	Roll:	-0.331	Pitch:	0.108	Yaw:	-177.244	Thrust:	100.000
Time:	3.248	Roll Set Point:	0.002	Pitch Set Point:	-0.017	Yaw Set Point:	2.168	X_WP:	0.000	Y_WP:	0.000	Z_WP:	0.500	X:	0.015	Y:	0.010	Z:	0.049	yaw:	-124.205	yaw rate:	-1.260	Roll:	-0.293	Pitch:	0.125	Yaw:	-177.278	Thrust:	100.000
Time:	3.269	Roll Set Point:	0.002	Pitch Set Point:	-0.017	Yaw Set Point:	2.168	X_WP:	0.000	Y_WP:	0.000	Z_WP:	0.500	X:	0.015	Y:	0.010	Z:	0.049	yaw:	-124.191	yaw rate:	-1.498	Roll:	-0.299	Pitch:	0.157	Yaw:	-177.529	Thrust:	100.000
Time:	3.288	Roll Set Point:	0.002	Pitch Set Point:	-0.017	Yaw Set Point:	2.168	X_WP:	0.000	Y_WP:	0.000	Z_WP:	0.500	X:	0.015	Y:	0.011	Z:	0.049	yaw:	-124.223	yaw rate:	3.256	Roll:	-0.346	Pitch:	0.072	Yaw:	-177.642	Thrust:	100.000
Time:	3.307	Roll Set Point:	0.002	Pitch Set Point:	-0.017	Yaw Set Point:	2.168	X_WP:	0.000	Y_WP:	0.000	Z_WP:	0.500	X:	0.015	Y:	0.010	Z:	0.049	yaw:	-124.196	yaw rate:	-2.669	Roll:	-0.302	Pitch:	0.130	Yaw:	-177.073	Thrust:	100.000
Time:	3.325	Roll Set Point:	0.002	Pitch Set Point:	-0.017	Yaw Set Point:	2.168	X_WP:	0.000	Y_WP:	0.000	Z_WP:	0.500	X:	0.015	Y:	0.010	Z:	0.049	yaw:	-124.223	yaw rate:	2.642	Roll:	-0.278	Pitch:	0.135	Yaw:	-177.440	Thrust:	100.000
Time:	3.346	Roll Set Point:	0.002	Pitch Set Point:	-0.017	Yaw Set Point:	2.168	X_WP:	0.000	Y_WP:	0.000	Z_WP:	0.500	X:	0.015	Y:	0.011	Z:	0.049	yaw:	-124.203	yaw rate:	-2.002	Roll:	-0.357	Pitch:	0.119	Yaw:	-177.381	Thrust:	100.000
Time:	3.365	Roll Set Point:	0.002	Pitch Set Point:	-0.017	Yaw Set Point:	2.168	X_WP:	0.000	Y_WP:	0.000	Z_WP:	0.500	X:	0.015	Y:	0.010	Z:	0.049	yaw:	-124.211	yaw rate:	0.811	Roll:	-0.313	Pitch:	0.129	Yaw:	-177.353	Thrust:	100.000
Time:	3.387	Roll Set Point:	0.002	Pitch Set Point:	-0.017	Yaw Set Point:	2.168	X_WP:	0.000	Y_WP:	0.000	Z_WP:	0.500	X:	0.015	Y:	0.010	Z:	0.049	yaw:	-124.200	yaw rate:	-1.102	Roll:	-0.293	Pitch:	0.107	Yaw:	-177.358	Thrust:	100.000
Time:	3.406	Roll Set Point:	0.002	Pitch Set Point:	-0.017	Yaw Set Point:	2.167	X_WP:	0.000	Y_WP:	0.000	Z_WP:	0.500	X:	0.015	Y:	0.010	Z:	0.049	yaw:	-124.184	yaw rate:	-1.619	Roll:	-0.322	Pitch:	0.144	Yaw:	-177.193	Thrust:	100.000
Time:	3.428	Roll Set Point:	0.002	Pitch Set Point:	-0.017	Yaw Set Point:	2.168	X_WP:	0.000	Y_WP:	0.000	Z_WP:	0.500	X:	0.015	Y:	0.010	Z:	0.049	yaw:	-124.218	yaw rate:	3.404	Roll:	-0.330	Pitch:	0.108	Yaw:	-178.076	Thrust:	100.000
Time:	3.448	Roll Set Point:	0.002	Pitch Set Point:	-0.017	Yaw Set Point:	2.168	X_WP:	0.000	Y_WP:	0.000	Z_WP:	0.500	X:	0.015	Y:	0.010	Z:	0.049	yaw:	-124.223	yaw rate:	0.508	Roll:	-0.313	Pitch:	0.137	Yaw:	-177.729	Thrust:	100.000
Time:	3.470	Roll Set Point:	0.002	Pitch Set Point:	-0.017	Yaw Set Point:	2.168	X_WP:	0.000	Y_WP:	0.000	Z_WP:	0.500	X:	0.015	Y:	0.010	Z:	0.049	yaw:	-124.207	yaw rate:	-1.574	Roll:	-0.331	Pitch:	0.117	Yaw:	-177.538	Thrust:	100.000
Time:	3.487	Roll Set Point:	0.002	Pitch Set Point:	-0.017	Yaw Set Point:	2.168	X_WP:	0.000	Y_WP:	0.000	Z_WP:	0.500	X:	0.015	Y:	0.010	Z:	0.049	yaw:	-124.215	yaw rate:	0.789	Roll:	-0.317	Pitch:	0.133	Yaw:	-177.005	Thrust:	100.000
Time:	3.506	Roll Set Point:	0.002	Pitch Set Point:	-0.017	Yaw Set Point:	2.168	X_WP:	0.000	Y_WP:	0.000	Z_WP:	0.500	X:	0.015	Y:	0.010	Z:	0.049	yaw:	-124.221	yaw rate:	0.624	Roll:	-0.310	Pitch:	0.132	Yaw:	-177.334	Thrust:	100.000
Time:	3.527	Roll Set Point:	0.002	Pitch Set Point:	-0.017	Yaw Set Point:	2.168	X_WP:	0.000	Y_WP:	0.000	Z_WP:	0.500	X:	0.015	Y:	0.010	Z:	0.049	yaw:	-124.229	yaw rate:	0.786	Roll:	-0.341	Pitch:	0.113	Yaw:	-177.771	Thrust:	100.000
Time:	3.547	Roll Set Point:	0.002	Pitch Set Point:	-0.017	Yaw Set Point:	2.168	X_WP:	0.000	Y_WP:	0.000	Z_WP:	0.500	X:	0.015	Y:	0.010	Z:	0.049	yaw:	-124.225	yaw rate:	-0.396	Roll:	-0.299	Pitch:	0.138	Yaw:	-177.410	Thrust:	100.000
Time:	3.566	Roll Set Point:	0.002	Pitch Set Point:	-0.017	Yaw Set Point:	2.168	X_WP:	0.000	Y_WP:	0.000	Z_WP:	0.500	X:	0.015	Y:	0.010	Z:	0.049	yaw:	-124.212	yaw rate:	-1.262	Roll:	-0.332	Pitch:	0.109	Yaw:	-177.063	Thrust:	100.000
Time:	3.587	Roll Set Point:	0.002	Pitch Set Point:	-0.017	Yaw Set Point:	2.168	X_WP:	0.000	Y_WP:	0.000	Z_WP:	0.500	X:	0.015	Y:	0.010	Z:	0.049	yaw:	-124.195	yaw rate:	-1.743	Roll:	-0.325	Pitch:	0.134	Yaw:	-177.184	Thrust:	100.000
Time:	3.606	Roll Set Point:	0.002	Pitch Set Point:	-0.017	Yaw Set Point:	2.168	X_WP:	0.000	Y_WP:	0.000	Z_WP:	0.500	X:	0.015	Y:	0.010	Z:	0.049	yaw:	-124.225	yaw rate:	3.005	Roll:	-0.327	Pitch:	0.130	Yaw:	-177.859	Thrust:	100.000
Time:	3.626	Roll Set Point:	0.002	Pitch Set Point:	-0.017	Yaw Set Point:	2.168	X_WP:	0.000	Y_WP:	0.000	Z_WP:	0.500	X:	0.015	Y:	0.010	Z:	0.049	yaw:	-124.217	yaw rate:	-0.776	Roll:	-0.331	Pitch:	0.116	Yaw:	-177.349	Thrust:	100.000
Time:	3.647	Roll Set Point:	0.002	Pitch Set Point:	-0.017	Yaw Set Point:	2.168	X_WP:	0.000	Y_WP:	0.000	Z_WP:	0.500	X:	0.015	Y:	0.010	Z:	0.049	yaw:	-124.209	yaw rate:	-0.788	Roll:	-0.332	Pitch:	0.129	Yaw:	-177.337	Thrust:	100.000
Time:	3.666	Roll Set Point:	0.002	Pitch Set Point:	-0.017	Yaw Set Point:	2.168	X_WP:	0.000	Y_WP:	0.000	Z_WP:	0.500	X:	0.015	Y:	0.010	Z:	0.049	yaw:	-124.191	yaw rate:	-1.865	Roll:	-0.325	Pitch:	0.146	Yaw:	-177.170	Thrust:	100.000
Time:	3.687	Roll Set Point:	0.002	Pitch Set Point:	-0.017	Yaw Set Point:	2.168	X_WP:	0.000	Y_WP:	0.000	Z_WP:	0.500	X:	0.015	Y:	0.010	Z:	0.049	yaw:	-124.201	yaw rate:	1.023	Roll:	-0.328	Pitch:	0.113	Yaw:	-177.466	Thrust:	100.000
Time:	3.706	Roll Set Point:	0.002	Pitch Set Point:	-0.017	Yaw Set Point:	2.168	X_WP:	0.000	Y_WP:	0.000	Z_WP:	0.500	X:	0.015	Y:	0.010	Z:	0.049	yaw:	-124.243	yaw rate:	4.183	Roll:	-0.324	Pitch:	0.139	Yaw:	-178.032	Thrust:	100.000
Time:	3.726	Roll Set Point:	0.002	Pitch Set Point:	-0.017	Yaw Set Point:	2.168	X_WP:	0.000	Y_WP:	0.000	Z_WP:	0.500	X:	0.015	Y:	0.010	Z:	0.049	yaw:	-124.196	yaw rate:	-4.685	Roll:	-0.321	Pitch:	0.113	Yaw:	-176.803	Thrust:	100.000
Time:	3.746	Roll Set Point:	0.002	Pitch Set Point:	-0.017	Yaw Set Point:	2.168	X_WP:	0.000	Y_WP:	0.000	Z_WP:	0.500	X:	0.015	Y:	0.010	Z:	0.049	yaw:	-124.237	yaw rate:	4.064	Roll:	-0.342	Pitch:	0.123	Yaw:	-178.013	Thrust:	100.000
Time:	3.766	Roll Set Point:	0.002	Pitch Set Point:	-0.017	Yaw Set Point:	2.168	X_WP:	0.000	Y_WP:	0.000	Z_WP:	0.500	X:	0.015	Y:	0.010	Z:	0.049	yaw:	-124.211	yaw rate:	-2.591	Roll:	-0.328	Pitch:	0.149	Yaw:	-177.104	Thrust:	100.000
Time:	3.786	Roll Set Point:	0.002	Pitch Set Point:	-0.017	Yaw Set Point:	2.168	X_WP:	0.000	Y_WP:	0.000	Z_WP:	0.500	X:	0.015	Y:	0.010	Z:	0.049	yaw:	-124.216	yaw rate:	0.555	Roll:	-0.347	Pitch:	0.117	Yaw:	-177.467	Thrust:	100.000
Time:	3.808	Roll Set Point:	0.002	Pitch Set Point:	-0.017	Yaw Set Point:	2.168	X_WP:	0.000	Y_WP:	0.000	Z_WP:	0.500	X:	0.015	Y:	0.010	Z:	0.049	yaw:	-124.218	yaw rate:	0.152	Roll:	-0.348	Pitch:	0.136	Yaw:	-177.870	Thrust:	100.000
Time:	3.828	Roll Set Point:	0.002	Pitch Set Point:	-0.017	Yaw Set Point:	2.168	X_WP:	0.000	Y_WP:	0.000	Z_WP:	0.500	X:	0.015	Y:	0.010	Z:	0.049	yaw:	-124.203	yaw rate:	-1.468	Roll:	-0.329	Pitch:	0.142	Yaw:	-177.241	Thrust:	100.000
Time:	3.848	Roll Set Point:	0.002	Pitch Set Point:	-0.017	Yaw Set Point:	2.168	X_WP:	0.000	Y_WP:	0.000	Z_WP:	0.500	X:	0.015	Y:	0.010	Z:	0.049	yaw:	-124.239	yaw rate:	3.629	Roll:	-0.343	Pitch:	0.114	Yaw:	-177.954	Thrust:	100.000
Time:	3.868	Roll Set Point:	0.002	Pitch Set Point:	-0.017	Yaw Set Point:	2.167	X_WP:	0.000	Y_WP:	0.000	Z_WP:	0.500	X:	0.015	Y:	0.011	Z:	0.049	yaw:	-124.188	yaw rate:	-5.155	Roll:	-0.348	Pitch:	0.126	Yaw:	-176.857	Thrust:	100.000
Time:	3.887	Roll Set Point:	0.002	Pitch Set Point:	-0.017	Yaw Set Point:	2.168	X_WP:	0.000	Y_WP:	0.000	Z_WP:	0.500	X:	0.015	Y:	0.010	Z:	0.049	yaw:	-124.203	yaw rate:	1.530	Roll:	-0.326	Pitch:	0.156	Yaw:	-177.342	Thrust:	100.000
Time:	3.907	Roll Set Point:	0.002	Pitch Set Point:	-0.017	Yaw Set Point:	2.168	X_WP:	0.000	Y_WP:	0.000	Z_WP:	0.500	X:	0.015	Y:	0.010	Z:	0.049	yaw:	-124.191	yaw rate:	-1.253	Roll:	-0.319	Pitch:	0.127	Yaw:	-177.251	Thrust:	100.000
Time:	3.927	Roll Set Point:	0.002	Pitch Set Point:	-0.017	Yaw Set Point:	2.168	X_WP:	0.000	Y_WP:	0.000	Z_WP:	0.500	X:	0.015	Y:	0.011	Z:	0.049	yaw:	-124.226	yaw rate:	3.517	Roll:	-0.373	Pitch:	0.109	Yaw:	-177.922	Thrust:	100.000
Time:	3.947	Roll Set Point:	0.002	Pitch Set Point:	-0.017	Yaw Set Point:	2.168	X_WP:	0.000	Y_WP:	0.000	Z_WP:	0.500	X:	0.015	Y:	0.010	Z:	0.049	yaw:	-124.190	yaw rate:	-3.630	Roll:	-0.312	Pitch:	0.163	Yaw:	-176.936	Thrust:	100.000
Time:	3.967	Roll Set Point:	0.002	Pitch Set Point:	-0.017	Yaw Set Point:	2.168	X_WP:	0.000	Y_WP:	0.000	Z_WP:	0.500	X:	0.015	Y:	0.010	Z:	0.049	yaw:	-124.226	yaw rate:	3.627	Roll:	-0.339	Pitch:	0.120	Yaw:	-177.762	Thrust:	100.000
Time:	3.986	Roll Set Point:	0.002	Pitch Set Point:	-0.017	Yaw Set Point:	2.168	X_WP:	0.000	Y_WP:	0.000	Z_WP:	0.500	X:	0.015	Y:	0.011	Z:	0.049	yaw:	-124.225	yaw rate:	-0.031	Roll:	-0.348	Pitch:	0.098	Yaw:	-177.417	Thrust:	100.000
Time:	4.006	Roll Set Point:	0.002	Pitch Set Point:	-0.017	Yaw Set Point:	2.168	X_WP:	0.000	Y_WP:	0.000	Z_WP:	0.500	X:	0.015	Y:	0.010	Z:	0.049	yaw:	-124.222	yaw rate:	-0.363	Roll:	-0.340	Pitch:	0.159	Yaw:	-177.410	Thrust:	100.000
Time:	4.027	Roll Set Point:	0.002	Pitch Set Point:	-0.017	Yaw Set Point:	2.168	X_WP:	0.000	Y_WP:	0.000	Z_WP:	0.500	X:	0.015	Y:	0.010	Z:	0.049	yaw:	-124.213	yaw rate:	-0.878	Roll:	-0.343	Pitch:	0.143	Yaw:	-177.329	Thrust:	100.000
Time:	4.048	Roll Set Point:	0.002	Pitch Set Point:	-0.017	Yaw Set Point:	2.168	X_WP:	0.000	Y_WP:	0.000	Z_WP:	0.500	X:	0.015	Y:	0.010	Z:	0.049	yaw:	-124.212	yaw rate:	-0.083	Roll:	-0.351	Pitch:	0.124	Yaw:	-177.634	Thrust:	100.000
Time:	4.067	Roll Set Point:	0.002	Pitch Set Point:	-0.017	Yaw Set Point:	2.168	X_WP:	0.000	Y_WP:	0.000	Z_WP:	0.500	X:	0.015	Y:	0.010	Z:	0.049	yaw:	-124.229	yaw rate:	1.633	Roll:	-0.346	Pitch:	0.134	Yaw:	-177.688	Thrust:	100.000
Time:	4.087	Roll Set Point:	0.002	Pitch Set Point:	-0.017	Yaw Set Point:	2.167	X_WP:	0.000	Y_WP:	0.000	Z_WP:	0.500	X:	0.015	Y:	0.010	Z:	0.049	yaw:	-124.186	yaw rate:	-4.301	Roll:	-0.323	Pitch:	0.154	Yaw:	-176.778	Thrust:	100.000
Time:	4.108	Roll Set Point:	0.002	Pitch Set Point:	-0.017	Yaw Set Point:	2.168	X_WP:	0.000	Y_WP:	0.000	Z_WP:	0.500	X:	0.015	Y:	0.010	Z:	0.049	yaw:	-124.195	yaw rate:	0.916	Roll:	-0.380	Pitch:	0.135	Yaw:	-177.732	Thrust:	100.000
Time:	4.127	Roll Set Point:	0.002	Pitch Set Point:	-0.017	Yaw Set Point:	2.168	X_WP:	0.000	Y_WP:	0.000	Z_WP:	0.500	X:	0.015	Y:	0.010	Z:	0.049	yaw:	-124.218	yaw rate:	2.291	Roll:	-0.340	Pitch:	0.114	Yaw:	-177.566	Thrust:	100.000
Time:	4.148	Roll Set Point:	0.002	Pitch Set Point:	-0.017	Yaw Set Point:	2.168	X_WP:	0.000	Y_WP:	0.000	Z_WP:	0.500	X:	0.015	Y:	0.010	Z:	0.049	yaw:	-124.219	yaw rate:	0.089	Roll:	-0.338	Pitch:	0.153	Yaw:	-177.464	Thrust:	100.000
Time:	4.167	Roll Set Point:	0.002	Pitch Set Point:	-0.017	Yaw Set Point:	2.168	X_WP:	0.000	Y_WP:	0.000	Z_WP:	0.500	X:	0.015	Y:	0.010	Z:	0.049	yaw:	-124.208	yaw rate:	-1.061	Roll:	-0.336	Pitch:	0.131	Yaw:	-177.301	Thrust:	100.000
Time:	4.186	Roll Set Point:	0.002	Pitch Set Point:	-0.017	Yaw Set Point:	2.168	X_WP:	0.000	Y_WP:	0.000	Z_WP:	0.500	X:	0.015	Y:	0.011	Z:	0.049	yaw:	-124.221	yaw rate:	1.281	Roll:	-0.384	Pitch:	0.109	Yaw:	-177.346	Thrust:	100.000
Time:	4.209	Roll Set Point:	0.002	Pitch Set Point:	-0.017	Yaw Set Point:	2.168	X_WP:	0.000	Y_WP:	0.000	Z_WP:	0.500	X:	0.015	Y:	0.010	Z:	0.049	yaw:	-124.228	yaw rate:	0.710	Roll:	-0.369	Pitch:	0.172	Yaw:	-178.148	Thrust:	100.000
Time:	4.227	Roll Set Point:	0.002	Pitch Set Point:	-0.017	Yaw Set Point:	2.168	X_WP:	0.000	Y_WP:	0.000	Z_WP:	0.500	X:	0.015	Y:	0.010	Z:	0.049	yaw:	-124.210	yaw rate:	-1.773	Roll:	-0.315	Pitch:	0.132	Yaw:	-176.783	Thrust:	100.000
Time:	4.248	Roll Set Point:	0.002	Pitch Set Point:	-0.017	Yaw Set Point:	2.168	X_WP:	0.000	Y_WP:	0.000	Z_WP:	0.500	X:	0.015	Y:	0.011	Z:	0.049	yaw:	-124.203	yaw rate:	-0.703	Roll:	-0.367	Pitch:	0.114	Yaw:	-177.330	Thrust:	100.000
Time:	4.270	Roll Set Point:	0.002	Pitch Set Point:	-0.017	Yaw Set Point:	2.168	X_WP:	0.000	Y_WP:	0.000	Z_WP:	0.500	X:	0.015	Y:	0.010	Z:	0.049	yaw:	-124.218	yaw rate:	1.504	Roll:	-0.363	Pitch:	0.158	Yaw:	-178.129	Thrust:	100.000
Time:	4.286	Roll Set Point:	0.002	Pitch Set Point:	-0.017	Yaw Set Point:	2.168	X_WP:	0.000	Y_WP:	0.000	Z_WP:	0.500	X:	0.015	Y:	0.010	Z:	0.049	yaw:	-124.227	yaw rate:	0.895	Roll:	-0.330	Pitch:	0.157	Yaw:	-176.870	Thrust:	100.000
Time:	4.306	Roll Set Point:	0.002	Pitch Set Point:	-0.017	Yaw Set Point:	2.168	X_WP:	0.000	Y_WP:	0.000	Z_WP:	0.500	X:	0.015	Y:	0.011	Z:	0.049	yaw:	-124.208	yaw rate:	-1.939	Roll:	-0.375	Pitch:	0.099	Yaw:	-177.184	Thrust:	100.000
Time:	4.326	Roll Set Point:	0.002	Pitch Set Point:	-0.017	Yaw Set Point:	2.167	X_WP:	0.000	Y_WP:	0.000	Z_WP:	0.500	X:	0.015	Y:	0.010	Z:	0.049	yaw:	-124.179	yaw rate:	-2.897	Roll:	-0.338	Pitch:	0.170	Yaw:	-177.010	Thrust:	100.000
Time:	4.347	Roll Set Point:	0.002	Pitch Set Point:	-0.017	Yaw Set Point:	2.167	X_WP:	0.000	Y_WP:	0.000	Z_WP:	0.500	X:	0.015	Y:	0.010	Z:	0.049	yaw:	-124.184	yaw rate:	0.510	Roll:	-0.358	Pitch:	0.147	Yaw:	-177.668	Thrust:	100.000
Time:	4.368	Roll Set Point:	0.002	Pitch Set Point:	-0.017	Yaw Set Point:	2.168	X_WP:	0.000	Y_WP:	0.000	Z_WP:	0.500	X:	0.015	Y:	0.011	Z:	0.049	yaw:	-124.238	yaw rate:	5.376	Roll:	-0.386	Pitch:	0.111	Yaw:	-178.180	Thrust:	100.000
Time:	4.386	Roll Set Point:	0.002	Pitch Set Point:	-0.017	Yaw Set Point:	2.168	X_WP:	0.000	Y_WP:	0.000	Z_WP:	0.500	X:	0.015	Y:	0.010	Z:	0.049	yaw:	-124.207	yaw rate:	-3.097	Roll:	-0.331	Pitch:	0.129	Yaw:	-176.801	Thrust:	100.000
Time:	4.406	Roll Set Point:	0.002	Pitch Set Point:	-0.017	Yaw Set Point:	2.168	X_WP:	0.000	Y_WP:	0.000	Z_WP:	0.500	X:	0.015	Y:	0.010	Z:	0.049	yaw:	-124.190	yaw rate:	-1.697	Roll:	-0.359	Pitch:	0.167	Yaw:	-177.191	Thrust:	100.000
Time:	4.426	Roll Set Point:	0.002	Pitch Set Point:	-0.017	Yaw Set Point:	2.168	X_WP:	0.000	Y_WP:	0.000	Z_WP:	0.500	X:	0.015	Y:	0.010	Z:	0.049	yaw:	-124.208	yaw rate:	1.820	Roll:	-0.373	Pitch:	0.124	Yaw:	-177.487	Thrust:	100.000
Time:	4.446	Roll Set Point:	0.002	Pitch Set Point:	-0.017	Yaw Set Point:	2.168	X_WP:	0.000	Y_WP:	0.000	Z_WP:	0.500	X:	0.015	Y:	0.011	Z:	0.049	yaw:	-124.242	yaw rate:	3.463	Roll:	-0.378	Pitch:	0.136	Yaw:	-178.109	Thrust:	100.000
Time:	4.466	Roll Set Point:	0.002	Pitch Set Point:	-0.017	Yaw Set Point:	2.168	X_WP:	0.000	Y_WP:	0.000	Z_WP:	0.500	X:	0.015	Y:	0.010	Z:	0.049	yaw:	-124.215	yaw rate:	-2.743	Roll:	-0.348	Pitch:	0.155	Yaw:	-177.090	Thrust:	100.000
Time:	4.486	Roll Set Point:	0.002	Pitch Set Point:	-0.017	Yaw Set Point:	2.167	X_WP:	0.000	Y_WP:	0.000	Z_WP:	0.500	X:	0.015	Y:	0.010	Z:	0.049	yaw:	-124.184	yaw rate:	-3.110	Roll:	-0.349	Pitch:	0.161	Yaw:	-176.927	Thrust:	100.000
Time:	4.506	Roll Set Point:	0.002	Pitch Set Point:	-0.017	Yaw Set Point:	2.168	X_WP:	0.000	Y_WP:	0.000	Z_WP:	0.500	X:	0.015	Y:	0.011	Z:	0.049	yaw:	-124.223	yaw rate:	3.865	Roll:	-0.395	Pitch:	0.104	Yaw:	-177.963	Thrust:	100.000
Time:	4.528	Roll Set Point:	0.002	Pitch Set Point:	-0.017	Yaw Set Point:	2.167	X_WP:	0.000	Y_WP:	0.000	Z_WP:	0.500	X:	0.015	Y:	0.010	Z:	0.049	yaw:	-124.186	yaw rate:	-3.626	Roll:	-0.358	Pitch:	0.154	Yaw:	-177.157	Thrust:	100.000
Time:	4.548	Roll Set Point:	0.002	Pitch Set Point:	-0.017	Yaw Set Point:	2.168	X_WP:	0.000	Y_WP:	0.000	Z_WP:	0.500	X:	0.015	Y:	0.010	Z:	0.049	yaw:	-124.219	yaw rate:	3.237	Roll:	-0.359	Pitch:	0.177	Yaw:	-178.048	Thrust:	100.000
Time:	4.569	Roll Set Point:	0.002	Pitch Set Point:	-0.017	Yaw Set Point:	2.168	X_WP:	0.000	Y_WP:	0.000	Z_WP:	0.500	X:	0.015	Y:	0.010	Z:	0.049	yaw:	-124.228	yaw rate:	0.962	Roll:	-0.396	Pitch:	0.122	Yaw:	-177.789	Thrust:	100.000
Time:	4.587	Roll Set Point:	0.002	Pitch Set Point:	-0.017	Yaw Set Point:	2.169	X_WP:	0.000	Y_WP:	0.000	Z_WP:	0.500	X:	0.015	Y:	0.011	Z:	0.049	yaw:	-124.254	yaw rate:	2.595	Roll:	-0.371	Pitch:	0.115	Yaw:	-177.354	Thrust:	100.000
Time:	4.607	Roll Set Point:	0.002	Pitch Set Point:	-0.017	Yaw Set Point:	2.168	X_WP:	0.000	Y_WP:	0.000	Z_WP:	0.500	X:	0.015	Y:	0.010	Z:	0.049	yaw:	-124.223	yaw rate:	-3.130	Roll:	-0.322	Pitch:	0.154	Yaw:	-177.049	Thrust:	100.000
Time:	4.626	Roll Set Point:	0.002	Pitch Set Point:	-0.017	Yaw Set Point:	2.168	X_WP:	0.000	Y_WP:	0.000	Z_WP:	0.500	X:	0.015	Y:	0.010	Z:	0.049	yaw:	-124.213	yaw rate:	-0.952	Roll:	-0.397	Pitch:	0.181	Yaw:	-177.114	Thrust:	100.000
Time:	4.647	Roll Set Point:	0.002	Pitch Set Point:	-0.017	Yaw Set Point:	2.168	X_WP:	0.000	Y_WP:	0.000	Z_WP:	0.500	X:	0.015	Y:	0.011	Z:	0.049	yaw:	-124.205	yaw rate:	-0.810	Roll:	-0.381	Pitch:	0.099	Yaw:	-177.527	Thrust:	100.000
Time:	4.667	Roll Set Point:	0.002	Pitch Set Point:	-0.017	Yaw Set Point:	2.168	X_WP:	0.000	Y_WP:	0.000	Z_WP:	0.500	X:	0.015	Y:	0.010	Z:	0.049	yaw:	-124.207	yaw rate:	0.213	Roll:	-0.357	Pitch:	0.163	Yaw:	-177.471	Thrust:	100.000
Time:	4.686	Roll Set Point:	0.002	Pitch Set Point:	-0.017	Yaw Set Point:	2.168	X_WP:	0.000	Y_WP:	0.000	Z_WP:	0.500	X:	0.015	Y:	0.010	Z:	0.049	yaw:	-124.205	yaw rate:	-0.255	Roll:	-0.354	Pitch:	0.151	Yaw:	-177.205	Thrust:	100.000
Time:	4.707	Roll Set Point:	0.002	Pitch Set Point:	-0.017	Yaw Set Point:	2.168	X_WP:	0.000	Y_WP:	0.000	Z_WP:	0.500	X:	0.015	Y:	0.011	Z:	0.049	yaw:	-124.216	yaw rate:	1.096	Roll:	-0.419	Pitch:	0.131	Yaw:	-177.786	Thrust:	100.000
Time:	4.728	Roll Set Point:	0.002	Pitch Set Point:	-0.017	Yaw Set Point:	2.168	X_WP:	0.000	Y_WP:	0.000	Z_WP:	0.500	X:	0.015	Y:	0.010	Z:	0.049	yaw:	-124.244	yaw rate:	2.797	Roll:	-0.363	Pitch:	0.147	Yaw:	-177.846	Thrust:	100.000
Time:	4.748	Roll Set Point:	0.002	Pitch Set Point:	-0.017	Yaw Set Point:	2.167	X_WP:	0.000	Y_WP:	0.000	Z_WP:	0.500	X:	0.015	Y:	0.010	Z:	0.049	yaw:	-124.179	yaw rate:	-6.469	Roll:	-0.348	Pitch:	0.164	Yaw:	-176.553	Thrust:	100.000
Time:	4.767	Roll Set Point:	0.002	Pitch Set Point:	-0.017	Yaw Set Point:	2.168	X_WP:	0.000	Y_WP:	0.000	Z_WP:	0.500	X:	0.015	Y:	0.011	Z:	0.049	yaw:	-124.205	yaw rate:	2.540	Roll:	-0.398	Pitch:	0.127	Yaw:	-177.767	Thrust:	100.000
Time:	4.787	Roll Set Point:	0.002	Pitch Set Point:	-0.017	Yaw Set Point:	2.168	X_WP:	0.000	Y_WP:	0.000	Z_WP:	0.500	X:	0.015	Y:	0.010	Z:	0.049	yaw:	-124.204	yaw rate:	-0.029	Roll:	-0.369	Pitch:	0.159	Yaw:	-177.434	Thrust:	100.000
Time:	4.806	Roll Set Point:	0.002	Pitch Set Point:	-0.017	Yaw Set Point:	2.168	X_WP:	0.000	Y_WP:	0.000	Z_WP:	0.500	X:	0.015	Y:	0.010	Z:	0.049	yaw:	-124.220	yaw rate:	1.605	Roll:	-0.373	Pitch:	0.136	Yaw:	-177.475	Thrust:	100.000
Time:	4.826	Roll Set Point:	0.002	Pitch Set Point:	-0.017	Yaw Set Point:	2.168	X_WP:	0.000	Y_WP:	0.000	Z_WP:	0.500	X:	0.015	Y:	0.010	Z:	0.049	yaw:	-124.212	yaw rate:	-0.834	Roll:	-0.374	Pitch:	0.149	Yaw:	-177.342	Thrust:	100.000
Time:	4.846	Roll Set Point:	0.002	Pitch Set Point:	-0.017	Yaw Set Point:	2.168	X_WP:	0.000	Y_WP:	0.000	Z_WP:	0.500	X:	0.015	Y:	0.011	Z:	0.049	yaw:	-124.214	yaw rate:	0.229	Roll:	-0.391	Pitch:	0.145	Yaw:	-177.469	Thrust:	100.000
Time:	4.866	Roll Set Point:	0.002	Pitch Set Point:	-0.017	Yaw Set Point:	2.168	X_WP:	0.000	Y_WP:	0.000	Z_WP:	0.500	X:	0.015	Y:	0.010	Z:	0.049	yaw:	-124.199	yaw rate:	-1.540	Roll:	-0.369	Pitch:	0.149	Yaw:	-177.231	Thrust:	100.000
Time:	4.886	Roll Set Point:	0.002	Pitch Set Point:	-0.017	Yaw Set Point:	2.167	X_WP:	0.000	Y_WP:	0.000	Z_WP:	0.500	X:	0.015	Y:	0.010	Z:	0.049	yaw:	-124.177	yaw rate:	-2.218	Roll:	-0.373	Pitch:	0.168	Yaw:	-177.039	Thrust:	100.000
Time:	4.906	Roll Set Point:	0.002	Pitch Set Point:	-0.017	Yaw Set Point:	2.168	X_WP:	0.000	Y_WP:	0.000	Z_WP:	0.500	X:	0.015	Y:	0.010	Z:	0.049	yaw:	-124.212	yaw rate:	3.491	Roll:	-0.391	Pitch:	0.144	Yaw:	-177.899	Thrust:	100.000
Time:	4.926	Roll Set Point:	0.002	Pitch Set Point:	-0.017	Yaw Set Point:	2.168	X_WP:	0.000	Y_WP:	0.000	Z_WP:	0.500	X:	0.015	Y:	0.011	Z:	0.049	yaw:	-124.209	yaw rate:	-0.230	Roll:	-0.396	Pitch:	0.132	Yaw:	-177.410	Thrust:	100.000
Time:	4.946	Roll Set Point:	0.002	Pitch Set Point:	-0.017	Yaw Set Point:	2.167	X_WP:	0.000	Y_WP:	0.000	Z_WP:	0.500	X:	0.015	Y:	0.011	Z:	0.049	yaw:	-124.188	yaw rate:	-2.105	Roll:	-0.367	Pitch:	0.143	Yaw:	-177.135	Thrust:	100.000
Time:	4.967	Roll Set Point:	0.002	Pitch Set Point:	-0.017	Yaw Set Point:	2.168	X_WP:	0.000	Y_WP:	0.000	Z_WP:	0.500	X:	0.015	Y:	0.010	Z:	0.049	yaw:	-124.212	yaw rate:	2.335	Roll:	-0.391	Pitch:	0.177	Yaw:	-177.743	Thrust:	100.000
Time:	4.988	Roll Set Point:	0.002	Pitch Set Point:	-0.017	Yaw Set Point:	2.168	X_WP:	0.000	Y_WP:	0.000	Z_WP:	0.500	X:	0.015	Y:	0.010	Z:	0.049	yaw:	-124.207	yaw rate:	-0.432	Roll:	-0.390	Pitch:	0.128	Yaw:	-177.510	Thrust:	100.000
Time:	5.006	Roll Set Point:	0.002	Pitch Set Point:	-0.017	Yaw Set Point:	2.168	X_WP:	0.000	Y_WP:	0.000	Z_WP:	0.500	X:	0.015	Y:	0.010	Z:	0.049	yaw:	-124.207	yaw rate:	-0.007	Roll:	-0.379	Pitch:	0.158	Yaw:	-177.235	Thrust:	100.000
Time:	5.026	Roll Set Point:	0.002	Pitch Set Point:	-0.017	Yaw Set Point:	2.168	X_WP:	0.000	Y_WP:	0.000	Z_WP:	0.500	X:	0.015	Y:	0.010	Z:	0.049	yaw:	-124.224	yaw rate:	1.710	Roll:	-0.388	Pitch:	0.155	Yaw:	-177.687	Thrust:	100.000
Time:	5.048	Roll Set Point:	0.002	Pitch Set Point:	-0.017	Yaw Set Point:	2.168	X_WP:	0.000	Y_WP:	0.000	Z_WP:	0.500	X:	0.015	Y:	0.010	Z:	0.049	yaw:	-124.198	yaw rate:	-2.626	Roll:	-0.392	Pitch:	0.156	Yaw:	-177.301	Thrust:	100.000
Time:	5.067	Roll Set Point:	0.002	Pitch Set Point:	-0.017	Yaw Set Point:	2.168	X_WP:	0.000	Y_WP:	0.000	Z_WP:	0.500	X:	0.015	Y:	0.010	Z:	0.049	yaw:	-124.204	yaw rate:	0.646	Roll:	-0.384	Pitch:	0.139	Yaw:	-177.512	Thrust:	100.000
Time:	5.091	Roll Set Point:	0.002	Pitch Set Point:	-0.017	Yaw Set Point:	2.168	X_WP:	0.000	Y_WP:	0.000	Z_WP:	0.500	X:	0.015	Y:	0.010	Z:	0.049	yaw:	-124.213	yaw rate:	0.898	Roll:	-0.401	Pitch:	0.165	Yaw:	-178.099	Thrust:	100.000
Time:	5.110	Roll Set Point:	0.002	Pitch Set Point:	-0.017	Yaw Set Point:	2.168	X_WP:	0.000	Y_WP:	0.000	Z_WP:	0.500	X:	0.015	Y:	0.010	Z:	0.049	yaw:	-124.227	yaw rate:	1.344	Roll:	-0.391	Pitch:	0.143	Yaw:	-177.266	Thrust:	100.000
Time:	5.130	Roll Set Point:	0.002	Pitch Set Point:	-0.017	Yaw Set Point:	2.168	X_WP:	0.000	Y_WP:	0.000	Z_WP:	0.500	X:	0.015	Y:	0.010	Z:	0.049	yaw:	-124.215	yaw rate:	-1.155	Roll:	-0.394	Pitch:	0.157	Yaw:	-177.505	Thrust:	100.000
Time:	5.150	Roll Set Point:	0.002	Pitch Set Point:	-0.017	Yaw Set Point:	2.168	X_WP:	0.000	Y_WP:	0.000	Z_WP:	0.500	X:	0.015	Y:	0.010	Z:	0.049	yaw:	-124.207	yaw rate:	-0.805	Roll:	-0.391	Pitch:	0.157	Yaw:	-177.323	Thrust:	100.000
Time:	5.171	Roll Set Point:	0.002	Pitch Set Point:	-0.017	Yaw Set Point:	2.168	X_WP:	0.000	Y_WP:	0.000	Z_WP:	0.500	X:	0.015	Y:	0.010	Z:	0.049	yaw:	-124.202	yaw rate:	-0.519	Roll:	-0.393	Pitch:	0.168	Yaw:	-177.465	Thrust:	100.000
Time:	5.189	Roll Set Point:	0.002	Pitch Set Point:	-0.017	Yaw Set Point:	2.168	X_WP:	0.000	Y_WP:	0.000	Z_WP:	0.500	X:	0.015	Y:	0.010	Z:	0.049	yaw:	-124.198	yaw rate:	-0.445	Roll:	-0.403	Pitch:	0.140	Yaw:	-177.265	Thrust:	100.000
Time:	5.207	Roll Set Point:	0.002	Pitch Set Point:	-0.017	Yaw Set Point:	2.168	X_WP:	0.000	Y_WP:	0.000	Z_WP:	0.500	X:	0.015	Y:	0.010	Z:	0.049	yaw:	-124.203	yaw rate:	0.566	Roll:	-0.372	Pitch:	0.151	Yaw:	-177.112	Thrust:	100.000
Time:	5.226	Roll Set Point:	0.002	Pitch Set Point:	-0.017	Yaw Set Point:	2.167	X_WP:	0.000	Y_WP:	0.000	Z_WP:	0.500	X:	0.015	Y:	0.010	Z:	0.049	yaw:	-124.187	yaw rate:	-1.656	Roll:	-0.397	Pitch:	0.163	Yaw:	-176.981	Thrust:	100.000
Time:	5.247	Roll Set Point:	0.002	Pitch Set Point:	-0.017	Yaw Set Point:	2.168	X_WP:	0.000	Y_WP:	0.000	Z_WP:	0.500	X:	0.015	Y:	0.010	Z:	0.049	yaw:	-124.228	yaw rate:	4.108	Roll:	-0.404	Pitch:	0.122	Yaw:	-178.001	Thrust:	100.000
Time:	5.266	Roll Set Point:	0.002	Pitch Set Point:	-0.017	Yaw Set Point:	2.167	X_WP:	0.000	Y_WP:	0.000	Z_WP:	0.500	X:	0.015	Y:	0.010	Z:	0.049	yaw:	-124.178	yaw rate:	-4.957	Roll:	-0.390	Pitch:	0.164	Yaw:	-176.749	Thrust:	100.000
