Time:	0.057	Roll Set Point:	-0.047	Pitch Set Point:	-0.020	Yaw Set Point:	-0.395	X_WP:	0.000	Y_WP:	0.000	Z_WP:	0.500	X:	0.022	Y:	0.015	Z:	0.050	yaw:	22.653	yaw rate:	1.262	Roll:	0.385	Pitch:	0.078	Yaw:	31.630	Thrust:	24.725
Time:	0.073	Roll Set Point:	-0.047	Pitch Set Point:	-0.020	Yaw Set Point:	-0.396	X_WP:	0.000	Y_WP:	0.000	Z_WP:	0.500	X:	0.022	Y:	0.015	Z:	0.050	yaw:	22.669	yaw rate:	0.830	Roll:	0.416	Pitch:	0.142	Yaw:	32.038	Thrust:	25.659
Time:	0.087	Roll Set Point:	-0.047	Pitch Set Point:	-0.020	Yaw Set Point:	-0.396	X_WP:	0.000	Y_WP:	0.000	Z_WP:	0.500	X:	0.022	Y:	0.015	Z:	0.050	yaw:	22.677	yaw rate:	-3.286	Roll:	0.354	Pitch:	0.060	Yaw:	32.038	Thrust:	26.332
Time:	0.102	Roll Set Point:	-0.047	Pitch Set Point:	-0.020	Yaw Set Point:	-0.396	X_WP:	0.000	Y_WP:	0.000	Z_WP:	0.500	X:	0.022	Y:	0.015	Z:	0.051	yaw:	22.684	yaw rate:	-1.476	Roll:	0.486	Pitch:	0.091	Yaw:	32.153	Thrust:	27.055
Time:	0.116	Roll Set Point:	-0.047	Pitch Set Point:	-0.020	Yaw Set Point:	-0.396	X_WP:	0.000	Y_WP:	0.000	Z_WP:	0.500	X:	0.022	Y:	0.015	Z:	0.050	yaw:	22.696	yaw rate:	-5.201	Roll:	0.317	Pitch:	0.036	Yaw:	32.356	Thrust:	27.915
Time:	0.131	Roll Set Point:	-0.048	Pitch Set Point:	-0.020	Yaw Set Point:	-0.396	X_WP:	0.000	Y_WP:	0.000	Z_WP:	0.500	X:	0.022	Y:	0.015	Z:	0.051	yaw:	22.694	yaw rate:	0.764	Roll:	0.476	Pitch:	0.112	Yaw:	32.226	Thrust:	28.337
Time:	0.147	Roll Set Point:	-0.047	Pitch Set Point:	-0.020	Yaw Set Point:	-0.396	X_WP:	0.000	Y_WP:	0.000	Z_WP:	0.500	X:	0.022	Y:	0.015	Z:	0.050	yaw:	22.676	yaw rate:	2.067	Roll:	0.301	Pitch:	0.088	Yaw:	32.126	Thrust:	30.086
Time:	0.162	Roll Set Point:	-0.048	Pitch Set Point:	-0.020	Yaw Set Point:	-0.396	X_WP:	0.000	Y_WP:	0.000	Z_WP:	0.500	X:	0.022	Y:	0.015	Z:	0.050	yaw:	22.706	yaw rate:	-1.205	Roll:	0.479	Pitch:	0.075	Yaw:	33.067	Thrust:	30.510
Time:	0.176	Roll Set Point:	-0.047	Pitch Set Point:	-0.020	Yaw Set Point:	-0.396	X_WP:	0.000	Y_WP:	0.000	Z_WP:	0.500	X:	0.022	Y:	0.015	Z:	0.050	yaw:	22.664	yaw rate:	-1.014	Roll:	0.285	Pitch:	0.054	Yaw:	31.749	Thrust:	30.745
Time:	0.194	Roll Set Point:	-0.047	Pitch Set Point:	-0.020	Yaw Set Point:	-0.395	X_WP:	0.000	Y_WP:	0.000	Z_WP:	0.500	X:	0.022	Y:	0.015	Z:	0.050	yaw:	22.659	yaw rate:	2.268	Roll:	0.387	Pitch:	0.055	Yaw:	32.871	Thrust:	33.599
Time:	0.213	Roll Set Point:	-0.047	Pitch Set Point:	-0.020	Yaw Set Point:	-0.396	X_WP:	0.000	Y_WP:	0.000	Z_WP:	0.500	X:	0.022	Y:	0.015	Z:	0.050	yaw:	22.677	yaw rate:	-1.325	Roll:	0.424	Pitch:	0.112	Yaw:	33.285	Thrust:	33.792
Time:	0.228	Roll Set Point:	-0.047	Pitch Set Point:	-0.020	Yaw Set Point:	-0.396	X_WP:	0.000	Y_WP:	0.000	Z_WP:	0.500	X:	0.022	Y:	0.015	Z:	0.050	yaw:	22.664	yaw rate:	-1.258	Roll:	0.386	Pitch:	0.094	Yaw:	32.924	Thrust:	35.149
Time:	0.245	Roll Set Point:	-0.047	Pitch Set Point:	-0.020	Yaw Set Point:	-0.396	X_WP:	0.000	Y_WP:	0.000	Z_WP:	0.500	X:	0.022	Y:	0.015	Z:	0.050	yaw:	22.683	yaw rate:	-3.451	Roll:	0.420	Pitch:	0.066	Yaw:	33.471	Thrust:	34.398
Time:	0.262	Roll Set Point:	-0.047	Pitch Set Point:	-0.020	Yaw Set Point:	-0.396	X_WP:	0.000	Y_WP:	0.000	Z_WP:	0.500	X:	0.022	Y:	0.015	Z:	0.050	yaw:	22.700	yaw rate:	-3.647	Roll:	0.376	Pitch:	0.063	Yaw:	33.754	Thrust:	37.473
Time:	0.280	Roll Set Point:	-0.047	Pitch Set Point:	-0.020	Yaw Set Point:	-0.396	X_WP:	0.000	Y_WP:	0.000	Z_WP:	0.500	X:	0.022	Y:	0.015	Z:	0.050	yaw:	22.678	yaw rate:	0.567	Roll:	0.412	Pitch:	0.078	Yaw:	33.021	Thrust:	36.769
Time:	0.295	Roll Set Point:	-0.047	Pitch Set Point:	-0.020	Yaw Set Point:	-0.395	X_WP:	0.000	Y_WP:	0.000	Z_WP:	0.500	X:	0.022	Y:	0.015	Z:	0.050	yaw:	22.656	yaw rate:	-1.211	Roll:	0.403	Pitch:	0.145	Yaw:	32.947	Thrust:	39.377
Time:	0.311	Roll Set Point:	-0.047	Pitch Set Point:	-0.020	Yaw Set Point:	-0.396	X_WP:	0.000	Y_WP:	0.000	Z_WP:	0.500	X:	0.022	Y:	0.015	Z:	0.050	yaw:	22.712	yaw rate:	-5.567	Roll:	0.408	Pitch:	0.028	Yaw:	34.200	Thrust:	37.690
Time:	0.326	Roll Set Point:	-0.047	Pitch Set Point:	-0.020	Yaw Set Point:	-0.396	X_WP:	0.000	Y_WP:	0.000	Z_WP:	0.500	X:	0.022	Y:	0.015	Z:	0.050	yaw:	22.677	yaw rate:	3.458	Roll:	0.397	Pitch:	0.097	Yaw:	32.638	Thrust:	38.931
Time:	0.341	Roll Set Point:	-0.047	Pitch Set Point:	-0.020	Yaw Set Point:	-0.396	X_WP:	0.000	Y_WP:	0.000	Z_WP:	0.500	X:	0.022	Y:	0.015	Z:	0.050	yaw:	22.677	yaw rate:	3.458	Roll:	0.402	Pitch:	0.083	Yaw:	33.072	Thrust:	38.434
Time:	0.357	Roll Set Point:	-0.047	Pitch Set Point:	-0.020	Yaw Set Point:	-0.395	X_WP:	0.000	Y_WP:	0.000	Z_WP:	0.500	X:	0.022	Y:	0.015	Z:	0.050	yaw:	22.653	yaw rate:	2.452	Roll:	0.426	Pitch:	0.121	Yaw:	32.848	Thrust:	41.768
Time:	0.372	Roll Set Point:	-0.047	Pitch Set Point:	-0.020	Yaw Set Point:	-0.395	X_WP:	0.000	Y_WP:	0.000	Z_WP:	0.500	X:	0.022	Y:	0.015	Z:	0.050	yaw:	22.650	yaw rate:	0.243	Roll:	0.371	Pitch:	0.017	Yaw:	33.074	Thrust:	41.380
Time:	0.386	Roll Set Point:	-0.047	Pitch Set Point:	-0.020	Yaw Set Point:	-0.396	X_WP:	0.000	Y_WP:	0.000	Z_WP:	0.500	X:	0.022	Y:	0.015	Z:	0.050	yaw:	22.684	yaw rate:	-3.340	Roll:	0.412	Pitch:	0.091	Yaw:	33.731	Thrust:	40.683
Time:	0.401	Roll Set Point:	-0.047	Pitch Set Point:	-0.020	Yaw Set Point:	-0.396	X_WP:	0.000	Y_WP:	0.000	Z_WP:	0.500	X:	0.022	Y:	0.015	Z:	0.050	yaw:	22.684	yaw rate:	-3.340	Roll:	0.407	Pitch:	0.083	Yaw:	33.179	Thrust:	42.605
Time:	0.416	Roll Set Point:	-0.047	Pitch Set Point:	-0.020	Yaw Set Point:	-0.396	X_WP:	0.000	Y_WP:	0.000	Z_WP:	0.500	X:	0.022	Y:	0.015	Z:	0.050	yaw:	22.674	yaw rate:	0.910	Roll:	0.406	Pitch:	0.102	Yaw:	33.003	Thrust:	43.297
Time:	0.433	Roll Set Point:	-0.047	Pitch Set Point:	-0.020	Yaw Set Point:	-0.396	X_WP:	0.000	Y_WP:	0.000	Z_WP:	0.500	X:	0.022	Y:	0.015	Z:	0.050	yaw:	22.665	yaw rate:	0.977	Roll:	0.408	Pitch:	0.081	Yaw:	33.091	Thrust:	44.926
Time:	0.448	Roll Set Point:	-0.047	Pitch Set Point:	-0.020	Yaw Set Point:	-0.396	X_WP:	0.000	Y_WP:	0.000	Z_WP:	0.500	X:	0.022	Y:	0.015	Z:	0.050	yaw:	22.709	yaw rate:	-4.435	Roll:	0.417	Pitch:	0.080	Yaw:	34.012	Thrust:	46.446
Time:	0.464	Roll Set Point:	-0.047	Pitch Set Point:	-0.020	Yaw Set Point:	-0.396	X_WP:	0.000	Y_WP:	0.000	Z_WP:	0.500	X:	0.022	Y:	0.015	Z:	0.050	yaw:	22.709	yaw rate:	-4.435	Roll:	0.411	Pitch:	0.084	Yaw:	33.294	Thrust:	45.706
Time:	0.480	Roll Set Point:	-0.047	Pitch Set Point:	-0.020	Yaw Set Point:	-0.395	X_WP:	0.000	Y_WP:	0.000	Z_WP:	0.500	X:	0.022	Y:	0.015	Z:	0.050	yaw:	22.648	yaw rate:	6.061	Roll:	0.391	Pitch:	0.104	Yaw:	32.234	Thrust:	50.067
Time:	0.496	Roll Set Point:	-0.047	Pitch Set Point:	-0.020	Yaw Set Point:	-0.396	X_WP:	0.000	Y_WP:	0.000	Z_WP:	0.500	X:	0.022	Y:	0.015	Z:	0.050	yaw:	22.674	yaw rate:	-2.560	Roll:	0.440	Pitch:	0.086	Yaw:	33.729	Thrust:	48.400
Time:	0.512	Roll Set Point:	-0.047	Pitch Set Point:	-0.020	Yaw Set Point:	-0.396	X_WP:	0.000	Y_WP:	0.000	Z_WP:	0.500	X:	0.022	Y:	0.015	Z:	0.050	yaw:	22.677	yaw rate:	-0.338	Roll:	0.408	Pitch:	0.075	Yaw:	33.321	Thrust:	48.282
Time:	0.528	Roll Set Point:	-0.047	Pitch Set Point:	-0.020	Yaw Set Point:	-0.396	X_WP:	0.000	Y_WP:	0.000	Z_WP:	0.500	X:	0.022	Y:	0.015	Z:	0.050	yaw:	22.687	yaw rate:	-0.941	Roll:	0.405	Pitch:	0.091	Yaw:	33.397	Thrust:	52.489
Time:	0.547	Roll Set Point:	-0.047	Pitch Set Point:	-0.020	Yaw Set Point:	-0.396	X_WP:	0.000	Y_WP:	0.000	Z_WP:	0.500	X:	0.022	Y:	0.015	Z:	0.050	yaw:	22.687	yaw rate:	-0.941	Roll:	0.416	Pitch:	0.085	Yaw:	33.516	Thrust:	52.909
Time:	0.563	Roll Set Point:	-0.047	Pitch Set Point:	-0.020	Yaw Set Point:	-0.396	X_WP:	0.000	Y_WP:	0.000	Z_WP:	0.500	X:	0.022	Y:	0.015	Z:	0.050	yaw:	22.688	yaw rate:	-0.143	Roll:	0.452	Pitch:	0.085	Yaw:	33.459	Thrust:	56.770
Time:	0.581	Roll Set Point:	-0.047	Pitch Set Point:	-0.020	Yaw Set Point:	-0.396	X_WP:	0.000	Y_WP:	0.000	Z_WP:	0.500	X:	0.022	Y:	0.015	Z:	0.050	yaw:	22.662	yaw rate:	2.599	Roll:	0.372	Pitch:	0.103	Yaw:	32.886	Thrust:	55.134
Time:	0.598	Roll Set Point:	-0.047	Pitch Set Point:	-0.020	Yaw Set Point:	-0.395	X_WP:	0.000	Y_WP:	0.000	Z_WP:	0.500	X:	0.022	Y:	0.015	Z:	0.050	yaw:	22.642	yaw rate:	2.049	Roll:	0.436	Pitch:	0.055	Yaw:	33.004	Thrust:	56.828
Time:	0.613	Roll Set Point:	-0.047	Pitch Set Point:	-0.020	Yaw Set Point:	-0.395	X_WP:	0.000	Y_WP:	0.000	Z_WP:	0.500	X:	0.022	Y:	0.015	Z:	0.050	yaw:	22.652	yaw rate:	-1.032	Roll:	0.429	Pitch:	0.110	Yaw:	33.274	Thrust:	52.337
Time:	0.627	Roll Set Point:	-0.047	Pitch Set Point:	-0.020	Yaw Set Point:	-0.396	X_WP:	0.000	Y_WP:	0.000	Z_WP:	0.500	X:	0.022	Y:	0.015	Z:	0.050	yaw:	22.689	yaw rate:	-3.646	Roll:	0.425	Pitch:	0.121	Yaw:	33.793	Thrust:	53.205
Time:	0.640	Roll Set Point:	-0.047	Pitch Set Point:	-0.020	Yaw Set Point:	-0.396	X_WP:	0.000	Y_WP:	0.000	Z_WP:	0.500	X:	0.022	Y:	0.015	Z:	0.050	yaw:	22.689	yaw rate:	-3.646	Roll:	0.418	Pitch:	0.086	Yaw:	33.030	Thrust:	51.696
Time:	0.654	Roll Set Point:	-0.047	Pitch Set Point:	-0.020	Yaw Set Point:	-0.396	X_WP:	0.000	Y_WP:	0.000	Z_WP:	0.500	X:	0.022	Y:	0.015	Z:	0.050	yaw:	22.678	yaw rate:	1.015	Roll:	0.415	Pitch:	0.025	Yaw:	32.824	Thrust:	51.385
Time:	0.668	Roll Set Point:	-0.047	Pitch Set Point:	-0.020	Yaw Set Point:	-0.396	X_WP:	0.000	Y_WP:	0.000	Z_WP:	0.500	X:	0.022	Y:	0.015	Z:	0.050	yaw:	22.677	yaw rate:	0.100	Roll:	0.388	Pitch:	0.113	Yaw:	32.985	Thrust:	53.948
Time:	0.680	Roll Set Point:	-0.047	Pitch Set Point:	-0.020	Yaw Set Point:	-0.396	X_WP:	0.000	Y_WP:	0.000	Z_WP:	0.500	X:	0.022	Y:	0.015	Z:	0.050	yaw:	22.677	yaw rate:	0.100	Roll:	0.418	Pitch:	0.086	Yaw:	33.018	Thrust:	52.851
Time:	0.694	Roll Set Point:	-0.047	Pitch Set Point:	-0.021	Yaw Set Point:	-0.395	X_WP:	0.000	Y_WP:	0.000	Z_WP:	0.500	X:	0.022	Y:	0.015	Z:	0.051	yaw:	22.644	yaw rate:	3.366	Roll:	0.590	Pitch:	0.383	Yaw:	32.248	Thrust:	52.193
Time:	0.707	Roll Set Point:	-0.047	Pitch Set Point:	-0.020	Yaw Set Point:	-0.396	X_WP:	0.000	Y_WP:	0.000	Z_WP:	0.500	X:	0.022	Y:	0.015	Z:	0.050	yaw:	22.681	yaw rate:	-3.738	Roll:	0.283	Pitch:	-0.234	Yaw:	33.739	Thrust:	57.634
Time:	0.720	Roll Set Point:	-0.047	Pitch Set Point:	-0.020	Yaw Set Point:	-0.396	X_WP:	0.000	Y_WP:	0.000	Z_WP:	0.500	X:	0.022	Y:	0.015	Z:	0.050	yaw:	22.681	yaw rate:	-3.738	Roll:	0.421	Pitch:	0.087	Yaw:	32.978	Thrust:	55.088
Time:	0.734	Roll Set Point:	-0.047	Pitch Set Point:	-0.020	Yaw Set Point:	-0.396	X_WP:	0.000	Y_WP:	0.000	Z_WP:	0.500	X:	0.022	Y:	0.015	Z:	0.050	yaw:	22.671	yaw rate:	0.969	Roll:	0.407	Pitch:	0.063	Yaw:	32.866	Thrust:	55.464
Time:	0.747	Roll Set Point:	-0.047	Pitch Set Point:	-0.020	Yaw Set Point:	-0.396	X_WP:	0.000	Y_WP:	0.000	Z_WP:	0.500	X:	0.022	Y:	0.015	Z:	0.050	yaw:	22.695	yaw rate:	-2.374	Roll:	0.468	Pitch:	0.131	Yaw:	33.505	Thrust:	58.714
Time:	0.760	Roll Set Point:	-0.047	Pitch Set Point:	-0.020	Yaw Set Point:	-0.396	X_WP:	0.000	Y_WP:	0.000	Z_WP:	0.500	X:	0.022	Y:	0.015	Z:	0.050	yaw:	22.695	yaw rate:	-2.374	Roll:	0.424	Pitch:	0.088	Yaw:	32.947	Thrust:	56.038
Time:	0.773	Roll Set Point:	-0.048	Pitch Set Point:	-0.021	Yaw Set Point:	-0.394	X_WP:	0.000	Y_WP:	0.000	Z_WP:	0.500	X:	0.022	Y:	0.015	Z:	0.051	yaw:	22.595	yaw rate:	10.050	Roll:	0.674	Pitch:	0.379	Yaw:	30.968	Thrust:	58.768
Time:	0.787	Roll Set Point:	-0.047	Pitch Set Point:	-0.020	Yaw Set Point:	-0.395	X_WP:	0.000	Y_WP:	0.000	Z_WP:	0.500	X:	0.022	Y:	0.015	Z:	0.050	yaw:	22.649	yaw rate:	-5.470	Roll:	0.131	Pitch:	-0.231	Yaw:	34.036	Thrust:	60.324
Time:	0.800	Roll Set Point:	-0.047	Pitch Set Point:	-0.020	Yaw Set Point:	-0.395	X_WP:	0.000	Y_WP:	0.000	Z_WP:	0.500	X:	0.022	Y:	0.015	Z:	0.050	yaw:	22.649	yaw rate:	-5.470	Roll:	0.426	Pitch:	0.087	Yaw:	32.917	Thrust:	58.886
Time:	0.814	Roll Set Point:	-0.047	Pitch Set Point:	-0.020	Yaw Set Point:	-0.396	X_WP:	0.000	Y_WP:	0.000	Z_WP:	0.500	X:	0.022	Y:	0.015	Z:	0.050	yaw:	22.684	yaw rate:	-3.507	Roll:	0.441	Pitch:	0.104	Yaw:	33.694	Thrust:	60.543
Time:	0.827	Roll Set Point:	-0.047	Pitch Set Point:	-0.020	Yaw Set Point:	-0.396	X_WP:	0.000	Y_WP:	0.000	Z_WP:	0.500	X:	0.022	Y:	0.015	Z:	0.051	yaw:	22.661	yaw rate:	2.315	Roll:	0.443	Pitch:	0.092	Yaw:	32.540	Thrust:	61.734
Time:	0.840	Roll Set Point:	-0.047	Pitch Set Point:	-0.020	Yaw Set Point:	-0.396	X_WP:	0.000	Y_WP:	0.000	Z_WP:	0.500	X:	0.022	Y:	0.015	Z:	0.051	yaw:	22.661	yaw rate:	2.315	Roll:	0.431	Pitch:	0.088	Yaw:	32.998	Thrust:	61.294
Time:	0.854	Roll Set Point:	-0.047	Pitch Set Point:	-0.020	Yaw Set Point:	-0.396	X_WP:	0.000	Y_WP:	0.000	Z_WP:	0.500	X:	0.022	Y:	0.015	Z:	0.050	yaw:	22.661	yaw rate:	-0.009	Roll:	0.431	Pitch:	0.102	Yaw:	32.948	Thrust:	63.746
Time:	0.866	Roll Set Point:	-0.047	Pitch Set Point:	-0.020	Yaw Set Point:	-0.396	X_WP:	0.000	Y_WP:	0.000	Z_WP:	0.500	X:	0.022	Y:	0.015	Z:	0.050	yaw:	22.696	yaw rate:	-3.472	Roll:	0.435	Pitch:	0.041	Yaw:	33.690	Thrust:	64.102
Time:	0.881	Roll Set Point:	-0.047	Pitch Set Point:	-0.020	Yaw Set Point:	-0.396	X_WP:	0.000	Y_WP:	0.000	Z_WP:	0.500	X:	0.022	Y:	0.015	Z:	0.050	yaw:	22.696	yaw rate:	-3.472	Roll:	0.431	Pitch:	0.089	Yaw:	33.091	Thrust:	64.798
Time:	0.894	Roll Set Point:	-0.047	Pitch Set Point:	-0.020	Yaw Set Point:	-0.396	X_WP:	0.000	Y_WP:	0.000	Z_WP:	0.500	X:	0.022	Y:	0.015	Z:	0.050	yaw:	22.676	yaw rate:	1.973	Roll:	0.420	Pitch:	0.145	Yaw:	32.599	Thrust:	64.823
Time:	0.907	Roll Set Point:	-0.047	Pitch Set Point:	-0.020	Yaw Set Point:	-0.396	X_WP:	0.000	Y_WP:	0.000	Z_WP:	0.500	X:	0.022	Y:	0.015	Z:	0.050	yaw:	22.686	yaw rate:	-0.957	Roll:	0.456	Pitch:	0.085	Yaw:	33.182	Thrust:	63.500
Time:	0.921	Roll Set Point:	-0.047	Pitch Set Point:	-0.020	Yaw Set Point:	-0.396	X_WP:	0.000	Y_WP:	0.000	Z_WP:	0.500	X:	0.022	Y:	0.015	Z:	0.050	yaw:	22.686	yaw rate:	-0.957	Roll:	0.434	Pitch:	0.090	Yaw:	33.030	Thrust:	68.676
Time:	0.934	Roll Set Point:	-0.047	Pitch Set Point:	-0.020	Yaw Set Point:	-0.396	X_WP:	0.000	Y_WP:	0.000	Z_WP:	0.500	X:	0.022	Y:	0.015	Z:	0.050	yaw:	22.668	yaw rate:	1.787	Roll:	0.419	Pitch:	0.031	Yaw:	32.547	Thrust:	66.635
Time:	0.948	Roll Set Point:	-0.047	Pitch Set Point:	-0.020	Yaw Set Point:	-0.396	X_WP:	0.000	Y_WP:	0.000	Z_WP:	0.500	X:	0.022	Y:	0.015	Z:	0.050	yaw:	22.695	yaw rate:	-2.727	Roll:	0.439	Pitch:	0.095	Yaw:	33.601	Thrust:	68.555
Time:	0.960	Roll Set Point:	-0.047	Pitch Set Point:	-0.020	Yaw Set Point:	-0.396	X_WP:	0.000	Y_WP:	0.000	Z_WP:	0.500	X:	0.022	Y:	0.015	Z:	0.050	yaw:	22.695	yaw rate:	-2.727	Roll:	0.436	Pitch:	0.090	Yaw:	32.978	Thrust:	67.253
Time:	0.973	Roll Set Point:	-0.047	Pitch Set Point:	-0.020	Yaw Set Point:	-0.395	X_WP:	0.000	Y_WP:	0.000	Z_WP:	0.500	X:	0.022	Y:	0.015	Z:	0.050	yaw:	22.648	yaw rate:	4.714	Roll:	0.469	Pitch:	0.118	Yaw:	31.996	Thrust:	70.127
Time:	0.987	Roll Set Point:	-0.047	Pitch Set Point:	-0.020	Yaw Set Point:	-0.395	X_WP:	0.000	Y_WP:	0.000	Z_WP:	0.500	X:	0.022	Y:	0.015	Z:	0.050	yaw:	22.645	yaw rate:	0.359	Roll:	0.390	Pitch:	0.095	Yaw:	32.912	Thrust:	69.479
Time:	1.000	Roll Set Point:	-0.047	Pitch Set Point:	-0.020	Yaw Set Point:	-0.395	X_WP:	0.000	Y_WP:	0.000	Z_WP:	0.500	X:	0.022	Y:	0.015	Z:	0.050	yaw:	22.645	yaw rate:	0.359	Roll:	0.440	Pitch:	0.090	Yaw:	32.890	Thrust:	68.647
Time:	1.014	Roll Set Point:	-0.047	Pitch Set Point:	-0.020	Yaw Set Point:	-0.396	X_WP:	0.000	Y_WP:	0.000	Z_WP:	0.500	X:	0.022	Y:	0.015	Z:	0.050	yaw:	22.672	yaw rate:	-2.761	Roll:	0.435	Pitch:	0.030	Yaw:	33.557	Thrust:	74.676
Time:	1.027	Roll Set Point:	-0.047	Pitch Set Point:	-0.020	Yaw Set Point:	-0.396	X_WP:	0.000	Y_WP:	0.000	Z_WP:	0.500	X:	0.022	Y:	0.015	Z:	0.050	yaw:	22.668	yaw rate:	0.464	Roll:	0.461	Pitch:	0.123	Yaw:	32.870	Thrust:	71.451
Time:	1.040	Roll Set Point:	-0.047	Pitch Set Point:	-0.020	Yaw Set Point:	-0.396	X_WP:	0.000	Y_WP:	0.000	Z_WP:	0.500	X:	0.022	Y:	0.015	Z:	0.050	yaw:	22.668	yaw rate:	0.464	Roll:	0.442	Pitch:	0.090	Yaw:	32.967	Thrust:	68.689
Time:	1.055	Roll Set Point:	-0.047	Pitch Set Point:	-0.020	Yaw Set Point:	-0.395	X_WP:	0.000	Y_WP:	0.000	Z_WP:	0.500	X:	0.022	Y:	0.015	Z:	0.050	yaw:	22.659	yaw rate:	0.888	Roll:	0.450	Pitch:	0.112	Yaw:	32.933	Thrust:	81.768
Time:	1.068	Roll Set Point:	-0.047	Pitch Set Point:	-0.020	Yaw Set Point:	-0.395	X_WP:	0.000	Y_WP:	0.000	Z_WP:	0.500	X:	0.022	Y:	0.015	Z:	0.050	yaw:	22.652	yaw rate:	0.646	Roll:	0.451	Pitch:	0.072	Yaw:	32.912	Thrust:	76.948
Time:	1.082	Roll Set Point:	-0.047	Pitch Set Point:	-0.020	Yaw Set Point:	-0.395	X_WP:	0.000	Y_WP:	0.000	Z_WP:	0.500	X:	0.022	Y:	0.015	Z:	0.050	yaw:	22.652	yaw rate:	0.646	Roll:	0.444	Pitch:	0.091	Yaw:	32.935	Thrust:	72.298
Time:	1.095	Roll Set Point:	-0.047	Pitch Set Point:	-0.020	Yaw Set Point:	-0.396	X_WP:	0.000	Y_WP:	0.000	Z_WP:	0.500	X:	0.022	Y:	0.015	Z:	0.050	yaw:	22.700	yaw rate:	-4.762	Roll:	0.437	Pitch:	0.096	Yaw:	33.975	Thrust:	77.313
Time:	1.109	Roll Set Point:	-0.047	Pitch Set Point:	-0.020	Yaw Set Point:	-0.395	X_WP:	0.000	Y_WP:	0.000	Z_WP:	0.500	X:	0.022	Y:	0.015	Z:	0.050	yaw:	22.656	yaw rate:	4.408	Roll:	0.449	Pitch:	0.098	Yaw:	32.084	Thrust:	77.912
Time:	1.123	Roll Set Point:	-0.047	Pitch Set Point:	-0.020	Yaw Set Point:	-0.395	X_WP:	0.000	Y_WP:	0.000	Z_WP:	0.500	X:	0.022	Y:	0.015	Z:	0.050	yaw:	22.656	yaw rate:	4.408	Roll:	0.449	Pitch:	0.093	Yaw:	33.100	Thrust:	80.493
Time:	1.135	Roll Set Point:	-0.047	Pitch Set Point:	-0.020	Yaw Set Point:	-0.396	X_WP:	0.000	Y_WP:	0.000	Z_WP:	0.500	X:	0.022	Y:	0.015	Z:	0.050	yaw:	22.673	yaw rate:	-1.715	Roll:	0.474	Pitch:	0.124	Yaw:	33.277	Thrust:	77.278
Time:	1.150	Roll Set Point:	-0.047	Pitch Set Point:	-0.020	Yaw Set Point:	-0.396	X_WP:	0.000	Y_WP:	0.000	Z_WP:	0.500	X:	0.022	Y:	0.015	Z:	0.050	yaw:	22.666	yaw rate:	0.682	Roll:	0.432	Pitch:	0.051	Yaw:	32.928	Thrust:	79.517
Time:	1.166	Roll Set Point:	-0.047	Pitch Set Point:	-0.020	Yaw Set Point:	-0.396	X_WP:	0.000	Y_WP:	0.000	Z_WP:	0.500	X:	0.022	Y:	0.015	Z:	0.050	yaw:	22.666	yaw rate:	0.682	Roll:	0.455	Pitch:	0.094	Yaw:	33.177	Thrust:	89.585
Time:	1.184	Roll Set Point:	-0.047	Pitch Set Point:	-0.020	Yaw Set Point:	-0.396	X_WP:	0.000	Y_WP:	0.000	Z_WP:	0.500	X:	0.022	Y:	0.015	Z:	0.050	yaw:	22.666	yaw rate:	0.007	Roll:	0.465	Pitch:	0.125	Yaw:	33.408	Thrust:	93.615
Time:	1.202	Roll Set Point:	-0.048	Pitch Set Point:	-0.020	Yaw Set Point:	-0.396	X_WP:	0.000	Y_WP:	0.000	Z_WP:	0.500	X:	0.022	Y:	0.015	Z:	0.051	yaw:	22.687	yaw rate:	-2.117	Roll:	0.642	Pitch:	0.126	Yaw:	33.757	Thrust:	96.686
Time:	1.219	Roll Set Point:	-0.047	Pitch Set Point:	-0.020	Yaw Set Point:	-0.396	X_WP:	0.000	Y_WP:	0.000	Z_WP:	0.500	X:	0.022	Y:	0.015	Z:	0.050	yaw:	22.678	yaw rate:	0.902	Roll:	0.329	Pitch:	0.052	Yaw:	33.409	Thrust:	100.000
Time:	1.237	Roll Set Point:	-0.047	Pitch Set Point:	-0.020	Yaw Set Point:	-0.395	X_WP:	0.000	Y_WP:	0.000	Z_WP:	0.500	X:	0.022	Y:	0.015	Z:	0.050	yaw:	22.655	yaw rate:	2.353	Roll:	0.469	Pitch:	0.103	Yaw:	32.988	Thrust:	98.824
Time:	1.254	Roll Set Point:	-0.048	Pitch Set Point:	-0.020	Yaw Set Point:	-0.396	X_WP:	0.000	Y_WP:	0.000	Z_WP:	0.500	X:	0.022	Y:	0.015	Z:	0.051	yaw:	22.682	yaw rate:	-2.754	Roll:	0.560	Pitch:	0.113	Yaw:	33.795	Thrust:	98.879
Time:	1.272	Roll Set Point:	-0.047	Pitch Set Point:	-0.020	Yaw Set Point:	-0.396	X_WP:	0.000	Y_WP:	0.000	Z_WP:	0.500	X:	0.022	Y:	0.015	Z:	0.050	yaw:	22.662	yaw rate:	1.989	Roll:	0.396	Pitch:	0.098	Yaw:	33.218	Thrust:	100.000
Time:	1.289	Roll Set Point:	-0.047	Pitch Set Point:	-0.020	Yaw Set Point:	-0.395	X_WP:	0.000	Y_WP:	0.000	Z_WP:	0.500	X:	0.022	Y:	0.015	Z:	0.050	yaw:	22.653	yaw rate:	0.900	Roll:	0.505	Pitch:	0.091	Yaw:	33.044	Thrust:	99.240
Time:	1.305	Roll Set Point:	-0.047	Pitch Set Point:	-0.020	Yaw Set Point:	-0.395	X_WP:	0.000	Y_WP:	0.000	Z_WP:	0.500	X:	0.022	Y:	0.015	Z:	0.050	yaw:	22.653	yaw rate:	0.900	Roll:	0.476	Pitch:	0.098	Yaw:	33.366	Thrust:	100.000
Time:	1.323	Roll Set Point:	-0.047	Pitch Set Point:	-0.020	Yaw Set Point:	-0.396	X_WP:	0.000	Y_WP:	0.000	Z_WP:	0.500	X:	0.022	Y:	0.015	Z:	0.050	yaw:	22.666	yaw rate:	-1.292	Roll:	0.468	Pitch:	0.073	Yaw:	33.466	Thrust:	98.631
Time:	1.339	Roll Set Point:	-0.047	Pitch Set Point:	-0.020	Yaw Set Point:	-0.395	X_WP:	0.000	Y_WP:	0.000	Z_WP:	0.500	X:	0.022	Y:	0.015	Z:	0.050	yaw:	22.624	yaw rate:	4.248	Roll:	0.457	Pitch:	0.141	Yaw:	32.584	Thrust:	100.000
Time:	1.356	Roll Set Point:	-0.047	Pitch Set Point:	-0.020	Yaw Set Point:	-0.396	X_WP:	0.000	Y_WP:	0.000	Z_WP:	0.500	X:	0.022	Y:	0.015	Z:	0.050	yaw:	22.672	yaw rate:	-4.855	Roll:	0.486	Pitch:	0.094	Yaw:	34.086	Thrust:	100.000
Time:	1.372	Roll Set Point:	-0.047	Pitch Set Point:	-0.020	Yaw Set Point:	-0.396	X_WP:	0.000	Y_WP:	0.000	Z_WP:	0.500	X:	0.022	Y:	0.015	Z:	0.050	yaw:	22.669	yaw rate:	0.310	Roll:	0.482	Pitch:	0.076	Yaw:	33.215	Thrust:	99.108
Time:	1.388	Roll Set Point:	-0.047	Pitch Set Point:	-0.020	Yaw Set Point:	-0.395	X_WP:	0.000	Y_WP:	0.000	Z_WP:	0.500	X:	0.022	Y:	0.015	Z:	0.050	yaw:	22.651	yaw rate:	1.844	Roll:	0.491	Pitch:	0.087	Yaw:	33.005	Thrust:	100.000
Time:	1.405	Roll Set Point:	-0.047	Pitch Set Point:	-0.020	Yaw Set Point:	-0.395	X_WP:	0.000	Y_WP:	0.000	Z_WP:	0.500	X:	0.022	Y:	0.015	Z:	0.050	yaw:	22.651	yaw rate:	1.844	Roll:	0.478	Pitch:	0.098	Yaw:	33.227	Thrust:	100.000
Time:	1.422	Roll Set Point:	-0.047	Pitch Set Point:	-0.020	Yaw Set Point:	-0.396	X_WP:	0.000	Y_WP:	0.000	Z_WP:	0.500	X:	0.022	Y:	0.015	Z:	0.050	yaw:	22.677	yaw rate:	-2.611	Roll:	0.459	Pitch:	0.113	Yaw:	33.775	Thrust:	100.000
Time:	1.438	Roll Set Point:	-0.047	Pitch Set Point:	-0.020	Yaw Set Point:	-0.395	X_WP:	0.000	Y_WP:	0.000	Z_WP:	0.500	X:	0.022	Y:	0.015	Z:	0.050	yaw:	22.649	yaw rate:	2.783	Roll:	0.509	Pitch:	0.110	Yaw:	32.770	Thrust:	100.000
Time:	1.456	Roll Set Point:	-0.047	Pitch Set Point:	-0.020	Yaw Set Point:	-0.396	X_WP:	0.000	Y_WP:	0.000	Z_WP:	0.500	X:	0.022	Y:	0.015	Z:	0.051	yaw:	22.686	yaw rate:	-3.673	Roll:	0.552	Pitch:	0.095	Yaw:	33.982	Thrust:	100.000
Time:	1.472	Roll Set Point:	-0.047	Pitch Set Point:	-0.020	Yaw Set Point:	-0.396	X_WP:	0.000	Y_WP:	0.000	Z_WP:	0.500	X:	0.022	Y:	0.015	Z:	0.051	yaw:	22.686	yaw rate:	-3.673	Roll:	0.487	Pitch:	0.100	Yaw:	33.337	Thrust:	100.000
Time:	1.491	Roll Set Point:	-0.047	Pitch Set Point:	-0.020	Yaw Set Point:	-0.396	X_WP:	0.000	Y_WP:	0.000	Z_WP:	0.500	X:	0.022	Y:	0.015	Z:	0.050	yaw:	22.668	yaw rate:	-1.140	Roll:	0.413	Pitch:	0.098	Yaw:	33.317	Thrust:	100.000
Time:	1.508	Roll Set Point:	-0.047	Pitch Set Point:	-0.020	Yaw Set Point:	-0.396	X_WP:	0.000	Y_WP:	0.000	Z_WP:	0.500	X:	0.022	Y:	0.015	Z:	0.050	yaw:	22.670	yaw rate:	-0.193	Roll:	0.518	Pitch:	0.084	Yaw:	33.454	Thrust:	100.000
Time:	1.525	Roll Set Point:	-0.047	Pitch Set Point:	-0.020	Yaw Set Point:	-0.396	X_WP:	0.000	Y_WP:	0.000	Z_WP:	0.500	X:	0.022	Y:	0.015	Z:	0.050	yaw:	22.670	yaw rate:	-0.193	Roll:	0.492	Pitch:	0.101	Yaw:	33.313	Thrust:	100.000
Time:	1.542	Roll Set Point:	-0.047	Pitch Set Point:	-0.020	Yaw Set Point:	-0.395	X_WP:	0.000	Y_WP:	0.000	Z_WP:	0.500	X:	0.022	Y:	0.015	Z:	0.050	yaw:	22.656	yaw rate:	1.369	Roll:	0.458	Pitch:	0.106	Yaw:	33.075	Thrust:	100.000
Time:	1.561	Roll Set Point:	-0.047	Pitch Set Point:	-0.020	Yaw Set Point:	-0.395	X_WP:	0.000	Y_WP:	0.000	Z_WP:	0.500	X:	0.022	Y:	0.015	Z:	0.050	yaw:	22.644	yaw rate:	1.285	Roll:	0.512	Pitch:	0.109	Yaw:	33.341	Thrust:	100.000
Time:	1.579	Roll Set Point:	-0.047	Pitch Set Point:	-0.020	Yaw Set Point:	-0.396	X_WP:	0.000	Y_WP:	0.000	Z_WP:	0.500	X:	0.022	Y:	0.015	Z:	0.050	yaw:	22.669	yaw rate:	-2.512	Roll:	0.504	Pitch:	0.099	Yaw:	33.740	Thrust:	100.000
Time:	1.596	Roll Set Point:	-0.047	Pitch Set Point:	-0.020	Yaw Set Point:	-0.396	X_WP:	0.000	Y_WP:	0.000	Z_WP:	0.500	X:	0.022	Y:	0.015	Z:	0.050	yaw:	22.684	yaw rate:	-1.571	Roll:	0.498	Pitch:	0.081	Yaw:	33.709	Thrust:	100.000
Time:	1.614	Roll Set Point:	-0.047	Pitch Set Point:	-0.020	Yaw Set Point:	-0.395	X_WP:	0.000	Y_WP:	0.000	Z_WP:	0.500	X:	0.022	Y:	0.015	Z:	0.050	yaw:	22.655	yaw rate:	2.920	Roll:	0.516	Pitch:	0.146	Yaw:	33.115	Thrust:	100.000
Time:	1.631	Roll Set Point:	-0.047	Pitch Set Point:	-0.020	Yaw Set Point:	-0.395	X_WP:	0.000	Y_WP:	0.000	Z_WP:	0.500	X:	0.022	Y:	0.015	Z:	0.050	yaw:	22.651	yaw rate:	0.418	Roll:	0.491	Pitch:	0.104	Yaw:	33.166	Thrust:	100.000
Time:	1.650	Roll Set Point:	-0.047	Pitch Set Point:	-0.020	Yaw Set Point:	-0.395	X_WP:	0.000	Y_WP:	0.000	Z_WP:	0.500	X:	0.022	Y:	0.015	Z:	0.050	yaw:	22.651	yaw rate:	0.418	Roll:	0.503	Pitch:	0.104	Yaw:	33.485	Thrust:	100.000
Time:	1.665	Roll Set Point:	-0.047	Pitch Set Point:	-0.020	Yaw Set Point:	-0.396	X_WP:	0.000	Y_WP:	0.000	Z_WP:	0.500	X:	0.022	Y:	0.015	Z:	0.050	yaw:	22.667	yaw rate:	-1.626	Roll:	0.505	Pitch:	0.064	Yaw:	33.476	Thrust:	100.000
Time:	1.685	Roll Set Point:	-0.047	Pitch Set Point:	-0.020	Yaw Set Point:	-0.395	X_WP:	0.000	Y_WP:	0.000	Z_WP:	0.500	X:	0.022	Y:	0.015	Z:	0.050	yaw:	22.635	yaw rate:	3.239	Roll:	0.494	Pitch:	0.107	Yaw:	33.129	Thrust:	100.000
Time:	1.704	Roll Set Point:	-0.047	Pitch Set Point:	-0.020	Yaw Set Point:	-0.396	X_WP:	0.000	Y_WP:	0.000	Z_WP:	0.500	X:	0.022	Y:	0.015	Z:	0.050	yaw:	22.689	yaw rate:	-5.374	Roll:	0.536	Pitch:	0.134	Yaw:	34.323	Thrust:	100.000
Time:	1.720	Roll Set Point:	-0.047	Pitch Set Point:	-0.020	Yaw Set Point:	-0.396	X_WP:	0.000	Y_WP:	0.000	Z_WP:	0.500	X:	0.022	Y:	0.015	Z:	0.050	yaw:	22.681	yaw rate:	0.798	Roll:	0.501	Pitch:	0.092	Yaw:	33.205	Thrust:	100.000
Time:	1.737	Roll Set Point:	-0.047	Pitch Set Point:	-0.020	Yaw Set Point:	-0.395	X_WP:	0.000	Y_WP:	0.000	Z_WP:	0.500	X:	0.022	Y:	0.015	Z:	0.050	yaw:	22.650	yaw rate:	3.106	Roll:	0.496	Pitch:	0.063	Yaw:	32.807	Thrust:	100.000
Time:	1.754	Roll Set Point:	-0.047	Pitch Set Point:	-0.020	Yaw Set Point:	-0.396	X_WP:	0.000	Y_WP:	0.000	Z_WP:	0.500	X:	0.022	Y:	0.015	Z:	0.050	yaw:	22.688	yaw rate:	-3.791	Roll:	0.512	Pitch:	0.151	Yaw:	33.963	Thrust:	100.000
