Time:	0.033	Roll Set Point:	-0.005	Pitch Set Point:	-0.002	Yaw Set Point:	-2.746	X_WP:	0.000	Y_WP:	0.000	Z_WP:	0.500	X:	-0.002	Y:	0.014	Z:	0.048	yaw:	157.349	yaw rate:	-21.941	Roll:	0.066	Pitch:	-0.120	Yaw:	219.701	Thrust:	24.876
Time:	0.052	Roll Set Point:	-0.005	Pitch Set Point:	-0.002	Yaw Set Point:	-2.743	X_WP:	0.000	Y_WP:	0.000	Z_WP:	0.500	X:	-0.002	Y:	0.013	Z:	0.048	yaw:	157.143	yaw rate:	20.646	Roll:	0.150	Pitch:	0.043	Yaw:	217.647	Thrust:	25.665
Time:	0.072	Roll Set Point:	-0.005	Pitch Set Point:	-0.002	Yaw Set Point:	-2.747	X_WP:	0.000	Y_WP:	0.000	Z_WP:	0.500	X:	-0.002	Y:	0.014	Z:	0.048	yaw:	157.378	yaw rate:	-23.497	Roll:	0.066	Pitch:	-0.283	Yaw:	224.877	Thrust:	26.576
Time:	0.092	Roll Set Point:	-0.005	Pitch Set Point:	-0.002	Yaw Set Point:	-2.746	X_WP:	0.000	Y_WP:	0.000	Z_WP:	0.500	X:	-0.002	Y:	0.013	Z:	0.048	yaw:	157.313	yaw rate:	6.494	Roll:	-0.047	Pitch:	0.019	Yaw:	220.815	Thrust:	27.594
Time:	0.112	Roll Set Point:	-0.005	Pitch Set Point:	-0.002	Yaw Set Point:	-2.747	X_WP:	0.000	Y_WP:	0.000	Z_WP:	0.500	X:	-0.002	Y:	0.013	Z:	0.048	yaw:	157.396	yaw rate:	-8.310	Roll:	0.024	Pitch:	-0.014	Yaw:	222.876	Thrust:	28.687
Time:	0.132	Roll Set Point:	-0.005	Pitch Set Point:	-0.001	Yaw Set Point:	-2.752	X_WP:	0.000	Y_WP:	0.000	Z_WP:	0.500	X:	-0.001	Y:	0.013	Z:	0.048	yaw:	157.674	yaw rate:	-27.840	Roll:	-0.288	Pitch:	0.252	Yaw:	225.794	Thrust:	31.278
Time:	0.153	Roll Set Point:	-0.005	Pitch Set Point:	-0.001	Yaw Set Point:	-2.740	X_WP:	0.000	Y_WP:	0.000	Z_WP:	0.500	X:	-0.001	Y:	0.013	Z:	0.047	yaw:	157.010	yaw rate:	66.448	Roll:	0.047	Pitch:	-0.558	Yaw:	212.850	Thrust:	33.223
Time:	0.171	Roll Set Point:	-0.005	Pitch Set Point:	-0.001	Yaw Set Point:	-2.742	X_WP:	0.000	Y_WP:	0.000	Z_WP:	0.500	X:	-0.001	Y:	0.013	Z:	0.047	yaw:	157.112	yaw rate:	-10.261	Roll:	0.011	Pitch:	-0.122	Yaw:	222.681	Thrust:	31.840
Time:	0.192	Roll Set Point:	-0.005	Pitch Set Point:	-0.001	Yaw Set Point:	-2.739	X_WP:	0.000	Y_WP:	0.000	Z_WP:	0.500	X:	-0.001	Y:	0.013	Z:	0.048	yaw:	156.928	yaw rate:	18.487	Roll:	0.165	Pitch:	-0.112	Yaw:	218.710	Thrust:	33.411
Time:	0.211	Roll Set Point:	-0.005	Pitch Set Point:	-0.001	Yaw Set Point:	-2.739	X_WP:	0.000	Y_WP:	0.000	Z_WP:	0.500	X:	-0.001	Y:	0.013	Z:	0.047	yaw:	156.941	yaw rate:	-1.335	Roll:	-0.035	Pitch:	-0.101	Yaw:	221.236	Thrust:	34.468
Time:	0.232	Roll Set Point:	-0.005	Pitch Set Point:	-0.001	Yaw Set Point:	-2.738	X_WP:	0.000	Y_WP:	0.000	Z_WP:	0.500	X:	-0.001	Y:	0.013	Z:	0.047	yaw:	156.869	yaw rate:	7.228	Roll:	0.182	Pitch:	-0.190	Yaw:	220.265	Thrust:	36.424
Time:	0.252	Roll Set Point:	-0.005	Pitch Set Point:	-0.001	Yaw Set Point:	-2.737	X_WP:	0.000	Y_WP:	0.000	Z_WP:	0.500	X:	-0.001	Y:	0.013	Z:	0.048	yaw:	156.792	yaw rate:	7.643	Roll:	0.049	Pitch:	-0.126	Yaw:	219.943	Thrust:	36.691
Time:	0.272	Roll Set Point:	-0.005	Pitch Set Point:	-0.002	Yaw Set Point:	-2.731	X_WP:	0.000	Y_WP:	0.000	Z_WP:	0.500	X:	-0.001	Y:	0.013	Z:	0.048	yaw:	156.484	yaw rate:	30.809	Roll:	0.228	Pitch:	-0.046	Yaw:	216.326	Thrust:	37.400
Time:	0.291	Roll Set Point:	-0.005	Pitch Set Point:	-0.002	Yaw Set Point:	-2.724	X_WP:	0.000	Y_WP:	0.000	Z_WP:	0.500	X:	-0.001	Y:	0.013	Z:	0.048	yaw:	156.048	yaw rate:	43.611	Roll:	0.131	Pitch:	-0.184	Yaw:	213.935	Thrust:	38.664
Time:	0.312	Roll Set Point:	-0.006	Pitch Set Point:	-0.002	Yaw Set Point:	-2.713	X_WP:	0.000	Y_WP:	0.000	Z_WP:	0.500	X:	-0.001	Y:	0.013	Z:	0.048	yaw:	155.442	yaw rate:	60.640	Roll:	0.105	Pitch:	-0.180	Yaw:	211.503	Thrust:	39.444
Time:	0.332	Roll Set Point:	-0.006	Pitch Set Point:	-0.002	Yaw Set Point:	-2.697	X_WP:	0.000	Y_WP:	0.000	Z_WP:	0.500	X:	-0.001	Y:	0.014	Z:	0.048	yaw:	154.528	yaw rate:	91.313	Roll:	0.136	Pitch:	-0.177	Yaw:	205.845	Thrust:	41.837
Time:	0.353	Roll Set Point:	-0.006	Pitch Set Point:	-0.002	Yaw Set Point:	-2.654	X_WP:	0.000	Y_WP:	0.000	Z_WP:	0.500	X:	-0.001	Y:	0.014	Z:	0.048	yaw:	152.091	yaw rate:	243.713	Roll:	0.587	Pitch:	0.111	Yaw:	183.605	Thrust:	41.706
Time:	0.372	Roll Set Point:	-0.007	Pitch Set Point:	-0.002	Yaw Set Point:	-2.620	X_WP:	0.000	Y_WP:	0.000	Z_WP:	0.500	X:	-0.001	Y:	0.014	Z:	0.048	yaw:	150.136	yaw rate:	195.546	Roll:	0.437	Pitch:	-0.171	Yaw:	184.495	Thrust:	42.683
Time:	0.392	Roll Set Point:	-0.008	Pitch Set Point:	-0.002	Yaw Set Point:	-2.575	X_WP:	0.000	Y_WP:	0.000	Z_WP:	0.500	X:	-0.000	Y:	0.014	Z:	0.048	yaw:	147.557	yaw rate:	257.933	Roll:	0.472	Pitch:	-0.436	Yaw:	175.081	Thrust:	45.555
Time:	0.412	Roll Set Point:	-0.008	Pitch Set Point:	-0.003	Yaw Set Point:	-2.550	X_WP:	0.000	Y_WP:	0.000	Z_WP:	0.500	X:	-0.000	Y:	0.015	Z:	0.048	yaw:	146.127	yaw rate:	142.984	Roll:	0.294	Pitch:	-0.185	Yaw:	185.868	Thrust:	43.637
Time:	0.432	Roll Set Point:	-0.009	Pitch Set Point:	-0.002	Yaw Set Point:	-2.499	X_WP:	0.000	Y_WP:	0.000	Z_WP:	0.500	X:	0.001	Y:	0.015	Z:	0.048	yaw:	143.175	yaw rate:	295.154	Roll:	-0.120	Pitch:	-0.359	Yaw:	165.182	Thrust:	48.368
Time:	0.452	Roll Set Point:	-0.010	Pitch Set Point:	-0.003	Yaw Set Point:	-2.429	X_WP:	0.000	Y_WP:	0.000	Z_WP:	0.500	X:	0.001	Y:	0.015	Z:	0.048	yaw:	139.169	yaw rate:	400.608	Roll:	1.411	Pitch:	0.156	Yaw:	145.873	Thrust:	47.604
Time:	0.472	Roll Set Point:	-0.011	Pitch Set Point:	-0.004	Yaw Set Point:	-2.383	X_WP:	0.000	Y_WP:	0.000	Z_WP:	0.500	X:	0.001	Y:	0.016	Z:	0.048	yaw:	136.551	yaw rate:	261.817	Roll:	0.435	Pitch:	-0.181	Yaw:	157.596	Thrust:	47.339
Time:	0.491	Roll Set Point:	-0.012	Pitch Set Point:	-0.004	Yaw Set Point:	-2.356	X_WP:	0.000	Y_WP:	0.000	Z_WP:	0.500	X:	0.001	Y:	0.017	Z:	0.049	yaw:	134.968	yaw rate:	158.251	Roll:	1.372	Pitch:	-0.196	Yaw:	167.984	Thrust:	47.206
Time:	0.512	Roll Set Point:	-0.012	Pitch Set Point:	-0.005	Yaw Set Point:	-2.307	X_WP:	0.000	Y_WP:	0.000	Z_WP:	0.500	X:	0.001	Y:	0.016	Z:	0.050	yaw:	132.191	yaw rate:	277.733	Roll:	0.011	Pitch:	0.414	Yaw:	153.002	Thrust:	51.444
Time:	0.532	Roll Set Point:	-0.012	Pitch Set Point:	-0.005	Yaw Set Point:	-2.275	X_WP:	0.000	Y_WP:	0.000	Z_WP:	0.500	X:	0.001	Y:	0.016	Z:	0.050	yaw:	130.371	yaw rate:	182.041	Roll:	0.551	Pitch:	0.306	Yaw:	159.613	Thrust:	50.413
Time:	0.554	Roll Set Point:	-0.013	Pitch Set Point:	-0.006	Yaw Set Point:	-2.217	X_WP:	0.000	Y_WP:	0.000	Z_WP:	0.500	X:	0.001	Y:	0.016	Z:	0.051	yaw:	127.009	yaw rate:	336.132	Roll:	0.968	Pitch:	0.309	Yaw:	139.659	Thrust:	54.207
Time:	0.571	Roll Set Point:	-0.014	Pitch Set Point:	-0.007	Yaw Set Point:	-2.125	X_WP:	0.000	Y_WP:	0.000	Z_WP:	0.500	X:	0.001	Y:	0.016	Z:	0.050	yaw:	121.737	yaw rate:	527.225	Roll:	0.876	Pitch:	0.696	Yaw:	93.103	Thrust:	51.905
Time:	0.591	Roll Set Point:	-0.015	Pitch Set Point:	-0.008	Yaw Set Point:	-2.088	X_WP:	0.000	Y_WP:	0.000	Z_WP:	0.500	X:	0.001	Y:	0.017	Z:	0.051	yaw:	119.605	yaw rate:	213.210	Roll:	0.745	Pitch:	-0.110	Yaw:	140.455	Thrust:	53.215
Time:	0.611	Roll Set Point:	-0.016	Pitch Set Point:	-0.008	Yaw Set Point:	-2.063	X_WP:	0.000	Y_WP:	0.000	Z_WP:	0.500	X:	0.002	Y:	0.017	Z:	0.051	yaw:	118.203	yaw rate:	140.237	Roll:	0.459	Pitch:	-0.328	Yaw:	149.137	Thrust:	55.726
Time:	0.632	Roll Set Point:	-0.017	Pitch Set Point:	-0.009	Yaw Set Point:	-1.998	X_WP:	0.000	Y_WP:	0.000	Z_WP:	0.500	X:	0.002	Y:	0.018	Z:	0.052	yaw:	114.500	yaw rate:	370.281	Roll:	1.360	Pitch:	0.593	Yaw:	113.534	Thrust:	55.415
Time:	0.653	Roll Set Point:	-0.019	Pitch Set Point:	-0.011	Yaw Set Point:	-1.927	X_WP:	0.000	Y_WP:	0.000	Z_WP:	0.500	X:	0.002	Y:	0.019	Z:	0.054	yaw:	110.425	yaw rate:	407.450	Roll:	1.270	Pitch:	0.366	Yaw:	107.542	Thrust:	56.535
Time:	0.671	Roll Set Point:	-0.020	Pitch Set Point:	-0.012	Yaw Set Point:	-1.857	X_WP:	0.000	Y_WP:	0.000	Z_WP:	0.500	X:	0.002	Y:	0.020	Z:	0.055	yaw:	106.412	yaw rate:	401.346	Roll:	1.223	Pitch:	0.725	Yaw:	92.292	Thrust:	53.707
Time:	0.692	Roll Set Point:	-0.021	Pitch Set Point:	-0.014	Yaw Set Point:	-1.745	X_WP:	0.000	Y_WP:	0.000	Z_WP:	0.500	X:	0.002	Y:	0.019	Z:	0.055	yaw:	99.997	yaw rate:	641.452	Roll:	0.433	Pitch:	1.358	Yaw:	58.909	Thrust:	62.138
Time:	0.712	Roll Set Point:	-0.023	Pitch Set Point:	-0.015	Yaw Set Point:	-1.667	X_WP:	0.000	Y_WP:	0.000	Z_WP:	0.500	X:	0.003	Y:	0.020	Z:	0.056	yaw:	95.516	yaw rate:	448.184	Roll:	1.265	Pitch:	0.527	Yaw:	77.044	Thrust:	59.216
Time:	0.732	Roll Set Point:	-0.025	Pitch Set Point:	-0.017	Yaw Set Point:	-1.580	X_WP:	0.000	Y_WP:	0.000	Z_WP:	0.500	X:	0.004	Y:	0.021	Z:	0.056	yaw:	90.550	yaw rate:	496.562	Roll:	1.268	Pitch:	1.105	Yaw:	63.910	Thrust:	60.633
Time:	0.753	Roll Set Point:	-0.025	Pitch Set Point:	-0.026	Yaw Set Point:	-1.422	X_WP:	0.000	Y_WP:	0.000	Z_WP:	0.500	X:	0.001	Y:	0.024	Z:	0.059	yaw:	81.451	yaw rate:	909.906	Roll:	2.486	Pitch:	5.274	Yaw:	-5.348	Thrust:	57.526
Time:	0.772	Roll Set Point:	-0.025	Pitch Set Point:	-0.032	Yaw Set Point:	-1.305	X_WP:	0.000	Y_WP:	0.000	Z_WP:	0.500	X:	0.000	Y:	0.026	Z:	0.059	yaw:	74.756	yaw rate:	669.474	Roll:	1.032	Pitch:	3.465	Yaw:	21.250	Thrust:	64.413
Time:	0.792	Roll Set Point:	-0.025	Pitch Set Point:	-0.035	Yaw Set Point:	-1.217	X_WP:	0.000	Y_WP:	0.000	Z_WP:	0.500	X:	0.000	Y:	0.026	Z:	0.062	yaw:	69.750	yaw rate:	500.587	Roll:	0.059	Pitch:	1.845	Yaw:	32.481	Thrust:	56.993
Time:	0.810	Roll Set Point:	-0.023	Pitch Set Point:	-0.039	Yaw Set Point:	-1.137	X_WP:	0.000	Y_WP:	0.000	Z_WP:	0.500	X:	-0.001	Y:	0.027	Z:	0.065	yaw:	65.128	yaw rate:	462.209	Roll:	-0.115	Pitch:	3.276	Yaw:	27.407	Thrust:	57.055
Time:	0.832	Roll Set Point:	-0.021	Pitch Set Point:	-0.043	Yaw Set Point:	-1.055	X_WP:	0.000	Y_WP:	0.000	Z_WP:	0.500	X:	-0.002	Y:	0.028	Z:	0.068	yaw:	60.447	yaw rate:	468.077	Roll:	-0.600	Pitch:	2.718	Yaw:	29.058	Thrust:	61.627
Time:	0.854	Roll Set Point:	-0.019	Pitch Set Point:	-0.047	Yaw Set Point:	-0.971	X_WP:	0.000	Y_WP:	0.000	Z_WP:	0.500	X:	-0.003	Y:	0.028	Z:	0.072	yaw:	55.655	yaw rate:	479.244	Roll:	-0.835	Pitch:	2.679	Yaw:	20.569	Thrust:	61.914
Time:	0.872	Roll Set Point:	-0.016	Pitch Set Point:	-0.051	Yaw Set Point:	-0.899	X_WP:	0.000	Y_WP:	0.000	Z_WP:	0.500	X:	-0.004	Y:	0.029	Z:	0.077	yaw:	51.491	yaw rate:	416.427	Roll:	-1.194	Pitch:	2.966	Yaw:	15.677	Thrust:	54.836
Time:	0.891	Roll Set Point:	-0.013	Pitch Set Point:	-0.054	Yaw Set Point:	-0.822	X_WP:	0.000	Y_WP:	0.000	Z_WP:	0.500	X:	-0.005	Y:	0.030	Z:	0.082	yaw:	47.100	yaw rate:	439.021	Roll:	-1.460	Pitch:	2.655	Yaw:	7.326	Thrust:	55.535
Time:	0.912	Roll Set Point:	-0.010	Pitch Set Point:	-0.056	Yaw Set Point:	-0.749	X_WP:	0.000	Y_WP:	0.000	Z_WP:	0.500	X:	-0.006	Y:	0.030	Z:	0.089	yaw:	42.925	yaw rate:	417.505	Roll:	-1.683	Pitch:	1.820	Yaw:	11.875	Thrust:	59.764
Time:	0.932	Roll Set Point:	-0.006	Pitch Set Point:	-0.059	Yaw Set Point:	-0.696	X_WP:	0.000	Y_WP:	0.000	Z_WP:	0.500	X:	-0.008	Y:	0.031	Z:	0.096	yaw:	39.876	yaw rate:	304.987	Roll:	-1.631	Pitch:	2.135	Yaw:	15.964	Thrust:	52.176
Time:	0.953	Roll Set Point:	-0.003	Pitch Set Point:	-0.062	Yaw Set Point:	-0.652	X_WP:	0.000	Y_WP:	0.000	Z_WP:	0.500	X:	-0.009	Y:	0.031	Z:	0.103	yaw:	37.379	yaw rate:	249.656	Roll:	-1.451	Pitch:	1.904	Yaw:	23.336	Thrust:	57.693
Time:	0.972	Roll Set Point:	0.000	Pitch Set Point:	-0.064	Yaw Set Point:	-0.608	X_WP:	0.000	Y_WP:	0.000	Z_WP:	0.500	X:	-0.010	Y:	0.032	Z:	0.111	yaw:	34.845	yaw rate:	253.349	Roll:	-1.588	Pitch:	1.613	Yaw:	16.743	Thrust:	51.157
Time:	0.991	Roll Set Point:	0.003	Pitch Set Point:	-0.065	Yaw Set Point:	-0.573	X_WP:	0.000	Y_WP:	0.000	Z_WP:	0.500	X:	-0.011	Y:	0.032	Z:	0.119	yaw:	32.853	yaw rate:	199.231	Roll:	-1.441	Pitch:	1.479	Yaw:	20.680	Thrust:	53.499
Time:	1.011	Roll Set Point:	0.006	Pitch Set Point:	-0.066	Yaw Set Point:	-0.534	X_WP:	0.000	Y_WP:	0.000	Z_WP:	0.500	X:	-0.012	Y:	0.032	Z:	0.127	yaw:	30.624	yaw rate:	222.942	Roll:	-1.750	Pitch:	1.134	Yaw:	14.374	Thrust:	51.217
Time:	1.032	Roll Set Point:	0.008	Pitch Set Point:	-0.068	Yaw Set Point:	-0.515	X_WP:	0.000	Y_WP:	0.000	Z_WP:	0.500	X:	-0.013	Y:	0.033	Z:	0.135	yaw:	29.502	yaw rate:	112.130	Roll:	-0.810	Pitch:	1.293	Yaw:	29.380	Thrust:	58.327
Time:	1.053	Roll Set Point:	0.012	Pitch Set Point:	-0.071	Yaw Set Point:	-0.476	X_WP:	0.000	Y_WP:	0.000	Z_WP:	0.500	X:	-0.014	Y:	0.034	Z:	0.144	yaw:	27.274	yaw rate:	222.896	Roll:	-1.747	Pitch:	1.531	Yaw:	12.239	Thrust:	56.743
Time:	1.072	Roll Set Point:	0.013	Pitch Set Point:	-0.071	Yaw Set Point:	-0.460	X_WP:	0.000	Y_WP:	0.000	Z_WP:	0.500	X:	-0.015	Y:	0.034	Z:	0.152	yaw:	26.361	yaw rate:	91.239	Roll:	-0.827	Pitch:	0.729	Yaw:	26.209	Thrust:	51.278
Time:	1.092	Roll Set Point:	0.015	Pitch Set Point:	-0.071	Yaw Set Point:	-0.436	X_WP:	0.000	Y_WP:	0.000	Z_WP:	0.500	X:	-0.015	Y:	0.034	Z:	0.161	yaw:	24.985	yaw rate:	137.610	Roll:	-1.233	Pitch:	0.293	Yaw:	18.930	Thrust:	55.105
Time:	1.112	Roll Set Point:	0.017	Pitch Set Point:	-0.072	Yaw Set Point:	-0.413	X_WP:	0.000	Y_WP:	0.000	Z_WP:	0.500	X:	-0.016	Y:	0.034	Z:	0.169	yaw:	23.662	yaw rate:	132.283	Roll:	-0.946	Pitch:	1.256	Yaw:	17.628	Thrust:	54.914
Time:	1.132	Roll Set Point:	0.018	Pitch Set Point:	-0.072	Yaw Set Point:	-0.410	X_WP:	0.000	Y_WP:	0.000	Z_WP:	0.500	X:	-0.016	Y:	0.034	Z:	0.177	yaw:	23.477	yaw rate:	18.518	Roll:	-0.392	Pitch:	0.372	Yaw:	32.369	Thrust:	57.085
Time:	1.152	Roll Set Point:	0.019	Pitch Set Point:	-0.071	Yaw Set Point:	-0.372	X_WP:	0.000	Y_WP:	0.000	Z_WP:	0.500	X:	-0.016	Y:	0.034	Z:	0.186	yaw:	21.297	yaw rate:	217.971	Roll:	-1.239	Pitch:	0.015	Yaw:	4.113	Thrust:	59.112
Time:	1.172	Roll Set Point:	0.018	Pitch Set Point:	-0.074	Yaw Set Point:	-0.385	X_WP:	0.000	Y_WP:	0.000	Z_WP:	0.500	X:	-0.016	Y:	0.035	Z:	0.193	yaw:	22.061	yaw rate:	-76.395	Roll:	1.014	Pitch:	1.388	Yaw:	43.033	Thrust:	54.128
Time:	1.192	Roll Set Point:	0.018	Pitch Set Point:	-0.074	Yaw Set Point:	-0.393	X_WP:	0.000	Y_WP:	0.000	Z_WP:	0.500	X:	-0.016	Y:	0.035	Z:	0.202	yaw:	22.513	yaw rate:	-45.216	Roll:	0.315	Pitch:	0.673	Yaw:	39.425	Thrust:	57.687
Time:	1.211	Roll Set Point:	0.020	Pitch Set Point:	-0.074	Yaw Set Point:	-0.348	X_WP:	0.000	Y_WP:	0.000	Z_WP:	0.500	X:	-0.016	Y:	0.035	Z:	0.210	yaw:	19.956	yaw rate:	255.735	Roll:	-1.642	Pitch:	0.183	Yaw:	-5.250	Thrust:	54.057
Time:	1.232	Roll Set Point:	0.019	Pitch Set Point:	-0.074	Yaw Set Point:	-0.346	X_WP:	0.000	Y_WP:	0.000	Z_WP:	0.500	X:	-0.016	Y:	0.035	Z:	0.217	yaw:	19.800	yaw rate:	15.649	Roll:	0.239	Pitch:	0.329	Yaw:	27.834	Thrust:	63.399
Time:	1.253	Roll Set Point:	0.020	Pitch Set Point:	-0.073	Yaw Set Point:	-0.314	X_WP:	0.000	Y_WP:	0.000	Z_WP:	0.500	X:	-0.016	Y:	0.035	Z:	0.226	yaw:	17.973	yaw rate:	182.682	Roll:	-0.962	Pitch:	0.039	Yaw:	4.763	Thrust:	62.082
Time:	1.272	Roll Set Point:	0.017	Pitch Set Point:	-0.074	Yaw Set Point:	-0.330	X_WP:	0.000	Y_WP:	0.000	Z_WP:	0.500	X:	-0.015	Y:	0.035	Z:	0.234	yaw:	18.910	yaw rate:	-93.733	Roll:	1.453	Pitch:	0.539	Yaw:	41.486	Thrust:	54.171
Time:	1.292	Roll Set Point:	0.016	Pitch Set Point:	-0.071	Yaw Set Point:	-0.322	X_WP:	0.000	Y_WP:	0.000	Z_WP:	0.500	X:	-0.014	Y:	0.034	Z:	0.242	yaw:	18.456	yaw rate:	45.396	Roll:	0.422	Pitch:	-0.831	Yaw:	21.388	Thrust:	54.646
Time:	1.311	Roll Set Point:	0.015	Pitch Set Point:	-0.071	Yaw Set Point:	-0.317	X_WP:	0.000	Y_WP:	0.000	Z_WP:	0.500	X:	-0.013	Y:	0.034	Z:	0.249	yaw:	18.185	yaw rate:	27.077	Roll:	0.370	Pitch:	0.264	Yaw:	24.040	Thrust:	62.374
Time:	1.332	Roll Set Point:	0.015	Pitch Set Point:	-0.071	Yaw Set Point:	-0.280	X_WP:	0.000	Y_WP:	0.000	Z_WP:	0.500	X:	-0.012	Y:	0.035	Z:	0.258	yaw:	16.039	yaw rate:	214.647	Roll:	-0.638	Pitch:	0.240	Yaw:	-2.844	Thrust:	59.208
Time:	1.353	Roll Set Point:	0.015	Pitch Set Point:	-0.070	Yaw Set Point:	-0.273	X_WP:	0.000	Y_WP:	0.000	Z_WP:	0.500	X:	-0.012	Y:	0.034	Z:	0.267	yaw:	15.646	yaw rate:	39.280	Roll:	-0.056	Pitch:	-0.278	Yaw:	18.920	Thrust:	60.092
Time:	1.372	Roll Set Point:	0.009	Pitch Set Point:	-0.067	Yaw Set Point:	-0.296	X_WP:	0.000	Y_WP:	0.000	Z_WP:	0.500	X:	-0.010	Y:	0.033	Z:	0.276	yaw:	16.985	yaw rate:	-133.921	Roll:	2.580	Pitch:	-0.849	Yaw:	43.623	Thrust:	55.533
Time:	1.392	Roll Set Point:	0.009	Pitch Set Point:	-0.068	Yaw Set Point:	-0.278	X_WP:	0.000	Y_WP:	0.000	Z_WP:	0.500	X:	-0.009	Y:	0.033	Z:	0.285	yaw:	15.902	yaw rate:	108.279	Roll:	0.023	Pitch:	0.362	Yaw:	10.265	Thrust:	57.616
Time:	1.411	Roll Set Point:	0.007	Pitch Set Point:	-0.068	Yaw Set Point:	-0.260	X_WP:	0.000	Y_WP:	0.000	Z_WP:	0.500	X:	-0.008	Y:	0.034	Z:	0.295	yaw:	14.875	yaw rate:	102.724	Roll:	0.526	Pitch:	0.542	Yaw:	8.631	Thrust:	52.407
Time:	1.432	Roll Set Point:	0.005	Pitch Set Point:	-0.067	Yaw Set Point:	-0.252	X_WP:	0.000	Y_WP:	0.000	Z_WP:	0.500	X:	-0.007	Y:	0.033	Z:	0.305	yaw:	14.433	yaw rate:	44.229	Roll:	0.728	Pitch:	-0.108	Yaw:	16.407	Thrust:	56.008
Time:	1.452	Roll Set Point:	0.003	Pitch Set Point:	-0.067	Yaw Set Point:	-0.249	X_WP:	0.000	Y_WP:	0.000	Z_WP:	0.500	X:	-0.006	Y:	0.033	Z:	0.314	yaw:	14.264	yaw rate:	16.894	Roll:	0.899	Pitch:	0.161	Yaw:	19.826	Thrust:	58.468
Time:	1.472	Roll Set Point:	-0.000	Pitch Set Point:	-0.066	Yaw Set Point:	-0.265	X_WP:	0.000	Y_WP:	0.000	Z_WP:	0.500	X:	-0.004	Y:	0.033	Z:	0.324	yaw:	15.170	yaw rate:	-90.595	Roll:	1.519	Pitch:	-0.446	Yaw:	35.014	Thrust:	55.415
Time:	1.491	Roll Set Point:	-0.003	Pitch Set Point:	-0.064	Yaw Set Point:	-0.255	X_WP:	0.000	Y_WP:	0.000	Z_WP:	0.500	X:	-0.003	Y:	0.032	Z:	0.334	yaw:	14.594	yaw rate:	57.647	Roll:	1.104	Pitch:	-0.529	Yaw:	14.375	Thrust:	50.739
Time:	1.512	Roll Set Point:	-0.005	Pitch Set Point:	-0.064	Yaw Set Point:	-0.247	X_WP:	0.000	Y_WP:	0.000	Z_WP:	0.500	X:	-0.001	Y:	0.032	Z:	0.343	yaw:	14.132	yaw rate:	46.151	Roll:	0.774	Pitch:	0.006	Yaw:	15.906	Thrust:	57.765
Time:	1.532	Roll Set Point:	-0.007	Pitch Set Point:	-0.063	Yaw Set Point:	-0.217	X_WP:	0.000	Y_WP:	0.000	Z_WP:	0.500	X:	0.000	Y:	0.032	Z:	0.354	yaw:	12.436	yaw rate:	169.634	Roll:	0.599	Pitch:	-0.081	Yaw:	-2.773	Thrust:	53.860
Time:	1.552	Roll Set Point:	-0.009	Pitch Set Point:	-0.061	Yaw Set Point:	-0.207	X_WP:	0.000	Y_WP:	0.000	Z_WP:	0.500	X:	0.001	Y:	0.031	Z:	0.363	yaw:	11.879	yaw rate:	55.675	Roll:	0.822	Pitch:	-0.203	Yaw:	11.535	Thrust:	56.759
Time:	1.572	Roll Set Point:	-0.013	Pitch Set Point:	-0.060	Yaw Set Point:	-0.229	X_WP:	0.000	Y_WP:	0.000	Z_WP:	0.500	X:	0.003	Y:	0.031	Z:	0.373	yaw:	13.106	yaw rate:	-122.713	Roll:	1.924	Pitch:	-0.608	Yaw:	36.682	Thrust:	53.771
Time:	1.592	Roll Set Point:	-0.015	Pitch Set Point:	-0.059	Yaw Set Point:	-0.219	X_WP:	0.000	Y_WP:	0.000	Z_WP:	0.500	X:	0.004	Y:	0.031	Z:	0.382	yaw:	12.563	yaw rate:	54.301	Roll:	1.039	Pitch:	0.086	Yaw:	12.033	Thrust:	51.642
Time:	1.612	Roll Set Point:	-0.019	Pitch Set Point:	-0.058	Yaw Set Point:	-0.220	X_WP:	0.000	Y_WP:	0.000	Z_WP:	0.500	X:	0.006	Y:	0.030	Z:	0.392	yaw:	12.603	yaw rate:	-4.010	Roll:	1.543	Pitch:	-0.689	Yaw:	20.170	Thrust:	51.943
Time:	1.632	Roll Set Point:	-0.022	Pitch Set Point:	-0.056	Yaw Set Point:	-0.210	X_WP:	0.000	Y_WP:	0.000	Z_WP:	0.500	X:	0.008	Y:	0.029	Z:	0.401	yaw:	12.041	yaw rate:	56.259	Roll:	1.211	Pitch:	-0.321	Yaw:	11.482	Thrust:	57.411
Time:	1.652	Roll Set Point:	-0.025	Pitch Set Point:	-0.055	Yaw Set Point:	-0.214	X_WP:	0.000	Y_WP:	0.000	Z_WP:	0.500	X:	0.009	Y:	0.029	Z:	0.410	yaw:	12.234	yaw rate:	-19.335	Roll:	1.346	Pitch:	-0.386	Yaw:	21.599	Thrust:	60.554
Time:	1.672	Roll Set Point:	-0.027	Pitch Set Point:	-0.054	Yaw Set Point:	-0.204	X_WP:	0.000	Y_WP:	0.000	Z_WP:	0.500	X:	0.011	Y:	0.028	Z:	0.419	yaw:	11.700	yaw rate:	53.401	Roll:	0.921	Pitch:	-0.116	Yaw:	11.139	Thrust:	53.367
Time:	1.691	Roll Set Point:	-0.029	Pitch Set Point:	-0.053	Yaw Set Point:	-0.193	X_WP:	0.000	Y_WP:	0.000	Z_WP:	0.500	X:	0.012	Y:	0.028	Z:	0.427	yaw:	11.078	yaw rate:	62.233	Roll:	1.139	Pitch:	-0.195	Yaw:	8.559	Thrust:	48.854
Time:	1.712	Roll Set Point:	-0.032	Pitch Set Point:	-0.053	Yaw Set Point:	-0.171	X_WP:	0.000	Y_WP:	0.000	Z_WP:	0.500	X:	0.014	Y:	0.028	Z:	0.436	yaw:	9.785	yaw rate:	129.282	Roll:	1.244	Pitch:	0.208	Yaw:	-0.259	Thrust:	61.162
Time:	1.732	Roll Set Point:	-0.036	Pitch Set Point:	-0.050	Yaw Set Point:	-0.198	X_WP:	0.000	Y_WP:	0.000	Z_WP:	0.500	X:	0.016	Y:	0.027	Z:	0.444	yaw:	11.346	yaw rate:	-156.174	Roll:	1.985	Pitch:	-1.312	Yaw:	38.112	Thrust:	54.038
Time:	1.752	Roll Set Point:	-0.038	Pitch Set Point:	-0.049	Yaw Set Point:	-0.173	X_WP:	0.000	Y_WP:	0.000	Z_WP:	0.500	X:	0.017	Y:	0.026	Z:	0.452	yaw:	9.886	yaw rate:	146.086	Roll:	0.945	Pitch:	0.165	Yaw:	-2.746	Thrust:	59.672
Time:	1.772	Roll Set Point:	-0.040	Pitch Set Point:	-0.050	Yaw Set Point:	-0.139	X_WP:	0.000	Y_WP:	0.000	Z_WP:	0.500	X:	0.018	Y:	0.026	Z:	0.460	yaw:	7.964	yaw rate:	192.191	Roll:	0.654	Pitch:	0.878	Yaw:	-13.337	Thrust:	51.318
Time:	1.792	Roll Set Point:	-0.043	Pitch Set Point:	-0.047	Yaw Set Point:	-0.140	X_WP:	0.000	Y_WP:	0.000	Z_WP:	0.500	X:	0.020	Y:	0.025	Z:	0.468	yaw:	8.004	yaw rate:	-4.028	Roll:	1.244	Pitch:	-0.776	Yaw:	13.700	Thrust:	56.455
Time:	1.812	Roll Set Point:	-0.046	Pitch Set Point:	-0.045	Yaw Set Point:	-0.157	X_WP:	0.000	Y_WP:	0.000	Z_WP:	0.500	X:	0.021	Y:	0.024	Z:	0.476	yaw:	9.010	yaw rate:	-100.643	Roll:	1.781	Pitch:	-0.938	Yaw:	27.657	Thrust:	55.790
Time:	1.832	Roll Set Point:	-0.048	Pitch Set Point:	-0.044	Yaw Set Point:	-0.146	X_WP:	0.000	Y_WP:	0.000	Z_WP:	0.500	X:	0.022	Y:	0.024	Z:	0.483	yaw:	8.375	yaw rate:	63.549	Roll:	1.120	Pitch:	-0.015	Yaw:	5.408	Thrust:	56.089
Time:	1.853	Roll Set Point:	-0.051	Pitch Set Point:	-0.044	Yaw Set Point:	-0.155	X_WP:	0.000	Y_WP:	0.000	Z_WP:	0.500	X:	0.024	Y:	0.024	Z:	0.491	yaw:	8.907	yaw rate:	-53.257	Roll:	1.475	Pitch:	-0.323	Yaw:	21.248	Thrust:	58.293
Time:	1.872	Roll Set Point:	-0.053	Pitch Set Point:	-0.042	Yaw Set Point:	-0.148	X_WP:	0.000	Y_WP:	0.000	Z_WP:	0.500	X:	0.025	Y:	0.023	Z:	0.498	yaw:	8.482	yaw rate:	42.555	Roll:	1.206	Pitch:	-0.265	Yaw:	8.049	Thrust:	52.983
Time:	1.892	Roll Set Point:	-0.055	Pitch Set Point:	-0.040	Yaw Set Point:	-0.138	X_WP:	0.000	Y_WP:	0.000	Z_WP:	0.500	X:	0.026	Y:	0.022	Z:	0.505	yaw:	7.887	yaw rate:	59.449	Roll:	1.148	Pitch:	-0.616	Yaw:	5.143	Thrust:	55.257
Time:	1.912	Roll Set Point:	-0.058	Pitch Set Point:	-0.039	Yaw Set Point:	-0.136	X_WP:	0.000	Y_WP:	0.000	Z_WP:	0.500	X:	0.028	Y:	0.021	Z:	0.512	yaw:	7.783	yaw rate:	10.442	Roll:	1.563	Pitch:	-0.508	Yaw:	11.479	Thrust:	54.758
Time:	1.932	Roll Set Point:	-0.060	Pitch Set Point:	-0.038	Yaw Set Point:	-0.123	X_WP:	0.000	Y_WP:	0.000	Z_WP:	0.500	X:	0.029	Y:	0.021	Z:	0.519	yaw:	7.026	yaw rate:	75.742	Roll:	0.951	Pitch:	0.090	Yaw:	2.086	Thrust:	53.625
Time:	1.952	Roll Set Point:	-0.063	Pitch Set Point:	-0.036	Yaw Set Point:	-0.129	X_WP:	0.000	Y_WP:	0.000	Z_WP:	0.500	X:	0.030	Y:	0.020	Z:	0.526	yaw:	7.363	yaw rate:	-33.710	Roll:	1.489	Pitch:	-0.639	Yaw:	16.636	Thrust:	59.154
Time:	1.971	Roll Set Point:	-0.064	Pitch Set Point:	-0.036	Yaw Set Point:	-0.113	X_WP:	0.000	Y_WP:	0.000	Z_WP:	0.500	X:	0.031	Y:	0.020	Z:	0.533	yaw:	6.474	yaw rate:	88.891	Roll:	0.870	Pitch:	0.191	Yaw:	-1.246	Thrust:	49.289
Time:	1.991	Roll Set Point:	-0.067	Pitch Set Point:	-0.034	Yaw Set Point:	-0.118	X_WP:	0.000	Y_WP:	0.000	Z_WP:	0.500	X:	0.032	Y:	0.019	Z:	0.540	yaw:	6.772	yaw rate:	-29.843	Roll:	1.567	Pitch:	-0.648	Yaw:	15.392	Thrust:	53.462
Time:	2.010	Roll Set Point:	-0.068	Pitch Set Point:	-0.034	Yaw Set Point:	-0.106	X_WP:	0.000	Y_WP:	0.000	Z_WP:	0.500	X:	0.033	Y:	0.019	Z:	0.547	yaw:	6.098	yaw rate:	67.387	Roll:	0.893	Pitch:	0.195	Yaw:	1.322	Thrust:	50.192
Time:	2.032	Roll Set Point:	-0.070	Pitch Set Point:	-0.033	Yaw Set Point:	-0.106	X_WP:	0.000	Y_WP:	0.000	Z_WP:	0.500	X:	0.034	Y:	0.018	Z:	0.554	yaw:	6.089	yaw rate:	0.922	Roll:	1.399	Pitch:	-0.175	Yaw:	10.524	Thrust:	59.110
Time:	2.053	Roll Set Point:	-0.072	Pitch Set Point:	-0.032	Yaw Set Point:	-0.107	X_WP:	0.000	Y_WP:	0.000	Z_WP:	0.500	X:	0.035	Y:	0.018	Z:	0.560	yaw:	6.159	yaw rate:	-6.948	Roll:	0.882	Pitch:	-0.148	Yaw:	11.585	Thrust:	59.467
Time:	2.072	Roll Set Point:	-0.074	Pitch Set Point:	-0.031	Yaw Set Point:	-0.098	X_WP:	0.000	Y_WP:	0.000	Z_WP:	0.500	X:	0.036	Y:	0.017	Z:	0.566	yaw:	5.598	yaw rate:	56.051	Roll:	1.454	Pitch:	-0.389	Yaw:	1.753	Thrust:	47.581
Time:	2.091	Roll Set Point:	-0.076	Pitch Set Point:	-0.029	Yaw Set Point:	-0.098	X_WP:	0.000	Y_WP:	0.000	Z_WP:	0.500	X:	0.037	Y:	0.016	Z:	0.572	yaw:	5.605	yaw rate:	-0.736	Roll:	1.357	Pitch:	-0.504	Yaw:	9.883	Thrust:	52.457
Time:	2.111	Roll Set Point:	-0.078	Pitch Set Point:	-0.029	Yaw Set Point:	-0.100	X_WP:	0.000	Y_WP:	0.000	Z_WP:	0.500	X:	0.038	Y:	0.016	Z:	0.577	yaw:	5.718	yaw rate:	-11.295	Roll:	1.087	Pitch:	0.004	Yaw:	11.466	Thrust:	53.932
Time:	2.132	Roll Set Point:	-0.080	Pitch Set Point:	-0.028	Yaw Set Point:	-0.090	X_WP:	0.000	Y_WP:	0.000	Z_WP:	0.500	X:	0.039	Y:	0.016	Z:	0.583	yaw:	5.167	yaw rate:	55.165	Roll:	1.217	Pitch:	-0.198	Yaw:	2.158	Thrust:	55.196
Time:	2.152	Roll Set Point:	-0.082	Pitch Set Point:	-0.026	Yaw Set Point:	-0.094	X_WP:	0.000	Y_WP:	0.000	Z_WP:	0.500	X:	0.040	Y:	0.015	Z:	0.588	yaw:	5.383	yaw rate:	-21.671	Roll:	1.266	Pitch:	-0.359	Yaw:	12.338	Thrust:	54.526
Time:	2.171	Roll Set Point:	-0.083	Pitch Set Point:	-0.025	Yaw Set Point:	-0.100	X_WP:	0.000	Y_WP:	0.000	Z_WP:	0.500	X:	0.041	Y:	0.015	Z:	0.593	yaw:	5.730	yaw rate:	-34.623	Roll:	1.296	Pitch:	-0.463	Yaw:	14.666	Thrust:	49.656
Time:	2.192	Roll Set Point:	-0.085	Pitch Set Point:	-0.024	Yaw Set Point:	-0.084	X_WP:	0.000	Y_WP:	0.000	Z_WP:	0.500	X:	0.042	Y:	0.014	Z:	0.598	yaw:	4.834	yaw rate:	89.571	Roll:	0.885	Pitch:	-0.143	Yaw:	-2.236	Thrust:	58.043
Time:	2.212	Roll Set Point:	-0.087	Pitch Set Point:	-0.024	Yaw Set Point:	-0.084	X_WP:	0.000	Y_WP:	0.000	Z_WP:	0.500	X:	0.043	Y:	0.014	Z:	0.604	yaw:	4.790	yaw rate:	4.441	Roll:	1.411	Pitch:	0.149	Yaw:	8.027	Thrust:	44.895
Time:	2.232	Roll Set Point:	-0.089	Pitch Set Point:	-0.022	Yaw Set Point:	-0.092	X_WP:	0.000	Y_WP:	0.000	Z_WP:	0.500	X:	0.044	Y:	0.013	Z:	0.608	yaw:	5.268	yaw rate:	-47.812	Roll:	1.500	Pitch:	-0.652	Yaw:	15.602	Thrust:	57.650
Time:	2.252	Roll Set Point:	-0.090	Pitch Set Point:	-0.021	Yaw Set Point:	-0.075	X_WP:	0.000	Y_WP:	0.000	Z_WP:	0.500	X:	0.045	Y:	0.012	Z:	0.613	yaw:	4.315	yaw rate:	95.230	Roll:	0.933	Pitch:	-0.243	Yaw:	-4.054	Thrust:	55.124
Time:	2.271	Roll Set Point:	-0.091	Pitch Set Point:	-0.020	Yaw Set Point:	-0.073	X_WP:	0.000	Y_WP:	0.000	Z_WP:	0.500	X:	0.045	Y:	0.012	Z:	0.617	yaw:	4.203	yaw rate:	11.289	Roll:	0.999	Pitch:	0.104	Yaw:	6.232	Thrust:	49.655
Time:	2.292	Roll Set Point:	-0.093	Pitch Set Point:	-0.019	Yaw Set Point:	-0.070	X_WP:	0.000	Y_WP:	0.000	Z_WP:	0.500	X:	0.046	Y:	0.011	Z:	0.621	yaw:	4.037	yaw rate:	16.506	Roll:	1.373	Pitch:	-0.433	Yaw:	5.488	Thrust:	52.895
Time:	2.311	Roll Set Point:	-0.094	Pitch Set Point:	-0.019	Yaw Set Point:	-0.074	X_WP:	0.000	Y_WP:	0.000	Z_WP:	0.500	X:	0.047	Y:	0.011	Z:	0.625	yaw:	4.238	yaw rate:	-20.045	Roll:	1.116	Pitch:	-0.154	Yaw:	10.547	Thrust:	51.850
Time:	2.332	Roll Set Point:	-0.097	Pitch Set Point:	-0.016	Yaw Set Point:	-0.075	X_WP:	0.000	Y_WP:	0.000	Z_WP:	0.500	X:	0.048	Y:	0.010	Z:	0.628	yaw:	4.295	yaw rate:	-5.703	Roll:	1.648	Pitch:	-0.875	Yaw:	8.748	Thrust:	54.179
Time:	2.352	Roll Set Point:	-0.098	Pitch Set Point:	-0.017	Yaw Set Point:	-0.063	X_WP:	0.000	Y_WP:	0.000	Z_WP:	0.500	X:	0.049	Y:	0.010	Z:	0.631	yaw:	3.604	yaw rate:	69.090	Roll:	1.067	Pitch:	0.490	Yaw:	-1.453	Thrust:	57.364
Time:	2.373	Roll Set Point:	-0.099	Pitch Set Point:	-0.016	Yaw Set Point:	-0.058	X_WP:	0.000	Y_WP:	0.000	Z_WP:	0.500	X:	0.049	Y:	0.009	Z:	0.635	yaw:	3.299	yaw rate:	30.513	Roll:	1.004	Pitch:	0.026	Yaw:	2.470	Thrust:	50.586
Time:	2.391	Roll Set Point:	-0.101	Pitch Set Point:	-0.015	Yaw Set Point:	-0.066	X_WP:	0.000	Y_WP:	0.000	Z_WP:	0.500	X:	0.050	Y:	0.009	Z:	0.638	yaw:	3.804	yaw rate:	-50.536	Roll:	1.185	Pitch:	-0.607	Yaw:	14.155	Thrust:	49.510
Time:	2.411	Roll Set Point:	-0.102	Pitch Set Point:	-0.014	Yaw Set Point:	-0.066	X_WP:	0.000	Y_WP:	0.000	Z_WP:	0.500	X:	0.051	Y:	0.009	Z:	0.640	yaw:	3.765	yaw rate:	3.941	Roll:	1.051	Pitch:	-0.065	Yaw:	6.785	Thrust:	55.096
Time:	2.432	Roll Set Point:	-0.103	Pitch Set Point:	-0.013	Yaw Set Point:	-0.061	X_WP:	0.000	Y_WP:	0.000	Z_WP:	0.500	X:	0.052	Y:	0.008	Z:	0.642	yaw:	3.487	yaw rate:	27.763	Roll:	1.322	Pitch:	-0.181	Yaw:	3.359	Thrust:	54.591
Time:	2.453	Roll Set Point:	-0.105	Pitch Set Point:	-0.012	Yaw Set Point:	-0.059	X_WP:	0.000	Y_WP:	0.000	Z_WP:	0.500	X:	0.052	Y:	0.008	Z:	0.644	yaw:	3.384	yaw rate:	10.297	Roll:	1.246	Pitch:	-0.256	Yaw:	5.568	Thrust:	57.780
Time:	2.472	Roll Set Point:	-0.106	Pitch Set Point:	-0.012	Yaw Set Point:	-0.059	X_WP:	0.000	Y_WP:	0.000	Z_WP:	0.500	X:	0.053	Y:	0.007	Z:	0.646	yaw:	3.407	yaw rate:	-2.290	Roll:	1.056	Pitch:	-0.311	Yaw:	6.939	Thrust:	48.679
Time:	2.491	Roll Set Point:	-0.108	Pitch Set Point:	-0.012	Yaw Set Point:	-0.055	X_WP:	0.000	Y_WP:	0.000	Z_WP:	0.500	X:	0.054	Y:	0.007	Z:	0.648	yaw:	3.141	yaw rate:	26.639	Roll:	1.327	Pitch:	0.187	Yaw:	2.639	Thrust:	50.550
Time:	2.511	Roll Set Point:	-0.109	Pitch Set Point:	-0.010	Yaw Set Point:	-0.057	X_WP:	0.000	Y_WP:	0.000	Z_WP:	0.500	X:	0.054	Y:	0.007	Z:	0.649	yaw:	3.265	yaw rate:	-12.372	Roll:	1.246	Pitch:	-0.405	Yaw:	8.177	Thrust:	54.996
Time:	2.531	Roll Set Point:	-0.111	Pitch Set Point:	-0.009	Yaw Set Point:	-0.052	X_WP:	0.000	Y_WP:	0.000	Z_WP:	0.500	X:	0.055	Y:	0.006	Z:	0.649	yaw:	2.978	yaw rate:	28.605	Roll:	1.306	Pitch:	-0.224	Yaw:	2.610	Thrust:	57.226
Time:	2.552	Roll Set Point:	-0.111	Pitch Set Point:	-0.009	Yaw Set Point:	-0.055	X_WP:	0.000	Y_WP:	0.000	Z_WP:	0.500	X:	0.056	Y:	0.006	Z:	0.650	yaw:	3.177	yaw rate:	-19.863	Roll:	1.006	Pitch:	-0.196	Yaw:	9.016	Thrust:	56.262
Time:	2.572	Roll Set Point:	-0.112	Pitch Set Point:	-0.008	Yaw Set Point:	-0.051	X_WP:	0.000	Y_WP:	0.000	Z_WP:	0.500	X:	0.056	Y:	0.006	Z:	0.651	yaw:	2.949	yaw rate:	22.849	Roll:	1.187	Pitch:	-0.042	Yaw:	2.852	Thrust:	51.586
Time:	2.591	Roll Set Point:	-0.114	Pitch Set Point:	-0.007	Yaw Set Point:	-0.046	X_WP:	0.000	Y_WP:	0.000	Z_WP:	0.500	X:	0.057	Y:	0.005	Z:	0.651	yaw:	2.635	yaw rate:	31.319	Roll:	1.293	Pitch:	-0.165	Yaw:	1.640	Thrust:	54.584
Time:	2.612	Roll Set Point:	-0.115	Pitch Set Point:	-0.007	Yaw Set Point:	-0.044	X_WP:	0.000	Y_WP:	0.000	Z_WP:	0.500	X:	0.057	Y:	0.005	Z:	0.651	yaw:	2.544	yaw rate:	9.136	Roll:	1.029	Pitch:	-0.023	Yaw:	4.417	Thrust:	56.263
Time:	2.632	Roll Set Point:	-0.116	Pitch Set Point:	-0.006	Yaw Set Point:	-0.041	X_WP:	0.000	Y_WP:	0.000	Z_WP:	0.500	X:	0.058	Y:	0.004	Z:	0.651	yaw:	2.344	yaw rate:	20.024	Roll:	1.403	Pitch:	-0.181	Yaw:	2.662	Thrust:	54.468
Time:	2.652	Roll Set Point:	-0.118	Pitch Set Point:	-0.005	Yaw Set Point:	-0.047	X_WP:	0.000	Y_WP:	0.000	Z_WP:	0.500	X:	0.059	Y:	0.004	Z:	0.651	yaw:	2.692	yaw rate:	-34.840	Roll:	1.198	Pitch:	-0.406	Yaw:	10.259	Thrust:	56.698
Time:	2.672	Roll Set Point:	-0.119	Pitch Set Point:	-0.004	Yaw Set Point:	-0.050	X_WP:	0.000	Y_WP:	0.000	Z_WP:	0.500	X:	0.059	Y:	0.003	Z:	0.650	yaw:	2.862	yaw rate:	-16.977	Roll:	1.251	Pitch:	-0.685	Yaw:	8.224	Thrust:	52.368
Time:	2.692	Roll Set Point:	-0.120	Pitch Set Point:	-0.003	Yaw Set Point:	-0.040	X_WP:	0.000	Y_WP:	0.000	Z_WP:	0.500	X:	0.060	Y:	0.003	Z:	0.649	yaw:	2.301	yaw rate:	56.049	Roll:	1.233	Pitch:	-0.041	Yaw:	-2.178	Thrust:	56.697
Time:	2.711	Roll Set Point:	-0.121	Pitch Set Point:	-0.003	Yaw Set Point:	-0.034	X_WP:	0.000	Y_WP:	0.000	Z_WP:	0.500	X:	0.061	Y:	0.002	Z:	0.649	yaw:	1.951	yaw rate:	35.093	Roll:	1.290	Pitch:	0.024	Yaw:	0.015	Thrust:	53.080
Time:	2.731	Roll Set Point:	-0.122	Pitch Set Point:	-0.002	Yaw Set Point:	-0.039	X_WP:	0.000	Y_WP:	0.000	Z_WP:	0.500	X:	0.061	Y:	0.002	Z:	0.648	yaw:	2.233	yaw rate:	-28.271	Roll:	1.164	Pitch:	-0.117	Yaw:	8.814	Thrust:	54.421
Time:	2.752	Roll Set Point:	-0.124	Pitch Set Point:	-0.000	Yaw Set Point:	-0.046	X_WP:	0.000	Y_WP:	0.000	Z_WP:	0.500	X:	0.062	Y:	0.002	Z:	0.647	yaw:	2.652	yaw rate:	-41.854	Roll:	1.654	Pitch:	-1.047	Yaw:	11.056	Thrust:	57.892
Time:	2.771	Roll Set Point:	-0.125	Pitch Set Point:	-0.001	Yaw Set Point:	-0.037	X_WP:	0.000	Y_WP:	0.000	Z_WP:	0.500	X:	0.063	Y:	0.001	Z:	0.646	yaw:	2.114	yaw rate:	53.829	Roll:	1.135	Pitch:	0.504	Yaw:	-2.518	Thrust:	52.220
Time:	2.792	Roll Set Point:	-0.126	Pitch Set Point:	-0.001	Yaw Set Point:	-0.030	X_WP:	0.000	Y_WP:	0.000	Z_WP:	0.500	X:	0.063	Y:	0.001	Z:	0.645	yaw:	1.747	yaw rate:	36.627	Roll:	1.031	Pitch:	0.267	Yaw:	-0.241	Thrust:	54.782
Time:	2.811	Roll Set Point:	-0.152	Pitch Set Point:	0.001	Yaw Set Point:	-0.175	X_WP:	0.000	Y_WP:	0.000	Z_WP:	0.500	X:	0.076	Y:	0.006	Z:	0.646	yaw:	10.009	yaw rate:	-826.129	Roll:	11.742	Pitch:	-5.730	Yaw:	125.600	Thrust:	49.115
Time:	2.832	Roll Set Point:	-0.154	Pitch Set Point:	0.004	Yaw Set Point:	-0.195	X_WP:	0.000	Y_WP:	0.000	Z_WP:	0.500	X:	0.077	Y:	0.006	Z:	0.644	yaw:	11.182	yaw rate:	-117.386	Roll:	1.374	Pitch:	-1.753	Yaw:	32.619	Thrust:	56.527
Time:	2.852	Roll Set Point:	-0.154	Pitch Set Point:	0.004	Yaw Set Point:	-0.188	X_WP:	0.000	Y_WP:	0.000	Z_WP:	0.500	X:	0.077	Y:	0.005	Z:	0.643	yaw:	10.760	yaw rate:	42.280	Roll:	1.078	Pitch:	0.075	Yaw:	11.686	Thrust:	55.607
Time:	2.872	Roll Set Point:	-0.155	Pitch Set Point:	0.003	Yaw Set Point:	-0.168	X_WP:	0.000	Y_WP:	0.000	Z_WP:	0.500	X:	0.078	Y:	0.005	Z:	0.641	yaw:	9.599	yaw rate:	116.039	Roll:	1.515	Pitch:	1.087	Yaw:	-0.373	Thrust:	52.490
Time:	2.892	Roll Set Point:	-0.156	Pitch Set Point:	0.001	Yaw Set Point:	-0.137	X_WP:	0.000	Y_WP:	0.000	Z_WP:	0.500	X:	0.078	Y:	0.005	Z:	0.639	yaw:	7.848	yaw rate:	175.101	Roll:	1.266	Pitch:	1.959	Yaw:	-11.197	Thrust:	52.344
Time:	2.912	Roll Set Point:	-0.132	Pitch Set Point:	0.001	Yaw Set Point:	-0.008	X_WP:	0.000	Y_WP:	0.000	Z_WP:	0.500	X:	0.066	Y:	-0.000	Z:	0.635	yaw:	0.462	yaw rate:	738.588	Roll:	-9.199	Pitch:	4.387	Yaw:	-90.216	Thrust:	59.278
Time:	2.932	Roll Set Point:	-0.133	Pitch Set Point:	0.002	Yaw Set Point:	-0.003	X_WP:	0.000	Y_WP:	0.000	Z_WP:	0.500	X:	0.067	Y:	-0.001	Z:	0.633	yaw:	0.167	yaw rate:	29.547	Roll:	1.253	Pitch:	-0.078	Yaw:	-1.618	Thrust:	58.743
Time:	2.953	Roll Set Point:	-0.134	Pitch Set Point:	0.002	Yaw Set Point:	-0.003	X_WP:	0.000	Y_WP:	0.000	Z_WP:	0.500	X:	0.067	Y:	-0.001	Z:	0.631	yaw:	0.199	yaw rate:	-3.256	Roll:	1.068	Pitch:	0.192	Yaw:	2.771	Thrust:	56.389
Time:	2.972	Roll Set Point:	-0.135	Pitch Set Point:	0.002	Yaw Set Point:	-0.008	X_WP:	0.000	Y_WP:	0.000	Z_WP:	0.500	X:	0.067	Y:	-0.001	Z:	0.628	yaw:	0.463	yaw rate:	-26.341	Roll:	1.341	Pitch:	-0.416	Yaw:	6.218	Thrust:	52.062
Time:	2.992	Roll Set Point:	-0.135	Pitch Set Point:	0.003	Yaw Set Point:	-0.005	X_WP:	0.000	Y_WP:	0.000	Z_WP:	0.500	X:	0.068	Y:	-0.001	Z:	0.626	yaw:	0.281	yaw rate:	18.191	Roll:	1.060	Pitch:	0.048	Yaw:	0.164	Thrust:	53.853
Time:	3.012	Roll Set Point:	-0.136	Pitch Set Point:	0.003	Yaw Set Point:	-0.006	X_WP:	0.000	Y_WP:	0.000	Z_WP:	0.500	X:	0.068	Y:	-0.001	Z:	0.624	yaw:	0.369	yaw rate:	-8.818	Roll:	1.303	Pitch:	-0.212	Yaw:	3.663	Thrust:	56.360
Time:	3.032	Roll Set Point:	-0.137	Pitch Set Point:	0.004	Yaw Set Point:	-0.004	X_WP:	0.000	Y_WP:	0.000	Z_WP:	0.500	X:	0.069	Y:	-0.002	Z:	0.622	yaw:	0.201	yaw rate:	16.788	Roll:	1.286	Pitch:	-0.030	Yaw:	0.001	Thrust:	53.073
Time:	3.053	Roll Set Point:	-0.138	Pitch Set Point:	0.004	Yaw Set Point:	0.002	X_WP:	0.000	Y_WP:	0.000	Z_WP:	0.500	X:	0.069	Y:	-0.002	Z:	0.620	yaw:	-0.106	yaw rate:	30.694	Roll:	1.162	Pitch:	0.229	Yaw:	-1.798	Thrust:	56.828
Time:	3.072	Roll Set Point:	-0.139	Pitch Set Point:	0.004	Yaw Set Point:	0.001	X_WP:	0.000	Y_WP:	0.000	Z_WP:	0.500	X:	0.070	Y:	-0.002	Z:	0.618	yaw:	-0.047	yaw rate:	-5.916	Roll:	1.391	Pitch:	-0.367	Yaw:	2.652	Thrust:	50.936
Time:	3.092	Roll Set Point:	-0.141	Pitch Set Point:	0.007	Yaw Set Point:	-0.021	X_WP:	0.000	Y_WP:	0.000	Z_WP:	0.500	X:	0.070	Y:	-0.003	Z:	0.615	yaw:	1.216	yaw rate:	-126.301	Roll:	1.499	Pitch:	-1.857	Yaw:	20.189	Thrust:	52.679
Time:	3.112	Roll Set Point:	-0.142	Pitch Set Point:	0.008	Yaw Set Point:	-0.016	X_WP:	0.000	Y_WP:	0.000	Z_WP:	0.500	X:	0.071	Y:	-0.003	Z:	0.613	yaw:	0.909	yaw rate:	30.732	Roll:	1.595	Pitch:	-0.145	Yaw:	-0.718	Thrust:	54.287
Time:	3.131	Roll Set Point:	-0.143	Pitch Set Point:	0.007	Yaw Set Point:	0.003	X_WP:	0.000	Y_WP:	0.000	Z_WP:	0.500	X:	0.071	Y:	-0.004	Z:	0.611	yaw:	-0.189	yaw rate:	109.794	Roll:	1.164	Pitch:	0.960	Yaw:	-13.005	Thrust:	54.148
Time:	3.152	Roll Set Point:	-0.144	Pitch Set Point:	0.008	Yaw Set Point:	0.006	X_WP:	0.000	Y_WP:	0.000	Z_WP:	0.500	X:	0.072	Y:	-0.004	Z:	0.609	yaw:	-0.338	yaw rate:	14.878	Roll:	1.392	Pitch:	-0.099	Yaw:	-0.294	Thrust:	55.722
Time:	3.172	Roll Set Point:	-0.145	Pitch Set Point:	0.009	Yaw Set Point:	0.002	X_WP:	0.000	Y_WP:	0.000	Z_WP:	0.500	X:	0.072	Y:	-0.004	Z:	0.606	yaw:	-0.140	yaw rate:	-19.723	Roll:	1.375	Pitch:	-0.597	Yaw:	4.396	Thrust:	52.767
Time:	3.191	Roll Set Point:	-0.146	Pitch Set Point:	0.009	Yaw Set Point:	0.008	X_WP:	0.000	Y_WP:	0.000	Z_WP:	0.500	X:	0.073	Y:	-0.005	Z:	0.604	yaw:	-0.456	yaw rate:	31.559	Roll:	1.450	Pitch:	0.096	Yaw:	-2.862	Thrust:	53.204
Time:	3.211	Roll Set Point:	-0.148	Pitch Set Point:	0.011	Yaw Set Point:	-0.005	X_WP:	0.000	Y_WP:	0.000	Z_WP:	0.500	X:	0.074	Y:	-0.005	Z:	0.600	yaw:	0.263	yaw rate:	-71.926	Roll:	1.701	Pitch:	-1.326	Yaw:	11.804	Thrust:	55.326
Time:	3.232	Roll Set Point:	-0.148	Pitch Set Point:	0.011	Yaw Set Point:	0.011	X_WP:	0.000	Y_WP:	0.000	Z_WP:	0.500	X:	0.074	Y:	-0.006	Z:	0.597	yaw:	-0.616	yaw rate:	87.896	Roll:	1.322	Pitch:	0.495	Yaw:	-9.981	Thrust:	55.242
Time:	3.253	Roll Set Point:	-0.150	Pitch Set Point:	0.014	Yaw Set Point:	-0.012	X_WP:	0.000	Y_WP:	0.000	Z_WP:	0.500	X:	0.075	Y:	-0.007	Z:	0.593	yaw:	0.667	yaw rate:	-128.273	Roll:	1.611	Pitch:	-1.776	Yaw:	18.962	Thrust:	60.286
Time:	3.275	Roll Set Point:	-0.151	Pitch Set Point:	0.013	Yaw Set Point:	0.009	X_WP:	0.000	Y_WP:	0.000	Z_WP:	0.500	X:	0.075	Y:	-0.007	Z:	0.590	yaw:	-0.526	yaw rate:	119.353	Roll:	1.374	Pitch:	1.028	Yaw:	-12.880	Thrust:	59.016
Time:	3.290	Roll Set Point:	-0.152	Pitch Set Point:	0.014	Yaw Set Point:	0.013	X_WP:	0.000	Y_WP:	0.000	Z_WP:	0.500	X:	0.076	Y:	-0.008	Z:	0.587	yaw:	-0.747	yaw rate:	22.101	Roll:	1.459	Pitch:	-0.358	Yaw:	-3.163	Thrust:	47.092
Time:	3.312	Roll Set Point:	-0.175	Pitch Set Point:	0.023	Yaw Set Point:	-0.189	X_WP:	0.000	Y_WP:	0.000	Z_WP:	0.500	X:	0.089	Y:	-0.003	Z:	0.585	yaw:	10.835	yaw rate:	-1158.221	Roll:	9.454	Pitch:	-10.792	Yaw:	158.432	Thrust:	54.503
Time:	3.332	Roll Set Point:	-0.176	Pitch Set Point:	0.027	Yaw Set Point:	-0.210	X_WP:	0.000	Y_WP:	0.000	Z_WP:	0.500	X:	0.089	Y:	-0.004	Z:	0.581	yaw:	12.029	yaw rate:	-119.399	Roll:	1.115	Pitch:	-2.368	Yaw:	34.386	Thrust:	56.739
Time:	3.353	Roll Set Point:	-0.177	Pitch Set Point:	0.027	Yaw Set Point:	-0.205	X_WP:	0.000	Y_WP:	0.000	Z_WP:	0.500	X:	0.090	Y:	-0.005	Z:	0.578	yaw:	11.771	yaw rate:	25.749	Roll:	1.646	Pitch:	-0.307	Yaw:	14.968	Thrust:	55.862
Time:	3.372	Roll Set Point:	-0.178	Pitch Set Point:	0.027	Yaw Set Point:	-0.189	X_WP:	0.000	Y_WP:	0.000	Z_WP:	0.500	X:	0.090	Y:	-0.005	Z:	0.574	yaw:	10.857	yaw rate:	91.386	Roll:	1.726	Pitch:	0.810	Yaw:	5.223	Thrust:	55.759
Time:	3.392	Roll Set Point:	-0.179	Pitch Set Point:	0.025	Yaw Set Point:	-0.161	X_WP:	0.000	Y_WP:	0.000	Z_WP:	0.500	X:	0.091	Y:	-0.005	Z:	0.570	yaw:	9.222	yaw rate:	163.583	Roll:	1.944	Pitch:	1.740	Yaw:	-5.745	Thrust:	57.081
Time:	3.411	Roll Set Point:	-0.179	Pitch Set Point:	0.025	Yaw Set Point:	-0.155	X_WP:	0.000	Y_WP:	0.000	Z_WP:	0.500	X:	0.091	Y:	-0.006	Z:	0.566	yaw:	8.874	yaw rate:	34.762	Roll:	1.133	Pitch:	-0.286	Yaw:	9.570	Thrust:	56.863
Time:	3.432	Roll Set Point:	-0.180	Pitch Set Point:	0.027	Yaw Set Point:	-0.168	X_WP:	0.000	Y_WP:	0.000	Z_WP:	0.500	X:	0.091	Y:	-0.006	Z:	0.562	yaw:	9.600	yaw rate:	-72.641	Roll:	1.231	Pitch:	-1.445	Yaw:	24.859	Thrust:	57.174
Time:	3.453	Roll Set Point:	-0.180	Pitch Set Point:	0.031	Yaw Set Point:	-0.204	X_WP:	0.000	Y_WP:	0.000	Z_WP:	0.500	X:	0.092	Y:	-0.006	Z:	0.558	yaw:	11.701	yaw rate:	-210.075	Roll:	0.873	Pitch:	-3.028	Yaw:	44.954	Thrust:	58.682
Time:	3.471	Roll Set Point:	-0.159	Pitch Set Point:	0.020	Yaw Set Point:	0.021	X_WP:	0.000	Y_WP:	0.000	Z_WP:	0.500	X:	0.079	Y:	-0.011	Z:	0.552	yaw:	-1.203	yaw rate:	1290.383	Roll:	-6.762	Pitch:	13.798	Yaw:	-177.110	Thrust:	60.896
Time:	3.491	Roll Set Point:	-0.160	Pitch Set Point:	0.020	Yaw Set Point:	0.026	X_WP:	0.000	Y_WP:	0.000	Z_WP:	0.500	X:	0.080	Y:	-0.011	Z:	0.548	yaw:	-1.468	yaw rate:	26.530	Roll:	1.324	Pitch:	0.216	Yaw:	-3.566	Thrust:	56.497
Time:	3.511	Roll Set Point:	-0.160	Pitch Set Point:	0.019	Yaw Set Point:	0.055	X_WP:	0.000	Y_WP:	0.000	Z_WP:	0.500	X:	0.080	Y:	-0.012	Z:	0.545	yaw:	-3.150	yaw rate:	168.197	Roll:	1.536	Pitch:	1.157	Yaw:	-24.235	Thrust:	55.390
Time:	3.532	Roll Set Point:	-0.162	Pitch Set Point:	0.020	Yaw Set Point:	0.051	X_WP:	0.000	Y_WP:	0.000	Z_WP:	0.500	X:	0.081	Y:	-0.012	Z:	0.541	yaw:	-2.945	yaw rate:	-20.549	Roll:	1.769	Pitch:	-0.209	Yaw:	0.527	Thrust:	57.943
Time:	3.552	Roll Set Point:	-0.162	Pitch Set Point:	0.020	Yaw Set Point:	0.049	X_WP:	0.000	Y_WP:	0.000	Z_WP:	0.500	X:	0.081	Y:	-0.012	Z:	0.538	yaw:	-2.814	yaw rate:	-13.077	Roll:	1.222	Pitch:	-0.078	Yaw:	-0.271	Thrust:	57.444
Time:	3.571	Roll Set Point:	-0.162	Pitch Set Point:	0.020	Yaw Set Point:	0.059	X_WP:	0.000	Y_WP:	0.000	Z_WP:	0.500	X:	0.081	Y:	-0.012	Z:	0.534	yaw:	-3.396	yaw rate:	58.263	Roll:	1.195	Pitch:	0.381	Yaw:	-10.850	Thrust:	54.663
Time:	3.591	Roll Set Point:	-0.161	Pitch Set Point:	0.020	Yaw Set Point:	0.037	X_WP:	0.000	Y_WP:	0.000	Z_WP:	0.500	X:	0.080	Y:	-0.012	Z:	0.531	yaw:	-2.094	yaw rate:	-130.226	Roll:	0.342	Pitch:	-1.009	Yaw:	16.382	Thrust:	54.851
Time:	3.610	Roll Set Point:	-0.163	Pitch Set Point:	0.021	Yaw Set Point:	0.046	X_WP:	0.000	Y_WP:	0.000	Z_WP:	0.500	X:	0.081	Y:	-0.012	Z:	0.529	yaw:	-2.627	yaw rate:	53.319	Roll:	2.407	Pitch:	0.085	Yaw:	-9.057	Thrust:	53.242
Time:	3.631	Roll Set Point:	-0.162	Pitch Set Point:	0.021	Yaw Set Point:	0.028	X_WP:	0.000	Y_WP:	0.000	Z_WP:	0.500	X:	0.081	Y:	-0.012	Z:	0.525	yaw:	-1.611	yaw rate:	-101.678	Roll:	0.584	Pitch:	-0.787	Yaw:	12.521	Thrust:	57.706
Time:	3.653	Roll Set Point:	-0.163	Pitch Set Point:	0.019	Yaw Set Point:	0.050	X_WP:	0.000	Y_WP:	0.000	Z_WP:	0.500	X:	0.081	Y:	-0.012	Z:	0.523	yaw:	-2.866	yaw rate:	125.566	Roll:	1.450	Pitch:	1.345	Yaw:	-17.209	Thrust:	58.419
Time:	3.671	Roll Set Point:	-0.164	Pitch Set Point:	0.021	Yaw Set Point:	0.035	X_WP:	0.000	Y_WP:	0.000	Z_WP:	0.500	X:	0.082	Y:	-0.012	Z:	0.520	yaw:	-2.015	yaw rate:	-85.079	Roll:	1.760	Pitch:	-1.414	Yaw:	10.888	Thrust:	52.792
Time:	3.691	Roll Set Point:	-0.164	Pitch Set Point:	0.021	Yaw Set Point:	0.048	X_WP:	0.000	Y_WP:	0.000	Z_WP:	0.500	X:	0.082	Y:	-0.012	Z:	0.518	yaw:	-2.724	yaw rate:	70.879	Roll:	1.013	Pitch:	0.592	Yaw:	-11.782	Thrust:	52.237
Time:	3.711	Roll Set Point:	-0.164	Pitch Set Point:	0.022	Yaw Set Point:	0.039	X_WP:	0.000	Y_WP:	0.000	Z_WP:	0.500	X:	0.082	Y:	-0.012	Z:	0.515	yaw:	-2.235	yaw rate:	-48.901	Roll:	1.056	Pitch:	-0.664	Yaw:	4.931	Thrust:	57.095
Time:	3.731	Roll Set Point:	-0.164	Pitch Set Point:	0.022	Yaw Set Point:	0.038	X_WP:	0.000	Y_WP:	0.000	Z_WP:	0.500	X:	0.082	Y:	-0.013	Z:	0.512	yaw:	-2.205	yaw rate:	-2.974	Roll:	1.413	Pitch:	-0.243	Yaw:	-0.904	Thrust:	55.130
Time:	3.752	Roll Set Point:	-0.166	Pitch Set Point:	0.022	Yaw Set Point:	0.047	X_WP:	0.000	Y_WP:	0.000	Z_WP:	0.500	X:	0.083	Y:	-0.013	Z:	0.510	yaw:	-2.701	yaw rate:	49.575	Roll:	1.690	Pitch:	0.350	Yaw:	-8.185	Thrust:	56.947
Time:	3.771	Roll Set Point:	-0.167	Pitch Set Point:	0.024	Yaw Set Point:	0.034	X_WP:	0.000	Y_WP:	0.000	Z_WP:	0.500	X:	0.083	Y:	-0.013	Z:	0.507	yaw:	-1.938	yaw rate:	-76.336	Roll:	1.684	Pitch:	-1.452	Yaw:	9.384	Thrust:	54.189
Time:	3.791	Roll Set Point:	-0.166	Pitch Set Point:	0.024	Yaw Set Point:	0.037	X_WP:	0.000	Y_WP:	0.000	Z_WP:	0.500	X:	0.083	Y:	-0.013	Z:	0.504	yaw:	-2.140	yaw rate:	20.218	Roll:	0.824	Pitch:	0.106	Yaw:	-3.898	Thrust:	56.163
Time:	3.811	Roll Set Point:	-0.167	Pitch Set Point:	0.024	Yaw Set Point:	0.045	X_WP:	0.000	Y_WP:	0.000	Z_WP:	0.500	X:	0.083	Y:	-0.014	Z:	0.501	yaw:	-2.578	yaw rate:	43.767	Roll:	1.825	Pitch:	0.311	Yaw:	-7.738	Thrust:	55.282
Time:	3.831	Roll Set Point:	-0.168	Pitch Set Point:	0.026	Yaw Set Point:	0.033	X_WP:	0.000	Y_WP:	0.000	Z_WP:	0.500	X:	0.084	Y:	-0.014	Z:	0.498	yaw:	-1.912	yaw rate:	-66.533	Roll:	1.532	Pitch:	-1.247	Yaw:	7.510	Thrust:	58.420
Time:	3.854	Roll Set Point:	-0.168	Pitch Set Point:	0.025	Yaw Set Point:	0.051	X_WP:	0.000	Y_WP:	0.000	Z_WP:	0.500	X:	0.084	Y:	-0.014	Z:	0.495	yaw:	-2.948	yaw rate:	103.521	Roll:	1.307	Pitch:	0.957	Yaw:	-14.392	Thrust:	62.196
Time:	3.872	Roll Set Point:	-0.170	Pitch Set Point:	0.027	Yaw Set Point:	0.050	X_WP:	0.000	Y_WP:	0.000	Z_WP:	0.500	X:	0.085	Y:	-0.016	Z:	0.493	yaw:	-2.851	yaw rate:	-9.660	Roll:	1.963	Pitch:	-1.325	Yaw:	-1.076	Thrust:	51.929
Time:	3.891	Roll Set Point:	-0.170	Pitch Set Point:	0.028	Yaw Set Point:	0.034	X_WP:	0.000	Y_WP:	0.000	Z_WP:	0.500	X:	0.085	Y:	-0.016	Z:	0.489	yaw:	-1.947	yaw rate:	-90.362	Roll:	1.255	Pitch:	-1.246	Yaw:	10.992	Thrust:	57.396
Time:	3.911	Roll Set Point:	-0.171	Pitch Set Point:	0.028	Yaw Set Point:	0.045	X_WP:	0.000	Y_WP:	0.000	Z_WP:	0.500	X:	0.085	Y:	-0.016	Z:	0.486	yaw:	-2.604	yaw rate:	65.701	Roll:	1.871	Pitch:	0.378	Yaw:	-10.464	Thrust:	58.270
Time:	3.931	Roll Set Point:	-0.171	Pitch Set Point:	0.028	Yaw Set Point:	0.058	X_WP:	0.000	Y_WP:	0.000	Z_WP:	0.500	X:	0.085	Y:	-0.017	Z:	0.483	yaw:	-3.305	yaw rate:	70.027	Roll:	1.254	Pitch:	0.528	Yaw:	-12.188	Thrust:	57.626
Time:	3.953	Roll Set Point:	-0.171	Pitch Set Point:	0.029	Yaw Set Point:	0.053	X_WP:	0.000	Y_WP:	0.000	Z_WP:	0.500	X:	0.085	Y:	-0.017	Z:	0.479	yaw:	-3.051	yaw rate:	-25.411	Roll:	1.106	Pitch:	-0.469	Yaw:	0.529	Thrust:	63.928
Time:	3.972	Roll Set Point:	-0.173	Pitch Set Point:	0.030	Yaw Set Point:	0.059	X_WP:	0.000	Y_WP:	0.000	Z_WP:	0.500	X:	0.086	Y:	-0.017	Z:	0.476	yaw:	-3.397	yaw rate:	34.668	Roll:	2.021	Pitch:	-0.210	Yaw:	-8.183	Thrust:	54.973
Time:	3.991	Roll Set Point:	-0.172	Pitch Set Point:	0.031	Yaw Set Point:	0.045	X_WP:	0.000	Y_WP:	0.000	Z_WP:	0.500	X:	0.086	Y:	-0.017	Z:	0.473	yaw:	-2.585	yaw rate:	-81.186	Roll:	0.940	Pitch:	-1.020	Yaw:	8.602	Thrust:	59.711
Time:	4.011	Roll Set Point:	-0.174	Pitch Set Point:	0.032	Yaw Set Point:	0.047	X_WP:	0.000	Y_WP:	0.000	Z_WP:	0.500	X:	0.086	Y:	-0.018	Z:	0.470	yaw:	-2.680	yaw rate:	9.469	Roll:	1.983	Pitch:	-0.554	Yaw:	-3.580	Thrust:	56.651
Time:	4.031	Roll Set Point:	-0.173	Pitch Set Point:	0.032	Yaw Set Point:	0.050	X_WP:	0.000	Y_WP:	0.000	Z_WP:	0.500	X:	0.086	Y:	-0.018	Z:	0.466	yaw:	-2.879	yaw rate:	19.875	Roll:	0.910	Pitch:	0.066	Yaw:	-4.981	Thrust:	62.114
Time:	4.053	Roll Set Point:	-0.174	Pitch Set Point:	0.032	Yaw Set Point:	0.061	X_WP:	0.000	Y_WP:	0.000	Z_WP:	0.500	X:	0.086	Y:	-0.019	Z:	0.463	yaw:	-3.494	yaw rate:	61.489	Roll:	1.875	Pitch:	0.291	Yaw:	-10.632	Thrust:	62.422
Time:	4.072	Roll Set Point:	-0.174	Pitch Set Point:	0.033	Yaw Set Point:	0.049	X_WP:	0.000	Y_WP:	0.000	Z_WP:	0.500	X:	0.086	Y:	-0.019	Z:	0.460	yaw:	-2.806	yaw rate:	-68.771	Roll:	1.044	Pitch:	-1.163	Yaw:	7.107	Thrust:	57.820
Time:	4.091	Roll Set Point:	-0.174	Pitch Set Point:	0.034	Yaw Set Point:	0.048	X_WP:	0.000	Y_WP:	0.000	Z_WP:	0.500	X:	0.087	Y:	-0.019	Z:	0.457	yaw:	-2.761	yaw rate:	-4.483	Roll:	1.407	Pitch:	-0.508	Yaw:	-1.838	Thrust:	58.993
Time:	4.111	Roll Set Point:	-0.173	Pitch Set Point:	0.034	Yaw Set Point:	0.038	X_WP:	0.000	Y_WP:	0.000	Z_WP:	0.500	X:	0.086	Y:	-0.019	Z:	0.454	yaw:	-2.177	yaw rate:	-58.390	Roll:	0.912	Pitch:	-0.508	Yaw:	5.995	Thrust:	60.422
Time:	4.132	Roll Set Point:	-0.175	Pitch Set Point:	0.035	Yaw Set Point:	0.031	X_WP:	0.000	Y_WP:	0.000	Z_WP:	0.500	X:	0.087	Y:	-0.019	Z:	0.451	yaw:	-1.766	yaw rate:	-41.161	Roll:	1.894	Pitch:	-0.834	Yaw:	4.324	Thrust:	59.387
Time:	4.152	Roll Set Point:	-0.175	Pitch Set Point:	0.035	Yaw Set Point:	0.053	X_WP:	0.000	Y_WP:	0.000	Z_WP:	0.500	X:	0.087	Y:	-0.020	Z:	0.450	yaw:	-3.029	yaw rate:	126.348	Roll:	1.806	Pitch:	0.723	Yaw:	-18.579	Thrust:	59.633
Time:	4.171	Roll Set Point:	-0.175	Pitch Set Point:	0.036	Yaw Set Point:	0.043	X_WP:	0.000	Y_WP:	0.000	Z_WP:	0.500	X:	0.087	Y:	-0.020	Z:	0.448	yaw:	-2.446	yaw rate:	-58.311	Roll:	0.976	Pitch:	-0.992	Yaw:	5.945	Thrust:	56.350
Time:	4.191	Roll Set Point:	-0.176	Pitch Set Point:	0.038	Yaw Set Point:	0.030	X_WP:	0.000	Y_WP:	0.000	Z_WP:	0.500	X:	0.088	Y:	-0.020	Z:	0.446	yaw:	-1.712	yaw rate:	-73.354	Roll:	1.624	Pitch:	-1.358	Yaw:	8.535	Thrust:	58.690
Time:	4.211	Roll Set Point:	-0.175	Pitch Set Point:	0.037	Yaw Set Point:	0.041	X_WP:	0.000	Y_WP:	0.000	Z_WP:	0.500	X:	0.087	Y:	-0.020	Z:	0.444	yaw:	-2.335	yaw rate:	62.268	Roll:	1.235	Pitch:	0.612	Yaw:	-10.029	Thrust:	57.482
Time:	4.231	Roll Set Point:	-0.176	Pitch Set Point:	0.037	Yaw Set Point:	0.048	X_WP:	0.000	Y_WP:	0.000	Z_WP:	0.500	X:	0.088	Y:	-0.021	Z:	0.443	yaw:	-2.775	yaw rate:	43.972	Roll:	1.745	Pitch:	0.264	Yaw:	-8.333	Thrust:	56.578
Time:	4.252	Roll Set Point:	-0.176	Pitch Set Point:	0.037	Yaw Set Point:	0.041	X_WP:	0.000	Y_WP:	0.000	Z_WP:	0.500	X:	0.087	Y:	-0.020	Z:	0.442	yaw:	-2.341	yaw rate:	-43.428	Roll:	0.953	Pitch:	-0.292	Yaw:	3.534	Thrust:	59.843
Time:	4.272	Roll Set Point:	-0.176	Pitch Set Point:	0.038	Yaw Set Point:	0.041	X_WP:	0.000	Y_WP:	0.000	Z_WP:	0.500	X:	0.088	Y:	-0.021	Z:	0.442	yaw:	-2.342	yaw rate:	0.095	Roll:	1.713	Pitch:	-0.841	Yaw:	-2.014	Thrust:	54.726
Time:	4.292	Roll Set Point:	-0.176	Pitch Set Point:	0.038	Yaw Set Point:	0.036	X_WP:	0.000	Y_WP:	0.000	Z_WP:	0.500	X:	0.088	Y:	-0.020	Z:	0.441	yaw:	-2.082	yaw rate:	-25.951	Roll:	1.041	Pitch:	0.003	Yaw:	1.896	Thrust:	54.977
Time:	4.311	Roll Set Point:	-0.175	Pitch Set Point:	0.039	Yaw Set Point:	0.026	X_WP:	0.000	Y_WP:	0.000	Z_WP:	0.500	X:	0.087	Y:	-0.020	Z:	0.440	yaw:	-1.496	yaw rate:	-58.582	Roll:	1.038	Pitch:	-0.985	Yaw:	6.625	Thrust:	58.877
Time:	4.331	Roll Set Point:	-0.177	Pitch Set Point:	0.039	Yaw Set Point:	0.043	X_WP:	0.000	Y_WP:	0.000	Z_WP:	0.500	X:	0.088	Y:	-0.021	Z:	0.440	yaw:	-2.447	yaw rate:	95.104	Roll:	2.354	Pitch:	0.453	Yaw:	-14.921	Thrust:	53.768
Time:	4.352	Roll Set Point:	-0.177	Pitch Set Point:	0.039	Yaw Set Point:	0.043	X_WP:	0.000	Y_WP:	0.000	Z_WP:	0.500	X:	0.088	Y:	-0.021	Z:	0.440	yaw:	-2.437	yaw rate:	-1.029	Roll:	1.370	Pitch:	-0.144	Yaw:	-1.987	Thrust:	58.983
Time:	4.371	Roll Set Point:	-0.177	Pitch Set Point:	0.039	Yaw Set Point:	0.038	X_WP:	0.000	Y_WP:	0.000	Z_WP:	0.500	X:	0.088	Y:	-0.021	Z:	0.439	yaw:	-2.192	yaw rate:	-24.538	Roll:	1.186	Pitch:	-0.494	Yaw:	1.423	Thrust:	55.876
Time:	4.391	Roll Set Point:	-0.178	Pitch Set Point:	0.040	Yaw Set Point:	0.042	X_WP:	0.000	Y_WP:	0.000	Z_WP:	0.500	X:	0.089	Y:	-0.022	Z:	0.439	yaw:	-2.381	yaw rate:	18.982	Roll:	1.946	Pitch:	-0.212	Yaw:	-4.732	Thrust:	55.216
Time:	4.410	Roll Set Point:	-0.179	Pitch Set Point:	0.042	Yaw Set Point:	0.025	X_WP:	0.000	Y_WP:	0.000	Z_WP:	0.500	X:	0.089	Y:	-0.022	Z:	0.438	yaw:	-1.426	yaw rate:	-95.561	Roll:	1.518	Pitch:	-1.638	Yaw:	11.811	Thrust:	56.189
Time:	4.431	Roll Set Point:	-0.179	Pitch Set Point:	0.042	Yaw Set Point:	0.018	X_WP:	0.000	Y_WP:	0.000	Z_WP:	0.500	X:	0.089	Y:	-0.022	Z:	0.437	yaw:	-1.006	yaw rate:	-41.957	Roll:	1.210	Pitch:	-0.659	Yaw:	5.122	Thrust:	60.416
Time:	4.453	Roll Set Point:	-0.179	Pitch Set Point:	0.042	Yaw Set Point:	0.018	X_WP:	0.000	Y_WP:	0.000	Z_WP:	0.500	X:	0.089	Y:	-0.022	Z:	0.437	yaw:	-1.047	yaw rate:	4.069	Roll:	1.510	Pitch:	-0.201	Yaw:	-0.702	Thrust:	61.283
Time:	4.472	Roll Set Point:	-0.179	Pitch Set Point:	0.040	Yaw Set Point:	0.036	X_WP:	0.000	Y_WP:	0.000	Z_WP:	0.500	X:	0.089	Y:	-0.022	Z:	0.437	yaw:	-2.037	yaw rate:	99.052	Roll:	1.398	Pitch:	1.476	Yaw:	-15.339	Thrust:	53.903
Time:	4.491	Roll Set Point:	-0.179	Pitch Set Point:	0.041	Yaw Set Point:	0.024	X_WP:	0.000	Y_WP:	0.000	Z_WP:	0.500	X:	0.089	Y:	-0.022	Z:	0.436	yaw:	-1.358	yaw rate:	-67.965	Roll:	1.464	Pitch:	-1.054	Yaw:	8.353	Thrust:	57.837
Time:	4.512	Roll Set Point:	-0.179	Pitch Set Point:	0.041	Yaw Set Point:	0.014	X_WP:	0.000	Y_WP:	0.000	Z_WP:	0.500	X:	0.089	Y:	-0.021	Z:	0.435	yaw:	-0.822	yaw rate:	-53.620	Roll:	1.107	Pitch:	-0.218	Yaw:	7.276	Thrust:	58.333
Time:	4.531	Roll Set Point:	-0.178	Pitch Set Point:	0.041	Yaw Set Point:	0.010	X_WP:	0.000	Y_WP:	0.000	Z_WP:	0.500	X:	0.089	Y:	-0.021	Z:	0.434	yaw:	-0.572	yaw rate:	-24.947	Roll:	0.980	Pitch:	-0.595	Yaw:	3.498	Thrust:	60.823
Time:	4.553	Roll Set Point:	-0.178	Pitch Set Point:	0.041	Yaw Set Point:	0.018	X_WP:	0.000	Y_WP:	0.000	Z_WP:	0.500	X:	0.089	Y:	-0.021	Z:	0.434	yaw:	-1.041	yaw rate:	46.861	Roll:	1.783	Pitch:	0.464	Yaw:	-5.986	Thrust:	61.555
Time:	4.572	Roll Set Point:	-0.178	Pitch Set Point:	0.041	Yaw Set Point:	0.009	X_WP:	0.000	Y_WP:	0.000	Z_WP:	0.500	X:	0.089	Y:	-0.021	Z:	0.434	yaw:	-0.504	yaw rate:	-53.709	Roll:	1.010	Pitch:	-0.820	Yaw:	7.841	Thrust:	55.304
Time:	4.592	Roll Set Point:	-0.178	Pitch Set Point:	0.040	Yaw Set Point:	0.016	X_WP:	0.000	Y_WP:	0.000	Z_WP:	0.500	X:	0.089	Y:	-0.021	Z:	0.434	yaw:	-0.929	yaw rate:	42.581	Roll:	1.771	Pitch:	0.511	Yaw:	-5.578	Thrust:	56.505
Time:	4.620	Roll Set Point:	-0.178	Pitch Set Point:	0.041	Yaw Set Point:	0.008	X_WP:	0.000	Y_WP:	0.000	Z_WP:	0.500	X:	0.089	Y:	-0.021	Z:	0.434	yaw:	-0.463	yaw rate:	-46.666	Roll:	1.467	Pitch:	-0.541	Yaw:	5.247	Thrust:	83.325
Time:	4.632	Roll Set Point:	-0.178	Pitch Set Point:	0.040	Yaw Set Point:	0.013	X_WP:	0.000	Y_WP:	0.000	Z_WP:	0.500	X:	0.089	Y:	-0.020	Z:	0.434	yaw:	-0.723	yaw rate:	25.974	Roll:	0.978	Pitch:	0.884	Yaw:	-6.726	Thrust:	32.003
Time:	4.653	Roll Set Point:	-0.178	Pitch Set Point:	0.038	Yaw Set Point:	0.025	X_WP:	0.000	Y_WP:	0.000	Z_WP:	0.500	X:	0.089	Y:	-0.020	Z:	0.435	yaw:	-1.440	yaw rate:	71.720	Roll:	1.865	Pitch:	0.813	Yaw:	-9.405	Thrust:	62.036
Time:	4.672	Roll Set Point:	-0.178	Pitch Set Point:	0.039	Yaw Set Point:	0.017	X_WP:	0.000	Y_WP:	0.000	Z_WP:	0.500	X:	0.089	Y:	-0.020	Z:	0.435	yaw:	-0.960	yaw rate:	-47.948	Roll:	0.985	Pitch:	-0.646	Yaw:	6.573	Thrust:	51.771
Time:	4.691	Roll Set Point:	-0.179	Pitch Set Point:	0.039	Yaw Set Point:	0.013	X_WP:	0.000	Y_WP:	0.000	Z_WP:	0.500	X:	0.089	Y:	-0.020	Z:	0.436	yaw:	-0.731	yaw rate:	-22.962	Roll:	1.836	Pitch:	-0.262	Yaw:	3.118	Thrust:	56.001
Time:	4.711	Roll Set Point:	-0.178	Pitch Set Point:	0.037	Yaw Set Point:	0.026	X_WP:	0.000	Y_WP:	0.000	Z_WP:	0.500	X:	0.089	Y:	-0.020	Z:	0.436	yaw:	-1.471	yaw rate:	74.001	Roll:	1.366	Pitch:	1.039	Yaw:	-10.258	Thrust:	59.537
Time:	4.731	Roll Set Point:	-0.178	Pitch Set Point:	0.037	Yaw Set Point:	0.015	X_WP:	0.000	Y_WP:	0.000	Z_WP:	0.500	X:	0.089	Y:	-0.019	Z:	0.436	yaw:	-0.847	yaw rate:	-62.395	Roll:	1.114	Pitch:	-0.611	Yaw:	8.167	Thrust:	57.879
Time:	4.753	Roll Set Point:	-0.178	Pitch Set Point:	0.037	Yaw Set Point:	0.013	X_WP:	0.000	Y_WP:	0.000	Z_WP:	0.500	X:	0.089	Y:	-0.019	Z:	0.436	yaw:	-0.762	yaw rate:	-8.498	Roll:	1.496	Pitch:	-0.104	Yaw:	1.122	Thrust:	63.931
Time:	4.772	Roll Set Point:	-0.178	Pitch Set Point:	0.035	Yaw Set Point:	0.025	X_WP:	0.000	Y_WP:	0.000	Z_WP:	0.500	X:	0.089	Y:	-0.019	Z:	0.436	yaw:	-1.433	yaw rate:	67.164	Roll:	1.697	Pitch:	1.100	Yaw:	-10.645	Thrust:	54.798
Time:	4.791	Roll Set Point:	-0.178	Pitch Set Point:	0.036	Yaw Set Point:	0.011	X_WP:	0.000	Y_WP:	0.000	Z_WP:	0.500	X:	0.089	Y:	-0.018	Z:	0.435	yaw:	-0.610	yaw rate:	-82.362	Roll:	1.166	Pitch:	-1.075	Yaw:	10.881	Thrust:	61.256
Time:	4.810	Roll Set Point:	-0.178	Pitch Set Point:	0.036	Yaw Set Point:	0.009	X_WP:	0.000	Y_WP:	0.000	Z_WP:	0.500	X:	0.089	Y:	-0.018	Z:	0.435	yaw:	-0.502	yaw rate:	-10.805	Roll:	1.776	Pitch:	-0.085	Yaw:	1.785	Thrust:	57.966
Time:	4.831	Roll Set Point:	-0.178	Pitch Set Point:	0.035	Yaw Set Point:	0.002	X_WP:	0.000	Y_WP:	0.000	Z_WP:	0.500	X:	0.089	Y:	-0.018	Z:	0.434	yaw:	-0.134	yaw rate:	-36.791	Roll:	1.151	Pitch:	-0.317	Yaw:	5.481	Thrust:	63.033
Time:	4.852	Roll Set Point:	-0.178	Pitch Set Point:	0.034	Yaw Set Point:	0.013	X_WP:	0.000	Y_WP:	0.000	Z_WP:	0.500	X:	0.089	Y:	-0.018	Z:	0.434	yaw:	-0.723	yaw rate:	58.954	Roll:	1.763	Pitch:	0.787	Yaw:	-7.257	Thrust:	64.431
Time:	4.872	Roll Set Point:	-0.178	Pitch Set Point:	0.035	Yaw Set Point:	-0.009	X_WP:	0.000	Y_WP:	0.000	Z_WP:	0.500	X:	0.089	Y:	-0.017	Z:	0.433	yaw:	0.544	yaw rate:	-126.701	Roll:	1.045	Pitch:	-1.508	Yaw:	19.084	Thrust:	60.742
Time:	4.891	Roll Set Point:	-0.178	Pitch Set Point:	0.033	Yaw Set Point:	0.009	X_WP:	0.000	Y_WP:	0.000	Z_WP:	0.500	X:	0.089	Y:	-0.017	Z:	0.433	yaw:	-0.526	yaw rate:	106.954	Roll:	1.834	Pitch:	1.418	Yaw:	-14.435	Thrust:	57.533
Time:	4.911	Roll Set Point:	-0.178	Pitch Set Point:	0.032	Yaw Set Point:	0.010	X_WP:	0.000	Y_WP:	0.000	Z_WP:	0.500	X:	0.089	Y:	-0.017	Z:	0.433	yaw:	-0.581	yaw rate:	5.471	Roll:	1.421	Pitch:	0.313	Yaw:	-0.480	Thrust:	61.009
Time:	4.931	Roll Set Point:	-0.178	Pitch Set Point:	0.031	Yaw Set Point:	0.011	X_WP:	0.000	Y_WP:	0.000	Z_WP:	0.500	X:	0.089	Y:	-0.016	Z:	0.433	yaw:	-0.606	yaw rate:	2.575	Roll:	1.373	Pitch:	0.324	Yaw:	-0.109	Thrust:	61.927
Time:	4.952	Roll Set Point:	-0.177	Pitch Set Point:	0.031	Yaw Set Point:	-0.009	X_WP:	0.000	Y_WP:	0.000	Z_WP:	0.500	X:	0.088	Y:	-0.015	Z:	0.433	yaw:	0.494	yaw rate:	-110.030	Roll:	1.023	Pitch:	-0.978	Yaw:	15.748	Thrust:	62.292
Time:	4.972	Roll Set Point:	-0.176	Pitch Set Point:	0.031	Yaw Set Point:	-0.009	X_WP:	0.000	Y_WP:	0.000	Z_WP:	0.500	X:	0.088	Y:	-0.015	Z:	0.433	yaw:	0.524	yaw rate:	-2.954	Roll:	1.333	Pitch:	0.124	Yaw:	2.143	Thrust:	57.358
Time:	4.991	Roll Set Point:	-0.176	Pitch Set Point:	0.028	Yaw Set Point:	0.021	X_WP:	0.000	Y_WP:	0.000	Z_WP:	0.500	X:	0.088	Y:	-0.015	Z:	0.435	yaw:	-1.228	yaw rate:	175.112	Roll:	1.547	Pitch:	2.333	Yaw:	-23.936	Thrust:	58.492
Time:	5.011	Roll Set Point:	-0.177	Pitch Set Point:	0.027	Yaw Set Point:	0.036	X_WP:	0.000	Y_WP:	0.000	Z_WP:	0.500	X:	0.088	Y:	-0.015	Z:	0.436	yaw:	-2.073	yaw rate:	84.548	Roll:	1.835	Pitch:	0.886	Yaw:	-13.382	Thrust:	54.941
Time:	5.032	Roll Set Point:	-0.176	Pitch Set Point:	0.026	Yaw Set Point:	0.027	X_WP:	0.000	Y_WP:	0.000	Z_WP:	0.500	X:	0.088	Y:	-0.014	Z:	0.438	yaw:	-1.542	yaw rate:	-53.139	Roll:	1.083	Pitch:	-0.074	Yaw:	5.458	Thrust:	61.677
Time:	5.053	Roll Set Point:	-0.176	Pitch Set Point:	0.024	Yaw Set Point:	0.031	X_WP:	0.000	Y_WP:	0.000	Z_WP:	0.500	X:	0.088	Y:	-0.013	Z:	0.439	yaw:	-1.798	yaw rate:	25.672	Roll:	1.520	Pitch:	0.834	Yaw:	-4.647	Thrust:	61.510
Time:	5.072	Roll Set Point:	-0.175	Pitch Set Point:	0.023	Yaw Set Point:	0.028	X_WP:	0.000	Y_WP:	0.000	Z_WP:	0.500	X:	0.088	Y:	-0.013	Z:	0.441	yaw:	-1.627	yaw rate:	-17.179	Roll:	1.289	Pitch:	0.100	Yaw:	1.039	Thrust:	53.859
Time:	5.091	Roll Set Point:	-0.174	Pitch Set Point:	0.022	Yaw Set Point:	0.018	X_WP:	0.000	Y_WP:	0.000	Z_WP:	0.500	X:	0.087	Y:	-0.012	Z:	0.442	yaw:	-1.056	yaw rate:	-57.031	Roll:	0.885	Pitch:	0.017	Yaw:	7.115	Thrust:	56.295
Time:	5.112	Roll Set Point:	-0.173	Pitch Set Point:	0.022	Yaw Set Point:	0.010	X_WP:	0.000	Y_WP:	0.000	Z_WP:	0.500	X:	0.087	Y:	-0.011	Z:	0.444	yaw:	-0.551	yaw rate:	-50.531	Roll:	1.103	Pitch:	-0.265	Yaw:	6.803	Thrust:	57.299
Time:	5.132	Roll Set Point:	-0.173	Pitch Set Point:	0.020	Yaw Set Point:	0.016	X_WP:	0.000	Y_WP:	0.000	Z_WP:	0.500	X:	0.087	Y:	-0.011	Z:	0.447	yaw:	-0.901	yaw rate:	35.049	Roll:	1.571	Pitch:	0.758	Yaw:	-4.859	Thrust:	54.635
Time:	5.153	Roll Set Point:	-0.173	Pitch Set Point:	0.020	Yaw Set Point:	0.010	X_WP:	0.000	Y_WP:	0.000	Z_WP:	0.500	X:	0.086	Y:	-0.010	Z:	0.449	yaw:	-0.586	yaw rate:	-31.575	Roll:	1.208	Pitch:	-0.157	Yaw:	4.099	Thrust:	62.198
Time:	5.172	Roll Set Point:	-0.173	Pitch Set Point:	0.019	Yaw Set Point:	0.013	X_WP:	0.000	Y_WP:	0.000	Z_WP:	0.500	X:	0.086	Y:	-0.010	Z:	0.451	yaw:	-0.736	yaw rate:	15.060	Roll:	1.635	Pitch:	0.517	Yaw:	-2.135	Thrust:	53.970
Time:	5.192	Roll Set Point:	-0.173	Pitch Set Point:	0.019	Yaw Set Point:	0.003	X_WP:	0.000	Y_WP:	0.000	Z_WP:	0.500	X:	0.086	Y:	-0.010	Z:	0.453	yaw:	-0.167	yaw rate:	-56.952	Roll:	1.518	Pitch:	-0.551	Yaw:	8.203	Thrust:	52.664
Time:	5.211	Roll Set Point:	-0.173	Pitch Set Point:	0.019	Yaw Set Point:	-0.007	X_WP:	0.000	Y_WP:	0.000	Z_WP:	0.500	X:	0.086	Y:	-0.009	Z:	0.455	yaw:	0.426	yaw rate:	-59.255	Roll:	1.226	Pitch:	-0.660	Yaw:	9.557	Thrust:	58.358
Time:	5.232	Roll Set Point:	-0.171	Pitch Set Point:	0.018	Yaw Set Point:	-0.007	X_WP:	0.000	Y_WP:	0.000	Z_WP:	0.500	X:	0.086	Y:	-0.009	Z:	0.458	yaw:	0.413	yaw rate:	1.265	Roll:	1.137	Pitch:	0.485	Yaw:	1.402	Thrust:	57.435
Time:	5.253	Roll Set Point:	-0.171	Pitch Set Point:	0.016	Yaw Set Point:	0.008	X_WP:	0.000	Y_WP:	0.000	Z_WP:	0.500	X:	0.085	Y:	-0.008	Z:	0.460	yaw:	-0.477	yaw rate:	89.017	Roll:	1.230	Pitch:	1.512	Yaw:	-11.018	Thrust:	58.197
Time:	5.272	Roll Set Point:	-0.170	Pitch Set Point:	0.016	Yaw Set Point:	0.000	X_WP:	0.000	Y_WP:	0.000	Z_WP:	0.500	X:	0.085	Y:	-0.008	Z:	0.462	yaw:	-0.024	yaw rate:	-45.338	Roll:	1.226	Pitch:	-0.365	Yaw:	7.003	Thrust:	54.752
Time:	5.291	Roll Set Point:	-0.170	Pitch Set Point:	0.014	Yaw Set Point:	0.011	X_WP:	0.000	Y_WP:	0.000	Z_WP:	0.500	X:	0.085	Y:	-0.008	Z:	0.464	yaw:	-0.604	yaw rate:	58.034	Roll:	1.555	Pitch:	0.877	Yaw:	-7.797	Thrust:	55.065
Time:	5.311	Roll Set Point:	-0.169	Pitch Set Point:	0.013	Yaw Set Point:	0.011	X_WP:	0.000	Y_WP:	0.000	Z_WP:	0.500	X:	0.085	Y:	-0.007	Z:	0.465	yaw:	-0.640	yaw rate:	3.628	Roll:	1.223	Pitch:	0.360	Yaw:	-0.404	Thrust:	57.843
