Time:	0.046	Roll Set Point:	-0.055	Pitch Set Point:	-0.034	Yaw Set Point:	0.005	X_WP:	0.000	Y_WP:	0.000	Y_WP:	0.500	X:	0.027	Y:	0.017	Z:	0.053	yaw:	-0.290	yaw rate:	-28.672	Roll:	0.274	Pitch:	0.171	Yaw:	-0.405	Thrust:	24.611
Time:	0.066	Roll Set Point:	-0.055	Pitch Set Point:	-0.034	Yaw Set Point:	0.011	X_WP:	0.000	Y_WP:	0.000	Y_WP:	0.500	X:	0.027	Y:	0.017	Z:	0.052	yaw:	-0.657	yaw rate:	36.686	Roll:	0.207	Pitch:	0.267	Yaw:	-5.709	Thrust:	25.778
Time:	0.092	Roll Set Point:	-0.056	Pitch Set Point:	-0.033	Yaw Set Point:	-0.022	X_WP:	0.000	Y_WP:	0.000	Y_WP:	0.500	X:	0.028	Y:	0.017	Z:	0.053	yaw:	1.282	yaw rate:	-193.889	Roll:	0.926	Pitch:	-0.495	Yaw:	21.755	Thrust:	26.744
Time:	0.106	Roll Set Point:	-0.056	Pitch Set Point:	-0.033	Yaw Set Point:	-0.015	X_WP:	0.000	Y_WP:	0.000	Y_WP:	0.500	X:	0.028	Y:	0.017	Z:	0.053	yaw:	0.873	yaw rate:	40.846	Roll:	0.059	Pitch:	0.420	Yaw:	-6.103	Thrust:	27.076
Time:	0.126	Roll Set Point:	-0.056	Pitch Set Point:	-0.033	Yaw Set Point:	-0.005	X_WP:	0.000	Y_WP:	0.000	Y_WP:	0.500	X:	0.028	Y:	0.017	Z:	0.053	yaw:	0.273	yaw rate:	60.061	Roll:	0.178	Pitch:	0.367	Yaw:	-7.550	Thrust:	29.000
Time:	0.145	Roll Set Point:	-0.057	Pitch Set Point:	-0.033	Yaw Set Point:	-0.020	X_WP:	0.000	Y_WP:	0.000	Y_WP:	0.500	X:	0.028	Y:	0.017	Z:	0.053	yaw:	1.133	yaw rate:	-86.049	Roll:	0.810	Pitch:	-0.209	Yaw:	13.084	Thrust:	30.204
Time:	0.166	Roll Set Point:	-0.056	Pitch Set Point:	-0.033	Yaw Set Point:	-0.014	X_WP:	0.000	Y_WP:	0.000	Y_WP:	0.500	X:	0.028	Y:	0.017	Z:	0.052	yaw:	0.785	yaw rate:	34.836	Roll:	0.077	Pitch:	0.237	Yaw:	-3.395	Thrust:	31.361
Time:	0.188	Roll Set Point:	-0.057	Pitch Set Point:	-0.033	Yaw Set Point:	-0.015	X_WP:	0.000	Y_WP:	0.000	Y_WP:	0.500	X:	0.028	Y:	0.017	Z:	0.052	yaw:	0.885	yaw rate:	-10.000	Roll:	0.417	Pitch:	0.054	Yaw:	2.408	Thrust:	33.487
Time:	0.205	Roll Set Point:	-0.057	Pitch Set Point:	-0.033	Yaw Set Point:	-0.021	X_WP:	0.000	Y_WP:	0.000	Y_WP:	0.500	X:	0.028	Y:	0.017	Z:	0.053	yaw:	1.191	yaw rate:	-30.650	Roll:	0.374	Pitch:	0.137	Yaw:	6.520	Thrust:	30.923
Time:	0.228	Roll Set Point:	-0.053	Pitch Set Point:	-0.035	Yaw Set Point:	0.013	X_WP:	0.000	Y_WP:	0.000	Y_WP:	0.500	X:	0.027	Y:	0.017	Z:	0.051	yaw:	-0.773	yaw rate:	196.436	Roll:	-1.190	Pitch:	1.397	Yaw:	-23.327	Thrust:	37.906
Time:	0.246	Roll Set Point:	-0.057	Pitch Set Point:	-0.033	Yaw Set Point:	-0.019	X_WP:	0.000	Y_WP:	0.000	Y_WP:	0.500	X:	0.028	Y:	0.017	Z:	0.053	yaw:	1.062	yaw rate:	-183.536	Roll:	2.083	Pitch:	-1.237	Yaw:	27.966	Thrust:	31.986
Time:	0.266	Roll Set Point:	-0.057	Pitch Set Point:	-0.032	Yaw Set Point:	-0.022	X_WP:	0.000	Y_WP:	0.000	Y_WP:	0.500	X:	0.028	Y:	0.016	Z:	0.052	yaw:	1.237	yaw rate:	-17.419	Roll:	0.312	Pitch:	-0.118	Yaw:	4.101	Thrust:	36.828
Time:	0.288	Roll Set Point:	-0.056	Pitch Set Point:	-0.034	Yaw Set Point:	0.010	X_WP:	0.000	Y_WP:	0.000	Y_WP:	0.500	X:	0.028	Y:	0.017	Z:	0.052	yaw:	-0.551	yaw rate:	178.776	Roll:	-0.256	Pitch:	1.165	Yaw:	-21.916	Thrust:	38.729
Time:	0.311	Roll Set Point:	-0.057	Pitch Set Point:	-0.032	Yaw Set Point:	-0.026	X_WP:	0.000	Y_WP:	0.000	Y_WP:	0.500	X:	0.028	Y:	0.017	Z:	0.053	yaw:	1.510	yaw rate:	-206.124	Roll:	0.951	Pitch:	-0.788	Yaw:	24.996	Thrust:	40.048
Time:	0.326	Roll Set Point:	-0.056	Pitch Set Point:	-0.033	Yaw Set Point:	-0.016	X_WP:	0.000	Y_WP:	0.000	Y_WP:	0.500	X:	0.028	Y:	0.017	Z:	0.053	yaw:	0.914	yaw rate:	59.615	Roll:	-0.318	Pitch:	0.810	Yaw:	-9.338	Thrust:	35.394
Time:	0.346	Roll Set Point:	-0.057	Pitch Set Point:	-0.033	Yaw Set Point:	-0.009	X_WP:	0.000	Y_WP:	0.000	Y_WP:	0.500	X:	0.028	Y:	0.017	Z:	0.052	yaw:	0.528	yaw rate:	38.560	Roll:	0.568	Pitch:	0.096	Yaw:	-4.364	Thrust:	41.157
Time:	0.366	Roll Set Point:	-0.058	Pitch Set Point:	-0.032	Yaw Set Point:	-0.024	X_WP:	0.000	Y_WP:	0.000	Y_WP:	0.500	X:	0.029	Y:	0.016	Z:	0.052	yaw:	1.393	yaw rate:	-86.486	Roll:	0.782	Pitch:	-0.332	Yaw:	13.301	Thrust:	42.236
Time:	0.388	Roll Set Point:	-0.057	Pitch Set Point:	-0.033	Yaw Set Point:	-0.017	X_WP:	0.000	Y_WP:	0.000	Y_WP:	0.500	X:	0.028	Y:	0.017	Z:	0.053	yaw:	0.955	yaw rate:	43.814	Roll:	-0.028	Pitch:	0.688	Yaw:	-3.653	Thrust:	44.146
Time:	0.405	Roll Set Point:	-0.057	Pitch Set Point:	-0.033	Yaw Set Point:	-0.011	X_WP:	0.000	Y_WP:	0.000	Y_WP:	0.500	X:	0.029	Y:	0.017	Z:	0.053	yaw:	0.621	yaw rate:	33.444	Roll:	0.544	Pitch:	0.151	Yaw:	-4.191	Thrust:	41.436
Time:	0.428	Roll Set Point:	-0.057	Pitch Set Point:	-0.034	Yaw Set Point:	-0.002	X_WP:	0.000	Y_WP:	0.000	Y_WP:	0.500	X:	0.029	Y:	0.017	Z:	0.053	yaw:	0.142	yaw rate:	47.886	Roll:	0.232	Pitch:	0.559	Yaw:	-5.384	Thrust:	47.464
Time:	0.446	Roll Set Point:	-0.059	Pitch Set Point:	-0.033	Yaw Set Point:	-0.027	X_WP:	0.000	Y_WP:	0.000	Y_WP:	0.500	X:	0.029	Y:	0.017	Z:	0.053	yaw:	1.571	yaw rate:	-142.943	Roll:	1.327	Pitch:	-0.579	Yaw:	22.386	Thrust:	44.072
Time:	0.465	Roll Set Point:	-0.060	Pitch Set Point:	-0.033	Yaw Set Point:	-0.039	X_WP:	0.000	Y_WP:	0.000	Y_WP:	0.500	X:	0.030	Y:	0.017	Z:	0.053	yaw:	2.230	yaw rate:	-65.912	Roll:	0.912	Pitch:	0.023	Yaw:	12.262	Thrust:	46.193
Time:	0.486	Roll Set Point:	-0.060	Pitch Set Point:	-0.033	Yaw Set Point:	-0.034	X_WP:	0.000	Y_WP:	0.000	Y_WP:	0.500	X:	0.030	Y:	0.017	Z:	0.053	yaw:	1.961	yaw rate:	26.881	Roll:	0.333	Pitch:	0.396	Yaw:	-0.462	Thrust:	48.652
Time:	0.506	Roll Set Point:	-0.060	Pitch Set Point:	-0.034	Yaw Set Point:	-0.033	X_WP:	0.000	Y_WP:	0.000	Y_WP:	0.500	X:	0.030	Y:	0.017	Z:	0.053	yaw:	1.906	yaw rate:	5.515	Roll:	0.333	Pitch:	0.412	Yaw:	2.047	Thrust:	49.476
Time:	0.529	Roll Set Point:	-0.059	Pitch Set Point:	-0.035	Yaw Set Point:	-0.012	X_WP:	0.000	Y_WP:	0.000	Y_WP:	0.500	X:	0.029	Y:	0.018	Z:	0.053	yaw:	0.672	yaw rate:	123.445	Roll:	-0.259	Pitch:	0.949	Yaw:	-13.221	Thrust:	54.085
Time:	0.546	Roll Set Point:	-0.060	Pitch Set Point:	-0.034	Yaw Set Point:	-0.038	X_WP:	0.000	Y_WP:	0.000	Y_WP:	0.500	X:	0.030	Y:	0.018	Z:	0.053	yaw:	2.160	yaw rate:	-148.822	Roll:	1.134	Pitch:	-0.801	Yaw:	27.137	Thrust:	45.534
Time:	0.567	Roll Set Point:	-0.061	Pitch Set Point:	-0.033	Yaw Set Point:	-0.047	X_WP:	0.000	Y_WP:	0.000	Y_WP:	0.500	X:	0.030	Y:	0.017	Z:	0.053	yaw:	2.710	yaw rate:	-54.955	Roll:	0.583	Pitch:	-0.198	Yaw:	10.352	Thrust:	56.701
Time:	0.587	Roll Set Point:	-0.060	Pitch Set Point:	-0.034	Yaw Set Point:	-0.025	X_WP:	0.000	Y_WP:	0.000	Y_WP:	0.500	X:	0.030	Y:	0.017	Z:	0.053	yaw:	1.416	yaw rate:	129.362	Roll:	-0.150	Pitch:	0.838	Yaw:	-15.030	Thrust:	52.405
Time:	0.605	Roll Set Point:	-0.060	Pitch Set Point:	-0.034	Yaw Set Point:	-0.024	X_WP:	0.000	Y_WP:	0.000	Y_WP:	0.500	X:	0.030	Y:	0.017	Z:	0.053	yaw:	1.393	yaw rate:	2.319	Roll:	0.263	Pitch:	0.087	Yaw:	1.765	Thrust:	51.008
Time:	0.627	Roll Set Point:	-0.060	Pitch Set Point:	-0.034	Yaw Set Point:	-0.022	X_WP:	0.000	Y_WP:	0.000	Y_WP:	0.500	X:	0.030	Y:	0.017	Z:	0.053	yaw:	1.284	yaw rate:	10.905	Roll:	0.287	Pitch:	0.295	Yaw:	0.790	Thrust:	60.541
Time:	0.646	Roll Set Point:	-0.060	Pitch Set Point:	-0.033	Yaw Set Point:	-0.032	X_WP:	0.000	Y_WP:	0.000	Y_WP:	0.500	X:	0.030	Y:	0.017	Z:	0.053	yaw:	1.850	yaw rate:	-56.636	Roll:	0.472	Pitch:	-0.289	Yaw:	10.836	Thrust:	54.496
Time:	0.666	Roll Set Point:	-0.060	Pitch Set Point:	-0.034	Yaw Set Point:	-0.032	X_WP:	0.000	Y_WP:	0.000	Y_WP:	0.500	X:	0.030	Y:	0.017	Z:	0.053	yaw:	1.853	yaw rate:	-0.261	Roll:	0.229	Pitch:	0.417	Yaw:	2.843	Thrust:	56.356
Time:	0.688	Roll Set Point:	-0.059	Pitch Set Point:	-0.035	Yaw Set Point:	-0.022	X_WP:	0.000	Y_WP:	0.000	Y_WP:	0.500	X:	0.029	Y:	0.018	Z:	0.053	yaw:	1.248	yaw rate:	60.464	Roll:	0.075	Pitch:	0.633	Yaw:	-5.331	Thrust:	62.527
Time:	0.705	Roll Set Point:	-0.058	Pitch Set Point:	-0.035	Yaw Set Point:	-0.025	X_WP:	0.000	Y_WP:	0.000	Y_WP:	0.500	X:	0.029	Y:	0.018	Z:	0.054	yaw:	1.447	yaw rate:	-19.845	Roll:	0.089	Pitch:	0.278	Yaw:	5.132	Thrust:	55.586
Time:	0.727	Roll Set Point:	-0.059	Pitch Set Point:	-0.035	Yaw Set Point:	-0.032	X_WP:	0.000	Y_WP:	0.000	Y_WP:	0.500	X:	0.029	Y:	0.018	Z:	0.054	yaw:	1.813	yaw rate:	-36.692	Roll:	0.614	Pitch:	0.182	Yaw:	7.259	Thrust:	62.987
Time:	0.745	Roll Set Point:	-0.057	Pitch Set Point:	-0.037	Yaw Set Point:	-0.014	X_WP:	0.000	Y_WP:	0.000	Y_WP:	0.500	X:	0.028	Y:	0.019	Z:	0.055	yaw:	0.823	yaw rate:	99.077	Roll:	-0.643	Pitch:	1.253	Yaw:	-12.864	Thrust:	57.127
Time:	0.765	Roll Set Point:	-0.056	Pitch Set Point:	-0.037	Yaw Set Point:	-0.017	X_WP:	0.000	Y_WP:	0.000	Y_WP:	0.500	X:	0.028	Y:	0.019	Z:	0.055	yaw:	0.968	yaw rate:	-14.528	Roll:	0.097	Pitch:	0.277	Yaw:	3.504	Thrust:	61.866
Time:	0.788	Roll Set Point:	-0.055	Pitch Set Point:	-0.038	Yaw Set Point:	-0.002	X_WP:	0.000	Y_WP:	0.000	Y_WP:	0.500	X:	0.028	Y:	0.019	Z:	0.057	yaw:	0.121	yaw rate:	84.707	Roll:	-0.266	Pitch:	0.793	Yaw:	-9.332	Thrust:	65.840
Time:	0.805	Roll Set Point:	-0.054	Pitch Set Point:	-0.039	Yaw Set Point:	-0.006	X_WP:	0.000	Y_WP:	0.000	Y_WP:	0.500	X:	0.027	Y:	0.020	Z:	0.059	yaw:	0.327	yaw rate:	-20.580	Roll:	0.030	Pitch:	0.633	Yaw:	3.874	Thrust:	54.498
Time:	0.826	Roll Set Point:	-0.053	Pitch Set Point:	-0.040	Yaw Set Point:	0.003	X_WP:	0.000	Y_WP:	0.000	Y_WP:	0.500	X:	0.027	Y:	0.020	Z:	0.061	yaw:	-0.188	yaw rate:	51.427	Roll:	-0.289	Pitch:	0.757	Yaw:	-6.358	Thrust:	63.204
Time:	0.845	Roll Set Point:	-0.052	Pitch Set Point:	-0.041	Yaw Set Point:	0.009	X_WP:	0.000	Y_WP:	0.000	Y_WP:	0.500	X:	0.026	Y:	0.020	Z:	0.064	yaw:	-0.539	yaw rate:	35.164	Roll:	-0.181	Pitch:	0.728	Yaw:	-5.274	Thrust:	58.432
Time:	0.866	Roll Set Point:	-0.051	Pitch Set Point:	-0.042	Yaw Set Point:	0.009	X_WP:	0.000	Y_WP:	0.000	Y_WP:	0.500	X:	0.026	Y:	0.021	Z:	0.067	yaw:	-0.527	yaw rate:	-1.173	Roll:	-0.155	Pitch:	0.621	Yaw:	-0.303	Thrust:	61.611
Time:	0.887	Roll Set Point:	-0.050	Pitch Set Point:	-0.043	Yaw Set Point:	0.016	X_WP:	0.000	Y_WP:	0.000	Y_WP:	0.500	X:	0.025	Y:	0.021	Z:	0.071	yaw:	-0.942	yaw rate:	41.501	Roll:	-0.190	Pitch:	0.651	Yaw:	-6.179	Thrust:	63.232
Time:	0.909	Roll Set Point:	-0.049	Pitch Set Point:	-0.043	Yaw Set Point:	0.009	X_WP:	0.000	Y_WP:	0.000	Y_WP:	0.500	X:	0.025	Y:	0.021	Z:	0.075	yaw:	-0.531	yaw rate:	-41.182	Roll:	0.048	Pitch:	0.291	Yaw:	4.453	Thrust:	62.787
Time:	0.925	Roll Set Point:	-0.048	Pitch Set Point:	-0.044	Yaw Set Point:	0.021	X_WP:	0.000	Y_WP:	0.000	Y_WP:	0.500	X:	0.024	Y:	0.022	Z:	0.080	yaw:	-1.207	yaw rate:	67.654	Roll:	-0.284	Pitch:	0.673	Yaw:	-12.186	Thrust:	52.408
Time:	0.946	Roll Set Point:	-0.047	Pitch Set Point:	-0.045	Yaw Set Point:	0.013	X_WP:	0.000	Y_WP:	0.000	Y_WP:	0.500	X:	0.024	Y:	0.022	Z:	0.085	yaw:	-0.766	yaw rate:	-44.158	Roll:	-0.057	Pitch:	0.537	Yaw:	4.941	Thrust:	59.643
Time:	0.965	Roll Set Point:	-0.046	Pitch Set Point:	-0.045	Yaw Set Point:	0.030	X_WP:	0.000	Y_WP:	0.000	Y_WP:	0.500	X:	0.023	Y:	0.022	Z:	0.090	yaw:	-1.715	yaw rate:	94.905	Roll:	-0.426	Pitch:	0.618	Yaw:	-14.696	Thrust:	59.059
Time:	0.988	Roll Set Point:	-0.045	Pitch Set Point:	-0.045	Yaw Set Point:	0.021	X_WP:	0.000	Y_WP:	0.000	Y_WP:	0.500	X:	0.023	Y:	0.022	Z:	0.096	yaw:	-1.221	yaw rate:	-49.346	Roll:	0.189	Pitch:	0.343	Yaw:	4.386	Thrust:	64.946
Time:	1.005	Roll Set Point:	-0.044	Pitch Set Point:	-0.046	Yaw Set Point:	0.026	X_WP:	0.000	Y_WP:	0.000	Y_WP:	0.500	X:	0.023	Y:	0.023	Z:	0.103	yaw:	-1.483	yaw rate:	26.128	Roll:	-0.257	Pitch:	0.635	Yaw:	-5.671	Thrust:	51.889
Time:	1.026	Roll Set Point:	-0.044	Pitch Set Point:	-0.046	Yaw Set Point:	0.011	X_WP:	0.000	Y_WP:	0.000	Y_WP:	0.500	X:	0.022	Y:	0.023	Z:	0.109	yaw:	-0.648	yaw rate:	-83.480	Roll:	0.332	Pitch:	0.024	Yaw:	10.198	Thrust:	59.279
Time:	1.045	Roll Set Point:	-0.043	Pitch Set Point:	-0.046	Yaw Set Point:	0.022	X_WP:	0.000	Y_WP:	0.000	Y_WP:	0.500	X:	0.022	Y:	0.023	Z:	0.116	yaw:	-1.247	yaw rate:	59.964	Roll:	-0.326	Pitch:	0.550	Yaw:	-9.490	Thrust:	57.444
Time:	1.066	Roll Set Point:	-0.042	Pitch Set Point:	-0.046	Yaw Set Point:	0.021	X_WP:	0.000	Y_WP:	0.000	Y_WP:	0.500	X:	0.021	Y:	0.023	Z:	0.123	yaw:	-1.197	yaw rate:	-4.988	Roll:	-0.080	Pitch:	0.346	Yaw:	-0.827	Thrust:	58.998
Time:	1.090	Roll Set Point:	-0.041	Pitch Set Point:	-0.046	Yaw Set Point:	0.015	X_WP:	0.000	Y_WP:	0.000	Y_WP:	0.500	X:	0.021	Y:	0.023	Z:	0.130	yaw:	-0.862	yaw rate:	-33.536	Roll:	0.097	Pitch:	0.136	Yaw:	2.882	Thrust:	70.691
Time:	1.106	Roll Set Point:	-0.040	Pitch Set Point:	-0.046	Yaw Set Point:	0.025	X_WP:	0.000	Y_WP:	0.000	Y_WP:	0.500	X:	0.020	Y:	0.023	Z:	0.137	yaw:	-1.444	yaw rate:	58.142	Roll:	-0.532	Pitch:	0.516	Yaw:	-10.716	Thrust:	49.293
Time:	1.127	Roll Set Point:	-0.039	Pitch Set Point:	-0.046	Yaw Set Point:	0.032	X_WP:	0.000	Y_WP:	0.000	Y_WP:	0.500	X:	0.020	Y:	0.023	Z:	0.144	yaw:	-1.830	yaw rate:	38.637	Roll:	-0.194	Pitch:	0.197	Yaw:	-7.159	Thrust:	62.912
Time:	1.145	Roll Set Point:	-0.039	Pitch Set Point:	-0.045	Yaw Set Point:	0.024	X_WP:	0.000	Y_WP:	0.000	Y_WP:	0.500	X:	0.020	Y:	0.022	Z:	0.150	yaw:	-1.387	yaw rate:	-44.324	Roll:	0.106	Pitch:	-0.234	Yaw:	4.491	Thrust:	57.504
Time:	1.167	Roll Set Point:	-0.038	Pitch Set Point:	-0.045	Yaw Set Point:	0.022	X_WP:	0.000	Y_WP:	0.000	Y_WP:	0.500	X:	0.019	Y:	0.022	Z:	0.158	yaw:	-1.265	yaw rate:	-12.193	Roll:	-0.125	Pitch:	0.275	Yaw:	-0.086	Thrust:	64.692
Time:	1.189	Roll Set Point:	-0.037	Pitch Set Point:	-0.045	Yaw Set Point:	0.019	X_WP:	0.000	Y_WP:	0.000	Y_WP:	0.500	X:	0.019	Y:	0.022	Z:	0.165	yaw:	-1.095	yaw rate:	-16.929	Roll:	-0.100	Pitch:	0.266	Yaw:	0.655	Thrust:	67.720
Time:	1.209	Roll Set Point:	-0.036	Pitch Set Point:	-0.044	Yaw Set Point:	0.024	X_WP:	0.000	Y_WP:	0.000	Y_WP:	0.500	X:	0.018	Y:	0.022	Z:	0.172	yaw:	-1.349	yaw rate:	25.351	Roll:	-0.204	Pitch:	0.006	Yaw:	-5.177	Thrust:	59.039
Time:	1.226	Roll Set Point:	-0.035	Pitch Set Point:	-0.044	Yaw Set Point:	0.031	X_WP:	0.000	Y_WP:	0.000	Y_WP:	0.500	X:	0.018	Y:	0.022	Z:	0.180	yaw:	-1.776	yaw rate:	42.659	Roll:	-0.279	Pitch:	0.108	Yaw:	-8.553	Thrust:	51.486
Time:	1.246	Roll Set Point:	-0.034	Pitch Set Point:	-0.043	Yaw Set Point:	0.016	X_WP:	0.000	Y_WP:	0.000	Y_WP:	0.500	X:	0.017	Y:	0.021	Z:	0.187	yaw:	-0.925	yaw rate:	-85.006	Roll:	0.222	Pitch:	-0.282	Yaw:	9.926	Thrust:	63.610
Time:	1.265	Roll Set Point:	-0.033	Pitch Set Point:	-0.042	Yaw Set Point:	0.029	X_WP:	0.000	Y_WP:	0.000	Y_WP:	0.500	X:	0.017	Y:	0.021	Z:	0.195	yaw:	-1.657	yaw rate:	73.176	Roll:	-0.425	Pitch:	0.100	Yaw:	-11.935	Thrust:	59.722
Time:	1.287	Roll Set Point:	-0.032	Pitch Set Point:	-0.041	Yaw Set Point:	0.032	X_WP:	0.000	Y_WP:	0.000	Y_WP:	0.500	X:	0.016	Y:	0.020	Z:	0.204	yaw:	-1.837	yaw rate:	18.000	Roll:	-0.128	Pitch:	-0.122	Yaw:	-4.637	Thrust:	67.062
Time:	1.305	Roll Set Point:	-0.031	Pitch Set Point:	-0.041	Yaw Set Point:	0.023	X_WP:	0.000	Y_WP:	0.000	Y_WP:	0.500	X:	0.016	Y:	0.020	Z:	0.212	yaw:	-1.319	yaw rate:	-51.858	Roll:	0.027	Pitch:	-0.049	Yaw:	5.817	Thrust:	51.368
Time:	1.327	Roll Set Point:	-0.031	Pitch Set Point:	-0.040	Yaw Set Point:	0.026	X_WP:	0.000	Y_WP:	0.000	Y_WP:	0.500	X:	0.016	Y:	0.020	Z:	0.221	yaw:	-1.470	yaw rate:	15.143	Roll:	-0.161	Pitch:	0.075	Yaw:	-3.762	Thrust:	68.757
Time:	1.346	Roll Set Point:	-0.030	Pitch Set Point:	-0.039	Yaw Set Point:	0.014	X_WP:	0.000	Y_WP:	0.000	Y_WP:	0.500	X:	0.015	Y:	0.019	Z:	0.229	yaw:	-0.816	yaw rate:	-65.369	Roll:	0.192	Pitch:	-0.307	Yaw:	8.150	Thrust:	54.212
Time:	1.366	Roll Set Point:	-0.029	Pitch Set Point:	-0.038	Yaw Set Point:	0.015	X_WP:	0.000	Y_WP:	0.000	Y_WP:	0.500	X:	0.015	Y:	0.019	Z:	0.238	yaw:	-0.880	yaw rate:	6.367	Roll:	-0.209	Pitch:	-0.067	Yaw:	-1.980	Thrust:	61.871
Time:	1.389	Roll Set Point:	-0.028	Pitch Set Point:	-0.038	Yaw Set Point:	0.024	X_WP:	0.000	Y_WP:	0.000	Y_WP:	0.500	X:	0.014	Y:	0.019	Z:	0.247	yaw:	-1.354	yaw rate:	47.364	Roll:	-0.274	Pitch:	0.017	Yaw:	-7.311	Thrust:	70.541
Time:	1.405	Roll Set Point:	-0.027	Pitch Set Point:	-0.037	Yaw Set Point:	0.018	X_WP:	0.000	Y_WP:	0.000	Y_WP:	0.500	X:	0.014	Y:	0.018	Z:	0.257	yaw:	-1.046	yaw rate:	-30.722	Roll:	-0.035	Pitch:	-0.152	Yaw:	3.435	Thrust:	42.974
Time:	1.426	Roll Set Point:	-0.027	Pitch Set Point:	-0.036	Yaw Set Point:	0.020	X_WP:	0.000	Y_WP:	0.000	Y_WP:	0.500	X:	0.013	Y:	0.018	Z:	0.266	yaw:	-1.169	yaw rate:	12.249	Roll:	-0.178	Pitch:	0.039	Yaw:	-3.112	Thrust:	63.818
Time:	1.445	Roll Set Point:	-0.026	Pitch Set Point:	-0.036	Yaw Set Point:	0.023	X_WP:	0.000	Y_WP:	0.000	Y_WP:	0.500	X:	0.013	Y:	0.018	Z:	0.276	yaw:	-1.302	yaw rate:	13.257	Roll:	-0.218	Pitch:	-0.032	Yaw:	-3.616	Thrust:	49.366
Time:	1.466	Roll Set Point:	-0.025	Pitch Set Point:	-0.035	Yaw Set Point:	0.017	X_WP:	0.000	Y_WP:	0.000	Y_WP:	0.500	X:	0.013	Y:	0.017	Z:	0.285	yaw:	-0.964	yaw rate:	-33.739	Roll:	0.110	Pitch:	-0.137	Yaw:	3.024	Thrust:	64.470
Time:	1.487	Roll Set Point:	-0.025	Pitch Set Point:	-0.034	Yaw Set Point:	0.009	X_WP:	0.000	Y_WP:	0.000	Y_WP:	0.500	X:	0.012	Y:	0.017	Z:	0.294	yaw:	-0.515	yaw rate:	-44.938	Roll:	-0.020	Pitch:	-0.223	Yaw:	4.816	Thrust:	65.753
Time:	1.505	Roll Set Point:	-0.023	Pitch Set Point:	-0.034	Yaw Set Point:	0.016	X_WP:	0.000	Y_WP:	0.000	Y_WP:	0.500	X:	0.012	Y:	0.017	Z:	0.304	yaw:	-0.922	yaw rate:	40.708	Roll:	-0.356	Pitch:	0.129	Yaw:	-7.120	Thrust:	51.217
Time:	1.527	Roll Set Point:	-0.023	Pitch Set Point:	-0.033	Yaw Set Point:	0.008	X_WP:	0.000	Y_WP:	0.000	Y_WP:	0.500	X:	0.011	Y:	0.017	Z:	0.313	yaw:	-0.443	yaw rate:	-47.881	Roll:	-0.104	Pitch:	0.120	Yaw:	5.198	Thrust:	64.728
Time:	1.545	Roll Set Point:	-0.022	Pitch Set Point:	-0.032	Yaw Set Point:	0.012	X_WP:	0.000	Y_WP:	0.000	Y_WP:	0.500	X:	0.011	Y:	0.016	Z:	0.321	yaw:	-0.668	yaw rate:	22.518	Roll:	-0.133	Pitch:	-0.154	Yaw:	-4.078	Thrust:	57.456
Time:	1.566	Roll Set Point:	-0.021	Pitch Set Point:	-0.032	Yaw Set Point:	0.009	X_WP:	0.000	Y_WP:	0.000	Y_WP:	0.500	X:	0.011	Y:	0.016	Z:	0.330	yaw:	-0.508	yaw rate:	-16.038	Roll:	-0.148	Pitch:	0.053	Yaw:	1.377	Thrust:	60.990
Time:	1.594	Roll Set Point:	-0.020	Pitch Set Point:	-0.031	Yaw Set Point:	0.006	X_WP:	0.000	Y_WP:	0.000	Y_WP:	0.500	X:	0.010	Y:	0.016	Z:	0.339	yaw:	-0.367	yaw rate:	-14.060	Roll:	0.042	Pitch:	0.033	Yaw:	0.780	Thrust:	93.963
Time:	1.605	Roll Set Point:	-0.017	Pitch Set Point:	-0.032	Yaw Set Point:	0.049	X_WP:	0.000	Y_WP:	0.000	Y_WP:	0.500	X:	0.009	Y:	0.016	Z:	0.347	yaw:	-2.833	yaw rate:	246.552	Roll:	-2.290	Pitch:	0.973	Yaw:	-62.698	Thrust:	16.920
Time:	1.628	Roll Set Point:	-0.018	Pitch Set Point:	-0.031	Yaw Set Point:	0.019	X_WP:	0.000	Y_WP:	0.000	Y_WP:	0.500	X:	0.009	Y:	0.015	Z:	0.356	yaw:	-1.075	yaw rate:	-175.747	Roll:	0.632	Pitch:	-0.164	Yaw:	18.407	Thrust:	73.364
Time:	1.645	Roll Set Point:	-0.018	Pitch Set Point:	-0.030	Yaw Set Point:	-0.002	X_WP:	0.000	Y_WP:	0.000	Y_WP:	0.500	X:	0.009	Y:	0.015	Z:	0.365	yaw:	0.121	yaw rate:	-119.590	Roll:	0.193	Pitch:	-0.252	Yaw:	19.051	Thrust:	43.959
Time:	1.666	Roll Set Point:	-0.017	Pitch Set Point:	-0.030	Yaw Set Point:	0.006	X_WP:	0.000	Y_WP:	0.000	Y_WP:	0.500	X:	0.008	Y:	0.015	Z:	0.373	yaw:	-0.335	yaw rate:	45.535	Roll:	-0.339	Pitch:	0.207	Yaw:	-6.133	Thrust:	65.307
Time:	1.687	Roll Set Point:	-0.016	Pitch Set Point:	-0.030	Yaw Set Point:	-0.007	X_WP:	0.000	Y_WP:	0.000	Y_WP:	0.500	X:	0.008	Y:	0.015	Z:	0.381	yaw:	0.393	yaw rate:	-72.822	Roll:	0.058	Pitch:	-0.023	Yaw:	9.511	Thrust:	66.500
Time:	1.706	Roll Set Point:	-0.015	Pitch Set Point:	-0.030	Yaw Set Point:	0.007	X_WP:	0.000	Y_WP:	0.000	Y_WP:	0.500	X:	0.007	Y:	0.015	Z:	0.390	yaw:	-0.409	yaw rate:	80.267	Roll:	-0.566	Pitch:	0.247	Yaw:	-11.806	Thrust:	55.073
Time:	1.727	Roll Set Point:	-0.014	Pitch Set Point:	-0.030	Yaw Set Point:	-0.001	X_WP:	0.000	Y_WP:	0.000	Y_WP:	0.500	X:	0.007	Y:	0.015	Z:	0.397	yaw:	0.076	yaw rate:	-48.508	Roll:	-0.049	Pitch:	0.144	Yaw:	5.954	Thrust:	68.540
Time:	1.746	Roll Set Point:	-0.013	Pitch Set Point:	-0.029	Yaw Set Point:	-0.002	X_WP:	0.000	Y_WP:	0.000	Y_WP:	0.500	X:	0.007	Y:	0.015	Z:	0.405	yaw:	0.101	yaw rate:	-2.519	Roll:	-0.196	Pitch:	0.071	Yaw:	0.459	Thrust:	55.576
Time:	1.765	Roll Set Point:	-0.013	Pitch Set Point:	-0.029	Yaw Set Point:	-0.005	X_WP:	0.000	Y_WP:	0.000	Y_WP:	0.500	X:	0.006	Y:	0.015	Z:	0.413	yaw:	0.268	yaw rate:	-16.736	Roll:	-0.152	Pitch:	0.130	Yaw:	2.581	Thrust:	59.113
Time:	1.789	Roll Set Point:	-0.012	Pitch Set Point:	-0.029	Yaw Set Point:	-0.015	X_WP:	0.000	Y_WP:	0.000	Y_WP:	0.500	X:	0.006	Y:	0.014	Z:	0.421	yaw:	0.875	yaw rate:	-60.619	Roll:	0.039	Pitch:	0.077	Yaw:	8.178	Thrust:	73.193
Time:	1.805	Roll Set Point:	-0.011	Pitch Set Point:	-0.029	Yaw Set Point:	-0.002	X_WP:	0.000	Y_WP:	0.000	Y_WP:	0.500	X:	0.006	Y:	0.015	Z:	0.429	yaw:	0.131	yaw rate:	74.402	Roll:	-0.416	Pitch:	0.443	Yaw:	-11.233	Thrust:	46.397
Time:	1.829	Roll Set Point:	-0.011	Pitch Set Point:	-0.028	Yaw Set Point:	-0.003	X_WP:	0.000	Y_WP:	0.000	Y_WP:	0.500	X:	0.005	Y:	0.014	Z:	0.436	yaw:	0.187	yaw rate:	-5.619	Roll:	-0.023	Pitch:	-0.082	Yaw:	0.853	Thrust:	75.399
Time:	1.845	Roll Set Point:	-0.009	Pitch Set Point:	-0.029	Yaw Set Point:	-0.007	X_WP:	0.000	Y_WP:	0.000	Y_WP:	0.500	X:	0.005	Y:	0.014	Z:	0.444	yaw:	0.407	yaw rate:	-21.974	Roll:	-0.662	Pitch:	0.356	Yaw:	4.025	Thrust:	46.234
Time:	1.866	Roll Set Point:	-0.008	Pitch Set Point:	-0.028	Yaw Set Point:	-0.012	X_WP:	0.000	Y_WP:	0.000	Y_WP:	0.500	X:	0.004	Y:	0.014	Z:	0.451	yaw:	0.678	yaw rate:	-27.122	Roll:	-0.119	Pitch:	0.142	Yaw:	4.424	Thrust:	61.886
Time:	1.887	Roll Set Point:	-0.008	Pitch Set Point:	-0.028	Yaw Set Point:	-0.016	X_WP:	0.000	Y_WP:	0.000	Y_WP:	0.500	X:	0.004	Y:	0.014	Z:	0.459	yaw:	0.900	yaw rate:	-22.184	Roll:	-0.120	Pitch:	0.170	Yaw:	3.913	Thrust:	68.450
Time:	1.906	Roll Set Point:	-0.007	Pitch Set Point:	-0.028	Yaw Set Point:	-0.020	X_WP:	0.000	Y_WP:	0.000	Y_WP:	0.500	X:	0.004	Y:	0.014	Z:	0.466	yaw:	1.158	yaw rate:	-25.795	Roll:	-0.033	Pitch:	-0.026	Yaw:	5.454	Thrust:	49.597
Time:	1.926	Roll Set Point:	-0.007	Pitch Set Point:	-0.028	Yaw Set Point:	-0.020	X_WP:	0.000	Y_WP:	0.000	Y_WP:	0.500	X:	0.003	Y:	0.014	Z:	0.473	yaw:	1.140	yaw rate:	1.756	Roll:	-0.167	Pitch:	0.222	Yaw:	1.375	Thrust:	67.866
Time:	1.946	Roll Set Point:	-0.006	Pitch Set Point:	-0.028	Yaw Set Point:	-0.025	X_WP:	0.000	Y_WP:	0.000	Y_WP:	0.500	X:	0.003	Y:	0.014	Z:	0.480	yaw:	1.416	yaw rate:	-27.617	Roll:	-0.198	Pitch:	0.172	Yaw:	5.654	Thrust:	58.727
Time:	1.965	Roll Set Point:	-0.005	Pitch Set Point:	-0.028	Yaw Set Point:	-0.025	X_WP:	0.000	Y_WP:	0.000	Y_WP:	0.500	X:	0.002	Y:	0.014	Z:	0.487	yaw:	1.453	yaw rate:	-3.714	Roll:	-0.286	Pitch:	0.272	Yaw:	2.552	Thrust:	55.765
Time:	1.988	Roll Set Point:	-0.004	Pitch Set Point:	-0.028	Yaw Set Point:	-0.023	X_WP:	0.000	Y_WP:	0.000	Y_WP:	0.500	X:	0.002	Y:	0.014	Z:	0.494	yaw:	1.329	yaw rate:	12.455	Roll:	-0.237	Pitch:	0.227	Yaw:	0.451	Thrust:	71.735
Time:	2.007	Roll Set Point:	-0.003	Pitch Set Point:	-0.028	Yaw Set Point:	-0.023	X_WP:	0.000	Y_WP:	0.000	Y_WP:	0.500	X:	0.001	Y:	0.014	Z:	0.501	yaw:	1.323	yaw rate:	0.565	Roll:	-0.225	Pitch:	0.179	Yaw:	1.799	Thrust:	52.703
Time:	2.030	Roll Set Point:	-0.002	Pitch Set Point:	-0.028	Yaw Set Point:	-0.029	X_WP:	0.000	Y_WP:	0.000	Y_WP:	0.500	X:	0.001	Y:	0.014	Z:	0.509	yaw:	1.663	yaw rate:	-33.993	Roll:	-0.125	Pitch:	0.284	Yaw:	6.228	Thrust:	70.418
Time:	2.046	Roll Set Point:	-0.002	Pitch Set Point:	-0.028	Yaw Set Point:	-0.024	X_WP:	0.000	Y_WP:	0.000	Y_WP:	0.500	X:	0.001	Y:	0.014	Z:	0.516	yaw:	1.393	yaw rate:	26.974	Roll:	-0.410	Pitch:	0.179	Yaw:	-2.360	Thrust:	42.867
Time:	2.066	Roll Set Point:	-0.001	Pitch Set Point:	-0.027	Yaw Set Point:	-0.019	X_WP:	0.000	Y_WP:	0.000	Y_WP:	0.500	X:	0.000	Y:	0.014	Z:	0.523	yaw:	1.079	yaw rate:	31.463	Roll:	-0.085	Pitch:	0.161	Yaw:	-2.638	Thrust:	55.833
Time:	2.088	Roll Set Point:	0.000	Pitch Set Point:	-0.028	Yaw Set Point:	-0.015	X_WP:	0.000	Y_WP:	0.000	Y_WP:	0.500	X:	-0.000	Y:	0.014	Z:	0.531	yaw:	0.853	yaw rate:	22.575	Roll:	-0.574	Pitch:	0.468	Yaw:	-1.392	Thrust:	66.318
Time:	2.106	Roll Set Point:	0.001	Pitch Set Point:	-0.028	Yaw Set Point:	-0.013	X_WP:	0.000	Y_WP:	0.000	Y_WP:	0.500	X:	-0.001	Y:	0.014	Z:	0.538	yaw:	0.741	yaw rate:	11.201	Roll:	-0.213	Pitch:	0.214	Yaw:	-0.507	Thrust:	42.683
Time:	2.126	Roll Set Point:	0.003	Pitch Set Point:	-0.028	Yaw Set Point:	0.003	X_WP:	0.000	Y_WP:	0.000	Y_WP:	0.500	X:	-0.001	Y:	0.014	Z:	0.546	yaw:	-0.174	yaw rate:	91.472	Roll:	-0.587	Pitch:	0.086	Yaw:	-11.839	Thrust:	62.583
Time:	2.146	Roll Set Point:	0.003	Pitch Set Point:	-0.028	Yaw Set Point:	0.003	X_WP:	0.000	Y_WP:	0.000	Y_WP:	0.500	X:	-0.002	Y:	0.014	Z:	0.553	yaw:	-0.150	yaw rate:	-2.337	Roll:	-0.259	Pitch:	0.305	Yaw:	0.181	Thrust:	53.686
Time:	2.166	Roll Set Point:	0.004	Pitch Set Point:	-0.028	Yaw Set Point:	-0.001	X_WP:	0.000	Y_WP:	0.000	Y_WP:	0.500	X:	-0.002	Y:	0.014	Z:	0.560	yaw:	0.062	yaw rate:	-21.218	Roll:	-0.137	Pitch:	0.162	Yaw:	3.044	Thrust:	51.838
Time:	2.188	Roll Set Point:	0.005	Pitch Set Point:	-0.028	Yaw Set Point:	0.006	X_WP:	0.000	Y_WP:	0.000	Y_WP:	0.500	X:	-0.002	Y:	0.014	Z:	0.568	yaw:	-0.320	yaw rate:	38.159	Roll:	-0.330	Pitch:	0.320	Yaw:	-4.766	Thrust:	66.382
Time:	2.205	Roll Set Point:	0.005	Pitch Set Point:	-0.028	Yaw Set Point:	-0.008	X_WP:	0.000	Y_WP:	0.000	Y_WP:	0.500	X:	-0.003	Y:	0.014	Z:	0.574	yaw:	0.459	yaw rate:	-77.878	Roll:	0.032	Pitch:	0.161	Yaw:	12.774	Thrust:	41.477
Time:	2.227	Roll Set Point:	0.006	Pitch Set Point:	-0.028	Yaw Set Point:	-0.003	X_WP:	0.000	Y_WP:	0.000	Y_WP:	0.500	X:	-0.003	Y:	0.014	Z:	0.581	yaw:	0.144	yaw rate:	31.520	Roll:	-0.329	Pitch:	0.456	Yaw:	-3.448	Thrust:	64.339
Time:	2.246	Roll Set Point:	0.006	Pitch Set Point:	-0.028	Yaw Set Point:	-0.004	X_WP:	0.000	Y_WP:	0.000	Y_WP:	0.500	X:	-0.003	Y:	0.014	Z:	0.586	yaw:	0.239	yaw rate:	-9.542	Roll:	-0.111	Pitch:	0.177	Yaw:	1.758	Thrust:	45.261
Time:	2.266	Roll Set Point:	0.007	Pitch Set Point:	-0.028	Yaw Set Point:	0.000	X_WP:	0.000	Y_WP:	0.000	Y_WP:	0.500	X:	-0.004	Y:	0.014	Z:	0.592	yaw:	-0.023	yaw rate:	26.251	Roll:	-0.303	Pitch:	0.348	Yaw:	-3.405	Thrust:	59.659
Time:	2.287	Roll Set Point:	0.010	Pitch Set Point:	-0.029	Yaw Set Point:	0.031	X_WP:	0.000	Y_WP:	0.000	Y_WP:	0.500	X:	-0.005	Y:	0.015	Z:	0.597	yaw:	-1.755	yaw rate:	173.158	Roll:	-1.070	Pitch:	0.621	Yaw:	-23.412	Thrust:	63.394
Time:	2.309	Roll Set Point:	0.009	Pitch Set Point:	-0.029	Yaw Set Point:	0.004	X_WP:	0.000	Y_WP:	0.000	Y_WP:	0.500	X:	-0.004	Y:	0.015	Z:	0.602	yaw:	-0.230	yaw rate:	-152.494	Roll:	0.493	Pitch:	0.212	Yaw:	19.033	Thrust:	59.523
Time:	2.325	Roll Set Point:	0.009	Pitch Set Point:	-0.029	Yaw Set Point:	-0.008	X_WP:	0.000	Y_WP:	0.000	Y_WP:	0.500	X:	-0.005	Y:	0.015	Z:	0.606	yaw:	0.434	yaw rate:	-66.416	Roll:	0.026	Pitch:	0.228	Yaw:	10.567	Thrust:	47.970
Time:	2.345	Roll Set Point:	0.012	Pitch Set Point:	-0.031	Yaw Set Point:	0.027	X_WP:	0.000	Y_WP:	0.000	Y_WP:	0.500	X:	-0.006	Y:	0.015	Z:	0.610	yaw:	-1.566	yaw rate:	199.999	Roll:	-1.346	Pitch:	0.796	Yaw:	-28.762	Thrust:	56.752
Time:	2.367	Roll Set Point:	0.012	Pitch Set Point:	-0.031	Yaw Set Point:	0.026	X_WP:	0.000	Y_WP:	0.000	Y_WP:	0.500	X:	-0.006	Y:	0.016	Z:	0.614	yaw:	-1.480	yaw rate:	-8.617	Roll:	-0.187	Pitch:	0.412	Yaw:	-0.965	Thrust:	65.479
Time:	2.387	Roll Set Point:	0.013	Pitch Set Point:	-0.031	Yaw Set Point:	0.025	X_WP:	0.000	Y_WP:	0.000	Y_WP:	0.500	X:	-0.006	Y:	0.016	Z:	0.617	yaw:	-1.450	yaw rate:	-2.977	Roll:	-0.101	Pitch:	0.304	Yaw:	-1.583	Thrust:	56.462
Time:	2.407	Roll Set Point:	0.011	Pitch Set Point:	-0.031	Yaw Set Point:	0.001	X_WP:	0.000	Y_WP:	0.000	Y_WP:	0.500	X:	-0.006	Y:	0.015	Z:	0.621	yaw:	-0.030	yaw rate:	-141.963	Roll:	0.772	Pitch:	0.182	Yaw:	18.877	Thrust:	58.200
Time:	2.428	Roll Set Point:	0.014	Pitch Set Point:	-0.032	Yaw Set Point:	0.026	X_WP:	0.000	Y_WP:	0.000	Y_WP:	0.500	X:	-0.007	Y:	0.016	Z:	0.624	yaw:	-1.476	yaw rate:	144.570	Roll:	-1.247	Pitch:	0.681	Yaw:	-19.985	Thrust:	59.954
Time:	2.445	Roll Set Point:	0.015	Pitch Set Point:	-0.032	Yaw Set Point:	0.026	X_WP:	0.000	Y_WP:	0.000	Y_WP:	0.500	X:	-0.007	Y:	0.016	Z:	0.627	yaw:	-1.483	yaw rate:	0.654	Roll:	-0.334	Pitch:	0.445	Yaw:	-2.143	Thrust:	47.460
Time:	2.466	Roll Set Point:	0.015	Pitch Set Point:	-0.033	Yaw Set Point:	0.028	X_WP:	0.000	Y_WP:	0.000	Y_WP:	0.500	X:	-0.007	Y:	0.016	Z:	0.631	yaw:	-1.603	yaw rate:	12.046	Roll:	-0.217	Pitch:	0.381	Yaw:	-3.693	Thrust:	62.056
Time:	2.488	Roll Set Point:	0.016	Pitch Set Point:	-0.033	Yaw Set Point:	0.027	X_WP:	0.000	Y_WP:	0.000	Y_WP:	0.500	X:	-0.008	Y:	0.017	Z:	0.634	yaw:	-1.552	yaw rate:	-5.143	Roll:	-0.209	Pitch:	0.457	Yaw:	-1.531	Thrust:	62.448
Time:	2.506	Roll Set Point:	0.016	Pitch Set Point:	-0.034	Yaw Set Point:	0.024	X_WP:	0.000	Y_WP:	0.000	Y_WP:	0.500	X:	-0.008	Y:	0.017	Z:	0.637	yaw:	-1.384	yaw rate:	-16.797	Roll:	-0.153	Pitch:	0.415	Yaw:	0.560	Thrust:	46.747
Time:	2.526	Roll Set Point:	0.016	Pitch Set Point:	-0.034	Yaw Set Point:	0.020	X_WP:	0.000	Y_WP:	0.000	Y_WP:	0.500	X:	-0.008	Y:	0.017	Z:	0.640	yaw:	-1.170	yaw rate:	-21.365	Roll:	0.047	Pitch:	0.324	Yaw:	1.011	Thrust:	59.257
Time:	2.546	Roll Set Point:	0.017	Pitch Set Point:	-0.034	Yaw Set Point:	0.023	X_WP:	0.000	Y_WP:	0.000	Y_WP:	0.500	X:	-0.008	Y:	0.017	Z:	0.643	yaw:	-1.324	yaw rate:	15.387	Roll:	-0.311	Pitch:	0.452	Yaw:	-3.944	Thrust:	52.798
Time:	2.566	Roll Set Point:	0.017	Pitch Set Point:	-0.034	Yaw Set Point:	0.008	X_WP:	0.000	Y_WP:	0.000	Y_WP:	0.500	X:	-0.008	Y:	0.017	Z:	0.646	yaw:	-0.438	yaw rate:	-88.601	Roll:	0.079	Pitch:	0.468	Yaw:	10.878	Thrust:	53.373
Time:	2.593	Roll Set Point:	0.019	Pitch Set Point:	-0.035	Yaw Set Point:	0.029	X_WP:	0.000	Y_WP:	0.000	Y_WP:	0.500	X:	-0.009	Y:	0.018	Z:	0.649	yaw:	-1.665	yaw rate:	122.741	Roll:	-0.668	Pitch:	0.421	Yaw:	-14.835	Thrust:	75.417
Time:	2.605	Roll Set Point:	0.019	Pitch Set Point:	-0.035	Yaw Set Point:	0.029	X_WP:	0.000	Y_WP:	0.000	Y_WP:	0.500	X:	-0.009	Y:	0.018	Z:	0.653	yaw:	-1.667	yaw rate:	0.174	Roll:	-0.407	Pitch:	0.438	Yaw:	-2.390	Thrust:	29.266
Time:	2.628	Roll Set Point:	0.020	Pitch Set Point:	-0.036	Yaw Set Point:	0.028	X_WP:	0.000	Y_WP:	0.000	Y_WP:	0.500	X:	-0.010	Y:	0.018	Z:	0.656	yaw:	-1.614	yaw rate:	-5.291	Roll:	-0.215	Pitch:	0.425	Yaw:	-1.709	Thrust:	63.848
Time:	2.645	Roll Set Point:	0.020	Pitch Set Point:	-0.036	Yaw Set Point:	0.026	X_WP:	0.000	Y_WP:	0.000	Y_WP:	0.500	X:	-0.010	Y:	0.018	Z:	0.659	yaw:	-1.483	yaw rate:	-13.127	Roll:	-0.216	Pitch:	0.388	Yaw:	-0.180	Thrust:	43.908
Time:	2.666	Roll Set Point:	0.021	Pitch Set Point:	-0.036	Yaw Set Point:	0.026	X_WP:	0.000	Y_WP:	0.000	Y_WP:	0.500	X:	-0.010	Y:	0.018	Z:	0.661	yaw:	-1.500	yaw rate:	1.727	Roll:	-0.328	Pitch:	0.435	Yaw:	-2.391	Thrust:	55.250
Time:	2.688	Roll Set Point:	0.022	Pitch Set Point:	-0.037	Yaw Set Point:	0.028	X_WP:	0.000	Y_WP:	0.000	Y_WP:	0.500	X:	-0.011	Y:	0.018	Z:	0.663	yaw:	-1.593	yaw rate:	9.312	Roll:	-0.288	Pitch:	0.468	Yaw:	-3.446	Thrust:	59.392
Time:	2.706	Roll Set Point:	0.022	Pitch Set Point:	-0.037	Yaw Set Point:	0.027	X_WP:	0.000	Y_WP:	0.000	Y_WP:	0.500	X:	-0.011	Y:	0.018	Z:	0.665	yaw:	-1.534	yaw rate:	-5.888	Roll:	-0.200	Pitch:	0.331	Yaw:	-1.383	Thrust:	47.794
Time:	2.726	Roll Set Point:	0.022	Pitch Set Point:	-0.037	Yaw Set Point:	0.023	X_WP:	0.000	Y_WP:	0.000	Y_WP:	0.500	X:	-0.011	Y:	0.018	Z:	0.666	yaw:	-1.322	yaw rate:	-21.263	Roll:	0.051	Pitch:	0.293	Yaw:	0.865	Thrust:	53.805
Time:	2.746	Roll Set Point:	0.020	Pitch Set Point:	-0.037	Yaw Set Point:	-0.027	X_WP:	0.000	Y_WP:	0.000	Y_WP:	0.500	X:	-0.010	Y:	0.018	Z:	0.667	yaw:	1.541	yaw rate:	-286.268	Roll:	1.221	Pitch:	0.788	Yaw:	39.730	Thrust:	53.743
Time:	2.766	Roll Set Point:	0.023	Pitch Set Point:	-0.038	Yaw Set Point:	0.022	X_WP:	0.000	Y_WP:	0.000	Y_WP:	0.500	X:	-0.011	Y:	0.019	Z:	0.667	yaw:	-1.272	yaw rate:	281.344	Roll:	-1.875	Pitch:	0.240	Yaw:	-38.655	Thrust:	56.299
Time:	2.788	Roll Set Point:	0.024	Pitch Set Point:	-0.038	Yaw Set Point:	0.024	X_WP:	0.000	Y_WP:	0.000	Y_WP:	0.500	X:	-0.012	Y:	0.019	Z:	0.666	yaw:	-1.368	yaw rate:	9.601	Roll:	-0.305	Pitch:	0.511	Yaw:	-3.170	Thrust:	64.407
Time:	2.806	Roll Set Point:	0.023	Pitch Set Point:	-0.038	Yaw Set Point:	0.010	X_WP:	0.000	Y_WP:	0.000	Y_WP:	0.500	X:	-0.012	Y:	0.019	Z:	0.666	yaw:	-0.562	yaw rate:	-80.614	Roll:	0.268	Pitch:	0.414	Yaw:	10.910	Thrust:	52.526
Time:	2.827	Roll Set Point:	0.023	Pitch Set Point:	-0.038	Yaw Set Point:	-0.011	X_WP:	0.000	Y_WP:	0.000	Y_WP:	0.500	X:	-0.012	Y:	0.019	Z:	0.664	yaw:	0.658	yaw rate:	-122.029	Roll:	0.360	Pitch:	0.388	Yaw:	15.591	Thrust:	62.026
Time:	2.846	Roll Set Point:	0.024	Pitch Set Point:	-0.039	Yaw Set Point:	-0.006	X_WP:	0.000	Y_WP:	0.000	Y_WP:	0.500	X:	-0.012	Y:	0.019	Z:	0.663	yaw:	0.342	yaw rate:	31.627	Roll:	-0.414	Pitch:	0.558	Yaw:	-4.348	Thrust:	52.386
Time:	2.866	Roll Set Point:	0.024	Pitch Set Point:	-0.039	Yaw Set Point:	-0.010	X_WP:	0.000	Y_WP:	0.000	Y_WP:	0.500	X:	-0.012	Y:	0.019	Z:	0.661	yaw:	0.562	yaw rate:	-22.051	Roll:	-0.074	Pitch:	0.436	Yaw:	3.392	Thrust:	61.312
Time:	2.888	Roll Set Point:	0.024	Pitch Set Point:	-0.039	Yaw Set Point:	-0.007	X_WP:	0.000	Y_WP:	0.000	Y_WP:	0.500	X:	-0.012	Y:	0.020	Z:	0.659	yaw:	0.417	yaw rate:	14.491	Roll:	-0.163	Pitch:	0.444	Yaw:	-1.267	Thrust:	66.183
Time:	2.905	Roll Set Point:	0.025	Pitch Set Point:	-0.039	Yaw Set Point:	-0.010	X_WP:	0.000	Y_WP:	0.000	Y_WP:	0.500	X:	-0.012	Y:	0.020	Z:	0.656	yaw:	0.581	yaw rate:	-16.322	Roll:	-0.309	Pitch:	0.354	Yaw:	3.226	Thrust:	52.328
Time:	2.927	Roll Set Point:	0.027	Pitch Set Point:	-0.040	Yaw Set Point:	0.028	X_WP:	0.000	Y_WP:	0.000	Y_WP:	0.500	X:	-0.013	Y:	0.020	Z:	0.654	yaw:	-1.593	yaw rate:	217.321	Roll:	-1.347	Pitch:	0.493	Yaw:	-28.126	Thrust:	65.645
Time:	2.945	Roll Set Point:	0.028	Pitch Set Point:	-0.041	Yaw Set Point:	0.028	X_WP:	0.000	Y_WP:	0.000	Y_WP:	0.500	X:	-0.014	Y:	0.020	Z:	0.651	yaw:	-1.593	yaw rate:	0.045	Roll:	-0.336	Pitch:	0.488	Yaw:	-2.339	Thrust:	53.179
Time:	2.966	Roll Set Point:	0.028	Pitch Set Point:	-0.041	Yaw Set Point:	0.026	X_WP:	0.000	Y_WP:	0.000	Y_WP:	0.500	X:	-0.014	Y:	0.021	Z:	0.649	yaw:	-1.475	yaw rate:	-11.809	Roll:	-0.132	Pitch:	0.366	Yaw:	-0.703	Thrust:	61.324
Time:	2.988	Roll Set Point:	0.028	Pitch Set Point:	-0.041	Yaw Set Point:	0.027	X_WP:	0.000	Y_WP:	0.000	Y_WP:	0.500	X:	-0.014	Y:	0.021	Z:	0.646	yaw:	-1.561	yaw rate:	8.618	Roll:	-0.239	Pitch:	0.436	Yaw:	-3.378	Thrust:	64.086
Time:	3.006	Roll Set Point:	0.028	Pitch Set Point:	-0.041	Yaw Set Point:	0.006	X_WP:	0.000	Y_WP:	0.000	Y_WP:	0.500	X:	-0.014	Y:	0.021	Z:	0.644	yaw:	-0.332	yaw rate:	-122.906	Roll:	0.459	Pitch:	0.554	Yaw:	16.594	Thrust:	52.731
Time:	3.027	Roll Set Point:	0.029	Pitch Set Point:	-0.042	Yaw Set Point:	0.027	X_WP:	0.000	Y_WP:	0.000	Y_WP:	0.500	X:	-0.014	Y:	0.021	Z:	0.641	yaw:	-1.545	yaw rate:	121.321	Roll:	-0.811	Pitch:	0.397	Yaw:	-17.398	Thrust:	65.347
Time:	3.046	Roll Set Point:	0.026	Pitch Set Point:	-0.042	Yaw Set Point:	-0.033	X_WP:	0.000	Y_WP:	0.000	Y_WP:	0.500	X:	-0.013	Y:	0.021	Z:	0.638	yaw:	1.862	yaw rate:	-340.751	Roll:	2.026	Pitch:	0.768	Yaw:	49.432	Thrust:	56.179
Time:	3.066	Roll Set Point:	0.027	Pitch Set Point:	-0.043	Yaw Set Point:	-0.037	X_WP:	0.000	Y_WP:	0.000	Y_WP:	0.500	X:	-0.014	Y:	0.021	Z:	0.635	yaw:	2.107	yaw rate:	-24.529	Roll:	-0.380	Pitch:	0.737	Yaw:	6.050	Thrust:	58.116
Time:	3.088	Roll Set Point:	0.029	Pitch Set Point:	-0.042	Yaw Set Point:	-0.000	X_WP:	0.000	Y_WP:	0.000	Y_WP:	0.500	X:	-0.014	Y:	0.021	Z:	0.632	yaw:	0.001	yaw rate:	210.649	Roll:	-1.100	Pitch:	-0.040	Yaw:	-25.046	Thrust:	63.829
Time:	3.105	Roll Set Point:	0.029	Pitch Set Point:	-0.042	Yaw Set Point:	-0.001	X_WP:	0.000	Y_WP:	0.000	Y_WP:	0.500	X:	-0.015	Y:	0.021	Z:	0.629	yaw:	0.031	yaw rate:	-2.959	Roll:	-0.261	Pitch:	0.427	Yaw:	0.358	Thrust:	54.534
Time:	3.128	Roll Set Point:	0.029	Pitch Set Point:	-0.042	Yaw Set Point:	-0.001	X_WP:	0.000	Y_WP:	0.000	Y_WP:	0.500	X:	-0.015	Y:	0.021	Z:	0.626	yaw:	0.060	yaw rate:	-2.938	Roll:	-0.201	Pitch:	0.444	Yaw:	0.267	Thrust:	66.133
Time:	3.146	Roll Set Point:	0.030	Pitch Set Point:	-0.043	Yaw Set Point:	-0.000	X_WP:	0.000	Y_WP:	0.000	Y_WP:	0.500	X:	-0.015	Y:	0.021	Z:	0.623	yaw:	0.003	yaw rate:	5.660	Roll:	-0.327	Pitch:	0.481	Yaw:	-0.959	Thrust:	50.756
Time:	3.166	Roll Set Point:	0.030	Pitch Set Point:	-0.043	Yaw Set Point:	-0.005	X_WP:	0.000	Y_WP:	0.000	Y_WP:	0.500	X:	-0.015	Y:	0.021	Z:	0.620	yaw:	0.270	yaw rate:	-26.710	Roll:	-0.091	Pitch:	0.401	Yaw:	3.746	Thrust:	62.168
Time:	3.188	Roll Set Point:	0.031	Pitch Set Point:	-0.043	Yaw Set Point:	-0.001	X_WP:	0.000	Y_WP:	0.000	Y_WP:	0.500	X:	-0.015	Y:	0.021	Z:	0.616	yaw:	0.082	yaw rate:	18.804	Roll:	-0.260	Pitch:	0.342	Yaw:	-2.294	Thrust:	64.334
Time:	3.206	Roll Set Point:	0.033	Pitch Set Point:	-0.044	Yaw Set Point:	0.031	X_WP:	0.000	Y_WP:	0.000	Y_WP:	0.500	X:	-0.016	Y:	0.022	Z:	0.613	yaw:	-1.801	yaw rate:	188.327	Roll:	-1.671	Pitch:	0.521	Yaw:	-29.667	Thrust:	52.584
Time:	3.227	Roll Set Point:	0.033	Pitch Set Point:	-0.044	Yaw Set Point:	0.028	X_WP:	0.000	Y_WP:	0.000	Y_WP:	0.500	X:	-0.016	Y:	0.022	Z:	0.609	yaw:	-1.610	yaw rate:	-19.110	Roll:	-0.224	Pitch:	0.528	Yaw:	-0.091	Thrust:	66.333
Time:	3.245	Roll Set Point:	0.034	Pitch Set Point:	-0.044	Yaw Set Point:	0.031	X_WP:	0.000	Y_WP:	0.000	Y_WP:	0.500	X:	-0.017	Y:	0.022	Z:	0.606	yaw:	-1.753	yaw rate:	14.285	Roll:	-0.249	Pitch:	0.268	Yaw:	-4.663	Thrust:	54.957
Time:	3.266	Roll Set Point:	0.033	Pitch Set Point:	-0.044	Yaw Set Point:	0.008	X_WP:	0.000	Y_WP:	0.000	Y_WP:	0.500	X:	-0.016	Y:	0.022	Z:	0.602	yaw:	-0.451	yaw rate:	-130.148	Roll:	0.430	Pitch:	0.559	Yaw:	15.819	Thrust:	59.491
Time:	3.288	Roll Set Point:	0.035	Pitch Set Point:	-0.044	Yaw Set Point:	0.033	X_WP:	0.000	Y_WP:	0.000	Y_WP:	0.500	X:	-0.017	Y:	0.022	Z:	0.598	yaw:	-1.867	yaw rate:	141.557	Roll:	-0.970	Pitch:	0.312	Yaw:	-19.614	Thrust:	66.486
Time:	3.305	Roll Set Point:	0.035	Pitch Set Point:	-0.045	Yaw Set Point:	0.024	X_WP:	0.000	Y_WP:	0.000	Y_WP:	0.500	X:	-0.017	Y:	0.023	Z:	0.595	yaw:	-1.366	yaw rate:	-50.108	Roll:	-0.098	Pitch:	0.634	Yaw:	5.606	Thrust:	53.697
Time:	3.328	Roll Set Point:	0.035	Pitch Set Point:	-0.045	Yaw Set Point:	0.029	X_WP:	0.000	Y_WP:	0.000	Y_WP:	0.500	X:	-0.017	Y:	0.023	Z:	0.591	yaw:	-1.667	yaw rate:	30.140	Roll:	-0.387	Pitch:	0.363	Yaw:	-5.975	Thrust:	67.540
Time:	3.345	Roll Set Point:	0.036	Pitch Set Point:	-0.045	Yaw Set Point:	0.030	X_WP:	0.000	Y_WP:	0.000	Y_WP:	0.500	X:	-0.018	Y:	0.023	Z:	0.587	yaw:	-1.733	yaw rate:	6.584	Roll:	-0.282	Pitch:	0.354	Yaw:	-3.600	Thrust:	53.774
Time:	3.366	Roll Set Point:	0.036	Pitch Set Point:	-0.045	Yaw Set Point:	0.032	X_WP:	0.000	Y_WP:	0.000	Y_WP:	0.500	X:	-0.018	Y:	0.023	Z:	0.583	yaw:	-1.839	yaw rate:	10.649	Roll:	-0.457	Pitch:	0.482	Yaw:	-4.152	Thrust:	62.002
Time:	3.387	Roll Set Point:	0.036	Pitch Set Point:	-0.045	Yaw Set Point:	0.024	X_WP:	0.000	Y_WP:	0.000	Y_WP:	0.500	X:	-0.018	Y:	0.023	Z:	0.579	yaw:	-1.399	yaw rate:	-44.042	Roll:	-0.049	Pitch:	0.573	Yaw:	3.100	Thrust:	64.339
Time:	3.406	Roll Set Point:	0.037	Pitch Set Point:	-0.046	Yaw Set Point:	0.025	X_WP:	0.000	Y_WP:	0.000	Y_WP:	0.500	X:	-0.018	Y:	0.023	Z:	0.575	yaw:	-1.436	yaw rate:	3.741	Roll:	-0.232	Pitch:	0.389	Yaw:	-2.783	Thrust:	54.006
Time:	3.427	Roll Set Point:	0.034	Pitch Set Point:	-0.046	Yaw Set Point:	-0.032	X_WP:	0.000	Y_WP:	0.000	Y_WP:	0.500	X:	-0.017	Y:	0.023	Z:	0.572	yaw:	1.809	yaw rate:	-324.542	Roll:	1.380	Pitch:	1.115	Yaw:	40.746	Thrust:	64.528
Time:	3.454	Roll Set Point:	0.037	Pitch Set Point:	-0.046	Yaw Set Point:	0.009	X_WP:	0.000	Y_WP:	0.000	Y_WP:	0.500	X:	-0.018	Y:	0.023	Z:	0.568	yaw:	-0.543	yaw rate:	235.218	Roll:	-1.190	Pitch:	0.063	Yaw:	-23.745	Thrust:	78.245
Time:	3.466	Roll Set Point:	0.037	Pitch Set Point:	-0.046	Yaw Set Point:	0.017	X_WP:	0.000	Y_WP:	0.000	Y_WP:	0.500	X:	-0.018	Y:	0.023	Z:	0.564	yaw:	-0.990	yaw rate:	44.722	Roll:	-0.517	Pitch:	0.103	Yaw:	-11.057	Thrust:	43.780
Time:	3.489	Roll Set Point:	0.038	Pitch Set Point:	-0.046	Yaw Set Point:	0.028	X_WP:	0.000	Y_WP:	0.000	Y_WP:	0.500	X:	-0.019	Y:	0.023	Z:	0.560	yaw:	-1.579	yaw rate:	58.908	Roll:	-0.635	Pitch:	0.510	Yaw:	-9.564	Thrust:	63.739
Time:	3.506	Roll Set Point:	0.038	Pitch Set Point:	-0.047	Yaw Set Point:	0.028	X_WP:	0.000	Y_WP:	0.000	Y_WP:	0.500	X:	-0.019	Y:	0.024	Z:	0.556	yaw:	-1.586	yaw rate:	0.644	Roll:	-0.374	Pitch:	0.538	Yaw:	-2.545	Thrust:	57.331
Time:	3.528	Roll Set Point:	0.036	Pitch Set Point:	-0.047	Yaw Set Point:	-0.029	X_WP:	0.000	Y_WP:	0.000	Y_WP:	0.500	X:	-0.018	Y:	0.023	Z:	0.553	yaw:	1.687	yaw rate:	-327.273	Roll:	1.500	Pitch:	1.166	Yaw:	40.873	Thrust:	63.617
Time:	3.546	Roll Set Point:	0.039	Pitch Set Point:	-0.047	Yaw Set Point:	0.027	X_WP:	0.000	Y_WP:	0.000	Y_WP:	0.500	X:	-0.019	Y:	0.024	Z:	0.548	yaw:	-1.521	yaw rate:	320.785	Roll:	-2.310	Pitch:	-0.461	Yaw:	-49.591	Thrust:	58.333
Time:	3.568	Roll Set Point:	0.039	Pitch Set Point:	-0.047	Yaw Set Point:	0.021	X_WP:	0.000	Y_WP:	0.000	Y_WP:	0.500	X:	-0.019	Y:	0.024	Z:	0.544	yaw:	-1.212	yaw rate:	-30.922	Roll:	-0.152	Pitch:	0.685	Yaw:	1.863	Thrust:	64.713
Time:	3.588	Roll Set Point:	0.040	Pitch Set Point:	-0.047	Yaw Set Point:	0.024	X_WP:	0.000	Y_WP:	0.000	Y_WP:	0.500	X:	-0.020	Y:	0.024	Z:	0.539	yaw:	-1.358	yaw rate:	14.607	Roll:	-0.347	Pitch:	0.341	Yaw:	-4.045	Thrust:	63.801
Time:	3.606	Roll Set Point:	0.037	Pitch Set Point:	-0.048	Yaw Set Point:	-0.037	X_WP:	0.000	Y_WP:	0.000	Y_WP:	0.500	X:	-0.019	Y:	0.024	Z:	0.535	yaw:	2.140	yaw rate:	-349.809	Roll:	1.787	Pitch:	1.492	Yaw:	56.234	Thrust:	56.695
Time:	3.626	Roll Set Point:	0.038	Pitch Set Point:	-0.049	Yaw Set Point:	-0.021	X_WP:	0.000	Y_WP:	0.000	Y_WP:	0.500	X:	-0.019	Y:	0.024	Z:	0.530	yaw:	1.220	yaw rate:	92.072	Roll:	-0.675	Pitch:	0.395	Yaw:	-9.775	Thrust:	66.716
Time:	3.647	Roll Set Point:	0.038	Pitch Set Point:	-0.049	Yaw Set Point:	-0.031	X_WP:	0.000	Y_WP:	0.000	Y_WP:	0.500	X:	-0.019	Y:	0.024	Z:	0.525	yaw:	1.783	yaw rate:	-56.327	Roll:	-0.056	Pitch:	0.623	Yaw:	9.648	Thrust:	63.496
Time:	3.666	Roll Set Point:	0.039	Pitch Set Point:	-0.049	Yaw Set Point:	-0.025	X_WP:	0.000	Y_WP:	0.000	Y_WP:	0.500	X:	-0.020	Y:	0.024	Z:	0.520	yaw:	1.428	yaw rate:	35.468	Roll:	-0.485	Pitch:	0.405	Yaw:	-3.039	Thrust:	62.483
Time:	3.688	Roll Set Point:	0.040	Pitch Set Point:	-0.049	Yaw Set Point:	-0.005	X_WP:	0.000	Y_WP:	0.000	Y_WP:	0.500	X:	-0.020	Y:	0.025	Z:	0.515	yaw:	0.308	yaw rate:	112.049	Roll:	-1.018	Pitch:	0.439	Yaw:	-12.859	Thrust:	68.966
Time:	3.706	Roll Set Point:	0.039	Pitch Set Point:	-0.049	Yaw Set Point:	-0.030	X_WP:	0.000	Y_WP:	0.000	Y_WP:	0.500	X:	-0.020	Y:	0.024	Z:	0.511	yaw:	1.725	yaw rate:	-141.725	Roll:	0.611	Pitch:	0.590	Yaw:	22.735	Thrust:	60.165
Time:	3.728	Roll Set Point:	0.040	Pitch Set Point:	-0.049	Yaw Set Point:	-0.025	X_WP:	0.000	Y_WP:	0.000	Y_WP:	0.500	X:	-0.020	Y:	0.024	Z:	0.507	yaw:	1.419	yaw rate:	30.572	Roll:	-0.392	Pitch:	0.381	Yaw:	-1.979	Thrust:	66.586
Time:	3.747	Roll Set Point:	0.040	Pitch Set Point:	-0.050	Yaw Set Point:	-0.039	X_WP:	0.000	Y_WP:	0.000	Y_WP:	0.500	X:	-0.021	Y:	0.025	Z:	0.503	yaw:	2.222	yaw rate:	-80.256	Roll:	-0.177	Pitch:	0.811	Yaw:	14.430	Thrust:	59.087
Time:	3.766	Roll Set Point:	0.041	Pitch Set Point:	-0.050	Yaw Set Point:	-0.026	X_WP:	0.000	Y_WP:	0.000	Y_WP:	0.500	X:	-0.021	Y:	0.025	Z:	0.499	yaw:	1.470	yaw rate:	75.222	Roll:	-0.768	Pitch:	0.275	Yaw:	-7.969	Thrust:	61.810
Time:	3.789	Roll Set Point:	0.043	Pitch Set Point:	-0.050	Yaw Set Point:	-0.001	X_WP:	0.000	Y_WP:	0.000	Y_WP:	0.500	X:	-0.022	Y:	0.025	Z:	0.496	yaw:	0.070	yaw rate:	139.931	Roll:	-1.214	Pitch:	0.238	Yaw:	-16.704	Thrust:	65.286
Time:	3.806	Roll Set Point:	0.042	Pitch Set Point:	-0.050	Yaw Set Point:	-0.029	X_WP:	0.000	Y_WP:	0.000	Y_WP:	0.500	X:	-0.021	Y:	0.025	Z:	0.494	yaw:	1.663	yaw rate:	-159.312	Roll:	0.560	Pitch:	0.799	Yaw:	25.699	Thrust:	53.035
Time:	3.827	Roll Set Point:	0.043	Pitch Set Point:	-0.050	Yaw Set Point:	-0.020	X_WP:	0.000	Y_WP:	0.000	Y_WP:	0.500	X:	-0.022	Y:	0.025	Z:	0.491	yaw:	1.154	yaw rate:	50.892	Roll:	-0.647	Pitch:	0.400	Yaw:	-4.759	Thrust:	64.910
Time:	3.846	Roll Set Point:	0.043	Pitch Set Point:	-0.050	Yaw Set Point:	-0.033	X_WP:	0.000	Y_WP:	0.000	Y_WP:	0.500	X:	-0.022	Y:	0.025	Z:	0.489	yaw:	1.891	yaw rate:	-73.698	Roll:	0.282	Pitch:	0.403	Yaw:	12.599	Thrust:	58.597
Time:	3.866	Roll Set Point:	0.044	Pitch Set Point:	-0.050	Yaw Set Point:	-0.030	X_WP:	0.000	Y_WP:	0.000	Y_WP:	0.500	X:	-0.022	Y:	0.025	Z:	0.488	yaw:	1.739	yaw rate:	15.272	Roll:	-0.772	Pitch:	0.581	Yaw:	0.225	Thrust:	57.219
Time:	3.887	Roll Set Point:	0.045	Pitch Set Point:	-0.050	Yaw Set Point:	-0.027	X_WP:	0.000	Y_WP:	0.000	Y_WP:	0.500	X:	-0.023	Y:	0.025	Z:	0.486	yaw:	1.537	yaw rate:	20.171	Roll:	-0.550	Pitch:	0.479	Yaw:	-0.573	Thrust:	58.979
Time:	3.906	Roll Set Point:	0.045	Pitch Set Point:	-0.050	Yaw Set Point:	-0.026	X_WP:	0.000	Y_WP:	0.000	Y_WP:	0.500	X:	-0.023	Y:	0.025	Z:	0.484	yaw:	1.464	yaw rate:	7.272	Roll:	-0.154	Pitch:	0.243	Yaw:	0.934	Thrust:	58.826
Time:	3.927	Roll Set Point:	0.046	Pitch Set Point:	-0.050	Yaw Set Point:	-0.024	X_WP:	0.000	Y_WP:	0.000	Y_WP:	0.500	X:	-0.023	Y:	0.025	Z:	0.483	yaw:	1.363	yaw rate:	10.129	Roll:	-0.784	Pitch:	0.631	Yaw:	0.483	Thrust:	58.261
Time:	3.946	Roll Set Point:	0.046	Pitch Set Point:	-0.051	Yaw Set Point:	-0.028	X_WP:	0.000	Y_WP:	0.000	Y_WP:	0.500	X:	-0.024	Y:	0.025	Z:	0.482	yaw:	1.591	yaw rate:	-22.797	Roll:	-0.348	Pitch:	0.537	Yaw:	5.156	Thrust:	58.299
Time:	3.966	Roll Set Point:	0.047	Pitch Set Point:	-0.051	Yaw Set Point:	-0.026	X_WP:	0.000	Y_WP:	0.000	Y_WP:	0.500	X:	-0.024	Y:	0.025	Z:	0.480	yaw:	1.475	yaw rate:	11.584	Roll:	-0.462	Pitch:	0.407	Yaw:	0.403	Thrust:	57.270
Time:	3.989	Roll Set Point:	0.047	Pitch Set Point:	-0.050	Yaw Set Point:	-0.024	X_WP:	0.000	Y_WP:	0.000	Y_WP:	0.500	X:	-0.024	Y:	0.025	Z:	0.479	yaw:	1.372	yaw rate:	10.321	Roll:	-0.372	Pitch:	0.330	Yaw:	0.609	Thrust:	65.210
Time:	4.006	Roll Set Point:	0.048	Pitch Set Point:	-0.050	Yaw Set Point:	-0.022	X_WP:	0.000	Y_WP:	0.000	Y_WP:	0.500	X:	-0.024	Y:	0.025	Z:	0.478	yaw:	1.251	yaw rate:	12.046	Roll:	-0.578	Pitch:	0.288	Yaw:	-0.232	Thrust:	48.927
Time:	4.026	Roll Set Point:	0.048	Pitch Set Point:	-0.050	Yaw Set Point:	-0.028	X_WP:	0.000	Y_WP:	0.000	Y_WP:	0.500	X:	-0.024	Y:	0.025	Z:	0.476	yaw:	1.626	yaw rate:	-37.460	Roll:	-0.219	Pitch:	0.623	Yaw:	6.954	Thrust:	60.925
Time:	4.045	Roll Set Point:	0.048	Pitch Set Point:	-0.050	Yaw Set Point:	-0.031	X_WP:	0.000	Y_WP:	0.000	Y_WP:	0.500	X:	-0.025	Y:	0.025	Z:	0.475	yaw:	1.803	yaw rate:	-17.672	Roll:	-0.245	Pitch:	0.464	Yaw:	4.815	Thrust:	58.134
Time:	4.066	Roll Set Point:	0.050	Pitch Set Point:	-0.050	Yaw Set Point:	-0.017	X_WP:	0.000	Y_WP:	0.000	Y_WP:	0.500	X:	-0.025	Y:	0.025	Z:	0.473	yaw:	0.995	yaw rate:	80.724	Roll:	-0.823	Pitch:	0.364	Yaw:	-9.012	Thrust:	60.143
Time:	4.091	Roll Set Point:	0.049	Pitch Set Point:	-0.051	Yaw Set Point:	-0.032	X_WP:	0.000	Y_WP:	0.000	Y_WP:	0.500	X:	-0.025	Y:	0.025	Z:	0.471	yaw:	1.859	yaw rate:	-86.350	Roll:	-0.015	Pitch:	0.687	Yaw:	11.509	Thrust:	74.031
Time:	4.106	Roll Set Point:	0.052	Pitch Set Point:	-0.051	Yaw Set Point:	0.003	X_WP:	0.000	Y_WP:	0.000	Y_WP:	0.500	X:	-0.026	Y:	0.025	Z:	0.469	yaw:	-0.200	yaw rate:	205.932	Roll:	-2.086	Pitch:	-0.173	Yaw:	-36.144	Thrust:	49.390
Time:	4.128	Roll Set Point:	0.050	Pitch Set Point:	-0.051	Yaw Set Point:	-0.028	X_WP:	0.000	Y_WP:	0.000	Y_WP:	0.500	X:	-0.026	Y:	0.025	Z:	0.467	yaw:	1.607	yaw rate:	-180.771	Roll:	0.564	Pitch:	0.911	Yaw:	24.137	Thrust:	65.422
Time:	4.145	Roll Set Point:	0.051	Pitch Set Point:	-0.051	Yaw Set Point:	-0.030	X_WP:	0.000	Y_WP:	0.000	Y_WP:	0.500	X:	-0.026	Y:	0.025	Z:	0.465	yaw:	1.723	yaw rate:	-11.609	Roll:	-0.321	Pitch:	0.524	Yaw:	4.072	Thrust:	57.423
Time:	4.165	Roll Set Point:	0.051	Pitch Set Point:	-0.051	Yaw Set Point:	-0.020	X_WP:	0.000	Y_WP:	0.000	Y_WP:	0.500	X:	-0.026	Y:	0.025	Z:	0.462	yaw:	1.167	yaw rate:	55.620	Roll:	-0.608	Pitch:	0.486	Yaw:	-5.630	Thrust:	62.701
Time:	4.189	Roll Set Point:	0.051	Pitch Set Point:	-0.052	Yaw Set Point:	-0.029	X_WP:	0.000	Y_WP:	0.000	Y_WP:	0.500	X:	-0.026	Y:	0.025	Z:	0.460	yaw:	1.684	yaw rate:	-51.630	Roll:	-0.191	Pitch:	0.712	Yaw:	8.196	Thrust:	70.815
Time:	4.205	Roll Set Point:	0.052	Pitch Set Point:	-0.052	Yaw Set Point:	-0.028	X_WP:	0.000	Y_WP:	0.000	Y_WP:	0.500	X:	-0.026	Y:	0.025	Z:	0.457	yaw:	1.585	yaw rate:	9.876	Roll:	-0.320	Pitch:	0.363	Yaw:	0.611	Thrust:	54.592
Time:	4.227	Roll Set Point:	0.051	Pitch Set Point:	-0.052	Yaw Set Point:	-0.035	X_WP:	0.000	Y_WP:	0.000	Y_WP:	0.500	X:	-0.026	Y:	0.026	Z:	0.454	yaw:	2.034	yaw rate:	-44.905	Roll:	-0.119	Pitch:	0.728	Yaw:	8.184	Thrust:	69.335
Time:	4.245	Roll Set Point:	0.052	Pitch Set Point:	-0.052	Yaw Set Point:	-0.037	X_WP:	0.000	Y_WP:	0.000	Y_WP:	0.500	X:	-0.026	Y:	0.026	Z:	0.451	yaw:	2.101	yaw rate:	-6.674	Roll:	-0.321	Pitch:	0.541	Yaw:	3.896	Thrust:	60.946
Time:	4.266	Roll Set Point:	0.052	Pitch Set Point:	-0.053	Yaw Set Point:	-0.039	X_WP:	0.000	Y_WP:	0.000	Y_WP:	0.500	X:	-0.026	Y:	0.026	Z:	0.448	yaw:	2.239	yaw rate:	-13.822	Roll:	-0.227	Pitch:	0.651	Yaw:	4.938	Thrust:	64.404
Time:	4.287	Roll Set Point:	0.052	Pitch Set Point:	-0.053	Yaw Set Point:	-0.039	X_WP:	0.000	Y_WP:	0.000	Y_WP:	0.500	X:	-0.026	Y:	0.026	Z:	0.446	yaw:	2.228	yaw rate:	1.051	Roll:	-0.296	Pitch:	0.669	Yaw:	3.045	Thrust:	68.554
Time:	4.306	Roll Set Point:	0.053	Pitch Set Point:	-0.053	Yaw Set Point:	-0.025	X_WP:	0.000	Y_WP:	0.000	Y_WP:	0.500	X:	-0.027	Y:	0.026	Z:	0.443	yaw:	1.422	yaw rate:	80.653	Roll:	-0.713	Pitch:	0.361	Yaw:	-9.109	Thrust:	62.288
Time:	4.327	Roll Set Point:	0.052	Pitch Set Point:	-0.053	Yaw Set Point:	-0.039	X_WP:	0.000	Y_WP:	0.000	Y_WP:	0.500	X:	-0.027	Y:	0.026	Z:	0.440	yaw:	2.225	yaw rate:	-80.313	Roll:	0.097	Pitch:	0.728	Yaw:	12.944	Thrust:	69.421
Time:	4.345	Roll Set Point:	0.053	Pitch Set Point:	-0.054	Yaw Set Point:	-0.032	X_WP:	0.000	Y_WP:	0.000	Y_WP:	0.500	X:	-0.027	Y:	0.026	Z:	0.438	yaw:	1.806	yaw rate:	41.849	Roll:	-0.573	Pitch:	0.487	Yaw:	-3.607	Thrust:	58.485
Time:	4.367	Roll Set Point:	0.053	Pitch Set Point:	-0.054	Yaw Set Point:	-0.028	X_WP:	0.000	Y_WP:	0.000	Y_WP:	0.500	X:	-0.027	Y:	0.027	Z:	0.436	yaw:	1.580	yaw rate:	22.679	Roll:	-0.393	Pitch:	0.584	Yaw:	-0.424	Thrust:	67.173
Time:	4.388	Roll Set Point:	0.053	Pitch Set Point:	-0.054	Yaw Set Point:	-0.037	X_WP:	0.000	Y_WP:	0.000	Y_WP:	0.500	X:	-0.027	Y:	0.027	Z:	0.434	yaw:	2.102	yaw rate:	-52.282	Roll:	-0.037	Pitch:	0.660	Yaw:	9.563	Thrust:	67.275
Time:	4.406	Roll Set Point:	0.053	Pitch Set Point:	-0.054	Yaw Set Point:	-0.027	X_WP:	0.000	Y_WP:	0.000	Y_WP:	0.500	X:	-0.027	Y:	0.027	Z:	0.432	yaw:	1.521	yaw rate:	58.150	Roll:	-0.552	Pitch:	0.273	Yaw:	-6.196	Thrust:	56.879
Time:	4.427	Roll Set Point:	0.054	Pitch Set Point:	-0.054	Yaw Set Point:	-0.007	X_WP:	0.000	Y_WP:	0.000	Y_WP:	0.500	X:	-0.027	Y:	0.027	Z:	0.431	yaw:	0.373	yaw rate:	114.842	Roll:	-0.987	Pitch:	0.446	Yaw:	-13.587	Thrust:	67.808
Time:	4.445	Roll Set Point:	0.053	Pitch Set Point:	-0.055	Yaw Set Point:	-0.031	X_WP:	0.000	Y_WP:	0.000	Y_WP:	0.500	X:	-0.027	Y:	0.027	Z:	0.430	yaw:	1.799	yaw rate:	-142.622	Roll:	0.680	Pitch:	0.887	Yaw:	22.901	Thrust:	58.941
Time:	4.466	Roll Set Point:	0.052	Pitch Set Point:	-0.055	Yaw Set Point:	-0.038	X_WP:	0.000	Y_WP:	0.000	Y_WP:	0.500	X:	-0.027	Y:	0.027	Z:	0.430	yaw:	2.150	yaw rate:	-35.172	Roll:	-0.012	Pitch:	0.561	Yaw:	7.667	Thrust:	61.755
Time:	4.487	Roll Set Point:	0.053	Pitch Set Point:	-0.055	Yaw Set Point:	-0.028	X_WP:	0.000	Y_WP:	0.000	Y_WP:	0.500	X:	-0.027	Y:	0.027	Z:	0.430	yaw:	1.587	yaw rate:	56.378	Roll:	-0.531	Pitch:	0.485	Yaw:	-4.565	Thrust:	65.396
Time:	4.506	Roll Set Point:	0.052	Pitch Set Point:	-0.055	Yaw Set Point:	-0.036	X_WP:	0.000	Y_WP:	0.000	Y_WP:	0.500	X:	-0.027	Y:	0.027	Z:	0.430	yaw:	2.078	yaw rate:	-49.147	Roll:	0.109	Pitch:	0.594	Yaw:	9.878	Thrust:	57.793
Time:	4.527	Roll Set Point:	0.053	Pitch Set Point:	-0.055	Yaw Set Point:	-0.027	X_WP:	0.000	Y_WP:	0.000	Y_WP:	0.500	X:	-0.027	Y:	0.027	Z:	0.431	yaw:	1.520	yaw rate:	55.795	Roll:	-0.598	Pitch:	0.470	Yaw:	-4.602	Thrust:	61.071
Time:	4.545	Roll Set Point:	0.054	Pitch Set Point:	-0.055	Yaw Set Point:	-0.002	X_WP:	0.000	Y_WP:	0.000	Y_WP:	0.500	X:	-0.027	Y:	0.027	Z:	0.432	yaw:	0.102	yaw rate:	141.801	Roll:	-1.171	Pitch:	0.218	Yaw:	-19.710	Thrust:	56.803
Time:	4.565	Roll Set Point:	0.052	Pitch Set Point:	-0.055	Yaw Set Point:	-0.035	X_WP:	0.000	Y_WP:	0.000	Y_WP:	0.500	X:	-0.027	Y:	0.027	Z:	0.433	yaw:	1.997	yaw rate:	-189.477	Roll:	0.933	Pitch:	0.999	Yaw:	27.760	Thrust:	58.802
Time:	4.589	Roll Set Point:	0.053	Pitch Set Point:	-0.055	Yaw Set Point:	-0.030	X_WP:	0.000	Y_WP:	0.000	Y_WP:	0.500	X:	-0.027	Y:	0.027	Z:	0.434	yaw:	1.692	yaw rate:	30.547	Roll:	-0.408	Pitch:	0.502	Yaw:	-0.797	Thrust:	68.590
Time:	4.605	Roll Set Point:	0.053	Pitch Set Point:	-0.056	Yaw Set Point:	-0.029	X_WP:	0.000	Y_WP:	0.000	Y_WP:	0.500	X:	-0.027	Y:	0.027	Z:	0.436	yaw:	1.637	yaw rate:	5.463	Roll:	-0.309	Pitch:	0.608	Yaw:	1.627	Thrust:	47.959
Time:	4.625	Roll Set Point:	0.053	Pitch Set Point:	-0.056	Yaw Set Point:	-0.029	X_WP:	0.000	Y_WP:	0.000	Y_WP:	0.500	X:	-0.027	Y:	0.028	Z:	0.437	yaw:	1.688	yaw rate:	-5.070	Roll:	-0.279	Pitch:	0.606	Yaw:	3.273	Thrust:	59.059
Time:	4.645	Roll Set Point:	0.052	Pitch Set Point:	-0.055	Yaw Set Point:	-0.024	X_WP:	0.000	Y_WP:	0.000	Y_WP:	0.500	X:	-0.026	Y:	0.027	Z:	0.438	yaw:	1.400	yaw rate:	28.710	Roll:	-0.102	Pitch:	0.243	Yaw:	-1.592	Thrust:	57.966
Time:	4.666	Roll Set Point:	0.053	Pitch Set Point:	-0.056	Yaw Set Point:	-0.023	X_WP:	0.000	Y_WP:	0.000	Y_WP:	0.500	X:	-0.027	Y:	0.028	Z:	0.440	yaw:	1.346	yaw rate:	5.490	Roll:	-0.617	Pitch:	0.785	Yaw:	1.444	Thrust:	58.496
Time:	4.687	Roll Set Point:	0.053	Pitch Set Point:	-0.056	Yaw Set Point:	-0.027	X_WP:	0.000	Y_WP:	0.000	Y_WP:	0.500	X:	-0.027	Y:	0.028	Z:	0.441	yaw:	1.546	yaw rate:	-20.049	Roll:	-0.187	Pitch:	0.728	Yaw:	4.877	Thrust:	62.933
Time:	4.706	Roll Set Point:	0.053	Pitch Set Point:	-0.056	Yaw Set Point:	-0.028	X_WP:	0.000	Y_WP:	0.000	Y_WP:	0.500	X:	-0.027	Y:	0.028	Z:	0.442	yaw:	1.620	yaw rate:	-7.437	Roll:	-0.154	Pitch:	0.485	Yaw:	3.583	Thrust:	56.875
Time:	4.728	Roll Set Point:	0.053	Pitch Set Point:	-0.057	Yaw Set Point:	-0.027	X_WP:	0.000	Y_WP:	0.000	Y_WP:	0.500	X:	-0.027	Y:	0.028	Z:	0.443	yaw:	1.566	yaw rate:	5.422	Roll:	-0.326	Pitch:	0.677	Yaw:	1.861	Thrust:	64.498
Time:	4.748	Roll Set Point:	0.053	Pitch Set Point:	-0.057	Yaw Set Point:	-0.018	X_WP:	0.000	Y_WP:	0.000	Y_WP:	0.500	X:	-0.027	Y:	0.028	Z:	0.445	yaw:	1.040	yaw rate:	52.573	Roll:	-0.611	Pitch:	0.606	Yaw:	-4.746	Thrust:	59.722
Time:	4.765	Roll Set Point:	0.053	Pitch Set Point:	-0.057	Yaw Set Point:	-0.016	X_WP:	0.000	Y_WP:	0.000	Y_WP:	0.500	X:	-0.027	Y:	0.028	Z:	0.446	yaw:	0.901	yaw rate:	13.957	Roll:	-0.314	Pitch:	0.473	Yaw:	-0.638	Thrust:	53.586
Time:	4.788	Roll Set Point:	0.053	Pitch Set Point:	-0.057	Yaw Set Point:	-0.030	X_WP:	0.000	Y_WP:	0.000	Y_WP:	0.500	X:	-0.027	Y:	0.028	Z:	0.446	yaw:	1.735	yaw rate:	-83.375	Roll:	0.159	Pitch:	0.802	Yaw:	12.479	Thrust:	68.335
Time:	4.805	Roll Set Point:	0.053	Pitch Set Point:	-0.058	Yaw Set Point:	-0.029	X_WP:	0.000	Y_WP:	0.000	Y_WP:	0.500	X:	-0.027	Y:	0.028	Z:	0.447	yaw:	1.655	yaw rate:	8.003	Roll:	-0.408	Pitch:	0.680	Yaw:	1.420	Thrust:	52.059
Time:	4.827	Roll Set Point:	0.053	Pitch Set Point:	-0.058	Yaw Set Point:	-0.026	X_WP:	0.000	Y_WP:	0.000	Y_WP:	0.500	X:	-0.027	Y:	0.029	Z:	0.449	yaw:	1.463	yaw rate:	19.143	Roll:	-0.397	Pitch:	0.646	Yaw:	0.104	Thrust:	64.802
Time:	4.845	Roll Set Point:	0.053	Pitch Set Point:	-0.058	Yaw Set Point:	-0.026	X_WP:	0.000	Y_WP:	0.000	Y_WP:	0.500	X:	-0.027	Y:	0.029	Z:	0.450	yaw:	1.467	yaw rate:	-0.397	Roll:	-0.232	Pitch:	0.530	Yaw:	2.445	Thrust:	55.657
Time:	4.866	Roll Set Point:	0.053	Pitch Set Point:	-0.059	Yaw Set Point:	-0.029	X_WP:	0.000	Y_WP:	0.000	Y_WP:	0.500	X:	-0.027	Y:	0.029	Z:	0.451	yaw:	1.675	yaw rate:	-20.735	Roll:	-0.212	Pitch:	0.892	Yaw:	5.414	Thrust:	60.924
Time:	4.889	Roll Set Point:	0.054	Pitch Set Point:	-0.059	Yaw Set Point:	-0.017	X_WP:	0.000	Y_WP:	0.000	Y_WP:	0.500	X:	-0.027	Y:	0.029	Z:	0.452	yaw:	0.984	yaw rate:	69.021	Roll:	-0.723	Pitch:	0.586	Yaw:	-5.995	Thrust:	66.799
Time:	4.907	Roll Set Point:	0.053	Pitch Set Point:	-0.059	Yaw Set Point:	-0.023	X_WP:	0.000	Y_WP:	0.000	Y_WP:	0.500	X:	-0.027	Y:	0.029	Z:	0.452	yaw:	1.298	yaw rate:	-31.405	Roll:	-0.100	Pitch:	0.726	Yaw:	6.592	Thrust:	60.504
Time:	4.927	Roll Set Point:	0.053	Pitch Set Point:	-0.060	Yaw Set Point:	-0.026	X_WP:	0.000	Y_WP:	0.000	Y_WP:	0.500	X:	-0.027	Y:	0.030	Z:	0.452	yaw:	1.489	yaw rate:	-19.074	Roll:	-0.169	Pitch:	0.790	Yaw:	5.084	Thrust:	59.351
Time:	4.947	Roll Set Point:	0.053	Pitch Set Point:	-0.061	Yaw Set Point:	-0.028	X_WP:	0.000	Y_WP:	0.000	Y_WP:	0.500	X:	-0.027	Y:	0.030	Z:	0.453	yaw:	1.613	yaw rate:	-12.370	Roll:	-0.250	Pitch:	0.870	Yaw:	4.242	Thrust:	64.446
Time:	4.966	Roll Set Point:	0.054	Pitch Set Point:	-0.061	Yaw Set Point:	-0.027	X_WP:	0.000	Y_WP:	0.000	Y_WP:	0.500	X:	-0.027	Y:	0.030	Z:	0.453	yaw:	1.534	yaw rate:	7.839	Roll:	-0.418	Pitch:	0.731	Yaw:	1.390	Thrust:	56.318
Time:	4.988	Roll Set Point:	0.054	Pitch Set Point:	-0.061	Yaw Set Point:	-0.023	X_WP:	0.000	Y_WP:	0.000	Y_WP:	0.500	X:	-0.027	Y:	0.030	Z:	0.453	yaw:	1.340	yaw rate:	19.419	Roll:	-0.413	Pitch:	0.627	Yaw:	0.127	Thrust:	70.622
Time:	5.007	Roll Set Point:	0.054	Pitch Set Point:	-0.062	Yaw Set Point:	-0.024	X_WP:	0.000	Y_WP:	0.000	Y_WP:	0.500	X:	-0.027	Y:	0.031	Z:	0.454	yaw:	1.384	yaw rate:	-4.332	Roll:	-0.396	Pitch:	0.992	Yaw:	2.957	Thrust:	57.723
Time:	5.027	Roll Set Point:	0.054	Pitch Set Point:	-0.063	Yaw Set Point:	-0.019	X_WP:	0.000	Y_WP:	0.000	Y_WP:	0.500	X:	-0.027	Y:	0.031	Z:	0.454	yaw:	1.084	yaw rate:	29.988	Roll:	-0.491	Pitch:	0.733	Yaw:	-1.940	Thrust:	62.609
Time:	5.048	Roll Set Point:	0.054	Pitch Set Point:	-0.063	Yaw Set Point:	-0.023	X_WP:	0.000	Y_WP:	0.000	Y_WP:	0.500	X:	-0.027	Y:	0.031	Z:	0.455	yaw:	1.337	yaw rate:	-25.380	Roll:	-0.109	Pitch:	0.776	Yaw:	5.523	Thrust:	65.628
Time:	5.066	Roll Set Point:	0.054	Pitch Set Point:	-0.064	Yaw Set Point:	-0.017	X_WP:	0.000	Y_WP:	0.000	Y_WP:	0.500	X:	-0.027	Y:	0.032	Z:	0.456	yaw:	0.998	yaw rate:	33.933	Roll:	-0.573	Pitch:	0.761	Yaw:	-3.010	Thrust:	55.917
Time:	5.092	Roll Set Point:	0.055	Pitch Set Point:	-0.064	Yaw Set Point:	-0.013	X_WP:	0.000	Y_WP:	0.000	Y_WP:	0.500	X:	-0.028	Y:	0.032	Z:	0.457	yaw:	0.771	yaw rate:	22.691	Roll:	-0.530	Pitch:	0.866	Yaw:	-0.671	Thrust:	74.041
Time:	5.107	Roll Set Point:	0.054	Pitch Set Point:	-0.065	Yaw Set Point:	-0.021	X_WP:	0.000	Y_WP:	0.000	Y_WP:	0.500	X:	-0.028	Y:	0.032	Z:	0.458	yaw:	1.205	yaw rate:	-43.360	Roll:	-0.016	Pitch:	0.812	Yaw:	9.365	Thrust:	45.905
Time:	5.128	Roll Set Point:	0.055	Pitch Set Point:	-0.065	Yaw Set Point:	-0.017	X_WP:	0.000	Y_WP:	0.000	Y_WP:	0.500	X:	-0.028	Y:	0.032	Z:	0.460	yaw:	0.965	yaw rate:	23.948	Roll:	-0.522	Pitch:	0.874	Yaw:	-1.031	Thrust:	66.037
Time:	5.147	Roll Set Point:	0.054	Pitch Set Point:	-0.066	Yaw Set Point:	-0.023	X_WP:	0.000	Y_WP:	0.000	Y_WP:	0.500	X:	-0.028	Y:	0.033	Z:	0.462	yaw:	1.315	yaw rate:	-34.983	Roll:	-0.050	Pitch:	0.933	Yaw:	7.228	Thrust:	56.293
Time:	5.166	Roll Set Point:	0.055	Pitch Set Point:	-0.067	Yaw Set Point:	-0.017	X_WP:	0.000	Y_WP:	0.000	Y_WP:	0.500	X:	-0.028	Y:	0.033	Z:	0.464	yaw:	0.952	yaw rate:	36.328	Roll:	-0.605	Pitch:	0.838	Yaw:	-3.163	Thrust:	54.988
Time:	5.194	Roll Set Point:	0.054	Pitch Set Point:	-0.067	Yaw Set Point:	-0.018	X_WP:	0.000	Y_WP:	0.000	Y_WP:	0.500	X:	-0.027	Y:	0.033	Z:	0.467	yaw:	1.022	yaw rate:	-7.057	Roll:	-0.036	Pitch:	0.720	Yaw:	2.810	Thrust:	75.158
Time:	5.206	Roll Set Point:	0.055	Pitch Set Point:	-0.068	Yaw Set Point:	-0.016	X_WP:	0.000	Y_WP:	0.000	Y_WP:	0.500	X:	-0.028	Y:	0.034	Z:	0.469	yaw:	0.923	yaw rate:	9.997	Roll:	-0.642	Pitch:	1.003	Yaw:	-0.162	Thrust:	40.117
Time:	5.230	Roll Set Point:	0.055	Pitch Set Point:	-0.069	Yaw Set Point:	-0.019	X_WP:	0.000	Y_WP:	0.000	Y_WP:	0.500	X:	-0.028	Y:	0.034	Z:	0.471	yaw:	1.094	yaw rate:	-17.187	Roll:	-0.206	Pitch:	0.954	Yaw:	4.089	Thrust:	67.025
Time:	5.246	Roll Set Point:	0.056	Pitch Set Point:	-0.068	Yaw Set Point:	0.012	X_WP:	0.000	Y_WP:	0.000	Y_WP:	0.500	X:	-0.028	Y:	0.034	Z:	0.473	yaw:	-0.665	yaw rate:	175.956	Roll:	-1.587	Pitch:	-0.041	Yaw:	-29.774	Thrust:	46.522
Time:	5.266	Roll Set Point:	0.055	Pitch Set Point:	-0.070	Yaw Set Point:	-0.016	X_WP:	0.000	Y_WP:	0.000	Y_WP:	0.500	X:	-0.028	Y:	0.035	Z:	0.475	yaw:	0.895	yaw rate:	-156.057	Roll:	0.737	Pitch:	1.584	Yaw:	20.885	Thrust:	61.930
Time:	5.292	Roll Set Point:	0.058	Pitch Set Point:	-0.069	Yaw Set Point:	0.034	X_WP:	0.000	Y_WP:	0.000	Y_WP:	0.500	X:	-0.028	Y:	0.035	Z:	0.476	yaw:	-1.934	yaw rate:	282.977	Roll:	-2.261	Pitch:	0.019	Yaw:	-32.081	Thrust:	75.821
Time:	5.306	Roll Set Point:	0.055	Pitch Set Point:	-0.071	Yaw Set Point:	-0.011	X_WP:	0.000	Y_WP:	0.000	Y_WP:	0.500	X:	-0.028	Y:	0.035	Z:	0.477	yaw:	0.614	yaw rate:	-254.810	Roll:	1.850	Pitch:	2.016	Yaw:	45.500	Thrust:	45.987
Time:	5.328	Roll Set Point:	0.055	Pitch Set Point:	-0.072	Yaw Set Point:	-0.009	X_WP:	0.000	Y_WP:	0.000	Y_WP:	0.500	X:	-0.027	Y:	0.036	Z:	0.478	yaw:	0.516	yaw rate:	9.772	Roll:	-0.305	Pitch:	0.943	Yaw:	0.146	Thrust:	67.434
Time:	5.347	Roll Set Point:	0.054	Pitch Set Point:	-0.073	Yaw Set Point:	-0.016	X_WP:	0.000	Y_WP:	0.000	Y_WP:	0.500	X:	-0.027	Y:	0.036	Z:	0.478	yaw:	0.918	yaw rate:	-40.158	Roll:	0.054	Pitch:	1.118	Yaw:	7.397	Thrust:	57.938
