Time:	0.031	Roll Set Point:	-0.059	Pitch Set Point:	-0.043	Yaw Set Point:	-0.009	X_WP:	0.000	Y_WP:	0.000	Y_WP:	0.000	X:	0.029	Y:	0.022	Z:	0.048	yaw:	0.496	yaw rate:	-1.444	Roll:	1.033	Pitch:	0.747	Yaw:	0.692	Thrust:	0.000
Time:	0.042	Roll Set Point:	-0.059	Pitch Set Point:	-0.043	Yaw Set Point:	-0.008	X_WP:	0.000	Y_WP:	0.000	Y_WP:	0.000	X:	0.029	Y:	0.022	Z:	0.048	yaw:	0.447	yaw rate:	4.858	Roll:	1.026	Pitch:	0.784	Yaw:	-0.530	Thrust:	0.000
Time:	0.052	Roll Set Point:	-0.059	Pitch Set Point:	-0.043	Yaw Set Point:	-0.009	X_WP:	0.000	Y_WP:	0.000	Y_WP:	0.000	X:	0.029	Y:	0.022	Z:	0.048	yaw:	0.494	yaw rate:	-4.686	Roll:	1.008	Pitch:	0.693	Yaw:	1.857	Thrust:	0.000
Time:	0.063	Roll Set Point:	-0.059	Pitch Set Point:	-0.043	Yaw Set Point:	-0.008	X_WP:	0.000	Y_WP:	0.000	Y_WP:	0.000	X:	0.029	Y:	0.022	Z:	0.048	yaw:	0.482	yaw rate:	1.194	Roll:	1.086	Pitch:	0.783	Yaw:	0.388	Thrust:	0.000
Time:	0.075	Roll Set Point:	-0.059	Pitch Set Point:	-0.043	Yaw Set Point:	-0.008	X_WP:	0.000	Y_WP:	0.000	Y_WP:	0.000	X:	0.029	Y:	0.022	Z:	0.048	yaw:	0.482	yaw rate:	0.034	Roll:	1.168	Pitch:	0.845	Yaw:	0.673	Thrust:	0.000
Time:	0.093	Roll Set Point:	-0.059	Pitch Set Point:	-0.043	Yaw Set Point:	-0.008	X_WP:	0.000	Y_WP:	0.000	Y_WP:	0.000	X:	0.029	Y:	0.022	Z:	0.048	yaw:	0.470	yaw rate:	1.142	Roll:	1.103	Pitch:	0.797	Yaw:	0.506	Thrust:	0.000
Time:	0.105	Roll Set Point:	-0.059	Pitch Set Point:	-0.043	Yaw Set Point:	-0.008	X_WP:	0.000	Y_WP:	0.000	Y_WP:	0.000	X:	0.029	Y:	0.022	Z:	0.048	yaw:	0.451	yaw rate:	1.957	Roll:	1.101	Pitch:	0.852	Yaw:	0.197	Thrust:	0.000
Time:	0.115	Roll Set Point:	-0.059	Pitch Set Point:	-0.043	Yaw Set Point:	-0.008	X_WP:	0.000	Y_WP:	0.000	Y_WP:	0.000	X:	0.029	Y:	0.022	Z:	0.048	yaw:	0.467	yaw rate:	-1.656	Roll:	1.093	Pitch:	0.796	Yaw:	1.098	Thrust:	0.000
Time:	0.125	Roll Set Point:	-0.059	Pitch Set Point:	-0.043	Yaw Set Point:	-0.008	X_WP:	0.000	Y_WP:	0.000	Y_WP:	0.000	X:	0.029	Y:	0.022	Z:	0.048	yaw:	0.447	yaw rate:	2.009	Roll:	1.152	Pitch:	0.844	Yaw:	0.149	Thrust:	0.000
Time:	0.137	Roll Set Point:	-0.059	Pitch Set Point:	-0.043	Yaw Set Point:	-0.008	X_WP:	0.000	Y_WP:	0.000	Y_WP:	0.000	X:	0.029	Y:	0.022	Z:	0.048	yaw:	0.469	yaw rate:	-2.183	Roll:	1.136	Pitch:	0.759	Yaw:	1.179	Thrust:	0.000
Time:	0.156	Roll Set Point:	-0.059	Pitch Set Point:	-0.043	Yaw Set Point:	-0.009	X_WP:	0.000	Y_WP:	0.000	Y_WP:	0.000	X:	0.029	Y:	0.022	Z:	0.048	yaw:	0.505	yaw rate:	-3.552	Roll:	1.293	Pitch:	0.900	Yaw:	1.212	Thrust:	0.000
Time:	0.167	Roll Set Point:	-0.059	Pitch Set Point:	-0.043	Yaw Set Point:	-0.008	X_WP:	0.000	Y_WP:	0.000	Y_WP:	0.000	X:	0.029	Y:	0.022	Z:	0.048	yaw:	0.482	yaw rate:	-4.621	Roll:	1.131	Pitch:	0.884	Yaw:	0.175	Thrust:	0.000
Time:	0.178	Roll Set Point:	-0.059	Pitch Set Point:	-0.043	Yaw Set Point:	-0.008	X_WP:	0.000	Y_WP:	0.000	Y_WP:	0.000	X:	0.029	Y:	0.022	Z:	0.048	yaw:	0.481	yaw rate:	0.144	Roll:	1.290	Pitch:	0.873	Yaw:	0.654	Thrust:	0.000
Time:	0.189	Roll Set Point:	-0.059	Pitch Set Point:	-0.043	Yaw Set Point:	-0.008	X_WP:	0.000	Y_WP:	0.000	Y_WP:	0.000	X:	0.029	Y:	0.022	Z:	0.048	yaw:	0.464	yaw rate:	1.648	Roll:	1.116	Pitch:	0.903	Yaw:	0.281	Thrust:	0.000
Time:	0.200	Roll Set Point:	-0.059	Pitch Set Point:	-0.043	Yaw Set Point:	-0.008	X_WP:	0.000	Y_WP:	0.000	Y_WP:	0.000	X:	0.029	Y:	0.022	Z:	0.048	yaw:	0.441	yaw rate:	2.284	Roll:	1.155	Pitch:	0.857	Yaw:	0.111	Thrust:	0.000
Time:	0.218	Roll Set Point:	-0.059	Pitch Set Point:	-0.043	Yaw Set Point:	-0.008	X_WP:	0.000	Y_WP:	0.000	Y_WP:	0.000	X:	0.029	Y:	0.022	Z:	0.048	yaw:	0.475	yaw rate:	-3.379	Roll:	1.359	Pitch:	0.943	Yaw:	1.198	Thrust:	0.000
Time:	0.229	Roll Set Point:	-0.059	Pitch Set Point:	-0.043	Yaw Set Point:	-0.009	X_WP:	0.000	Y_WP:	0.000	Y_WP:	0.000	X:	0.029	Y:	0.022	Z:	0.048	yaw:	0.504	yaw rate:	-2.910	Roll:	1.283	Pitch:	0.924	Yaw:	1.424	Thrust:	0.000
Time:	0.239	Roll Set Point:	-0.059	Pitch Set Point:	-0.043	Yaw Set Point:	-0.008	X_WP:	0.000	Y_WP:	0.000	Y_WP:	0.000	X:	0.029	Y:	0.022	Z:	0.048	yaw:	0.474	yaw rate:	2.996	Roll:	1.326	Pitch:	0.965	Yaw:	-0.073	Thrust:	0.000
Time:	0.250	Roll Set Point:	-0.059	Pitch Set Point:	-0.043	Yaw Set Point:	-0.008	X_WP:	0.000	Y_WP:	0.000	Y_WP:	0.000	X:	0.029	Y:	0.022	Z:	0.048	yaw:	0.469	yaw rate:	0.540	Roll:	1.178	Pitch:	0.874	Yaw:	0.544	Thrust:	0.000
Time:	0.260	Roll Set Point:	-0.059	Pitch Set Point:	-0.043	Yaw Set Point:	-0.008	X_WP:	0.000	Y_WP:	0.000	Y_WP:	0.000	X:	0.029	Y:	0.022	Z:	0.048	yaw:	0.469	yaw rate:	0.034	Roll:	1.278	Pitch:	0.902	Yaw:	0.680	Thrust:	0.000
Time:	0.276	Roll Set Point:	-0.059	Pitch Set Point:	-0.043	Yaw Set Point:	-0.008	X_WP:	0.000	Y_WP:	0.000	Y_WP:	0.000	X:	0.029	Y:	0.022	Z:	0.048	yaw:	0.481	yaw rate:	-1.277	Roll:	1.133	Pitch:	0.938	Yaw:	0.971	Thrust:	0.000
Time:	0.291	Roll Set Point:	-0.059	Pitch Set Point:	-0.043	Yaw Set Point:	-0.008	X_WP:	0.000	Y_WP:	0.000	Y_WP:	0.000	X:	0.029	Y:	0.022	Z:	0.048	yaw:	0.461	yaw rate:	2.064	Roll:	1.588	Pitch:	1.102	Yaw:	0.412	Thrust:	0.000
Time:	0.302	Roll Set Point:	-0.059	Pitch Set Point:	-0.043	Yaw Set Point:	-0.008	X_WP:	0.000	Y_WP:	0.000	Y_WP:	0.000	X:	0.029	Y:	0.022	Z:	0.048	yaw:	0.476	yaw rate:	1.615	Roll:	1.393	Pitch:	0.972	Yaw:	1.074	Thrust:	0.000
Time:	0.313	Roll Set Point:	-0.059	Pitch Set Point:	-0.043	Yaw Set Point:	-0.008	X_WP:	0.000	Y_WP:	0.000	Y_WP:	0.000	X:	0.029	Y:	0.022	Z:	0.048	yaw:	0.480	yaw rate:	-0.411	Roll:	1.113	Pitch:	1.053	Yaw:	0.812	Thrust:	0.000
Time:	0.323	Roll Set Point:	-0.059	Pitch Set Point:	-0.043	Yaw Set Point:	-0.009	X_WP:	0.000	Y_WP:	0.000	Y_WP:	0.000	X:	0.029	Y:	0.022	Z:	0.048	yaw:	0.499	yaw rate:	-1.871	Roll:	1.428	Pitch:	0.808	Yaw:	1.203	Thrust:	0.000
Time:	0.335	Roll Set Point:	-0.059	Pitch Set Point:	-0.043	Yaw Set Point:	-0.008	X_WP:	0.000	Y_WP:	0.000	Y_WP:	0.000	X:	0.029	Y:	0.022	Z:	0.048	yaw:	0.462	yaw rate:	3.623	Roll:	1.365	Pitch:	1.037	Yaw:	-0.157	Thrust:	0.000
Time:	0.355	Roll Set Point:	-0.059	Pitch Set Point:	-0.043	Yaw Set Point:	-0.008	X_WP:	0.000	Y_WP:	0.000	Y_WP:	0.000	X:	0.029	Y:	0.022	Z:	0.048	yaw:	0.461	yaw rate:	0.130	Roll:	1.677	Pitch:	1.199	Yaw:	0.719	Thrust:	0.000
Time:	0.366	Roll Set Point:	-0.059	Pitch Set Point:	-0.043	Yaw Set Point:	-0.008	X_WP:	0.000	Y_WP:	0.000	Y_WP:	0.000	X:	0.029	Y:	0.022	Z:	0.048	yaw:	0.450	yaw rate:	3.537	Roll:	1.395	Pitch:	1.005	Yaw:	0.427	Thrust:	0.000
Time:	0.377	Roll Set Point:	-0.059	Pitch Set Point:	-0.043	Yaw Set Point:	-0.008	X_WP:	0.000	Y_WP:	0.000	Y_WP:	0.000	X:	0.029	Y:	0.022	Z:	0.048	yaw:	0.447	yaw rate:	0.324	Roll:	1.360	Pitch:	0.973	Yaw:	0.594	Thrust:	0.000
Time:	0.388	Roll Set Point:	-0.059	Pitch Set Point:	-0.043	Yaw Set Point:	-0.008	X_WP:	0.000	Y_WP:	0.000	Y_WP:	0.000	X:	0.029	Y:	0.022	Z:	0.048	yaw:	0.455	yaw rate:	-0.738	Roll:	1.457	Pitch:	1.058	Yaw:	0.865	Thrust:	0.000
Time:	0.399	Roll Set Point:	-0.059	Pitch Set Point:	-0.043	Yaw Set Point:	-0.008	X_WP:	0.000	Y_WP:	0.000	Y_WP:	0.000	X:	0.029	Y:	0.022	Z:	0.048	yaw:	0.471	yaw rate:	-1.631	Roll:	1.258	Pitch:	0.981	Yaw:	1.095	Thrust:	0.000
Time:	0.412	Roll Set Point:	-0.059	Pitch Set Point:	-0.043	Yaw Set Point:	-0.008	X_WP:	0.000	Y_WP:	0.000	Y_WP:	0.000	X:	0.029	Y:	0.022	Z:	0.048	yaw:	0.454	yaw rate:	1.687	Roll:	1.614	Pitch:	1.114	Yaw:	0.347	Thrust:	0.000
Time:	0.426	Roll Set Point:	-0.059	Pitch Set Point:	-0.043	Yaw Set Point:	-0.008	X_WP:	0.000	Y_WP:	0.000	Y_WP:	0.000	X:	0.029	Y:	0.022	Z:	0.048	yaw:	0.454	yaw rate:	0.036	Roll:	1.498	Pitch:	1.127	Yaw:	0.703	Thrust:	0.000
Time:	0.437	Roll Set Point:	-0.059	Pitch Set Point:	-0.043	Yaw Set Point:	-0.009	X_WP:	0.000	Y_WP:	0.000	Y_WP:	0.000	X:	0.029	Y:	0.022	Z:	0.048	yaw:	0.490	yaw rate:	-3.585	Roll:	1.479	Pitch:	0.985	Yaw:	1.631	Thrust:	0.000
Time:	0.449	Roll Set Point:	-0.059	Pitch Set Point:	-0.043	Yaw Set Point:	-0.008	X_WP:	0.000	Y_WP:	0.000	Y_WP:	0.000	X:	0.029	Y:	0.022	Z:	0.048	yaw:	0.459	yaw rate:	3.052	Roll:	1.526	Pitch:	1.165	Yaw:	0.058	Thrust:	0.000
Time:	0.460	Roll Set Point:	-0.059	Pitch Set Point:	-0.043	Yaw Set Point:	-0.008	X_WP:	0.000	Y_WP:	0.000	Y_WP:	0.000	X:	0.029	Y:	0.022	Z:	0.048	yaw:	0.470	yaw rate:	-1.129	Roll:	1.553	Pitch:	1.079	Yaw:	0.985	Thrust:	0.000
Time:	0.471	Roll Set Point:	-0.059	Pitch Set Point:	-0.043	Yaw Set Point:	-0.008	X_WP:	0.000	Y_WP:	0.000	Y_WP:	0.000	X:	0.029	Y:	0.022	Z:	0.048	yaw:	0.482	yaw rate:	-1.208	Roll:	1.468	Pitch:	1.048	Yaw:	1.026	Thrust:	0.000
Time:	0.491	Roll Set Point:	-0.059	Pitch Set Point:	-0.043	Yaw Set Point:	-0.008	X_WP:	0.000	Y_WP:	0.000	Y_WP:	0.000	X:	0.029	Y:	0.022	Z:	0.048	yaw:	0.469	yaw rate:	1.356	Roll:	1.873	Pitch:	1.397	Yaw:	0.592	Thrust:	0.000
Time:	0.502	Roll Set Point:	-0.059	Pitch Set Point:	-0.043	Yaw Set Point:	-0.009	X_WP:	0.000	Y_WP:	0.000	Y_WP:	0.000	X:	0.029	Y:	0.022	Z:	0.048	yaw:	0.495	yaw rate:	-1.486	Roll:	1.502	Pitch:	1.227	Yaw:	1.371	Thrust:	0.000
Time:	0.513	Roll Set Point:	-0.059	Pitch Set Point:	-0.043	Yaw Set Point:	-0.009	X_WP:	0.000	Y_WP:	0.000	Y_WP:	0.000	X:	0.029	Y:	0.022	Z:	0.048	yaw:	0.512	yaw rate:	-1.753	Roll:	1.596	Pitch:	0.929	Yaw:	1.187	Thrust:	0.000
Time:	0.525	Roll Set Point:	-0.059	Pitch Set Point:	-0.043	Yaw Set Point:	-0.008	X_WP:	0.000	Y_WP:	0.000	Y_WP:	0.000	X:	0.029	Y:	0.022	Z:	0.048	yaw:	0.480	yaw rate:	3.246	Roll:	1.686	Pitch:	1.226	Yaw:	0.030	Thrust:	0.000
Time:	0.547	Roll Set Point:	-0.059	Pitch Set Point:	-0.043	Yaw Set Point:	-0.008	X_WP:	0.000	Y_WP:	0.000	Y_WP:	0.000	X:	0.029	Y:	0.022	Z:	0.048	yaw:	0.456	yaw rate:	2.384	Roll:	1.673	Pitch:	1.324	Yaw:	0.493	Thrust:	0.000
Time:	0.571	Roll Set Point:	-0.059	Pitch Set Point:	-0.043	Yaw Set Point:	-0.008	X_WP:	0.000	Y_WP:	0.000	Y_WP:	0.000	X:	0.029	Y:	0.022	Z:	0.048	yaw:	0.440	yaw rate:	1.842	Roll:	2.609	Pitch:	1.816	Yaw:	0.602	Thrust:	0.000
Time:	0.582	Roll Set Point:	-0.059	Pitch Set Point:	-0.043	Yaw Set Point:	-0.008	X_WP:	0.000	Y_WP:	0.000	Y_WP:	0.000	X:	0.029	Y:	0.022	Z:	0.048	yaw:	0.476	yaw rate:	-3.662	Roll:	1.569	Pitch:	1.099	Yaw:	1.613	Thrust:	0.000
Time:	0.593	Roll Set Point:	-0.059	Pitch Set Point:	-0.043	Yaw Set Point:	-0.008	X_WP:	0.000	Y_WP:	0.000	Y_WP:	0.000	X:	0.029	Y:	0.022	Z:	0.048	yaw:	0.450	yaw rate:	2.574	Roll:	1.580	Pitch:	1.193	Yaw:	0.089	Thrust:	0.000
Time:	0.606	Roll Set Point:	-0.059	Pitch Set Point:	-0.043	Yaw Set Point:	-0.008	X_WP:	0.000	Y_WP:	0.000	Y_WP:	0.000	X:	0.029	Y:	0.022	Z:	0.048	yaw:	0.486	yaw rate:	-3.528	Roll:	1.629	Pitch:	1.123	Yaw:	1.534	Thrust:	0.000
Time:	0.626	Roll Set Point:	-0.059	Pitch Set Point:	-0.043	Yaw Set Point:	-0.008	X_WP:	0.000	Y_WP:	0.000	Y_WP:	0.000	X:	0.029	Y:	0.022	Z:	0.048	yaw:	0.436	yaw rate:	4.983	Roll:	2.246	Pitch:	1.678	Yaw:	0.167	Thrust:	0.000
Time:	0.636	Roll Set Point:	-0.059	Pitch Set Point:	-0.043	Yaw Set Point:	-0.008	X_WP:	0.000	Y_WP:	0.000	Y_WP:	0.000	X:	0.029	Y:	0.022	Z:	0.048	yaw:	0.455	yaw rate:	-1.953	Roll:	1.641	Pitch:	1.109	Yaw:	1.223	Thrust:	0.000
Time:	0.647	Roll Set Point:	-0.059	Pitch Set Point:	-0.043	Yaw Set Point:	-0.008	X_WP:	0.000	Y_WP:	0.000	Y_WP:	0.000	X:	0.029	Y:	0.022	Z:	0.048	yaw:	0.476	yaw rate:	-2.042	Roll:	1.636	Pitch:	1.142	Yaw:	1.276	Thrust:	0.000
Time:	0.658	Roll Set Point:	-0.059	Pitch Set Point:	-0.043	Yaw Set Point:	-0.008	X_WP:	0.000	Y_WP:	0.000	Y_WP:	0.000	X:	0.029	Y:	0.022	Z:	0.048	yaw:	0.480	yaw rate:	-0.419	Roll:	1.527	Pitch:	1.156	Yaw:	0.858	Thrust:	0.000
Time:	0.668	Roll Set Point:	-0.059	Pitch Set Point:	-0.043	Yaw Set Point:	-0.008	X_WP:	0.000	Y_WP:	0.000	Y_WP:	0.000	X:	0.029	Y:	0.022	Z:	0.048	yaw:	0.470	yaw rate:	0.980	Roll:	1.792	Pitch:	1.250	Yaw:	0.483	Thrust:	0.000
Time:	0.692	Roll Set Point:	-0.059	Pitch Set Point:	-0.043	Yaw Set Point:	-0.008	X_WP:	0.000	Y_WP:	0.000	Y_WP:	0.000	X:	0.029	Y:	0.022	Z:	0.048	yaw:	0.484	yaw rate:	-1.358	Roll:	1.951	Pitch:	1.654	Yaw:	1.022	Thrust:	0.000
Time:	0.703	Roll Set Point:	-0.059	Pitch Set Point:	-0.043	Yaw Set Point:	-0.009	X_WP:	0.000	Y_WP:	0.000	Y_WP:	0.000	X:	0.029	Y:	0.022	Z:	0.048	yaw:	0.488	yaw rate:	-1.865	Roll:	2.288	Pitch:	1.390	Yaw:	0.881	Thrust:	0.000
Time:	0.714	Roll Set Point:	-0.059	Pitch Set Point:	-0.043	Yaw Set Point:	-0.008	X_WP:	0.000	Y_WP:	0.000	Y_WP:	0.000	X:	0.029	Y:	0.022	Z:	0.048	yaw:	0.486	yaw rate:	0.253	Roll:	1.623	Pitch:	1.201	Yaw:	0.711	Thrust:	0.000
Time:	0.725	Roll Set Point:	-0.059	Pitch Set Point:	-0.043	Yaw Set Point:	-0.008	X_WP:	0.000	Y_WP:	0.000	Y_WP:	0.000	X:	0.029	Y:	0.022	Z:	0.048	yaw:	0.472	yaw rate:	1.317	Roll:	1.501	Pitch:	1.361	Yaw:	0.444	Thrust:	0.000
Time:	0.735	Roll Set Point:	-0.059	Pitch Set Point:	-0.043	Yaw Set Point:	-0.008	X_WP:	0.000	Y_WP:	0.000	Y_WP:	0.000	X:	0.029	Y:	0.022	Z:	0.048	yaw:	0.477	yaw rate:	-0.501	Roll:	1.911	Pitch:	1.111	Yaw:	0.888	Thrust:	0.000
Time:	0.755	Roll Set Point:	-0.059	Pitch Set Point:	-0.043	Yaw Set Point:	-0.008	X_WP:	0.000	Y_WP:	0.000	Y_WP:	0.000	X:	0.029	Y:	0.022	Z:	0.048	yaw:	0.465	yaw rate:	1.211	Roll:	2.000	Pitch:	1.455	Yaw:	0.650	Thrust:	0.000
Time:	0.767	Roll Set Point:	-0.059	Pitch Set Point:	-0.043	Yaw Set Point:	-0.009	X_WP:	0.000	Y_WP:	0.000	Y_WP:	0.000	X:	0.029	Y:	0.022	Z:	0.048	yaw:	0.515	yaw rate:	-4.051	Roll:	2.140	Pitch:	1.652	Yaw:	1.795	Thrust:	0.000
Time:	0.778	Roll Set Point:	-0.059	Pitch Set Point:	-0.043	Yaw Set Point:	-0.008	X_WP:	0.000	Y_WP:	0.000	Y_WP:	0.000	X:	0.029	Y:	0.022	Z:	0.048	yaw:	0.487	yaw rate:	2.801	Roll:	1.840	Pitch:	1.140	Yaw:	0.084	Thrust:	0.000
Time:	0.789	Roll Set Point:	-0.059	Pitch Set Point:	-0.043	Yaw Set Point:	-0.009	X_WP:	0.000	Y_WP:	0.000	Y_WP:	0.000	X:	0.029	Y:	0.022	Z:	0.048	yaw:	0.493	yaw rate:	-0.661	Roll:	1.773	Pitch:	1.308	Yaw:	0.953	Thrust:	0.000
Time:	0.800	Roll Set Point:	-0.059	Pitch Set Point:	-0.043	Yaw Set Point:	-0.008	X_WP:	0.000	Y_WP:	0.000	Y_WP:	0.000	X:	0.029	Y:	0.022	Z:	0.048	yaw:	0.452	yaw rate:	4.067	Roll:	1.910	Pitch:	1.350	Yaw:	-0.220	Thrust:	0.000
Time:	0.813	Roll Set Point:	-0.059	Pitch Set Point:	-0.043	Yaw Set Point:	-0.009	X_WP:	0.000	Y_WP:	0.000	Y_WP:	0.000	X:	0.029	Y:	0.022	Z:	0.048	yaw:	0.505	yaw rate:	-5.261	Roll:	1.892	Pitch:	1.345	Yaw:	1.966	Thrust:	0.000
Time:	0.833	Roll Set Point:	-0.059	Pitch Set Point:	-0.043	Yaw Set Point:	-0.009	X_WP:	0.000	Y_WP:	0.000	Y_WP:	0.000	X:	0.029	Y:	0.022	Z:	0.048	yaw:	0.492	yaw rate:	1.348	Roll:	2.599	Pitch:	1.884	Yaw:	0.733	Thrust:	0.000
Time:	0.845	Roll Set Point:	-0.059	Pitch Set Point:	-0.043	Yaw Set Point:	-0.008	X_WP:	0.000	Y_WP:	0.000	Y_WP:	0.000	X:	0.029	Y:	0.022	Z:	0.048	yaw:	0.470	yaw rate:	2.135	Roll:	1.944	Pitch:	1.379	Yaw:	0.299	Thrust:	0.000
Time:	0.856	Roll Set Point:	-0.059	Pitch Set Point:	-0.043	Yaw Set Point:	-0.008	X_WP:	0.000	Y_WP:	0.000	Y_WP:	0.000	X:	0.029	Y:	0.022	Z:	0.048	yaw:	0.463	yaw rate:	0.744	Roll:	1.712	Pitch:	1.381	Yaw:	0.591	Thrust:	0.000
Time:	0.868	Roll Set Point:	-0.059	Pitch Set Point:	-0.043	Yaw Set Point:	-0.008	X_WP:	0.000	Y_WP:	0.000	Y_WP:	0.000	X:	0.029	Y:	0.022	Z:	0.048	yaw:	0.464	yaw rate:	-0.155	Roll:	2.074	Pitch:	1.400	Yaw:	0.808	Thrust:	0.000
Time:	0.891	Roll Set Point:	-0.059	Pitch Set Point:	-0.043	Yaw Set Point:	-0.008	X_WP:	0.000	Y_WP:	0.000	Y_WP:	0.000	X:	0.029	Y:	0.022	Z:	0.048	yaw:	0.476	yaw rate:	-0.530	Roll:	2.594	Pitch:	1.955	Yaw:	1.049	Thrust:	0.000
Time:	0.901	Roll Set Point:	-0.059	Pitch Set Point:	-0.043	Yaw Set Point:	-0.008	X_WP:	0.000	Y_WP:	0.000	Y_WP:	0.000	X:	0.029	Y:	0.022	Z:	0.048	yaw:	0.472	yaw rate:	-1.363	Roll:	2.201	Pitch:	1.505	Yaw:	0.671	Thrust:	0.000
Time:	0.912	Roll Set Point:	-0.059	Pitch Set Point:	-0.043	Yaw Set Point:	-0.008	X_WP:	0.000	Y_WP:	0.000	Y_WP:	0.000	X:	0.029	Y:	0.022	Z:	0.048	yaw:	0.460	yaw rate:	1.160	Roll:	1.573	Pitch:	1.431	Yaw:	0.472	Thrust:	0.000
Time:	0.922	Roll Set Point:	-0.059	Pitch Set Point:	-0.043	Yaw Set Point:	-0.008	X_WP:	0.000	Y_WP:	0.000	Y_WP:	0.000	X:	0.029	Y:	0.022	Z:	0.048	yaw:	0.471	yaw rate:	-1.095	Roll:	2.218	Pitch:	1.292	Yaw:	1.050	Thrust:	0.000
Time:	0.934	Roll Set Point:	-0.059	Pitch Set Point:	-0.043	Yaw Set Point:	-0.008	X_WP:	0.000	Y_WP:	0.000	Y_WP:	0.000	X:	0.029	Y:	0.022	Z:	0.048	yaw:	0.485	yaw rate:	-1.434	Roll:	1.965	Pitch:	1.429	Yaw:	1.133	Thrust:	0.000
Time:	0.945	Roll Set Point:	-0.059	Pitch Set Point:	-0.043	Yaw Set Point:	-0.008	X_WP:	0.000	Y_WP:	0.000	Y_WP:	0.000	X:	0.029	Y:	0.022	Z:	0.048	yaw:	0.476	yaw rate:	0.892	Roll:	1.889	Pitch:	1.393	Yaw:	0.567	Thrust:	0.000
Time:	0.957	Roll Set Point:	-0.059	Pitch Set Point:	-0.043	Yaw Set Point:	-0.009	X_WP:	0.000	Y_WP:	0.000	Y_WP:	0.000	X:	0.029	Y:	0.022	Z:	0.048	yaw:	0.497	yaw rate:	-2.101	Roll:	2.017	Pitch:	1.483	Yaw:	1.295	Thrust:	0.000
Time:	0.967	Roll Set Point:	-0.059	Pitch Set Point:	-0.043	Yaw Set Point:	-0.008	X_WP:	0.000	Y_WP:	0.000	Y_WP:	0.000	X:	0.029	Y:	0.022	Z:	0.048	yaw:	0.482	yaw rate:	1.527	Roll:	2.004	Pitch:	1.454	Yaw:	0.421	Thrust:	0.000
Time:	0.979	Roll Set Point:	-0.059	Pitch Set Point:	-0.043	Yaw Set Point:	-0.008	X_WP:	0.000	Y_WP:	0.000	Y_WP:	0.000	X:	0.029	Y:	0.022	Z:	0.048	yaw:	0.461	yaw rate:	2.092	Roll:	1.968	Pitch:	1.431	Yaw:	0.310	Thrust:	0.000
Time:	0.991	Roll Set Point:	-0.059	Pitch Set Point:	-0.043	Yaw Set Point:	-0.009	X_WP:	0.000	Y_WP:	0.000	Y_WP:	0.000	X:	0.029	Y:	0.022	Z:	0.048	yaw:	0.494	yaw rate:	-3.310	Roll:	2.146	Pitch:	1.436	Yaw:	1.573	Thrust:	0.000
Time:	1.004	Roll Set Point:	-0.059	Pitch Set Point:	-0.043	Yaw Set Point:	-0.008	X_WP:	0.000	Y_WP:	0.000	Y_WP:	0.000	X:	0.029	Y:	0.022	Z:	0.048	yaw:	0.470	yaw rate:	2.432	Roll:	2.109	Pitch:	1.635	Yaw:	0.358	Thrust:	0.000
Time:	1.026	Roll Set Point:	-0.059	Pitch Set Point:	-0.043	Yaw Set Point:	-0.008	X_WP:	0.000	Y_WP:	0.000	Y_WP:	0.000	X:	0.029	Y:	0.022	Z:	0.048	yaw:	0.458	yaw rate:	1.230	Roll:	3.053	Pitch:	2.241	Yaw:	0.775	Thrust:	0.000
Time:	1.037	Roll Set Point:	-0.059	Pitch Set Point:	-0.043	Yaw Set Point:	-0.007	X_WP:	0.000	Y_WP:	0.000	Y_WP:	0.000	X:	0.029	Y:	0.022	Z:	0.048	yaw:	0.428	yaw rate:	2.929	Roll:	2.175	Pitch:	1.551	Yaw:	0.046	Thrust:	0.000
Time:	1.049	Roll Set Point:	-0.059	Pitch Set Point:	-0.043	Yaw Set Point:	-0.008	X_WP:	0.000	Y_WP:	0.000	Y_WP:	0.000	X:	0.029	Y:	0.022	Z:	0.048	yaw:	0.466	yaw rate:	-3.811	Roll:	1.953	Pitch:	1.432	Yaw:	1.709	Thrust:	0.000
Time:	1.059	Roll Set Point:	-0.059	Pitch Set Point:	-0.043	Yaw Set Point:	-0.008	X_WP:	0.000	Y_WP:	0.000	Y_WP:	0.000	X:	0.029	Y:	0.022	Z:	0.048	yaw:	0.455	yaw rate:	1.298	Roll:	2.173	Pitch:	1.506	Yaw:	0.505	Thrust:	0.000
Time:	1.073	Roll Set Point:	-0.059	Pitch Set Point:	-0.043	Yaw Set Point:	-0.008	X_WP:	0.000	Y_WP:	0.000	Y_WP:	0.000	X:	0.029	Y:	0.022	Z:	0.048	yaw:	0.449	yaw rate:	0.534	Roll:	2.006	Pitch:	1.566	Yaw:	0.707	Thrust:	0.000
Time:	1.091	Roll Set Point:	-0.059	Pitch Set Point:	-0.043	Yaw Set Point:	-0.008	X_WP:	0.000	Y_WP:	0.000	Y_WP:	0.000	X:	0.029	Y:	0.022	Z:	0.048	yaw:	0.466	yaw rate:	-1.697	Roll:	2.879	Pitch:	1.996	Yaw:	1.141	Thrust:	0.000
Time:	1.102	Roll Set Point:	-0.059	Pitch Set Point:	-0.043	Yaw Set Point:	-0.008	X_WP:	0.000	Y_WP:	0.000	Y_WP:	0.000	X:	0.029	Y:	0.022	Z:	0.048	yaw:	0.465	yaw rate:	0.090	Roll:	2.409	Pitch:	1.728	Yaw:	0.784	Thrust:	0.000
Time:	1.113	Roll Set Point:	-0.059	Pitch Set Point:	-0.043	Yaw Set Point:	-0.009	X_WP:	0.000	Y_WP:	0.000	Y_WP:	0.000	X:	0.029	Y:	0.022	Z:	0.048	yaw:	0.491	yaw rate:	-2.616	Roll:	2.172	Pitch:	1.544	Yaw:	1.459	Thrust:	0.000
Time:	1.124	Roll Set Point:	-0.059	Pitch Set Point:	-0.043	Yaw Set Point:	-0.008	X_WP:	0.000	Y_WP:	0.000	Y_WP:	0.000	X:	0.029	Y:	0.022	Z:	0.048	yaw:	0.449	yaw rate:	4.246	Roll:	1.926	Pitch:	1.515	Yaw:	-0.284	Thrust:	0.000
Time:	1.137	Roll Set Point:	-0.059	Pitch Set Point:	-0.043	Yaw Set Point:	-0.008	X_WP:	0.000	Y_WP:	0.000	Y_WP:	0.000	X:	0.029	Y:	0.022	Z:	0.048	yaw:	0.474	yaw rate:	-2.539	Roll:	2.366	Pitch:	1.596	Yaw:	1.356	Thrust:	0.000
Time:	1.157	Roll Set Point:	-0.059	Pitch Set Point:	-0.043	Yaw Set Point:	-0.008	X_WP:	0.000	Y_WP:	0.000	Y_WP:	0.000	X:	0.029	Y:	0.022	Z:	0.048	yaw:	0.462	yaw rate:	1.236	Roll:	2.932	Pitch:	2.247	Yaw:	0.772	Thrust:	0.000
Time:	1.168	Roll Set Point:	-0.059	Pitch Set Point:	-0.043	Yaw Set Point:	-0.008	X_WP:	0.000	Y_WP:	0.000	Y_WP:	0.000	X:	0.029	Y:	0.022	Z:	0.048	yaw:	0.475	yaw rate:	-1.023	Roll:	2.487	Pitch:	1.576	Yaw:	1.134	Thrust:	0.000
Time:	1.178	Roll Set Point:	-0.059	Pitch Set Point:	-0.043	Yaw Set Point:	-0.008	X_WP:	0.000	Y_WP:	0.000	Y_WP:	0.000	X:	0.029	Y:	0.022	Z:	0.048	yaw:	0.480	yaw rate:	-0.555	Roll:	1.935	Pitch:	1.568	Yaw:	0.963	Thrust:	0.000
Time:	1.189	Roll Set Point:	-0.059	Pitch Set Point:	-0.043	Yaw Set Point:	-0.008	X_WP:	0.000	Y_WP:	0.000	Y_WP:	0.000	X:	0.029	Y:	0.022	Z:	0.048	yaw:	0.458	yaw rate:	2.280	Roll:	2.255	Pitch:	1.598	Yaw:	0.228	Thrust:	0.000
Time:	1.200	Roll Set Point:	-0.059	Pitch Set Point:	-0.043	Yaw Set Point:	-0.008	X_WP:	0.000	Y_WP:	0.000	Y_WP:	0.000	X:	0.029	Y:	0.022	Z:	0.048	yaw:	0.461	yaw rate:	-0.327	Roll:	2.131	Pitch:	1.622	Yaw:	0.887	Thrust:	0.000
Time:	1.225	Roll Set Point:	-0.059	Pitch Set Point:	-0.043	Yaw Set Point:	-0.008	X_WP:	0.000	Y_WP:	0.000	Y_WP:	0.000	X:	0.029	Y:	0.022	Z:	0.048	yaw:	0.485	yaw rate:	-2.377	Roll:	3.630	Pitch:	2.665	Yaw:	1.302	Thrust:	0.000
Time:	1.236	Roll Set Point:	-0.059	Pitch Set Point:	-0.043	Yaw Set Point:	-0.009	X_WP:	0.000	Y_WP:	0.000	Y_WP:	0.000	X:	0.029	Y:	0.022	Z:	0.048	yaw:	0.490	yaw rate:	-3.311	Roll:	2.448	Pitch:	1.771	Yaw:	0.984	Thrust:	0.000
Time:	1.247	Roll Set Point:	-0.059	Pitch Set Point:	-0.043	Yaw Set Point:	-0.008	X_WP:	0.000	Y_WP:	0.000	Y_WP:	0.000	X:	0.029	Y:	0.022	Z:	0.048	yaw:	0.465	yaw rate:	2.475	Roll:	2.390	Pitch:	1.479	Yaw:	0.195	Thrust:	0.000
Time:	1.258	Roll Set Point:	-0.059	Pitch Set Point:	-0.043	Yaw Set Point:	-0.009	X_WP:	0.000	Y_WP:	0.000	Y_WP:	0.000	X:	0.029	Y:	0.022	Z:	0.048	yaw:	0.490	yaw rate:	-2.420	Roll:	2.199	Pitch:	1.602	Yaw:	1.431	Thrust:	0.000
Time:	1.268	Roll Set Point:	-0.059	Pitch Set Point:	-0.043	Yaw Set Point:	-0.008	X_WP:	0.000	Y_WP:	0.000	Y_WP:	0.000	X:	0.029	Y:	0.022	Z:	0.048	yaw:	0.458	yaw rate:	3.104	Roll:	2.264	Pitch:	1.635	Yaw:	-0.008	Thrust:	0.000
Time:	1.291	Roll Set Point:	-0.059	Pitch Set Point:	-0.043	Yaw Set Point:	-0.008	X_WP:	0.000	Y_WP:	0.000	Y_WP:	0.000	X:	0.029	Y:	0.022	Z:	0.048	yaw:	0.483	yaw rate:	-2.426	Roll:	2.644	Pitch:	2.456	Yaw:	1.313	Thrust:	0.000
Time:	1.304	Roll Set Point:	-0.059	Pitch Set Point:	-0.043	Yaw Set Point:	-0.008	X_WP:	0.000	Y_WP:	0.000	Y_WP:	0.000	X:	0.029	Y:	0.022	Z:	0.048	yaw:	0.478	yaw rate:	0.524	Roll:	3.249	Pitch:	1.954	Yaw:	0.796	Thrust:	0.000
Time:	1.315	Roll Set Point:	-0.059	Pitch Set Point:	-0.043	Yaw Set Point:	-0.008	X_WP:	0.000	Y_WP:	0.000	Y_WP:	0.000	X:	0.029	Y:	0.022	Z:	0.048	yaw:	0.480	yaw rate:	1.282	Roll:	2.487	Pitch:	1.786	Yaw:	0.904	Thrust:	0.000
Time:	1.325	Roll Set Point:	-0.059	Pitch Set Point:	-0.043	Yaw Set Point:	-0.008	X_WP:	0.000	Y_WP:	0.000	Y_WP:	0.000	X:	0.029	Y:	0.022	Z:	0.048	yaw:	0.475	yaw rate:	0.524	Roll:	2.250	Pitch:	1.675	Yaw:	0.705	Thrust:	0.000
Time:	1.338	Roll Set Point:	-0.059	Pitch Set Point:	-0.043	Yaw Set Point:	-0.008	X_WP:	0.000	Y_WP:	0.000	Y_WP:	0.000	X:	0.029	Y:	0.022	Z:	0.048	yaw:	0.467	yaw rate:	0.735	Roll:	2.606	Pitch:	1.670	Yaw:	0.723	Thrust:	0.000
Time:	1.358	Roll Set Point:	-0.059	Pitch Set Point:	-0.043	Yaw Set Point:	-0.008	X_WP:	0.000	Y_WP:	0.000	Y_WP:	0.000	X:	0.029	Y:	0.022	Z:	0.048	yaw:	0.477	yaw rate:	-1.026	Roll:	3.575	Pitch:	2.552	Yaw:	1.133	Thrust:	0.000
Time:	1.369	Roll Set Point:	-0.059	Pitch Set Point:	-0.043	Yaw Set Point:	-0.009	X_WP:	0.000	Y_WP:	0.000	Y_WP:	0.000	X:	0.029	Y:	0.022	Z:	0.048	yaw:	0.494	yaw rate:	-1.660	Roll:	2.137	Pitch:	1.767	Yaw:	1.270	Thrust:	0.000
Time:	1.379	Roll Set Point:	-0.059	Pitch Set Point:	-0.043	Yaw Set Point:	-0.009	X_WP:	0.000	Y_WP:	0.000	Y_WP:	0.000	X:	0.029	Y:	0.022	Z:	0.048	yaw:	0.496	yaw rate:	-0.242	Roll:	2.412	Pitch:	1.493	Yaw:	0.934	Thrust:	0.000
Time:	1.390	Roll Set Point:	-0.059	Pitch Set Point:	-0.043	Yaw Set Point:	-0.009	X_WP:	0.000	Y_WP:	0.000	Y_WP:	0.000	X:	0.029	Y:	0.022	Z:	0.048	yaw:	0.490	yaw rate:	0.601	Roll:	2.402	Pitch:	1.822	Yaw:	0.733	Thrust:	0.000
Time:	1.404	Roll Set Point:	-0.059	Pitch Set Point:	-0.043	Yaw Set Point:	-0.008	X_WP:	0.000	Y_WP:	0.000	Y_WP:	0.000	X:	0.029	Y:	0.022	Z:	0.048	yaw:	0.440	yaw rate:	5.069	Roll:	2.718	Pitch:	1.914	Yaw:	-0.222	Thrust:	0.000
Time:	1.424	Roll Set Point:	-0.059	Pitch Set Point:	-0.043	Yaw Set Point:	-0.008	X_WP:	0.000	Y_WP:	0.000	Y_WP:	0.000	X:	0.029	Y:	0.022	Z:	0.048	yaw:	0.485	yaw rate:	-1.601	Roll:	3.564	Pitch:	2.613	Yaw:	1.616	Thrust:	0.000
Time:	1.435	Roll Set Point:	-0.059	Pitch Set Point:	-0.043	Yaw Set Point:	-0.008	X_WP:	0.000	Y_WP:	0.000	Y_WP:	0.000	X:	0.029	Y:	0.022	Z:	0.048	yaw:	0.485	yaw rate:	-3.509	Roll:	2.497	Pitch:	1.786	Yaw:	0.847	Thrust:	0.000
Time:	1.446	Roll Set Point:	-0.059	Pitch Set Point:	-0.043	Yaw Set Point:	-0.009	X_WP:	0.000	Y_WP:	0.000	Y_WP:	0.000	X:	0.029	Y:	0.022	Z:	0.048	yaw:	0.499	yaw rate:	-1.432	Roll:	2.457	Pitch:	1.750	Yaw:	1.235	Thrust:	0.000
Time:	1.457	Roll Set Point:	-0.059	Pitch Set Point:	-0.043	Yaw Set Point:	-0.008	X_WP:	0.000	Y_WP:	0.000	Y_WP:	0.000	X:	0.029	Y:	0.022	Z:	0.048	yaw:	0.443	yaw rate:	5.572	Roll:	2.412	Pitch:	1.762	Yaw:	-0.523	Thrust:	0.000
Time:	1.469	Roll Set Point:	-0.059	Pitch Set Point:	-0.043	Yaw Set Point:	-0.009	X_WP:	0.000	Y_WP:	0.000	Y_WP:	0.000	X:	0.029	Y:	0.022	Z:	0.048	yaw:	0.487	yaw rate:	-4.425	Roll:	2.514	Pitch:	1.999	Yaw:	1.828	Thrust:	0.000
Time:	1.492	Roll Set Point:	-0.059	Pitch Set Point:	-0.043	Yaw Set Point:	-0.009	X_WP:	0.000	Y_WP:	0.000	Y_WP:	0.000	X:	0.029	Y:	0.022	Z:	0.048	yaw:	0.490	yaw rate:	-0.230	Roll:	4.014	Pitch:	2.806	Yaw:	1.119	Thrust:	0.000
Time:	1.503	Roll Set Point:	-0.059	Pitch Set Point:	-0.043	Yaw Set Point:	-0.008	X_WP:	0.000	Y_WP:	0.000	Y_WP:	0.000	X:	0.029	Y:	0.022	Z:	0.048	yaw:	0.443	yaw rate:	4.635	Roll:	2.701	Pitch:	1.966	Yaw:	-0.182	Thrust:	0.000
Time:	1.515	Roll Set Point:	-0.059	Pitch Set Point:	-0.043	Yaw Set Point:	-0.008	X_WP:	0.000	Y_WP:	0.000	Y_WP:	0.000	X:	0.029	Y:	0.022	Z:	0.048	yaw:	0.472	yaw rate:	-1.374	Roll:	2.497	Pitch:	1.768	Yaw:	1.520	Thrust:	0.000
Time:	1.525	Roll Set Point:	-0.059	Pitch Set Point:	-0.043	Yaw Set Point:	-0.008	X_WP:	0.000	Y_WP:	0.000	Y_WP:	0.000	X:	0.029	Y:	0.022	Z:	0.048	yaw:	0.479	yaw rate:	-0.683	Roll:	2.299	Pitch:	1.949	Yaw:	1.038	Thrust:	0.000
Time:	1.539	Roll Set Point:	-0.059	Pitch Set Point:	-0.043	Yaw Set Point:	-0.008	X_WP:	0.000	Y_WP:	0.000	Y_WP:	0.000	X:	0.029	Y:	0.022	Z:	0.048	yaw:	0.485	yaw rate:	-0.623	Roll:	2.658	Pitch:	2.014	Yaw:	1.055	Thrust:	0.000
Time:	1.558	Roll Set Point:	-0.059	Pitch Set Point:	-0.043	Yaw Set Point:	-0.008	X_WP:	0.000	Y_WP:	0.000	Y_WP:	0.000	X:	0.029	Y:	0.022	Z:	0.048	yaw:	0.475	yaw rate:	0.978	Roll:	3.983	Pitch:	2.622	Yaw:	0.910	Thrust:	0.000
Time:	1.569	Roll Set Point:	-0.059	Pitch Set Point:	-0.043	Yaw Set Point:	-0.008	X_WP:	0.000	Y_WP:	0.000	Y_WP:	0.000	X:	0.029	Y:	0.022	Z:	0.048	yaw:	0.459	yaw rate:	0.644	Roll:	2.552	Pitch:	1.908	Yaw:	0.475	Thrust:	0.000
Time:	1.580	Roll Set Point:	-0.059	Pitch Set Point:	-0.043	Yaw Set Point:	-0.009	X_WP:	0.000	Y_WP:	0.000	Y_WP:	0.000	X:	0.029	Y:	0.022	Z:	0.048	yaw:	0.500	yaw rate:	-4.128	Roll:	2.383	Pitch:	1.755	Yaw:	1.932	Thrust:	0.000
Time:	1.591	Roll Set Point:	-0.059	Pitch Set Point:	-0.043	Yaw Set Point:	-0.008	X_WP:	0.000	Y_WP:	0.000	Y_WP:	0.000	X:	0.029	Y:	0.022	Z:	0.048	yaw:	0.453	yaw rate:	4.768	Roll:	2.703	Pitch:	1.879	Yaw:	-0.303	Thrust:	0.000
Time:	1.604	Roll Set Point:	-0.059	Pitch Set Point:	-0.043	Yaw Set Point:	-0.009	X_WP:	0.000	Y_WP:	0.000	Y_WP:	0.000	X:	0.029	Y:	0.022	Z:	0.048	yaw:	0.495	yaw rate:	-4.219	Roll:	2.938	Pitch:	2.148	Yaw:	1.797	Thrust:	0.000
Time:	1.625	Roll Set Point:	-0.059	Pitch Set Point:	-0.043	Yaw Set Point:	-0.008	X_WP:	0.000	Y_WP:	0.000	Y_WP:	0.000	X:	0.029	Y:	0.022	Z:	0.048	yaw:	0.453	yaw rate:	4.155	Roll:	4.008	Pitch:	2.899	Yaw:	0.541	Thrust:	0.000
Time:	1.635	Roll Set Point:	-0.059	Pitch Set Point:	-0.043	Yaw Set Point:	-0.008	X_WP:	0.000	Y_WP:	0.000	Y_WP:	0.000	X:	0.029	Y:	0.022	Z:	0.048	yaw:	0.475	yaw rate:	-1.896	Roll:	2.585	Pitch:	1.920	Yaw:	1.409	Thrust:	0.000
Time:	1.647	Roll Set Point:	-0.059	Pitch Set Point:	-0.043	Yaw Set Point:	-0.008	X_WP:	0.000	Y_WP:	0.000	Y_WP:	0.000	X:	0.029	Y:	0.022	Z:	0.048	yaw:	0.482	yaw rate:	-0.719	Roll:	2.713	Pitch:	1.943	Yaw:	1.072	Thrust:	0.000
Time:	1.658	Roll Set Point:	-0.059	Pitch Set Point:	-0.043	Yaw Set Point:	-0.008	X_WP:	0.000	Y_WP:	0.000	Y_WP:	0.000	X:	0.029	Y:	0.022	Z:	0.048	yaw:	0.465	yaw rate:	1.648	Roll:	2.599	Pitch:	1.901	Yaw:	0.480	Thrust:	0.000
Time:	1.672	Roll Set Point:	-0.059	Pitch Set Point:	-0.043	Yaw Set Point:	-0.008	X_WP:	0.000	Y_WP:	0.000	Y_WP:	0.000	X:	0.029	Y:	0.022	Z:	0.048	yaw:	0.458	yaw rate:	0.705	Roll:	3.023	Pitch:	2.254	Yaw:	0.789	Thrust:	0.000
Time:	1.693	Roll Set Point:	-0.059	Pitch Set Point:	-0.043	Yaw Set Point:	-0.008	X_WP:	0.000	Y_WP:	0.000	Y_WP:	0.000	X:	0.029	Y:	0.022	Z:	0.048	yaw:	0.451	yaw rate:	0.687	Roll:	4.269	Pitch:	3.081	Yaw:	0.999	Thrust:	0.000
Time:	1.704	Roll Set Point:	-0.059	Pitch Set Point:	-0.043	Yaw Set Point:	-0.008	X_WP:	0.000	Y_WP:	0.000	Y_WP:	0.000	X:	0.029	Y:	0.022	Z:	0.048	yaw:	0.449	yaw rate:	0.263	Roll:	2.859	Pitch:	1.930	Yaw:	0.786	Thrust:	0.000
Time:	1.715	Roll Set Point:	-0.059	Pitch Set Point:	-0.043	Yaw Set Point:	-0.008	X_WP:	0.000	Y_WP:	0.000	Y_WP:	0.000	X:	0.029	Y:	0.022	Z:	0.048	yaw:	0.463	yaw rate:	-1.415	Roll:	2.515	Pitch:	1.875	Yaw:	1.222	Thrust:	0.000
Time:	1.725	Roll Set Point:	-0.059	Pitch Set Point:	-0.043	Yaw Set Point:	-0.008	X_WP:	0.000	Y_WP:	0.000	Y_WP:	0.000	X:	0.029	Y:	0.022	Z:	0.048	yaw:	0.474	yaw rate:	-1.113	Roll:	2.736	Pitch:	1.968	Yaw:	1.163	Thrust:	0.000
Time:	1.739	Roll Set Point:	-0.059	Pitch Set Point:	-0.043	Yaw Set Point:	-0.009	X_WP:	0.000	Y_WP:	0.000	Y_WP:	0.000	X:	0.029	Y:	0.022	Z:	0.048	yaw:	0.489	yaw rate:	-1.478	Roll:	2.931	Pitch:	2.112	Yaw:	1.263	Thrust:	0.000
Time:	1.758	Roll Set Point:	-0.059	Pitch Set Point:	-0.043	Yaw Set Point:	-0.009	X_WP:	0.000	Y_WP:	0.000	Y_WP:	0.000	X:	0.029	Y:	0.022	Z:	0.048	yaw:	0.512	yaw rate:	-2.282	Roll:	4.161	Pitch:	3.064	Yaw:	1.453	Thrust:	0.000
Time:	1.769	Roll Set Point:	-0.059	Pitch Set Point:	-0.043	Yaw Set Point:	-0.008	X_WP:	0.000	Y_WP:	0.000	Y_WP:	0.000	X:	0.029	Y:	0.022	Z:	0.048	yaw:	0.431	yaw rate:	5.593	Roll:	2.869	Pitch:	2.022	Yaw:	-1.182	Thrust:	0.000
Time:	1.780	Roll Set Point:	-0.059	Pitch Set Point:	-0.043	Yaw Set Point:	-0.008	X_WP:	0.000	Y_WP:	0.000	Y_WP:	0.000	X:	0.029	Y:	0.022	Z:	0.048	yaw:	0.466	yaw rate:	-3.509	Roll:	2.651	Pitch:	1.968	Yaw:	1.727	Thrust:	0.000
Time:	1.791	Roll Set Point:	-0.059	Pitch Set Point:	-0.043	Yaw Set Point:	-0.008	X_WP:	0.000	Y_WP:	0.000	Y_WP:	0.000	X:	0.029	Y:	0.022	Z:	0.048	yaw:	0.466	yaw rate:	-0.040	Roll:	2.838	Pitch:	2.030	Yaw:	0.909	Thrust:	0.000
Time:	1.802	Roll Set Point:	-0.059	Pitch Set Point:	-0.043	Yaw Set Point:	-0.008	X_WP:	0.000	Y_WP:	0.000	Y_WP:	0.000	X:	0.029	Y:	0.022	Z:	0.048	yaw:	0.467	yaw rate:	-0.089	Roll:	2.840	Pitch:	2.014	Yaw:	0.922	Thrust:	0.000
Time:	1.823	Roll Set Point:	-0.059	Pitch Set Point:	-0.043	Yaw Set Point:	-0.008	X_WP:	0.000	Y_WP:	0.000	Y_WP:	0.000	X:	0.029	Y:	0.022	Z:	0.048	yaw:	0.486	yaw rate:	-1.931	Roll:	4.024	Pitch:	2.982	Yaw:	1.389	Thrust:	0.000
Time:	1.834	Roll Set Point:	-0.059	Pitch Set Point:	-0.043	Yaw Set Point:	-0.009	X_WP:	0.000	Y_WP:	0.000	Y_WP:	0.000	X:	0.029	Y:	0.022	Z:	0.048	yaw:	0.509	yaw rate:	-4.822	Roll:	3.088	Pitch:	2.363	Yaw:	1.493	Thrust:	0.000
Time:	1.845	Roll Set Point:	-0.059	Pitch Set Point:	-0.043	Yaw Set Point:	-0.008	X_WP:	0.000	Y_WP:	0.000	Y_WP:	0.000	X:	0.029	Y:	0.022	Z:	0.048	yaw:	0.484	yaw rate:	2.566	Roll:	2.964	Pitch:	1.852	Yaw:	0.278	Thrust:	0.000
Time:	1.856	Roll Set Point:	-0.059	Pitch Set Point:	-0.043	Yaw Set Point:	-0.008	X_WP:	0.000	Y_WP:	0.000	Y_WP:	0.000	X:	0.029	Y:	0.022	Z:	0.048	yaw:	0.457	yaw rate:	2.631	Roll:	2.797	Pitch:	2.089	Yaw:	0.258	Thrust:	0.000
Time:	1.867	Roll Set Point:	-0.059	Pitch Set Point:	-0.043	Yaw Set Point:	-0.009	X_WP:	0.000	Y_WP:	0.000	Y_WP:	0.000	X:	0.029	Y:	0.022	Z:	0.048	yaw:	0.498	yaw rate:	-4.073	Roll:	2.980	Pitch:	2.163	Yaw:	1.878	Thrust:	0.000
Time:	1.891	Roll Set Point:	-0.059	Pitch Set Point:	-0.043	Yaw Set Point:	-0.008	X_WP:	0.000	Y_WP:	0.000	Y_WP:	0.000	X:	0.029	Y:	0.022	Z:	0.048	yaw:	0.484	yaw rate:	1.445	Roll:	4.581	Pitch:	3.493	Yaw:	1.067	Thrust:	0.000
Time:	1.903	Roll Set Point:	-0.059	Pitch Set Point:	-0.043	Yaw Set Point:	-0.008	X_WP:	0.000	Y_WP:	0.000	Y_WP:	0.000	X:	0.029	Y:	0.022	Z:	0.048	yaw:	0.460	yaw rate:	2.379	Roll:	3.391	Pitch:	2.234	Yaw:	0.389	Thrust:	0.000
Time:	1.913	Roll Set Point:	-0.059	Pitch Set Point:	-0.043	Yaw Set Point:	-0.008	X_WP:	0.000	Y_WP:	0.000	Y_WP:	0.000	X:	0.029	Y:	0.022	Z:	0.048	yaw:	0.459	yaw rate:	2.199	Roll:	2.774	Pitch:	2.038	Yaw:	0.876	Thrust:	0.000
Time:	1.924	Roll Set Point:	-0.059	Pitch Set Point:	-0.043	Yaw Set Point:	-0.008	X_WP:	0.000	Y_WP:	0.000	Y_WP:	0.000	X:	0.029	Y:	0.022	Z:	0.048	yaw:	0.464	yaw rate:	-0.521	Roll:	2.885	Pitch:	2.151	Yaw:	1.030	Thrust:	0.000
Time:	1.941	Roll Set Point:	-0.059	Pitch Set Point:	-0.043	Yaw Set Point:	-0.008	X_WP:	0.000	Y_WP:	0.000	Y_WP:	0.000	X:	0.029	Y:	0.022	Z:	0.048	yaw:	0.468	yaw rate:	-0.358	Roll:	3.532	Pitch:	2.637	Yaw:	1.097	Thrust:	0.000
Time:	1.958	Roll Set Point:	-0.059	Pitch Set Point:	-0.043	Yaw Set Point:	-0.009	X_WP:	0.000	Y_WP:	0.000	Y_WP:	0.000	X:	0.029	Y:	0.022	Z:	0.048	yaw:	0.494	yaw rate:	-2.578	Roll:	4.548	Pitch:	3.176	Yaw:	1.500	Thrust:	0.000
Time:	1.970	Roll Set Point:	-0.059	Pitch Set Point:	-0.043	Yaw Set Point:	-0.008	X_WP:	0.000	Y_WP:	0.000	Y_WP:	0.000	X:	0.029	Y:	0.022	Z:	0.048	yaw:	0.467	yaw rate:	2.707	Roll:	2.818	Pitch:	2.075	Yaw:	0.244	Thrust:	0.000
Time:	1.980	Roll Set Point:	-0.059	Pitch Set Point:	-0.043	Yaw Set Point:	-0.008	X_WP:	0.000	Y_WP:	0.000	Y_WP:	0.000	X:	0.029	Y:	0.022	Z:	0.048	yaw:	0.470	yaw rate:	-2.489	Roll:	2.933	Pitch:	2.138	Yaw:	1.013	Thrust:	0.000
Time:	1.991	Roll Set Point:	-0.059	Pitch Set Point:	-0.043	Yaw Set Point:	-0.008	X_WP:	0.000	Y_WP:	0.000	Y_WP:	0.000	X:	0.029	Y:	0.022	Z:	0.048	yaw:	0.451	yaw rate:	1.847	Roll:	3.022	Pitch:	2.222	Yaw:	0.464	Thrust:	0.000
Time:	2.003	Roll Set Point:	-0.059	Pitch Set Point:	-0.043	Yaw Set Point:	-0.009	X_WP:	0.000	Y_WP:	0.000	Y_WP:	0.000	X:	0.029	Y:	0.022	Z:	0.048	yaw:	0.491	yaw rate:	-3.959	Roll:	3.116	Pitch:	2.304	Yaw:	1.869	Thrust:	0.000
Time:	2.024	Roll Set Point:	-0.059	Pitch Set Point:	-0.043	Yaw Set Point:	-0.008	X_WP:	0.000	Y_WP:	0.000	Y_WP:	0.000	X:	0.029	Y:	0.022	Z:	0.048	yaw:	0.470	yaw rate:	2.072	Roll:	4.646	Pitch:	3.264	Yaw:	0.928	Thrust:	0.000
Time:	2.035	Roll Set Point:	-0.059	Pitch Set Point:	-0.043	Yaw Set Point:	-0.008	X_WP:	0.000	Y_WP:	0.000	Y_WP:	0.000	X:	0.029	Y:	0.022	Z:	0.048	yaw:	0.478	yaw rate:	-2.200	Roll:	3.484	Pitch:	2.463	Yaw:	1.134	Thrust:	0.000
Time:	2.046	Roll Set Point:	-0.059	Pitch Set Point:	-0.043	Yaw Set Point:	-0.008	X_WP:	0.000	Y_WP:	0.000	Y_WP:	0.000	X:	0.029	Y:	0.022	Z:	0.048	yaw:	0.466	yaw rate:	1.230	Roll:	2.813	Pitch:	2.004	Yaw:	0.612	Thrust:	0.000
Time:	2.056	Roll Set Point:	-0.059	Pitch Set Point:	-0.043	Yaw Set Point:	-0.008	X_WP:	0.000	Y_WP:	0.000	Y_WP:	0.000	X:	0.029	Y:	0.022	Z:	0.048	yaw:	0.452	yaw rate:	1.358	Roll:	2.833	Pitch:	2.202	Yaw:	0.562	Thrust:	0.000
Time:	2.068	Roll Set Point:	-0.059	Pitch Set Point:	-0.043	Yaw Set Point:	-0.008	X_WP:	0.000	Y_WP:	0.000	Y_WP:	0.000	X:	0.029	Y:	0.022	Z:	0.048	yaw:	0.446	yaw rate:	0.656	Roll:	3.141	Pitch:	2.197	Yaw:	0.770	Thrust:	0.000
Time:	2.091	Roll Set Point:	-0.059	Pitch Set Point:	-0.043	Yaw Set Point:	-0.008	X_WP:	0.000	Y_WP:	0.000	Y_WP:	0.000	X:	0.029	Y:	0.022	Z:	0.048	yaw:	0.467	yaw rate:	-2.099	Roll:	3.438	Pitch:	3.653	Yaw:	1.472	Thrust:	0.000
Time:	2.102	Roll Set Point:	-0.059	Pitch Set Point:	-0.043	Yaw Set Point:	-0.008	X_WP:	0.000	Y_WP:	0.000	Y_WP:	0.000	X:	0.029	Y:	0.022	Z:	0.048	yaw:	0.479	yaw rate:	-1.245	Roll:	4.960	Pitch:	2.424	Yaw:	1.254	Thrust:	0.000
Time:	2.113	Roll Set Point:	-0.059	Pitch Set Point:	-0.043	Yaw Set Point:	-0.008	X_WP:	0.000	Y_WP:	0.000	Y_WP:	0.000	X:	0.029	Y:	0.022	Z:	0.048	yaw:	0.446	yaw rate:	0.831	Roll:	3.092	Pitch:	2.311	Yaw:	0.076	Thrust:	0.000
Time:	2.124	Roll Set Point:	-0.059	Pitch Set Point:	-0.043	Yaw Set Point:	-0.009	X_WP:	0.000	Y_WP:	0.000	Y_WP:	0.000	X:	0.029	Y:	0.022	Z:	0.048	yaw:	0.494	yaw rate:	-4.781	Roll:	3.115	Pitch:	2.173	Yaw:	2.115	Thrust:	0.000
Time:	2.135	Roll Set Point:	-0.059	Pitch Set Point:	-0.043	Yaw Set Point:	-0.008	X_WP:	0.000	Y_WP:	0.000	Y_WP:	0.000	X:	0.029	Y:	0.022	Z:	0.048	yaw:	0.473	yaw rate:	2.125	Roll:	3.208	Pitch:	2.253	Yaw:	0.489	Thrust:	0.000
Time:	2.157	Roll Set Point:	-0.059	Pitch Set Point:	-0.043	Yaw Set Point:	-0.009	X_WP:	0.000	Y_WP:	0.000	Y_WP:	0.000	X:	0.029	Y:	0.022	Z:	0.048	yaw:	0.498	yaw rate:	-2.536	Roll:	3.327	Pitch:	2.456	Yaw:	1.573	Thrust:	0.000
Time:	2.169	Roll Set Point:	-0.059	Pitch Set Point:	-0.043	Yaw Set Point:	-0.008	X_WP:	0.000	Y_WP:	0.000	Y_WP:	0.000	X:	0.029	Y:	0.022	Z:	0.048	yaw:	0.449	yaw rate:	4.860	Roll:	5.474	Pitch:	3.929	Yaw:	-0.040	Thrust:	0.000
Time:	2.181	Roll Set Point:	-0.059	Pitch Set Point:	-0.043	Yaw Set Point:	-0.008	X_WP:	0.000	Y_WP:	0.000	Y_WP:	0.000	X:	0.029	Y:	0.022	Z:	0.048	yaw:	0.475	yaw rate:	-2.574	Roll:	3.166	Pitch:	2.289	Yaw:	1.553	Thrust:	0.000
Time:	2.192	Roll Set Point:	-0.059	Pitch Set Point:	-0.043	Yaw Set Point:	-0.009	X_WP:	0.000	Y_WP:	0.000	Y_WP:	0.000	X:	0.029	Y:	0.022	Z:	0.048	yaw:	0.502	yaw rate:	-2.694	Roll:	3.192	Pitch:	2.223	Yaw:	1.666	Thrust:	0.000
Time:	2.205	Roll Set Point:	-0.059	Pitch Set Point:	-0.043	Yaw Set Point:	-0.008	X_WP:	0.000	Y_WP:	0.000	Y_WP:	0.000	X:	0.029	Y:	0.022	Z:	0.048	yaw:	0.476	yaw rate:	2.515	Roll:	3.477	Pitch:	2.700	Yaw:	0.550	Thrust:	0.000
Time:	2.225	Roll Set Point:	-0.059	Pitch Set Point:	-0.043	Yaw Set Point:	-0.008	X_WP:	0.000	Y_WP:	0.000	Y_WP:	0.000	X:	0.029	Y:	0.022	Z:	0.048	yaw:	0.475	yaw rate:	0.153	Roll:	4.982	Pitch:	3.463	Yaw:	1.181	Thrust:	0.000
Time:	2.235	Roll Set Point:	-0.059	Pitch Set Point:	-0.043	Yaw Set Point:	-0.009	X_WP:	0.000	Y_WP:	0.000	Y_WP:	0.000	X:	0.029	Y:	0.022	Z:	0.048	yaw:	0.494	yaw rate:	-4.165	Roll:	3.247	Pitch:	2.373	Yaw:	1.448	Thrust:	0.000
Time:	2.246	Roll Set Point:	-0.059	Pitch Set Point:	-0.043	Yaw Set Point:	-0.008	X_WP:	0.000	Y_WP:	0.000	Y_WP:	0.000	X:	0.029	Y:	0.022	Z:	0.048	yaw:	0.466	yaw rate:	2.750	Roll:	3.192	Pitch:	2.345	Yaw:	0.264	Thrust:	0.000
Time:	2.257	Roll Set Point:	-0.059	Pitch Set Point:	-0.043	Yaw Set Point:	-0.008	X_WP:	0.000	Y_WP:	0.000	Y_WP:	0.000	X:	0.029	Y:	0.022	Z:	0.048	yaw:	0.465	yaw rate:	0.146	Roll:	3.192	Pitch:	2.248	Yaw:	0.924	Thrust:	0.000
Time:	2.270	Roll Set Point:	-0.059	Pitch Set Point:	-0.043	Yaw Set Point:	-0.008	X_WP:	0.000	Y_WP:	0.000	Y_WP:	0.000	X:	0.029	Y:	0.022	Z:	0.048	yaw:	0.485	yaw rate:	-1.987	Roll:	3.445	Pitch:	2.673	Yaw:	1.445	Thrust:	0.000
Time:	2.292	Roll Set Point:	-0.059	Pitch Set Point:	-0.043	Yaw Set Point:	-0.009	X_WP:	0.000	Y_WP:	0.000	Y_WP:	0.000	X:	0.029	Y:	0.022	Z:	0.048	yaw:	0.488	yaw rate:	-0.302	Roll:	4.883	Pitch:	3.673	Yaw:	1.331	Thrust:	0.000
Time:	2.302	Roll Set Point:	-0.059	Pitch Set Point:	-0.043	Yaw Set Point:	-0.008	X_WP:	0.000	Y_WP:	0.000	Y_WP:	0.000	X:	0.029	Y:	0.022	Z:	0.048	yaw:	0.468	yaw rate:	2.033	Roll:	3.974	Pitch:	2.615	Yaw:	0.483	Thrust:	0.000
Time:	2.313	Roll Set Point:	-0.059	Pitch Set Point:	-0.043	Yaw Set Point:	-0.008	X_WP:	0.000	Y_WP:	0.000	Y_WP:	0.000	X:	0.029	Y:	0.022	Z:	0.048	yaw:	0.431	yaw rate:	3.613	Roll:	3.154	Pitch:	2.444	Yaw:	0.043	Thrust:	0.000
Time:	2.324	Roll Set Point:	-0.059	Pitch Set Point:	-0.043	Yaw Set Point:	-0.008	X_WP:	0.000	Y_WP:	0.000	Y_WP:	0.000	X:	0.029	Y:	0.022	Z:	0.048	yaw:	0.478	yaw rate:	-0.280	Roll:	3.448	Pitch:	2.241	Yaw:	2.087	Thrust:	0.000
Time:	2.336	Roll Set Point:	-0.059	Pitch Set Point:	-0.043	Yaw Set Point:	-0.008	X_WP:	0.000	Y_WP:	0.000	Y_WP:	0.000	X:	0.029	Y:	0.022	Z:	0.048	yaw:	0.462	yaw rate:	1.618	Roll:	3.242	Pitch:	2.438	Yaw:	0.551	Thrust:	0.000
Time:	2.358	Roll Set Point:	-0.059	Pitch Set Point:	-0.043	Yaw Set Point:	-0.008	X_WP:	0.000	Y_WP:	0.000	Y_WP:	0.000	X:	0.029	Y:	0.022	Z:	0.048	yaw:	0.473	yaw rate:	-1.100	Roll:	3.850	Pitch:	3.771	Yaw:	1.459	Thrust:	0.000
Time:	2.369	Roll Set Point:	-0.059	Pitch Set Point:	-0.043	Yaw Set Point:	-0.008	X_WP:	0.000	Y_WP:	0.000	Y_WP:	0.000	X:	0.029	Y:	0.022	Z:	0.048	yaw:	0.474	yaw rate:	-2.456	Roll:	5.407	Pitch:	2.871	Yaw:	1.007	Thrust:	0.000
Time:	2.380	Roll Set Point:	-0.059	Pitch Set Point:	-0.043	Yaw Set Point:	-0.008	X_WP:	0.000	Y_WP:	0.000	Y_WP:	0.000	X:	0.029	Y:	0.022	Z:	0.048	yaw:	0.444	yaw rate:	2.964	Roll:	3.077	Pitch:	2.340	Yaw:	0.195	Thrust:	0.000
Time:	2.391	Roll Set Point:	-0.059	Pitch Set Point:	-0.043	Yaw Set Point:	-0.008	X_WP:	0.000	Y_WP:	0.000	Y_WP:	0.000	X:	0.029	Y:	0.022	Z:	0.048	yaw:	0.474	yaw rate:	-2.928	Roll:	3.260	Pitch:	2.340	Yaw:	1.685	Thrust:	0.000
Time:	2.402	Roll Set Point:	-0.059	Pitch Set Point:	-0.043	Yaw Set Point:	-0.009	X_WP:	0.000	Y_WP:	0.000	Y_WP:	0.000	X:	0.029	Y:	0.022	Z:	0.048	yaw:	0.488	yaw rate:	-1.404	Roll:	3.543	Pitch:	2.470	Yaw:	1.344	Thrust:	0.000
Time:	2.424	Roll Set Point:	-0.059	Pitch Set Point:	-0.043	Yaw Set Point:	-0.009	X_WP:	0.000	Y_WP:	0.000	Y_WP:	0.000	X:	0.029	Y:	0.022	Z:	0.048	yaw:	0.497	yaw rate:	-0.950	Roll:	3.941	Pitch:	3.452	Yaw:	1.408	Thrust:	0.000
Time:	2.436	Roll Set Point:	-0.059	Pitch Set Point:	-0.043	Yaw Set Point:	-0.008	X_WP:	0.000	Y_WP:	0.000	Y_WP:	0.000	X:	0.029	Y:	0.022	Z:	0.048	yaw:	0.475	yaw rate:	1.424	Roll:	5.531	Pitch:	3.444	Yaw:	0.669	Thrust:	0.000
Time:	2.447	Roll Set Point:	-0.059	Pitch Set Point:	-0.043	Yaw Set Point:	-0.009	X_WP:	0.000	Y_WP:	0.000	Y_WP:	0.000	X:	0.029	Y:	0.022	Z:	0.048	yaw:	0.494	yaw rate:	-1.880	Roll:	3.413	Pitch:	2.480	Yaw:	1.470	Thrust:	0.000
Time:	2.458	Roll Set Point:	-0.059	Pitch Set Point:	-0.043	Yaw Set Point:	-0.008	X_WP:	0.000	Y_WP:	0.000	Y_WP:	0.000	X:	0.029	Y:	0.022	Z:	0.048	yaw:	0.478	yaw rate:	1.541	Roll:	3.323	Pitch:	2.493	Yaw:	0.667	Thrust:	0.000
Time:	2.474	Roll Set Point:	-0.059	Pitch Set Point:	-0.043	Yaw Set Point:	-0.008	X_WP:	0.000	Y_WP:	0.000	Y_WP:	0.000	X:	0.029	Y:	0.022	Z:	0.048	yaw:	0.451	yaw rate:	2.761	Roll:	4.039	Pitch:	3.016	Yaw:	0.516	Thrust:	0.000
Time:	2.492	Roll Set Point:	-0.059	Pitch Set Point:	-0.043	Yaw Set Point:	-0.008	X_WP:	0.000	Y_WP:	0.000	Y_WP:	0.000	X:	0.029	Y:	0.022	Z:	0.048	yaw:	0.458	yaw rate:	-0.741	Roll:	5.282	Pitch:	3.843	Yaw:	1.356	Thrust:	0.000
Time:	2.503	Roll Set Point:	-0.059	Pitch Set Point:	-0.043	Yaw Set Point:	-0.008	X_WP:	0.000	Y_WP:	0.000	Y_WP:	0.000	X:	0.029	Y:	0.022	Z:	0.048	yaw:	0.448	yaw rate:	0.961	Roll:	3.795	Pitch:	2.617	Yaw:	0.722	Thrust:	0.000
Time:	2.514	Roll Set Point:	-0.059	Pitch Set Point:	-0.043	Yaw Set Point:	-0.008	X_WP:	0.000	Y_WP:	0.000	Y_WP:	0.000	X:	0.029	Y:	0.022	Z:	0.048	yaw:	0.487	yaw rate:	-1.046	Roll:	3.519	Pitch:	2.430	Yaw:	1.935	Thrust:	0.000
Time:	2.525	Roll Set Point:	-0.059	Pitch Set Point:	-0.043	Yaw Set Point:	-0.009	X_WP:	0.000	Y_WP:	0.000	Y_WP:	0.000	X:	0.029	Y:	0.022	Z:	0.048	yaw:	0.489	yaw rate:	-0.175	Roll:	3.213	Pitch:	2.674	Yaw:	1.069	Thrust:	0.000
Time:	2.537	Roll Set Point:	-0.059	Pitch Set Point:	-0.043	Yaw Set Point:	-0.008	X_WP:	0.000	Y_WP:	0.000	Y_WP:	0.000	X:	0.029	Y:	0.022	Z:	0.048	yaw:	0.473	yaw rate:	1.539	Roll:	3.840	Pitch:	2.569	Yaw:	0.735	Thrust:	0.000
Time:	2.559	Roll Set Point:	-0.059	Pitch Set Point:	-0.043	Yaw Set Point:	-0.009	X_WP:	0.000	Y_WP:	0.000	Y_WP:	0.000	X:	0.029	Y:	0.022	Z:	0.048	yaw:	0.489	yaw rate:	-1.603	Roll:	5.423	Pitch:	4.091	Yaw:	1.561	Thrust:	0.000
Time:	2.570	Roll Set Point:	-0.059	Pitch Set Point:	-0.043	Yaw Set Point:	-0.008	X_WP:	0.000	Y_WP:	0.000	Y_WP:	0.000	X:	0.029	Y:	0.022	Z:	0.048	yaw:	0.457	yaw rate:	1.918	Roll:	4.410	Pitch:	3.045	Yaw:	0.280	Thrust:	0.000
Time:	2.582	Roll Set Point:	-0.059	Pitch Set Point:	-0.043	Yaw Set Point:	-0.009	X_WP:	0.000	Y_WP:	0.000	Y_WP:	0.000	X:	0.029	Y:	0.022	Z:	0.048	yaw:	0.496	yaw rate:	-3.861	Roll:	3.511	Pitch:	2.633	Yaw:	1.937	Thrust:	0.000
Time:	2.592	Roll Set Point:	-0.059	Pitch Set Point:	-0.043	Yaw Set Point:	-0.008	X_WP:	0.000	Y_WP:	0.000	Y_WP:	0.000	X:	0.029	Y:	0.022	Z:	0.048	yaw:	0.472	yaw rate:	2.401	Roll:	3.540	Pitch:	2.438	Yaw:	0.401	Thrust:	0.000
Time:	2.604	Roll Set Point:	-0.059	Pitch Set Point:	-0.043	Yaw Set Point:	-0.008	X_WP:	0.000	Y_WP:	0.000	Y_WP:	0.000	X:	0.029	Y:	0.022	Z:	0.048	yaw:	0.452	yaw rate:	1.967	Roll:	3.313	Pitch:	2.497	Yaw:	0.523	Thrust:	0.000
Time:	2.621	Roll Set Point:	-0.059	Pitch Set Point:	-0.043	Yaw Set Point:	-0.008	X_WP:	0.000	Y_WP:	0.000	Y_WP:	0.000	X:	0.029	Y:	0.022	Z:	0.048	yaw:	0.439	yaw rate:	1.368	Roll:	5.045	Pitch:	3.624	Yaw:	0.957	Thrust:	0.000
Time:	2.632	Roll Set Point:	-0.059	Pitch Set Point:	-0.043	Yaw Set Point:	-0.008	X_WP:	0.000	Y_WP:	0.000	Y_WP:	0.000	X:	0.029	Y:	0.022	Z:	0.048	yaw:	0.436	yaw rate:	0.261	Roll:	4.029	Pitch:	2.959	Yaw:	0.941	Thrust:	0.000
Time:	2.644	Roll Set Point:	-0.059	Pitch Set Point:	-0.043	Yaw Set Point:	-0.008	X_WP:	0.000	Y_WP:	0.000	Y_WP:	0.000	X:	0.029	Y:	0.022	Z:	0.048	yaw:	0.479	yaw rate:	-4.261	Roll:	3.703	Pitch:	2.640	Yaw:	2.013	Thrust:	0.000
Time:	2.656	Roll Set Point:	-0.059	Pitch Set Point:	-0.043	Yaw Set Point:	-0.008	X_WP:	0.000	Y_WP:	0.000	Y_WP:	0.000	X:	0.029	Y:	0.022	Z:	0.048	yaw:	0.461	yaw rate:	2.774	Roll:	3.669	Pitch:	2.687	Yaw:	0.621	Thrust:	0.000
Time:	2.668	Roll Set Point:	-0.059	Pitch Set Point:	-0.043	Yaw Set Point:	-0.008	X_WP:	0.000	Y_WP:	0.000	Y_WP:	0.000	X:	0.029	Y:	0.022	Z:	0.048	yaw:	0.463	yaw rate:	-0.221	Roll:	3.690	Pitch:	2.836	Yaw:	1.090	Thrust:	0.000
Time:	2.690	Roll Set Point:	-0.059	Pitch Set Point:	-0.043	Yaw Set Point:	-0.008	X_WP:	0.000	Y_WP:	0.000	Y_WP:	0.000	X:	0.029	Y:	0.022	Z:	0.048	yaw:	0.465	yaw rate:	-0.196	Roll:	6.197	Pitch:	4.483	Yaw:	1.407	Thrust:	0.000
Time:	2.701	Roll Set Point:	-0.059	Pitch Set Point:	-0.043	Yaw Set Point:	-0.008	X_WP:	0.000	Y_WP:	0.000	Y_WP:	0.000	X:	0.029	Y:	0.022	Z:	0.048	yaw:	0.478	yaw rate:	-1.304	Roll:	4.196	Pitch:	2.813	Yaw:	1.349	Thrust:	0.000
Time:	2.712	Roll Set Point:	-0.059	Pitch Set Point:	-0.043	Yaw Set Point:	-0.008	X_WP:	0.000	Y_WP:	0.000	Y_WP:	0.000	X:	0.029	Y:	0.022	Z:	0.048	yaw:	0.460	yaw rate:	1.760	Roll:	3.506	Pitch:	2.575	Yaw:	0.596	Thrust:	0.000
Time:	2.723	Roll Set Point:	-0.059	Pitch Set Point:	-0.043	Yaw Set Point:	-0.008	X_WP:	0.000	Y_WP:	0.000	Y_WP:	0.000	X:	0.029	Y:	0.022	Z:	0.048	yaw:	0.454	yaw rate:	0.662	Roll:	3.616	Pitch:	2.714	Yaw:	0.825	Thrust:	0.000
Time:	2.734	Roll Set Point:	-0.059	Pitch Set Point:	-0.043	Yaw Set Point:	-0.008	X_WP:	0.000	Y_WP:	0.000	Y_WP:	0.000	X:	0.029	Y:	0.022	Z:	0.048	yaw:	0.473	yaw rate:	-1.904	Roll:	3.596	Pitch:	2.647	Yaw:	1.486	Thrust:	0.000
Time:	2.747	Roll Set Point:	-0.059	Pitch Set Point:	-0.043	Yaw Set Point:	-0.008	X_WP:	0.000	Y_WP:	0.000	Y_WP:	0.000	X:	0.029	Y:	0.022	Z:	0.048	yaw:	0.461	yaw rate:	0.444	Roll:	4.090	Pitch:	2.882	Yaw:	0.816	Thrust:	0.000
Time:	2.763	Roll Set Point:	-0.059	Pitch Set Point:	-0.043	Yaw Set Point:	-0.009	X_WP:	0.000	Y_WP:	0.000	Y_WP:	0.000	X:	0.029	Y:	0.022	Z:	0.048	yaw:	0.495	yaw rate:	-3.411	Roll:	5.451	Pitch:	3.839	Yaw:	1.799	Thrust:	0.000
Time:	2.773	Roll Set Point:	-0.059	Pitch Set Point:	-0.043	Yaw Set Point:	-0.009	X_WP:	0.000	Y_WP:	0.000	Y_WP:	0.000	X:	0.029	Y:	0.022	Z:	0.048	yaw:	0.493	yaw rate:	0.179	Roll:	3.486	Pitch:	2.557	Yaw:	0.989	Thrust:	0.000
Time:	2.784	Roll Set Point:	-0.059	Pitch Set Point:	-0.043	Yaw Set Point:	-0.008	X_WP:	0.000	Y_WP:	0.000	Y_WP:	0.000	X:	0.029	Y:	0.022	Z:	0.048	yaw:	0.473	yaw rate:	1.983	Roll:	3.570	Pitch:	2.579	Yaw:	0.528	Thrust:	0.000
Time:	2.794	Roll Set Point:	-0.059	Pitch Set Point:	-0.043	Yaw Set Point:	-0.008	X_WP:	0.000	Y_WP:	0.000	Y_WP:	0.000	X:	0.029	Y:	0.022	Z:	0.048	yaw:	0.448	yaw rate:	2.490	Roll:	3.586	Pitch:	2.676	Yaw:	0.335	Thrust:	0.000
Time:	2.805	Roll Set Point:	-0.059	Pitch Set Point:	-0.043	Yaw Set Point:	-0.008	X_WP:	0.000	Y_WP:	0.000	Y_WP:	0.000	X:	0.029	Y:	0.022	Z:	0.048	yaw:	0.466	yaw rate:	-1.763	Roll:	3.580	Pitch:	2.731	Yaw:	1.454	Thrust:	0.000
Time:	2.825	Roll Set Point:	-0.059	Pitch Set Point:	-0.043	Yaw Set Point:	-0.008	X_WP:	0.000	Y_WP:	0.000	Y_WP:	0.000	X:	0.029	Y:	0.022	Z:	0.048	yaw:	0.432	yaw rate:	3.401	Roll:	6.055	Pitch:	4.313	Yaw:	0.835	Thrust:	0.000
Time:	2.835	Roll Set Point:	-0.059	Pitch Set Point:	-0.043	Yaw Set Point:	-0.009	X_WP:	0.000	Y_WP:	0.000	Y_WP:	0.000	X:	0.029	Y:	0.022	Z:	0.048	yaw:	0.502	yaw rate:	-4.860	Roll:	3.842	Pitch:	2.581	Yaw:	2.820	Thrust:	0.000
Time:	2.847	Roll Set Point:	-0.059	Pitch Set Point:	-0.043	Yaw Set Point:	-0.008	X_WP:	0.000	Y_WP:	0.000	Y_WP:	0.000	X:	0.029	Y:	0.022	Z:	0.048	yaw:	0.478	yaw rate:	2.448	Roll:	3.802	Pitch:	2.862	Yaw:	0.479	Thrust:	0.000
Time:	2.858	Roll Set Point:	-0.059	Pitch Set Point:	-0.043	Yaw Set Point:	-0.008	X_WP:	0.000	Y_WP:	0.000	Y_WP:	0.000	X:	0.029	Y:	0.022	Z:	0.048	yaw:	0.463	yaw rate:	1.494	Roll:	4.003	Pitch:	2.800	Yaw:	0.730	Thrust:	0.000
Time:	2.870	Roll Set Point:	-0.059	Pitch Set Point:	-0.043	Yaw Set Point:	-0.008	X_WP:	0.000	Y_WP:	0.000	Y_WP:	0.000	X:	0.029	Y:	0.022	Z:	0.048	yaw:	0.470	yaw rate:	-0.664	Roll:	3.957	Pitch:	3.100	Yaw:	1.234	Thrust:	0.000
Time:	2.891	Roll Set Point:	-0.059	Pitch Set Point:	-0.043	Yaw Set Point:	-0.008	X_WP:	0.000	Y_WP:	0.000	Y_WP:	0.000	X:	0.029	Y:	0.022	Z:	0.048	yaw:	0.479	yaw rate:	-0.890	Roll:	6.347	Pitch:	4.494	Yaw:	1.520	Thrust:	0.000
Time:	2.901	Roll Set Point:	-0.059	Pitch Set Point:	-0.043	Yaw Set Point:	-0.009	X_WP:	0.000	Y_WP:	0.000	Y_WP:	0.000	X:	0.029	Y:	0.022	Z:	0.048	yaw:	0.492	yaw rate:	1.172	Roll:	3.990	Pitch:	2.758	Yaw:	1.387	Thrust:	0.000
Time:	2.912	Roll Set Point:	-0.059	Pitch Set Point:	-0.043	Yaw Set Point:	-0.009	X_WP:	0.000	Y_WP:	0.000	Y_WP:	0.000	X:	0.029	Y:	0.022	Z:	0.048	yaw:	0.506	yaw rate:	-1.403	Roll:	3.758	Pitch:	2.675	Yaw:	1.436	Thrust:	0.000
Time:	2.923	Roll Set Point:	-0.059	Pitch Set Point:	-0.043	Yaw Set Point:	-0.007	X_WP:	0.000	Y_WP:	0.000	Y_WP:	0.000	X:	0.029	Y:	0.022	Z:	0.048	yaw:	0.403	yaw rate:	10.238	Roll:	3.832	Pitch:	3.116	Yaw:	-1.342	Thrust:	0.000
Time:	2.937	Roll Set Point:	-0.059	Pitch Set Point:	-0.043	Yaw Set Point:	-0.008	X_WP:	0.000	Y_WP:	0.000	Y_WP:	0.000	X:	0.029	Y:	0.022	Z:	0.048	yaw:	0.481	yaw rate:	-7.817	Roll:	4.597	Pitch:	3.293	Yaw:	2.664	Thrust:	0.000
Time:	2.959	Roll Set Point:	-0.059	Pitch Set Point:	-0.043	Yaw Set Point:	-0.008	X_WP:	0.000	Y_WP:	0.000	Y_WP:	0.000	X:	0.029	Y:	0.022	Z:	0.048	yaw:	0.444	yaw rate:	3.735	Roll:	6.408	Pitch:	4.756	Yaw:	0.930	Thrust:	0.000
Time:	2.970	Roll Set Point:	-0.059	Pitch Set Point:	-0.043	Yaw Set Point:	-0.009	X_WP:	0.000	Y_WP:	0.000	Y_WP:	0.000	X:	0.029	Y:	0.022	Z:	0.048	yaw:	0.504	yaw rate:	-2.294	Roll:	4.358	Pitch:	3.016	Yaw:	2.488	Thrust:	0.000
Time:	2.980	Roll Set Point:	-0.059	Pitch Set Point:	-0.043	Yaw Set Point:	-0.009	X_WP:	0.000	Y_WP:	0.000	Y_WP:	0.000	X:	0.029	Y:	0.022	Z:	0.048	yaw:	0.499	yaw rate:	0.505	Roll:	3.922	Pitch:	2.560	Yaw:	0.961	Thrust:	0.000
Time:	2.991	Roll Set Point:	-0.059	Pitch Set Point:	-0.043	Yaw Set Point:	-0.008	X_WP:	0.000	Y_WP:	0.000	Y_WP:	0.000	X:	0.029	Y:	0.022	Z:	0.048	yaw:	0.464	yaw rate:	3.495	Roll:	3.842	Pitch:	2.828	Yaw:	0.110	Thrust:	0.000
Time:	3.002	Roll Set Point:	-0.059	Pitch Set Point:	-0.043	Yaw Set Point:	-0.008	X_WP:	0.000	Y_WP:	0.000	Y_WP:	1.000	X:	0.029	Y:	0.022	Z:	0.048	yaw:	0.463	yaw rate:	0.085	Roll:	4.151	Pitch:	2.970	Yaw:	1.060	Thrust:	100.000
Time:	3.019	Roll Set Point:	-0.059	Pitch Set Point:	-0.043	Yaw Set Point:	-0.008	X_WP:	0.000	Y_WP:	0.000	Y_WP:	1.000	X:	0.029	Y:	0.022	Z:	0.048	yaw:	0.457	yaw rate:	0.574	Roll:	4.411	Pitch:	3.423	Yaw:	1.148	Thrust:	53.533
Time:	3.030	Roll Set Point:	-0.059	Pitch Set Point:	-0.043	Yaw Set Point:	-0.008	X_WP:	0.000	Y_WP:	0.000	Y_WP:	1.000	X:	0.029	Y:	0.022	Z:	0.048	yaw:	0.454	yaw rate:	0.271	Roll:	5.382	Pitch:	3.697	Yaw:	1.050	Thrust:	55.030
Time:	3.040	Roll Set Point:	-0.059	Pitch Set Point:	-0.043	Yaw Set Point:	-0.008	X_WP:	0.000	Y_WP:	0.000	Y_WP:	1.000	X:	0.029	Y:	0.022	Z:	0.048	yaw:	0.454	yaw rate:	0.026	Roll:	3.579	Pitch:	2.654	Yaw:	1.007	Thrust:	55.323
Time:	3.051	Roll Set Point:	-0.059	Pitch Set Point:	-0.043	Yaw Set Point:	0.002	X_WP:	0.000	Y_WP:	0.000	Y_WP:	1.000	X:	0.029	Y:	0.021	Z:	0.048	yaw:	-0.134	yaw rate:	58.847	Roll:	3.376	Pitch:	3.323	Yaw:	-14.280	Thrust:	56.443
Time:	3.061	Roll Set Point:	-0.059	Pitch Set Point:	-0.043	Yaw Set Point:	0.000	X_WP:	0.000	Y_WP:	0.000	Y_WP:	1.000	X:	0.029	Y:	0.021	Z:	0.048	yaw:	-0.025	yaw rate:	-10.889	Roll:	4.074	Pitch:	2.753	Yaw:	3.059	Thrust:	57.802
Time:	3.075	Roll Set Point:	-0.059	Pitch Set Point:	-0.043	Yaw Set Point:	-0.005	X_WP:	0.000	Y_WP:	0.000	Y_WP:	1.000	X:	0.029	Y:	0.022	Z:	0.048	yaw:	0.312	yaw rate:	-33.708	Roll:	4.592	Pitch:	3.114	Yaw:	7.406	Thrust:	61.890
Time:	3.090	Roll Set Point:	-0.059	Pitch Set Point:	-0.043	Yaw Set Point:	0.001	X_WP:	0.000	Y_WP:	0.000	Y_WP:	1.000	X:	0.029	Y:	0.021	Z:	0.048	yaw:	-0.059	yaw rate:	37.048	Roll:	5.118	Pitch:	3.801	Yaw:	-6.161	Thrust:	63.031
Time:	3.100	Roll Set Point:	-0.059	Pitch Set Point:	-0.043	Yaw Set Point:	0.004	X_WP:	0.000	Y_WP:	0.000	Y_WP:	1.000	X:	0.029	Y:	0.021	Z:	0.048	yaw:	-0.251	yaw rate:	11.155	Roll:	4.015	Pitch:	3.130	Yaw:	-4.709	Thrust:	62.533
Time:	3.111	Roll Set Point:	-0.059	Pitch Set Point:	-0.043	Yaw Set Point:	0.004	X_WP:	0.000	Y_WP:	0.000	Y_WP:	1.000	X:	0.029	Y:	0.021	Z:	0.048	yaw:	-0.251	yaw rate:	0.034	Roll:	3.992	Pitch:	2.692	Yaw:	0.040	Thrust:	62.229
Time:	3.124	Roll Set Point:	-0.058	Pitch Set Point:	-0.043	Yaw Set Point:	0.003	X_WP:	0.000	Y_WP:	0.000	Y_WP:	1.000	X:	0.029	Y:	0.021	Z:	0.048	yaw:	-0.158	yaw rate:	-9.305	Roll:	3.736	Pitch:	3.035	Yaw:	2.140	Thrust:	63.645
Time:	3.136	Roll Set Point:	-0.059	Pitch Set Point:	-0.043	Yaw Set Point:	0.001	X_WP:	0.000	Y_WP:	0.000	Y_WP:	1.000	X:	0.029	Y:	0.021	Z:	0.048	yaw:	-0.063	yaw rate:	-9.527	Roll:	5.346	Pitch:	3.537	Yaw:	2.430	Thrust:	70.863
Time:	3.157	Roll Set Point:	-0.059	Pitch Set Point:	-0.043	Yaw Set Point:	0.004	X_WP:	0.000	Y_WP:	0.000	Y_WP:	1.000	X:	0.029	Y:	0.021	Z:	0.048	yaw:	-0.245	yaw rate:	18.266	Roll:	4.071	Pitch:	4.980	Yaw:	-1.888	Thrust:	79.613
Time:	3.170	Roll Set Point:	-0.059	Pitch Set Point:	-0.043	Yaw Set Point:	-0.000	X_WP:	0.000	Y_WP:	0.000	Y_WP:	1.000	X:	0.029	Y:	0.021	Z:	0.048	yaw:	0.008	yaw rate:	-12.461	Roll:	7.327	Pitch:	2.943	Yaw:	5.895	Thrust:	70.021
Time:	3.180	Roll Set Point:	-0.058	Pitch Set Point:	-0.042	Yaw Set Point:	-0.002	X_WP:	0.000	Y_WP:	0.000	Y_WP:	1.000	X:	0.029	Y:	0.021	Z:	0.048	yaw:	0.088	yaw rate:	-8.034	Roll:	3.842	Pitch:	2.812	Yaw:	2.381	Thrust:	69.473
Time:	3.191	Roll Set Point:	-0.059	Pitch Set Point:	-0.042	Yaw Set Point:	0.002	X_WP:	0.000	Y_WP:	0.000	Y_WP:	1.000	X:	0.029	Y:	0.021	Z:	0.049	yaw:	-0.143	yaw rate:	23.076	Roll:	4.293	Pitch:	3.024	Yaw:	-5.540	Thrust:	69.141
Time:	3.206	Roll Set Point:	-0.058	Pitch Set Point:	-0.042	Yaw Set Point:	0.009	X_WP:	0.000	Y_WP:	0.000	Y_WP:	1.000	X:	0.029	Y:	0.021	Z:	0.049	yaw:	-0.511	yaw rate:	36.846	Roll:	4.440	Pitch:	3.818	Yaw:	-6.556	Thrust:	78.118
Time:	3.224	Roll Set Point:	-0.058	Pitch Set Point:	-0.042	Yaw Set Point:	0.007	X_WP:	0.000	Y_WP:	0.000	Y_WP:	1.000	X:	0.029	Y:	0.021	Z:	0.050	yaw:	-0.413	yaw rate:	-9.845	Roll:	6.537	Pitch:	4.508	Yaw:	1.529	Thrust:	86.088
Time:	3.235	Roll Set Point:	-0.058	Pitch Set Point:	-0.042	Yaw Set Point:	0.015	X_WP:	0.000	Y_WP:	0.000	Y_WP:	1.000	X:	0.029	Y:	0.021	Z:	0.052	yaw:	-0.870	yaw rate:	16.878	Roll:	3.782	Pitch:	2.631	Yaw:	-11.978	Thrust:	62.814
Time:	3.247	Roll Set Point:	-0.058	Pitch Set Point:	-0.042	Yaw Set Point:	0.011	X_WP:	0.000	Y_WP:	0.000	Y_WP:	1.000	X:	0.029	Y:	0.021	Z:	0.054	yaw:	-0.638	yaw rate:	-23.173	Roll:	4.154	Pitch:	3.127	Yaw:	4.596	Thrust:	71.304
Time:	3.257	Roll Set Point:	-0.058	Pitch Set Point:	-0.041	Yaw Set Point:	0.008	X_WP:	0.000	Y_WP:	0.000	Y_WP:	1.000	X:	0.029	Y:	0.020	Z:	0.056	yaw:	-0.463	yaw rate:	-17.495	Roll:	4.280	Pitch:	2.415	Yaw:	4.049	Thrust:	68.383
Time:	3.269	Roll Set Point:	-0.057	Pitch Set Point:	-0.041	Yaw Set Point:	0.008	X_WP:	0.000	Y_WP:	0.000	Y_WP:	1.000	X:	0.029	Y:	0.020	Z:	0.058	yaw:	-0.479	yaw rate:	1.567	Roll:	3.106	Pitch:	2.441	Yaw:	-0.628	Thrust:	65.604
Time:	3.288	Roll Set Point:	-0.056	Pitch Set Point:	-0.040	Yaw Set Point:	0.003	X_WP:	0.000	Y_WP:	0.000	Y_WP:	1.000	X:	0.028	Y:	0.020	Z:	0.060	yaw:	-0.175	yaw rate:	-30.439	Roll:	5.373	Pitch:	4.061	Yaw:	4.734	Thrust:	93.253
Time:	3.300	Roll Set Point:	-0.056	Pitch Set Point:	-0.040	Yaw Set Point:	0.007	X_WP:	0.000	Y_WP:	0.000	Y_WP:	1.000	X:	0.028	Y:	0.020	Z:	0.063	yaw:	-0.421	yaw rate:	24.655	Roll:	4.866	Pitch:	3.441	Yaw:	-5.240	Thrust:	75.513
Time:	3.313	Roll Set Point:	-0.054	Pitch Set Point:	-0.039	Yaw Set Point:	0.007	X_WP:	0.000	Y_WP:	0.000	Y_WP:	1.000	X:	0.027	Y:	0.019	Z:	0.070	yaw:	-0.388	yaw rate:	-7.691	Roll:	3.115	Pitch:	2.533	Yaw:	0.606	Thrust:	60.859
Time:	3.324	Roll Set Point:	-0.053	Pitch Set Point:	-0.039	Yaw Set Point:	0.006	X_WP:	0.000	Y_WP:	0.000	Y_WP:	1.000	X:	0.027	Y:	0.019	Z:	0.074	yaw:	-0.320	yaw rate:	-6.769	Roll:	3.421	Pitch:	2.490	Yaw:	1.504	Thrust:	67.036
Time:	3.344	Roll Set Point:	-0.052	Pitch Set Point:	-0.038	Yaw Set Point:	-0.001	X_WP:	0.000	Y_WP:	0.000	Y_WP:	1.000	X:	0.026	Y:	0.019	Z:	0.078	yaw:	0.068	yaw rate:	-38.824	Roll:	3.856	Pitch:	2.512	Yaw:	7.172	Thrust:	78.973
Time:	3.357	Roll Set Point:	-0.050	Pitch Set Point:	-0.036	Yaw Set Point:	-0.007	X_WP:	0.000	Y_WP:	0.000	Y_WP:	1.000	X:	0.025	Y:	0.018	Z:	0.087	yaw:	0.385	yaw rate:	-31.713	Roll:	5.417	Pitch:	3.979	Yaw:	5.901	Thrust:	88.166
Time:	3.370	Roll Set Point:	-0.048	Pitch Set Point:	-0.035	Yaw Set Point:	-0.016	X_WP:	0.000	Y_WP:	0.000	Y_WP:	1.000	X:	0.024	Y:	0.018	Z:	0.098	yaw:	0.894	yaw rate:	-46.960	Roll:	2.682	Pitch:	1.535	Yaw:	12.035	Thrust:	53.218
Time:	3.381	Roll Set Point:	-0.046	Pitch Set Point:	-0.034	Yaw Set Point:	-0.013	X_WP:	0.000	Y_WP:	0.000	Y_WP:	1.000	X:	0.023	Y:	0.017	Z:	0.103	yaw:	0.723	yaw rate:	17.077	Roll:	2.350	Pitch:	2.031	Yaw:	-2.852	Thrust:	59.140
Time:	3.392	Roll Set Point:	-0.045	Pitch Set Point:	-0.033	Yaw Set Point:	-0.022	X_WP:	0.000	Y_WP:	0.000	Y_WP:	1.000	X:	0.022	Y:	0.017	Z:	0.109	yaw:	1.257	yaw rate:	-53.444	Roll:	2.734	Pitch:	1.535	Yaw:	14.813	Thrust:	62.729
Time:	3.406	Roll Set Point:	-0.042	Pitch Set Point:	-0.031	Yaw Set Point:	-0.027	X_WP:	0.000	Y_WP:	0.000	Y_WP:	1.000	X:	0.021	Y:	0.016	Z:	0.115	yaw:	1.528	yaw rate:	-27.026	Roll:	1.795	Pitch:	1.906	Yaw:	8.122	Thrust:	67.116
Time:	3.424	Roll Set Point:	-0.041	Pitch Set Point:	-0.030	Yaw Set Point:	-0.028	X_WP:	0.000	Y_WP:	0.000	Y_WP:	1.000	X:	0.020	Y:	0.015	Z:	0.121	yaw:	1.587	yaw rate:	-5.971	Roll:	4.297	Pitch:	3.333	Yaw:	3.755	Thrust:	100.000
Time:	3.437	Roll Set Point:	-0.034	Pitch Set Point:	-0.026	Yaw Set Point:	-0.033	X_WP:	0.000	Y_WP:	0.000	Y_WP:	1.000	X:	0.017	Y:	0.013	Z:	0.142	yaw:	1.889	yaw rate:	9.487	Roll:	1.030	Pitch:	0.476	Yaw:	9.024	Thrust:	23.998
Time:	3.449	Roll Set Point:	-0.032	Pitch Set Point:	-0.025	Yaw Set Point:	-0.038	X_WP:	0.000	Y_WP:	0.000	Y_WP:	1.000	X:	0.016	Y:	0.013	Z:	0.149	yaw:	2.193	yaw rate:	-30.394	Roll:	2.209	Pitch:	1.742	Yaw:	10.712	Thrust:	66.220
Time:	3.460	Roll Set Point:	-0.031	Pitch Set Point:	-0.024	Yaw Set Point:	-0.046	X_WP:	0.000	Y_WP:	0.000	Y_WP:	1.000	X:	0.015	Y:	0.012	Z:	0.156	yaw:	2.627	yaw rate:	-43.393	Roll:	2.368	Pitch:	1.603	Yaw:	13.569	Thrust:	62.860
Time:	3.476	Roll Set Point:	-0.028	Pitch Set Point:	-0.022	Yaw Set Point:	-0.044	X_WP:	0.000	Y_WP:	0.000	Y_WP:	1.000	X:	0.014	Y:	0.011	Z:	0.163	yaw:	2.499	yaw rate:	12.768	Roll:	1.577	Pitch:	2.131	Yaw:	1.884	Thrust:	81.278
Time:	3.492	Roll Set Point:	-0.025	Pitch Set Point:	-0.021	Yaw Set Point:	-0.046	X_WP:	0.000	Y_WP:	0.000	Y_WP:	1.000	X:	0.012	Y:	0.011	Z:	0.171	yaw:	2.637	yaw rate:	-13.779	Roll:	4.332	Pitch:	3.136	Yaw:	6.597	Thrust:	95.667
Time:	3.503	Roll Set Point:	-0.020	Pitch Set Point:	-0.018	Yaw Set Point:	-0.053	X_WP:	0.000	Y_WP:	0.000	Y_WP:	1.000	X:	0.010	Y:	0.009	Z:	0.186	yaw:	3.028	yaw rate:	-21.822	Roll:	-1.076	Pitch:	-0.375	Yaw:	14.365	Thrust:	24.033
Time:	3.514	Roll Set Point:	-0.018	Pitch Set Point:	-0.016	Yaw Set Point:	-0.046	X_WP:	0.000	Y_WP:	0.000	Y_WP:	1.000	X:	0.009	Y:	0.008	Z:	0.194	yaw:	2.639	yaw rate:	38.840	Roll:	0.820	Pitch:	1.104	Yaw:	-4.605	Thrust:	64.563
Time:	3.525	Roll Set Point:	-0.015	Pitch Set Point:	-0.014	Yaw Set Point:	-0.049	X_WP:	0.000	Y_WP:	0.000	Y_WP:	1.000	X:	0.007	Y:	0.007	Z:	0.202	yaw:	2.814	yaw rate:	-17.462	Roll:	0.566	Pitch:	1.000	Yaw:	8.404	Thrust:	59.064
Time:	3.539	Roll Set Point:	-0.010	Pitch Set Point:	-0.011	Yaw Set Point:	-0.057	X_WP:	0.000	Y_WP:	0.000	Y_WP:	1.000	X:	0.005	Y:	0.006	Z:	0.217	yaw:	3.254	yaw rate:	-44.009	Roll:	-1.114	Pitch:	0.476	Yaw:	13.377	Thrust:	51.119
Time:	3.560	Roll Set Point:	-0.007	Pitch Set Point:	-0.009	Yaw Set Point:	-0.052	X_WP:	0.000	Y_WP:	0.000	Y_WP:	1.000	X:	0.003	Y:	0.005	Z:	0.226	yaw:	2.970	yaw rate:	28.421	Roll:	3.978	Pitch:	3.697	Yaw:	1.489	Thrust:	100.000
