Time:	0.050	Roll Set Point:	-0.060	Pitch Set Point:	2.087	Yaw Set Point:	-0.104	X_WP:	0.000	Y_WP:	0.000	Y_WP:	0.500	X:	0.084	Y:	-1.042	Z:	1.005	yaw:	5.932	yaw rate:	-12.181	Roll:	-0.692	Pitch:	-30.000	Yaw:	8.282	Thrust:	0.000
Time:	0.069	Roll Set Point:	-0.058	Pitch Set Point:	2.088	Yaw Set Point:	-0.106	X_WP:	0.000	Y_WP:	0.000	Y_WP:	0.500	X:	0.084	Y:	-1.042	Z:	1.005	yaw:	6.053	yaw rate:	-12.109	Roll:	-2.824	Pitch:	-30.000	Yaw:	10.145	Thrust:	0.000
Time:	0.089	Roll Set Point:	-0.061	Pitch Set Point:	2.089	Yaw Set Point:	-0.103	X_WP:	0.000	Y_WP:	0.000	Y_WP:	0.500	X:	0.084	Y:	-1.043	Z:	1.005	yaw:	5.886	yaw rate:	16.641	Roll:	1.888	Pitch:	-30.000	Yaw:	6.039	Thrust:	0.000
Time:	0.110	Roll Set Point:	-0.058	Pitch Set Point:	2.089	Yaw Set Point:	-0.105	X_WP:	0.000	Y_WP:	0.000	Y_WP:	0.500	X:	0.084	Y:	-1.043	Z:	1.005	yaw:	6.033	yaw rate:	-14.656	Roll:	-3.110	Pitch:	-30.000	Yaw:	10.392	Thrust:	0.000
Time:	0.132	Roll Set Point:	-0.060	Pitch Set Point:	2.090	Yaw Set Point:	-0.103	X_WP:	0.000	Y_WP:	0.000	Y_WP:	0.500	X:	0.084	Y:	-1.043	Z:	1.005	yaw:	5.875	yaw rate:	15.756	Roll:	1.422	Pitch:	-30.000	Yaw:	6.524	Thrust:	0.000
Time:	0.152	Roll Set Point:	-0.063	Pitch Set Point:	2.091	Yaw Set Point:	-0.100	X_WP:	0.000	Y_WP:	0.000	Y_WP:	0.500	X:	0.084	Y:	-1.044	Z:	1.005	yaw:	5.734	yaw rate:	14.169	Roll:	1.539	Pitch:	-30.000	Yaw:	6.247	Thrust:	0.000
Time:	0.170	Roll Set Point:	-0.071	Pitch Set Point:	2.092	Yaw Set Point:	-0.092	X_WP:	0.000	Y_WP:	0.000	Y_WP:	0.500	X:	0.084	Y:	-1.044	Z:	1.005	yaw:	5.270	yaw rate:	46.370	Roll:	7.067	Pitch:	-30.000	Yaw:	1.261	Thrust:	0.000
Time:	0.190	Roll Set Point:	-0.064	Pitch Set Point:	2.092	Yaw Set Point:	-0.098	X_WP:	0.000	Y_WP:	0.000	Y_WP:	0.500	X:	0.083	Y:	-1.044	Z:	1.005	yaw:	5.620	yaw rate:	-35.044	Roll:	-6.404	Pitch:	-30.000	Yaw:	12.665	Thrust:	0.000
Time:	0.210	Roll Set Point:	-0.066	Pitch Set Point:	2.093	Yaw Set Point:	-0.096	X_WP:	0.000	Y_WP:	0.000	Y_WP:	0.500	X:	0.083	Y:	-1.045	Z:	1.005	yaw:	5.503	yaw rate:	11.791	Roll:	1.262	Pitch:	-30.000	Yaw:	6.430	Thrust:	0.000
Time:	0.230	Roll Set Point:	-0.066	Pitch Set Point:	2.093	Yaw Set Point:	-0.096	X_WP:	0.000	Y_WP:	0.000	Y_WP:	0.500	X:	0.084	Y:	-1.045	Z:	1.006	yaw:	5.505	yaw rate:	-0.194	Roll:	-0.532	Pitch:	-30.000	Yaw:	8.083	Thrust:	0.000
Time:	0.249	Roll Set Point:	-0.066	Pitch Set Point:	2.094	Yaw Set Point:	-0.096	X_WP:	0.000	Y_WP:	0.000	Y_WP:	0.500	X:	0.084	Y:	-1.045	Z:	1.006	yaw:	5.510	yaw rate:	-0.569	Roll:	-0.591	Pitch:	-30.000	Yaw:	8.158	Thrust:	0.000
Time:	0.270	Roll Set Point:	-0.064	Pitch Set Point:	2.094	Yaw Set Point:	-0.098	X_WP:	0.000	Y_WP:	0.000	Y_WP:	0.500	X:	0.084	Y:	-1.045	Z:	1.006	yaw:	5.615	yaw rate:	-10.510	Roll:	-2.206	Pitch:	-30.000	Yaw:	9.635	Thrust:	0.000
Time:	0.290	Roll Set Point:	-0.066	Pitch Set Point:	2.095	Yaw Set Point:	-0.097	X_WP:	0.000	Y_WP:	0.000	Y_WP:	0.500	X:	0.084	Y:	-1.046	Z:	1.005	yaw:	5.559	yaw rate:	5.630	Roll:	0.488	Pitch:	-30.000	Yaw:	7.480	Thrust:	0.000
Time:	0.310	Roll Set Point:	-0.062	Pitch Set Point:	2.095	Yaw Set Point:	-0.101	X_WP:	0.000	Y_WP:	0.000	Y_WP:	0.500	X:	0.084	Y:	-1.046	Z:	1.005	yaw:	5.773	yaw rate:	-21.409	Roll:	-3.891	Pitch:	-30.000	Yaw:	11.374	Thrust:	0.000
Time:	0.330	Roll Set Point:	-0.074	Pitch Set Point:	2.096	Yaw Set Point:	-0.090	X_WP:	0.000	Y_WP:	0.000	Y_WP:	0.500	X:	0.084	Y:	-1.046	Z:	1.005	yaw:	5.147	yaw rate:	62.585	Roll:	9.243	Pitch:	-30.000	Yaw:	-0.194	Thrust:	0.000
Time:	0.351	Roll Set Point:	-0.069	Pitch Set Point:	2.095	Yaw Set Point:	-0.095	X_WP:	0.000	Y_WP:	0.000	Y_WP:	0.500	X:	0.084	Y:	-1.046	Z:	1.005	yaw:	5.417	yaw rate:	-27.009	Roll:	-4.789	Pitch:	-30.000	Yaw:	11.567	Thrust:	0.000
Time:	0.369	Roll Set Point:	-0.071	Pitch Set Point:	2.095	Yaw Set Point:	-0.092	X_WP:	0.000	Y_WP:	0.000	Y_WP:	0.500	X:	0.084	Y:	-1.046	Z:	1.004	yaw:	5.257	yaw rate:	16.073	Roll:	2.229	Pitch:	-30.000	Yaw:	5.605	Thrust:	0.000
Time:	0.389	Roll Set Point:	-0.072	Pitch Set Point:	2.095	Yaw Set Point:	-0.091	X_WP:	0.000	Y_WP:	0.000	Y_WP:	0.500	X:	0.084	Y:	-1.046	Z:	1.004	yaw:	5.204	yaw rate:	5.246	Roll:	0.333	Pitch:	-30.000	Yaw:	7.262	Thrust:	0.000
Time:	0.409	Roll Set Point:	-0.075	Pitch Set Point:	2.095	Yaw Set Point:	-0.088	X_WP:	0.000	Y_WP:	0.000	Y_WP:	0.500	X:	0.084	Y:	-1.046	Z:	1.003	yaw:	5.055	yaw rate:	14.915	Roll:	2.045	Pitch:	-30.000	Yaw:	5.754	Thrust:	0.000
Time:	0.429	Roll Set Point:	-0.075	Pitch Set Point:	2.095	Yaw Set Point:	-0.088	X_WP:	0.000	Y_WP:	0.000	Y_WP:	0.500	X:	0.083	Y:	-1.046	Z:	1.003	yaw:	5.051	yaw rate:	0.426	Roll:	-0.304	Pitch:	-30.000	Yaw:	7.742	Thrust:	0.000
Time:	0.469	Roll Set Point:	-0.076	Pitch Set Point:	2.095	Yaw Set Point:	-0.086	X_WP:	0.000	Y_WP:	0.000	Y_WP:	0.500	X:	0.083	Y:	-1.046	Z:	1.002	yaw:	4.954	yaw rate:	9.715	Roll:	0.477	Pitch:	-30.000	Yaw:	7.819	Thrust:	0.000
Time:	0.489	Roll Set Point:	-0.079	Pitch Set Point:	2.095	Yaw Set Point:	-0.084	X_WP:	0.000	Y_WP:	0.000	Y_WP:	0.500	X:	0.083	Y:	-1.046	Z:	1.002	yaw:	4.816	yaw rate:	13.784	Roll:	2.053	Pitch:	-30.000	Yaw:	5.768	Thrust:	0.000
Time:	0.508	Roll Set Point:	-0.084	Pitch Set Point:	2.095	Yaw Set Point:	-0.079	X_WP:	0.000	Y_WP:	0.000	Y_WP:	0.500	X:	0.083	Y:	-1.046	Z:	1.001	yaw:	4.548	yaw rate:	26.774	Roll:	4.256	Pitch:	-30.000	Yaw:	3.430	Thrust:	0.000
Time:	0.531	Roll Set Point:	-0.083	Pitch Set Point:	2.095	Yaw Set Point:	-0.081	X_WP:	0.000	Y_WP:	0.000	Y_WP:	0.500	X:	0.084	Y:	-1.046	Z:	1.001	yaw:	4.618	yaw rate:	-6.975	Roll:	-0.955	Pitch:	-30.000	Yaw:	8.244	Thrust:	0.000
Time:	0.552	Roll Set Point:	-0.068	Pitch Set Point:	2.095	Yaw Set Point:	-0.096	X_WP:	0.000	Y_WP:	0.000	Y_WP:	0.500	X:	0.084	Y:	-1.046	Z:	1.000	yaw:	5.480	yaw rate:	-86.204	Roll:	-13.407	Pitch:	-30.000	Yaw:	19.461	Thrust:	0.000
Time:	0.570	Roll Set Point:	-0.065	Pitch Set Point:	2.096	Yaw Set Point:	-0.098	X_WP:	0.000	Y_WP:	0.000	Y_WP:	0.500	X:	0.084	Y:	-1.046	Z:	0.999	yaw:	5.629	yaw rate:	-14.963	Roll:	-3.047	Pitch:	-30.000	Yaw:	10.888	Thrust:	0.000
Time:	0.590	Roll Set Point:	-0.062	Pitch Set Point:	2.096	Yaw Set Point:	-0.102	X_WP:	0.000	Y_WP:	0.000	Y_WP:	0.500	X:	0.084	Y:	-1.047	Z:	0.999	yaw:	5.821	yaw rate:	-19.201	Roll:	-3.694	Pitch:	-30.000	Yaw:	11.610	Thrust:	0.000
Time:	0.610	Roll Set Point:	-0.048	Pitch Set Point:	2.096	Yaw Set Point:	-0.114	X_WP:	0.000	Y_WP:	0.000	Y_WP:	0.500	X:	0.084	Y:	-1.047	Z:	0.999	yaw:	6.525	yaw rate:	-70.362	Roll:	-12.062	Pitch:	-30.000	Yaw:	19.632	Thrust:	0.000
Time:	0.630	Roll Set Point:	-0.047	Pitch Set Point:	2.097	Yaw Set Point:	-0.115	X_WP:	0.000	Y_WP:	0.000	Y_WP:	0.500	X:	0.084	Y:	-1.047	Z:	0.999	yaw:	6.594	yaw rate:	-6.923	Roll:	-2.100	Pitch:	-30.000	Yaw:	11.196	Thrust:	0.000
Time:	0.650	Roll Set Point:	-0.049	Pitch Set Point:	2.098	Yaw Set Point:	-0.114	X_WP:	0.000	Y_WP:	0.000	Y_WP:	0.500	X:	0.084	Y:	-1.048	Z:	0.998	yaw:	6.522	yaw rate:	7.206	Roll:	0.145	Pitch:	-30.000	Yaw:	9.274	Thrust:	0.000
Time:	0.670	Roll Set Point:	-0.054	Pitch Set Point:	2.099	Yaw Set Point:	-0.109	X_WP:	0.000	Y_WP:	0.000	Y_WP:	0.500	X:	0.084	Y:	-1.048	Z:	0.998	yaw:	6.239	yaw rate:	28.304	Roll:	3.883	Pitch:	-30.000	Yaw:	6.037	Thrust:	0.000
Time:	0.689	Roll Set Point:	-0.049	Pitch Set Point:	2.100	Yaw Set Point:	-0.114	X_WP:	0.000	Y_WP:	0.000	Y_WP:	0.500	X:	0.084	Y:	-1.049	Z:	0.997	yaw:	6.507	yaw rate:	-26.788	Roll:	-5.156	Pitch:	-30.000	Yaw:	13.833	Thrust:	0.000
Time:	0.709	Roll Set Point:	-0.068	Pitch Set Point:	2.103	Yaw Set Point:	-0.097	X_WP:	0.000	Y_WP:	0.000	Y_WP:	0.500	X:	0.085	Y:	-1.050	Z:	0.997	yaw:	5.532	yaw rate:	97.541	Roll:	15.045	Pitch:	-30.000	Yaw:	-3.957	Thrust:	0.000
Time:	0.730	Roll Set Point:	-0.040	Pitch Set Point:	2.103	Yaw Set Point:	-0.123	X_WP:	0.000	Y_WP:	0.000	Y_WP:	0.500	X:	0.085	Y:	-1.050	Z:	0.997	yaw:	7.031	yaw rate:	-149.957	Roll:	-24.263	Pitch:	-30.000	Yaw:	30.319	Thrust:	0.000
Time:	0.751	Roll Set Point:	-0.035	Pitch Set Point:	2.103	Yaw Set Point:	-0.128	X_WP:	0.000	Y_WP:	0.000	Y_WP:	0.500	X:	0.085	Y:	-1.051	Z:	0.997	yaw:	7.340	yaw rate:	-30.916	Roll:	-6.090	Pitch:	-30.000	Yaw:	15.454	Thrust:	0.000
Time:	0.770	Roll Set Point:	-0.022	Pitch Set Point:	2.103	Yaw Set Point:	-0.140	X_WP:	0.000	Y_WP:	0.000	Y_WP:	0.500	X:	0.085	Y:	-1.051	Z:	0.997	yaw:	8.018	yaw rate:	-67.806	Roll:	-13.053	Pitch:	-30.000	Yaw:	22.059	Thrust:	0.000
Time:	0.789	Roll Set Point:	-0.066	Pitch Set Point:	2.108	Yaw Set Point:	-0.098	X_WP:	0.000	Y_WP:	0.000	Y_WP:	0.500	X:	0.085	Y:	-1.052	Z:	0.998	yaw:	5.626	yaw rate:	239.258	Roll:	30.000	Pitch:	-30.000	Yaw:	-23.841	Thrust:	0.000
Time:	0.809	Roll Set Point:	-0.041	Pitch Set Point:	2.108	Yaw Set Point:	-0.122	X_WP:	0.000	Y_WP:	0.000	Y_WP:	0.500	X:	0.085	Y:	-1.053	Z:	0.999	yaw:	7.002	yaw rate:	-137.610	Roll:	-24.020	Pitch:	-30.000	Yaw:	28.860	Thrust:	0.000
Time:	0.830	Roll Set Point:	-0.039	Pitch Set Point:	2.108	Yaw Set Point:	-0.123	X_WP:	0.000	Y_WP:	0.000	Y_WP:	0.500	X:	0.085	Y:	-1.053	Z:	1.000	yaw:	7.042	yaw rate:	-4.030	Roll:	-2.227	Pitch:	-30.000	Yaw:	11.907	Thrust:	0.000
Time:	0.850	Roll Set Point:	-0.036	Pitch Set Point:	2.109	Yaw Set Point:	-0.125	X_WP:	0.000	Y_WP:	0.000	Y_WP:	0.500	X:	0.084	Y:	-1.053	Z:	1.002	yaw:	7.189	yaw rate:	-14.678	Roll:	-4.044	Pitch:	-30.000	Yaw:	13.539	Thrust:	0.000
Time:	0.870	Roll Set Point:	-0.048	Pitch Set Point:	2.110	Yaw Set Point:	-0.113	X_WP:	0.000	Y_WP:	0.000	Y_WP:	0.500	X:	0.084	Y:	-1.054	Z:	1.003	yaw:	6.470	yaw rate:	71.923	Roll:	10.208	Pitch:	-30.000	Yaw:	1.107	Thrust:	0.000
Time:	0.897	Roll Set Point:	-0.033	Pitch Set Point:	2.110	Yaw Set Point:	-0.127	X_WP:	0.000	Y_WP:	0.000	Y_WP:	0.500	X:	0.083	Y:	-1.054	Z:	1.004	yaw:	7.252	yaw rate:	-78.234	Roll:	-10.686	Pitch:	-30.000	Yaw:	19.938	Thrust:	0.000
Time:	0.909	Roll Set Point:	-0.060	Pitch Set Point:	2.113	Yaw Set Point:	-0.100	X_WP:	0.000	Y_WP:	0.000	Y_WP:	0.500	X:	0.083	Y:	-1.055	Z:	1.006	yaw:	5.746	yaw rate:	150.601	Roll:	30.000	Pitch:	-30.000	Yaw:	-22.326	Thrust:	0.000
Time:	0.929	Roll Set Point:	-0.043	Pitch Set Point:	2.113	Yaw Set Point:	-0.116	X_WP:	0.000	Y_WP:	0.000	Y_WP:	0.500	X:	0.083	Y:	-1.055	Z:	1.007	yaw:	6.619	yaw rate:	-87.273	Roll:	-15.689	Pitch:	-30.000	Yaw:	22.434	Thrust:	0.000
Time:	0.950	Roll Set Point:	-0.041	Pitch Set Point:	2.115	Yaw Set Point:	-0.117	X_WP:	0.000	Y_WP:	0.000	Y_WP:	0.500	X:	0.082	Y:	-1.056	Z:	1.008	yaw:	6.697	yaw rate:	-7.807	Roll:	-2.760	Pitch:	-30.000	Yaw:	12.177	Thrust:	0.000
Time:	0.970	Roll Set Point:	-0.032	Pitch Set Point:	2.115	Yaw Set Point:	-0.124	X_WP:	0.000	Y_WP:	0.000	Y_WP:	0.500	X:	0.082	Y:	-1.056	Z:	1.009	yaw:	7.115	yaw rate:	-41.841	Roll:	-8.378	Pitch:	-30.000	Yaw:	17.179	Thrust:	0.000
Time:	0.989	Roll Set Point:	-0.059	Pitch Set Point:	2.118	Yaw Set Point:	-0.098	X_WP:	0.000	Y_WP:	0.000	Y_WP:	0.500	X:	0.082	Y:	-1.058	Z:	1.010	yaw:	5.624	yaw rate:	149.185	Roll:	24.310	Pitch:	-30.000	Yaw:	-11.253	Thrust:	0.000
Time:	1.009	Roll Set Point:	-0.054	Pitch Set Point:	2.119	Yaw Set Point:	-0.102	X_WP:	0.000	Y_WP:	0.000	Y_WP:	0.500	X:	0.081	Y:	-1.058	Z:	1.011	yaw:	5.861	yaw rate:	-23.771	Roll:	-4.971	Pitch:	-30.000	Yaw:	13.233	Thrust:	0.000
Time:	1.030	Roll Set Point:	-0.047	Pitch Set Point:	2.119	Yaw Set Point:	-0.108	X_WP:	0.000	Y_WP:	0.000	Y_WP:	0.500	X:	0.081	Y:	-1.058	Z:	1.011	yaw:	6.197	yaw rate:	-33.623	Roll:	-6.559	Pitch:	-30.000	Yaw:	14.927	Thrust:	0.000
Time:	1.049	Roll Set Point:	-0.025	Pitch Set Point:	2.118	Yaw Set Point:	-0.128	X_WP:	0.000	Y_WP:	0.000	Y_WP:	0.500	X:	0.080	Y:	-1.058	Z:	1.012	yaw:	7.321	yaw rate:	-112.374	Roll:	-20.365	Pitch:	-30.000	Yaw:	27.697	Thrust:	0.000
Time:	1.069	Roll Set Point:	-0.036	Pitch Set Point:	2.120	Yaw Set Point:	-0.117	X_WP:	0.000	Y_WP:	0.000	Y_WP:	0.500	X:	0.080	Y:	-1.059	Z:	1.012	yaw:	6.702	yaw rate:	61.892	Roll:	8.239	Pitch:	-30.000	Yaw:	3.582	Thrust:	0.000
Time:	1.089	Roll Set Point:	-0.046	Pitch Set Point:	2.121	Yaw Set Point:	-0.107	X_WP:	0.000	Y_WP:	0.000	Y_WP:	0.500	X:	0.080	Y:	-1.059	Z:	1.012	yaw:	6.133	yaw rate:	56.942	Roll:	7.584	Pitch:	-30.000	Yaw:	2.973	Thrust:	0.000
Time:	1.109	Roll Set Point:	-0.043	Pitch Set Point:	2.122	Yaw Set Point:	-0.110	X_WP:	0.000	Y_WP:	0.000	Y_WP:	0.500	X:	0.080	Y:	-1.060	Z:	1.012	yaw:	6.293	yaw rate:	-15.987	Roll:	-3.907	Pitch:	-30.000	Yaw:	12.878	Thrust:	0.000
Time:	1.129	Roll Set Point:	-0.024	Pitch Set Point:	2.121	Yaw Set Point:	-0.127	X_WP:	0.000	Y_WP:	0.000	Y_WP:	0.500	X:	0.079	Y:	-1.060	Z:	1.012	yaw:	7.272	yaw rate:	-97.961	Roll:	-17.390	Pitch:	-30.000	Yaw:	24.995	Thrust:	0.000
Time:	1.150	Roll Set Point:	-0.023	Pitch Set Point:	2.121	Yaw Set Point:	-0.127	X_WP:	0.000	Y_WP:	0.000	Y_WP:	0.500	X:	0.079	Y:	-1.060	Z:	1.012	yaw:	7.305	yaw rate:	-3.223	Roll:	-2.378	Pitch:	-30.000	Yaw:	12.715	Thrust:	0.000
Time:	1.170	Roll Set Point:	-0.035	Pitch Set Point:	2.123	Yaw Set Point:	-0.116	X_WP:	0.000	Y_WP:	0.000	Y_WP:	0.500	X:	0.079	Y:	-1.060	Z:	1.012	yaw:	6.627	yaw rate:	67.754	Roll:	9.765	Pitch:	-30.000	Yaw:	1.768	Thrust:	0.000
Time:	1.190	Roll Set Point:	-0.017	Pitch Set Point:	2.121	Yaw Set Point:	-0.132	X_WP:	0.000	Y_WP:	0.000	Y_WP:	0.500	X:	0.079	Y:	-1.060	Z:	1.012	yaw:	7.568	yaw rate:	-94.079	Roll:	-17.468	Pitch:	-30.000	Yaw:	24.641	Thrust:	0.000
Time:	1.209	Roll Set Point:	-0.018	Pitch Set Point:	2.121	Yaw Set Point:	-0.131	X_WP:	0.000	Y_WP:	0.000	Y_WP:	0.500	X:	0.078	Y:	-1.060	Z:	1.012	yaw:	7.510	yaw rate:	5.824	Roll:	-1.135	Pitch:	-30.000	Yaw:	11.613	Thrust:	0.000
Time:	1.231	Roll Set Point:	-0.014	Pitch Set Point:	2.121	Yaw Set Point:	-0.134	X_WP:	0.000	Y_WP:	0.000	Y_WP:	0.500	X:	0.078	Y:	-1.060	Z:	1.012	yaw:	7.670	yaw rate:	-16.052	Roll:	-4.650	Pitch:	-30.000	Yaw:	14.812	Thrust:	0.000
Time:	1.249	Roll Set Point:	-0.035	Pitch Set Point:	2.124	Yaw Set Point:	-0.114	X_WP:	0.000	Y_WP:	0.000	Y_WP:	0.500	X:	0.078	Y:	-1.061	Z:	1.011	yaw:	6.506	yaw rate:	116.440	Roll:	17.610	Pitch:	-30.000	Yaw:	-5.474	Thrust:	0.000
Time:	1.269	Roll Set Point:	-0.013	Pitch Set Point:	2.122	Yaw Set Point:	-0.134	X_WP:	0.000	Y_WP:	0.000	Y_WP:	0.500	X:	0.077	Y:	-1.060	Z:	1.012	yaw:	7.653	yaw rate:	-114.712	Roll:	-19.959	Pitch:	-30.000	Yaw:	27.318	Thrust:	0.000
Time:	1.289	Roll Set Point:	-0.018	Pitch Set Point:	2.123	Yaw Set Point:	-0.127	X_WP:	0.000	Y_WP:	0.000	Y_WP:	0.500	X:	0.077	Y:	-1.061	Z:	1.012	yaw:	7.287	yaw rate:	36.557	Roll:	3.779	Pitch:	-30.000	Yaw:	7.164	Thrust:	0.000
Time:	1.309	Roll Set Point:	-0.014	Pitch Set Point:	2.123	Yaw Set Point:	-0.131	X_WP:	0.000	Y_WP:	0.000	Y_WP:	0.500	X:	0.077	Y:	-1.061	Z:	1.012	yaw:	7.495	yaw rate:	-20.741	Roll:	-5.357	Pitch:	-30.000	Yaw:	15.173	Thrust:	0.000
Time:	1.330	Roll Set Point:	-0.034	Pitch Set Point:	2.125	Yaw Set Point:	-0.111	X_WP:	0.000	Y_WP:	0.000	Y_WP:	0.500	X:	0.076	Y:	-1.062	Z:	1.012	yaw:	6.368	yaw rate:	112.700	Roll:	15.598	Pitch:	-30.000	Yaw:	-3.355	Thrust:	0.000
Time:	1.350	Roll Set Point:	-0.000	Pitch Set Point:	2.123	Yaw Set Point:	-0.142	X_WP:	0.000	Y_WP:	0.000	Y_WP:	0.500	X:	0.076	Y:	-1.061	Z:	1.012	yaw:	8.157	yaw rate:	-178.901	Roll:	-30.000	Pitch:	-29.630	Yaw:	35.923	Thrust:	0.000
Time:	1.370	Roll Set Point:	-0.022	Pitch Set Point:	2.126	Yaw Set Point:	-0.121	X_WP:	0.000	Y_WP:	0.000	Y_WP:	0.500	X:	0.076	Y:	-1.062	Z:	1.012	yaw:	6.958	yaw rate:	119.900	Roll:	17.274	Pitch:	-30.000	Yaw:	-4.734	Thrust:	0.000
Time:	1.389	Roll Set Point:	-0.005	Pitch Set Point:	2.125	Yaw Set Point:	-0.136	X_WP:	0.000	Y_WP:	0.000	Y_WP:	0.500	X:	0.075	Y:	-1.062	Z:	1.012	yaw:	7.818	yaw rate:	-86.002	Roll:	-16.075	Pitch:	-30.000	Yaw:	24.512	Thrust:	0.000
Time:	1.410	Roll Set Point:	0.011	Pitch Set Point:	2.125	Yaw Set Point:	-0.151	X_WP:	0.000	Y_WP:	0.000	Y_WP:	0.500	X:	0.075	Y:	-1.063	Z:	1.012	yaw:	8.663	yaw rate:	-84.567	Roll:	-16.438	Pitch:	-30.000	Yaw:	24.840	Thrust:	0.000
Time:	1.430	Roll Set Point:	-0.023	Pitch Set Point:	2.130	Yaw Set Point:	-0.119	X_WP:	0.000	Y_WP:	0.000	Y_WP:	0.500	X:	0.075	Y:	-1.064	Z:	1.013	yaw:	6.835	yaw rate:	182.878	Roll:	25.829	Pitch:	-30.000	Yaw:	-11.978	Thrust:	0.000
Time:	1.450	Roll Set Point:	-0.018	Pitch Set Point:	2.130	Yaw Set Point:	-0.123	X_WP:	0.000	Y_WP:	0.000	Y_WP:	0.500	X:	0.075	Y:	-1.065	Z:	1.013	yaw:	7.029	yaw rate:	-19.459	Roll:	-5.261	Pitch:	-30.000	Yaw:	14.366	Thrust:	0.000
Time:	1.470	Roll Set Point:	-0.030	Pitch Set Point:	2.133	Yaw Set Point:	-0.111	X_WP:	0.000	Y_WP:	0.000	Y_WP:	0.500	X:	0.074	Y:	-1.065	Z:	1.013	yaw:	6.360	yaw rate:	66.952	Roll:	8.710	Pitch:	-30.000	Yaw:	2.053	Thrust:	0.000
Time:	1.489	Roll Set Point:	-0.011	Pitch Set Point:	2.132	Yaw Set Point:	-0.128	X_WP:	0.000	Y_WP:	0.000	Y_WP:	0.500	X:	0.074	Y:	-1.065	Z:	1.013	yaw:	7.344	yaw rate:	-98.483	Roll:	-18.000	Pitch:	-30.000	Yaw:	25.475	Thrust:	0.000
Time:	1.510	Roll Set Point:	-0.022	Pitch Set Point:	2.134	Yaw Set Point:	-0.118	X_WP:	0.000	Y_WP:	0.000	Y_WP:	0.500	X:	0.074	Y:	-1.066	Z:	1.013	yaw:	6.748	yaw rate:	59.671	Roll:	7.980	Pitch:	-30.000	Yaw:	3.809	Thrust:	0.000
Time:	1.530	Roll Set Point:	-0.032	Pitch Set Point:	2.136	Yaw Set Point:	-0.107	X_WP:	0.000	Y_WP:	0.000	Y_WP:	0.500	X:	0.074	Y:	-1.067	Z:	1.013	yaw:	6.152	yaw rate:	59.607	Roll:	7.387	Pitch:	-30.000	Yaw:	2.860	Thrust:	0.000
Time:	1.550	Roll Set Point:	-0.013	Pitch Set Point:	2.135	Yaw Set Point:	-0.125	X_WP:	0.000	Y_WP:	0.000	Y_WP:	0.500	X:	0.073	Y:	-1.067	Z:	1.013	yaw:	7.169	yaw rate:	-101.704	Roll:	-18.652	Pitch:	-30.000	Yaw:	25.056	Thrust:	0.000
Time:	1.570	Roll Set Point:	-0.022	Pitch Set Point:	2.137	Yaw Set Point:	-0.117	X_WP:	0.000	Y_WP:	0.000	Y_WP:	0.500	X:	0.073	Y:	-1.068	Z:	1.013	yaw:	6.686	yaw rate:	48.303	Roll:	5.685	Pitch:	-30.000	Yaw:	4.780	Thrust:	0.000
Time:	1.589	Roll Set Point:	-0.067	Pitch Set Point:	2.141	Yaw Set Point:	-0.075	X_WP:	0.000	Y_WP:	0.000	Y_WP:	0.500	X:	0.074	Y:	-1.069	Z:	1.012	yaw:	4.290	yaw rate:	239.601	Roll:	30.000	Pitch:	-30.000	Yaw:	-25.346	Thrust:	0.000
Time:	1.609	Roll Set Point:	-0.042	Pitch Set Point:	2.140	Yaw Set Point:	-0.097	X_WP:	0.000	Y_WP:	0.000	Y_WP:	0.500	X:	0.073	Y:	-1.069	Z:	1.013	yaw:	5.577	yaw rate:	-128.696	Roll:	-21.375	Pitch:	-30.000	Yaw:	26.150	Thrust:	0.000
Time:	1.631	Roll Set Point:	-0.042	Pitch Set Point:	2.140	Yaw Set Point:	-0.096	X_WP:	0.000	Y_WP:	0.000	Y_WP:	0.500	X:	0.073	Y:	-1.069	Z:	1.012	yaw:	5.526	yaw rate:	5.095	Roll:	-0.371	Pitch:	-30.000	Yaw:	9.263	Thrust:	0.000
Time:	1.649	Roll Set Point:	-0.009	Pitch Set Point:	2.138	Yaw Set Point:	-0.127	X_WP:	0.000	Y_WP:	0.000	Y_WP:	0.500	X:	0.073	Y:	-1.069	Z:	1.012	yaw:	7.301	yaw rate:	-177.519	Roll:	-30.000	Pitch:	-30.000	Yaw:	37.604	Thrust:	0.000
Time:	1.669	Roll Set Point:	-0.014	Pitch Set Point:	2.139	Yaw Set Point:	-0.123	X_WP:	0.000	Y_WP:	0.000	Y_WP:	0.500	X:	0.073	Y:	-1.069	Z:	1.011	yaw:	7.061	yaw rate:	23.960	Roll:	1.867	Pitch:	-30.000	Yaw:	8.739	Thrust:	0.000
Time:	1.689	Roll Set Point:	-0.020	Pitch Set Point:	2.140	Yaw Set Point:	-0.117	X_WP:	0.000	Y_WP:	0.000	Y_WP:	0.500	X:	0.073	Y:	-1.070	Z:	1.011	yaw:	6.699	yaw rate:	36.219	Roll:	4.393	Pitch:	-30.000	Yaw:	6.630	Thrust:	0.000
Time:	1.708	Roll Set Point:	-0.019	Pitch Set Point:	2.141	Yaw Set Point:	-0.118	X_WP:	0.000	Y_WP:	0.000	Y_WP:	0.500	X:	0.073	Y:	-1.070	Z:	1.011	yaw:	6.780	yaw rate:	-8.104	Roll:	-2.927	Pitch:	-30.000	Yaw:	12.490	Thrust:	0.000
Time:	1.730	Roll Set Point:	-0.023	Pitch Set Point:	2.142	Yaw Set Point:	-0.115	X_WP:	0.000	Y_WP:	0.000	Y_WP:	0.500	X:	0.073	Y:	-1.070	Z:	1.011	yaw:	6.585	yaw rate:	19.506	Roll:	1.389	Pitch:	-30.000	Yaw:	8.979	Thrust:	0.000
Time:	1.750	Roll Set Point:	-0.022	Pitch Set Point:	2.142	Yaw Set Point:	-0.116	X_WP:	0.000	Y_WP:	0.000	Y_WP:	0.500	X:	0.073	Y:	-1.070	Z:	1.011	yaw:	6.674	yaw rate:	-8.871	Roll:	-2.916	Pitch:	-30.000	Yaw:	12.479	Thrust:	0.000
Time:	1.769	Roll Set Point:	-0.018	Pitch Set Point:	2.143	Yaw Set Point:	-0.121	X_WP:	0.000	Y_WP:	0.000	Y_WP:	0.500	X:	0.074	Y:	-1.071	Z:	1.011	yaw:	6.906	yaw rate:	-23.265	Roll:	-5.149	Pitch:	-30.000	Yaw:	14.742	Thrust:	0.000
Time:	1.789	Roll Set Point:	-0.018	Pitch Set Point:	2.143	Yaw Set Point:	-0.121	X_WP:	0.000	Y_WP:	0.000	Y_WP:	0.500	X:	0.074	Y:	-1.071	Z:	1.010	yaw:	6.959	yaw rate:	-5.283	Roll:	-2.303	Pitch:	-30.000	Yaw:	12.419	Thrust:	0.000
Time:	1.809	Roll Set Point:	-0.028	Pitch Set Point:	2.144	Yaw Set Point:	-0.112	X_WP:	0.000	Y_WP:	0.000	Y_WP:	0.500	X:	0.074	Y:	-1.071	Z:	1.010	yaw:	6.429	yaw rate:	53.024	Roll:	7.060	Pitch:	-30.000	Yaw:	3.998	Thrust:	0.000
Time:	1.830	Roll Set Point:	-0.035	Pitch Set Point:	2.144	Yaw Set Point:	-0.106	X_WP:	0.000	Y_WP:	0.000	Y_WP:	0.500	X:	0.075	Y:	-1.071	Z:	1.010	yaw:	6.101	yaw rate:	32.818	Roll:	4.116	Pitch:	-30.000	Yaw:	6.422	Thrust:	0.000
Time:	1.850	Roll Set Point:	-0.021	Pitch Set Point:	2.143	Yaw Set Point:	-0.121	X_WP:	0.000	Y_WP:	0.000	Y_WP:	0.500	X:	0.075	Y:	-1.071	Z:	1.010	yaw:	6.923	yaw rate:	-82.250	Roll:	-14.800	Pitch:	-30.000	Yaw:	22.289	Thrust:	0.000
Time:	1.869	Roll Set Point:	-0.022	Pitch Set Point:	2.143	Yaw Set Point:	-0.120	X_WP:	0.000	Y_WP:	0.000	Y_WP:	0.500	X:	0.075	Y:	-1.071	Z:	1.010	yaw:	6.878	yaw rate:	4.540	Roll:	-0.840	Pitch:	-30.000	Yaw:	10.919	Thrust:	0.000
Time:	1.889	Roll Set Point:	-0.037	Pitch Set Point:	2.143	Yaw Set Point:	-0.107	X_WP:	0.000	Y_WP:	0.000	Y_WP:	0.500	X:	0.076	Y:	-1.071	Z:	1.010	yaw:	6.117	yaw rate:	76.094	Roll:	11.264	Pitch:	-30.000	Yaw:	0.159	Thrust:	0.000
Time:	1.909	Roll Set Point:	-0.041	Pitch Set Point:	2.143	Yaw Set Point:	-0.103	X_WP:	0.000	Y_WP:	0.000	Y_WP:	0.500	X:	0.076	Y:	-1.070	Z:	1.010	yaw:	5.928	yaw rate:	18.852	Roll:	2.148	Pitch:	-30.000	Yaw:	7.960	Thrust:	0.000
Time:	1.929	Roll Set Point:	-0.022	Pitch Set Point:	2.140	Yaw Set Point:	-0.123	X_WP:	0.000	Y_WP:	0.000	Y_WP:	0.500	X:	0.076	Y:	-1.069	Z:	1.009	yaw:	7.025	yaw rate:	-109.626	Roll:	-17.895	Pitch:	-30.000	Yaw:	26.104	Thrust:	0.000
Time:	1.950	Roll Set Point:	-0.007	Pitch Set Point:	2.137	Yaw Set Point:	-0.136	X_WP:	0.000	Y_WP:	0.000	Y_WP:	0.500	X:	0.076	Y:	-1.068	Z:	1.009	yaw:	7.807	yaw rate:	-78.221	Roll:	-14.822	Pitch:	-30.000	Yaw:	23.017	Thrust:	0.000
Time:	1.969	Roll Set Point:	-0.030	Pitch Set Point:	2.138	Yaw Set Point:	-0.115	X_WP:	0.000	Y_WP:	0.000	Y_WP:	0.500	X:	0.076	Y:	-1.068	Z:	1.009	yaw:	6.602	yaw rate:	120.501	Roll:	18.014	Pitch:	-30.000	Yaw:	-5.268	Thrust:	0.000
Time:	1.989	Roll Set Point:	-0.032	Pitch Set Point:	2.136	Yaw Set Point:	-0.113	X_WP:	0.000	Y_WP:	0.000	Y_WP:	0.500	X:	0.076	Y:	-1.067	Z:	1.009	yaw:	6.459	yaw rate:	14.295	Roll:	0.764	Pitch:	-30.000	Yaw:	9.008	Thrust:	0.000
Time:	2.008	Roll Set Point:	-0.030	Pitch Set Point:	2.134	Yaw Set Point:	-0.114	X_WP:	0.000	Y_WP:	0.000	Y_WP:	0.500	X:	0.076	Y:	-1.066	Z:	1.009	yaw:	6.511	yaw rate:	-5.184	Roll:	-2.559	Pitch:	-30.000	Yaw:	11.773	Thrust:	0.000
Time:	2.029	Roll Set Point:	-0.032	Pitch Set Point:	2.133	Yaw Set Point:	-0.112	X_WP:	0.000	Y_WP:	0.000	Y_WP:	0.500	X:	0.076	Y:	-1.066	Z:	1.009	yaw:	6.408	yaw rate:	10.319	Roll:	-0.046	Pitch:	-30.000	Yaw:	9.654	Thrust:	0.000
Time:	2.050	Roll Set Point:	-0.030	Pitch Set Point:	2.132	Yaw Set Point:	-0.113	X_WP:	0.000	Y_WP:	0.000	Y_WP:	0.500	X:	0.075	Y:	-1.065	Z:	1.009	yaw:	6.465	yaw rate:	-5.718	Roll:	-2.550	Pitch:	-30.000	Yaw:	11.888	Thrust:	0.000
Time:	2.069	Roll Set Point:	-0.031	Pitch Set Point:	2.132	Yaw Set Point:	-0.111	X_WP:	0.000	Y_WP:	0.000	Y_WP:	0.500	X:	0.075	Y:	-1.065	Z:	1.009	yaw:	6.373	yaw rate:	9.173	Roll:	-0.041	Pitch:	-30.000	Yaw:	9.552	Thrust:	0.000
Time:	2.089	Roll Set Point:	-0.028	Pitch Set Point:	2.131	Yaw Set Point:	-0.114	X_WP:	0.000	Y_WP:	0.000	Y_WP:	0.500	X:	0.075	Y:	-1.065	Z:	1.009	yaw:	6.529	yaw rate:	-15.628	Roll:	-4.275	Pitch:	-30.000	Yaw:	13.166	Thrust:	0.000
Time:	2.108	Roll Set Point:	-0.039	Pitch Set Point:	2.132	Yaw Set Point:	-0.103	X_WP:	0.000	Y_WP:	0.000	Y_WP:	0.500	X:	0.074	Y:	-1.065	Z:	1.008	yaw:	5.889	yaw rate:	63.992	Roll:	9.154	Pitch:	-30.000	Yaw:	1.405	Thrust:	0.000
Time:	2.129	Roll Set Point:	-0.017	Pitch Set Point:	2.130	Yaw Set Point:	-0.124	X_WP:	0.000	Y_WP:	0.000	Y_WP:	0.500	X:	0.074	Y:	-1.065	Z:	1.009	yaw:	7.079	yaw rate:	-118.939	Roll:	-19.974	Pitch:	-30.000	Yaw:	26.867	Thrust:	0.000
Time:	2.153	Roll Set Point:	-0.019	Pitch Set Point:	2.130	Yaw Set Point:	-0.121	X_WP:	0.000	Y_WP:	0.000	Y_WP:	0.500	X:	0.074	Y:	-1.065	Z:	1.009	yaw:	6.934	yaw rate:	14.487	Roll:	0.132	Pitch:	-30.000	Yaw:	10.284	Thrust:	0.000
Time:	2.169	Roll Set Point:	-0.011	Pitch Set Point:	2.130	Yaw Set Point:	-0.128	X_WP:	0.000	Y_WP:	0.000	Y_WP:	0.500	X:	0.074	Y:	-1.064	Z:	1.009	yaw:	7.360	yaw rate:	-42.647	Roll:	-10.016	Pitch:	-30.000	Yaw:	18.356	Thrust:	0.000
Time:	2.189	Roll Set Point:	-0.038	Pitch Set Point:	2.132	Yaw Set Point:	-0.103	X_WP:	0.000	Y_WP:	0.000	Y_WP:	0.500	X:	0.074	Y:	-1.065	Z:	1.009	yaw:	5.927	yaw rate:	143.379	Roll:	22.120	Pitch:	-30.000	Yaw:	-9.817	Thrust:	0.000
Time:	2.208	Roll Set Point:	-0.009	Pitch Set Point:	2.130	Yaw Set Point:	-0.130	X_WP:	0.000	Y_WP:	0.000	Y_WP:	0.500	X:	0.074	Y:	-1.065	Z:	1.010	yaw:	7.440	yaw rate:	-151.309	Roll:	-25.862	Pitch:	-30.000	Yaw:	31.985	Thrust:	0.000
Time:	2.230	Roll Set Point:	-0.011	Pitch Set Point:	2.129	Yaw Set Point:	-0.128	X_WP:	0.000	Y_WP:	0.000	Y_WP:	0.500	X:	0.074	Y:	-1.064	Z:	1.010	yaw:	7.330	yaw rate:	10.928	Roll:	-0.645	Pitch:	-30.000	Yaw:	11.005	Thrust:	0.000
Time:	2.250	Roll Set Point:	-0.039	Pitch Set Point:	2.131	Yaw Set Point:	-0.101	X_WP:	0.000	Y_WP:	0.000	Y_WP:	0.500	X:	0.073	Y:	-1.065	Z:	1.010	yaw:	5.778	yaw rate:	155.205	Roll:	23.975	Pitch:	-30.000	Yaw:	-9.894	Thrust:	0.000
Time:	2.270	Roll Set Point:	-0.040	Pitch Set Point:	2.131	Yaw Set Point:	-0.099	X_WP:	0.000	Y_WP:	0.000	Y_WP:	0.500	X:	0.073	Y:	-1.065	Z:	1.010	yaw:	5.701	yaw rate:	7.782	Roll:	-0.267	Pitch:	-30.000	Yaw:	8.906	Thrust:	0.000
Time:	2.289	Roll Set Point:	-0.041	Pitch Set Point:	2.131	Yaw Set Point:	-0.098	X_WP:	0.000	Y_WP:	0.000	Y_WP:	0.500	X:	0.073	Y:	-1.064	Z:	1.010	yaw:	5.621	yaw rate:	7.922	Roll:	-0.092	Pitch:	-30.000	Yaw:	8.697	Thrust:	0.000
Time:	2.310	Roll Set Point:	-0.027	Pitch Set Point:	2.130	Yaw Set Point:	-0.111	X_WP:	0.000	Y_WP:	0.000	Y_WP:	0.500	X:	0.072	Y:	-1.064	Z:	1.011	yaw:	6.335	yaw rate:	-71.360	Roll:	-13.483	Pitch:	-30.000	Yaw:	20.438	Thrust:	0.000
Time:	2.329	Roll Set Point:	-0.021	Pitch Set Point:	2.129	Yaw Set Point:	-0.115	X_WP:	0.000	Y_WP:	0.000	Y_WP:	0.500	X:	0.072	Y:	-1.064	Z:	1.011	yaw:	6.597	yaw rate:	-26.222	Roll:	-5.958	Pitch:	-30.000	Yaw:	14.579	Thrust:	0.000
Time:	2.351	Roll Set Point:	-0.015	Pitch Set Point:	2.129	Yaw Set Point:	-0.121	X_WP:	0.000	Y_WP:	0.000	Y_WP:	0.500	X:	0.072	Y:	-1.064	Z:	1.011	yaw:	6.926	yaw rate:	-32.888	Roll:	-7.041	Pitch:	-30.000	Yaw:	15.831	Thrust:	0.000
Time:	2.369	Roll Set Point:	-0.006	Pitch Set Point:	2.128	Yaw Set Point:	-0.129	X_WP:	0.000	Y_WP:	0.000	Y_WP:	0.500	X:	0.071	Y:	-1.064	Z:	1.011	yaw:	7.377	yaw rate:	-45.078	Roll:	-9.708	Pitch:	-30.000	Yaw:	18.545	Thrust:	0.000
Time:	2.389	Roll Set Point:	-0.002	Pitch Set Point:	2.128	Yaw Set Point:	-0.132	X_WP:	0.000	Y_WP:	0.000	Y_WP:	0.500	X:	0.071	Y:	-1.064	Z:	1.012	yaw:	7.551	yaw rate:	-17.420	Roll:	-5.268	Pitch:	-30.000	Yaw:	14.825	Thrust:	0.000
Time:	2.409	Roll Set Point:	-0.026	Pitch Set Point:	2.130	Yaw Set Point:	-0.109	X_WP:	0.000	Y_WP:	0.000	Y_WP:	0.500	X:	0.071	Y:	-1.064	Z:	1.011	yaw:	6.223	yaw rate:	132.840	Roll:	20.120	Pitch:	-30.000	Yaw:	-6.453	Thrust:	0.000
Time:	2.429	Roll Set Point:	-0.027	Pitch Set Point:	2.130	Yaw Set Point:	-0.107	X_WP:	0.000	Y_WP:	0.000	Y_WP:	0.500	X:	0.071	Y:	-1.064	Z:	1.012	yaw:	6.143	yaw rate:	7.983	Roll:	-0.516	Pitch:	-30.000	Yaw:	9.459	Thrust:	0.000
Time:	2.450	Roll Set Point:	-0.026	Pitch Set Point:	2.129	Yaw Set Point:	-0.108	X_WP:	0.000	Y_WP:	0.000	Y_WP:	0.500	X:	0.070	Y:	-1.064	Z:	1.012	yaw:	6.170	yaw rate:	-2.690	Roll:	-2.189	Pitch:	-30.000	Yaw:	11.066	Thrust:	0.000
Time:	2.469	Roll Set Point:	-0.003	Pitch Set Point:	2.127	Yaw Set Point:	-0.128	X_WP:	0.000	Y_WP:	0.000	Y_WP:	0.500	X:	0.070	Y:	-1.063	Z:	1.012	yaw:	7.361	yaw rate:	-119.143	Roll:	-21.690	Pitch:	-30.000	Yaw:	28.555	Thrust:	0.000
Time:	2.490	Roll Set Point:	-0.010	Pitch Set Point:	2.128	Yaw Set Point:	-0.122	X_WP:	0.000	Y_WP:	0.000	Y_WP:	0.500	X:	0.070	Y:	-1.064	Z:	1.012	yaw:	6.983	yaw rate:	37.834	Roll:	3.962	Pitch:	-30.000	Yaw:	6.967	Thrust:	0.000
Time:	2.508	Roll Set Point:	-0.020	Pitch Set Point:	2.129	Yaw Set Point:	-0.112	X_WP:	0.000	Y_WP:	0.000	Y_WP:	0.500	X:	0.070	Y:	-1.064	Z:	1.012	yaw:	6.443	yaw rate:	54.005	Roll:	6.798	Pitch:	-30.000	Yaw:	3.310	Thrust:	0.000
Time:	2.530	Roll Set Point:	-0.022	Pitch Set Point:	2.129	Yaw Set Point:	-0.110	X_WP:	0.000	Y_WP:	0.000	Y_WP:	0.500	X:	0.070	Y:	-1.064	Z:	1.012	yaw:	6.282	yaw rate:	16.052	Roll:	0.617	Pitch:	-30.000	Yaw:	8.997	Thrust:	0.000
Time:	2.551	Roll Set Point:	0.002	Pitch Set Point:	2.127	Yaw Set Point:	-0.132	X_WP:	0.000	Y_WP:	0.000	Y_WP:	0.500	X:	0.069	Y:	-1.064	Z:	1.012	yaw:	7.578	yaw rate:	-129.603	Roll:	-22.767	Pitch:	-30.000	Yaw:	29.057	Thrust:	0.000
Time:	2.569	Roll Set Point:	-0.018	Pitch Set Point:	2.129	Yaw Set Point:	-0.113	X_WP:	0.000	Y_WP:	0.000	Y_WP:	0.500	X:	0.069	Y:	-1.064	Z:	1.012	yaw:	6.498	yaw rate:	108.058	Roll:	15.834	Pitch:	-30.000	Yaw:	-4.572	Thrust:	0.000
Time:	2.588	Roll Set Point:	-0.020	Pitch Set Point:	2.130	Yaw Set Point:	-0.111	X_WP:	0.000	Y_WP:	0.000	Y_WP:	0.500	X:	0.069	Y:	-1.064	Z:	1.012	yaw:	6.346	yaw rate:	15.202	Roll:	0.820	Pitch:	-30.000	Yaw:	8.725	Thrust:	0.000
Time:	2.608	Roll Set Point:	-0.033	Pitch Set Point:	2.131	Yaw Set Point:	-0.099	X_WP:	0.000	Y_WP:	0.000	Y_WP:	0.500	X:	0.069	Y:	-1.065	Z:	1.012	yaw:	5.671	yaw rate:	67.420	Roll:	9.156	Pitch:	-30.000	Yaw:	1.205	Thrust:	0.000
Time:	2.630	Roll Set Point:	-0.032	Pitch Set Point:	2.132	Yaw Set Point:	-0.100	X_WP:	0.000	Y_WP:	0.000	Y_WP:	0.500	X:	0.069	Y:	-1.065	Z:	1.012	yaw:	5.734	yaw rate:	-6.286	Roll:	-2.314	Pitch:	-30.000	Yaw:	10.919	Thrust:	0.000
Time:	2.650	Roll Set Point:	-0.037	Pitch Set Point:	2.133	Yaw Set Point:	-0.095	X_WP:	0.000	Y_WP:	0.000	Y_WP:	0.500	X:	0.069	Y:	-1.066	Z:	1.012	yaw:	5.436	yaw rate:	29.837	Roll:	3.796	Pitch:	-30.000	Yaw:	5.604	Thrust:	0.000
Time:	2.669	Roll Set Point:	-0.029	Pitch Set Point:	2.132	Yaw Set Point:	-0.102	X_WP:	0.000	Y_WP:	0.000	Y_WP:	0.500	X:	0.069	Y:	-1.065	Z:	1.011	yaw:	5.865	yaw rate:	-42.874	Roll:	-8.259	Pitch:	-30.000	Yaw:	15.867	Thrust:	0.000
Time:	2.688	Roll Set Point:	-0.008	Pitch Set Point:	2.131	Yaw Set Point:	-0.122	X_WP:	0.000	Y_WP:	0.000	Y_WP:	0.500	X:	0.069	Y:	-1.065	Z:	1.011	yaw:	6.974	yaw rate:	-110.968	Roll:	-20.063	Pitch:	-30.000	Yaw:	26.890	Thrust:	0.000
Time:	2.709	Roll Set Point:	0.003	Pitch Set Point:	2.130	Yaw Set Point:	-0.132	X_WP:	0.000	Y_WP:	0.000	Y_WP:	0.500	X:	0.069	Y:	-1.065	Z:	1.012	yaw:	7.566	yaw rate:	-59.169	Roll:	-12.045	Pitch:	-30.000	Yaw:	20.024	Thrust:	0.000
Time:	2.729	Roll Set Point:	-0.000	Pitch Set Point:	2.130	Yaw Set Point:	-0.129	X_WP:	0.000	Y_WP:	0.000	Y_WP:	0.500	X:	0.069	Y:	-1.065	Z:	1.012	yaw:	7.367	yaw rate:	19.869	Roll:	0.713	Pitch:	-30.000	Yaw:	9.632	Thrust:	0.000
Time:	2.750	Roll Set Point:	-0.009	Pitch Set Point:	2.131	Yaw Set Point:	-0.121	X_WP:	0.000	Y_WP:	0.000	Y_WP:	0.500	X:	0.069	Y:	-1.065	Z:	1.012	yaw:	6.918	yaw rate:	44.907	Roll:	4.718	Pitch:	-30.000	Yaw:	6.135	Thrust:	0.000
Time:	2.769	Roll Set Point:	-0.019	Pitch Set Point:	2.132	Yaw Set Point:	-0.111	X_WP:	0.000	Y_WP:	0.000	Y_WP:	0.500	X:	0.069	Y:	-1.065	Z:	1.012	yaw:	6.342	yaw rate:	57.583	Roll:	7.892	Pitch:	-30.000	Yaw:	2.919	Thrust:	0.000
Time:	2.788	Roll Set Point:	-0.026	Pitch Set Point:	2.133	Yaw Set Point:	-0.104	X_WP:	0.000	Y_WP:	0.000	Y_WP:	0.500	X:	0.068	Y:	-1.066	Z:	1.012	yaw:	5.947	yaw rate:	39.542	Roll:	4.751	Pitch:	-30.000	Yaw:	4.802	Thrust:	0.000
Time:	2.812	Roll Set Point:	-0.024	Pitch Set Point:	2.132	Yaw Set Point:	-0.106	X_WP:	0.000	Y_WP:	0.000	Y_WP:	0.500	X:	0.068	Y:	-1.065	Z:	1.012	yaw:	6.060	yaw rate:	-11.290	Roll:	-3.334	Pitch:	-30.000	Yaw:	12.057	Thrust:	0.000
Time:	2.830	Roll Set Point:	-0.023	Pitch Set Point:	2.132	Yaw Set Point:	-0.106	X_WP:	0.000	Y_WP:	0.000	Y_WP:	0.500	X:	0.068	Y:	-1.065	Z:	1.013	yaw:	6.101	yaw rate:	-4.087	Roll:	-2.371	Pitch:	-30.000	Yaw:	10.960	Thrust:	0.000
Time:	2.849	Roll Set Point:	-0.020	Pitch Set Point:	2.131	Yaw Set Point:	-0.109	X_WP:	0.000	Y_WP:	0.000	Y_WP:	0.500	X:	0.068	Y:	-1.065	Z:	1.013	yaw:	6.244	yaw rate:	-14.346	Roll:	-4.240	Pitch:	-30.000	Yaw:	12.595	Thrust:	0.000
Time:	2.869	Roll Set Point:	0.007	Pitch Set Point:	2.129	Yaw Set Point:	-0.133	X_WP:	0.000	Y_WP:	0.000	Y_WP:	0.500	X:	0.068	Y:	-1.065	Z:	1.013	yaw:	7.645	yaw rate:	-140.086	Roll:	-24.346	Pitch:	-29.684	Yaw:	31.136	Thrust:	0.000
Time:	2.889	Roll Set Point:	0.007	Pitch Set Point:	2.128	Yaw Set Point:	-0.134	X_WP:	0.000	Y_WP:	0.000	Y_WP:	0.500	X:	0.068	Y:	-1.064	Z:	1.013	yaw:	7.668	yaw rate:	-2.333	Roll:	-2.873	Pitch:	-30.000	Yaw:	12.982	Thrust:	0.000
Time:	2.908	Roll Set Point:	0.010	Pitch Set Point:	2.128	Yaw Set Point:	-0.136	X_WP:	0.000	Y_WP:	0.000	Y_WP:	0.500	X:	0.068	Y:	-1.064	Z:	1.013	yaw:	7.805	yaw rate:	-13.644	Roll:	-4.824	Pitch:	-30.000	Yaw:	14.678	Thrust:	0.000
Time:	2.930	Roll Set Point:	0.011	Pitch Set Point:	2.127	Yaw Set Point:	-0.137	X_WP:	0.000	Y_WP:	0.000	Y_WP:	0.500	X:	0.068	Y:	-1.064	Z:	1.013	yaw:	7.865	yaw rate:	-6.042	Roll:	-3.539	Pitch:	-30.000	Yaw:	13.849	Thrust:	0.000
Time:	2.950	Roll Set Point:	-0.018	Pitch Set Point:	2.129	Yaw Set Point:	-0.110	X_WP:	0.000	Y_WP:	0.000	Y_WP:	0.500	X:	0.068	Y:	-1.064	Z:	1.013	yaw:	6.317	yaw rate:	154.856	Roll:	23.473	Pitch:	-30.000	Yaw:	-8.974	Thrust:	0.000
Time:	2.970	Roll Set Point:	-0.019	Pitch Set Point:	2.129	Yaw Set Point:	-0.109	X_WP:	0.000	Y_WP:	0.000	Y_WP:	0.500	X:	0.067	Y:	-1.064	Z:	1.013	yaw:	6.217	yaw rate:	9.997	Roll:	-0.308	Pitch:	-30.000	Yaw:	9.375	Thrust:	0.000
Time:	2.988	Roll Set Point:	-0.021	Pitch Set Point:	2.128	Yaw Set Point:	-0.107	X_WP:	0.000	Y_WP:	0.000	Y_WP:	0.500	X:	0.067	Y:	-1.064	Z:	1.013	yaw:	6.136	yaw rate:	8.107	Roll:	-0.353	Pitch:	-30.000	Yaw:	9.307	Thrust:	0.000
Time:	3.009	Roll Set Point:	-0.026	Pitch Set Point:	2.128	Yaw Set Point:	-0.102	X_WP:	0.000	Y_WP:	0.000	Y_WP:	0.500	X:	0.067	Y:	-1.063	Z:	1.013	yaw:	5.855	yaw rate:	28.062	Roll:	2.771	Pitch:	-30.000	Yaw:	6.683	Thrust:	0.000
Time:	3.030	Roll Set Point:	-0.010	Pitch Set Point:	2.126	Yaw Set Point:	-0.117	X_WP:	0.000	Y_WP:	0.000	Y_WP:	0.500	X:	0.067	Y:	-1.063	Z:	1.012	yaw:	6.694	yaw rate:	-83.859	Roll:	-15.160	Pitch:	-30.000	Yaw:	22.110	Thrust:	0.000
Time:	3.049	Roll Set Point:	-0.009	Pitch Set Point:	2.126	Yaw Set Point:	-0.118	X_WP:	0.000	Y_WP:	0.000	Y_WP:	0.500	X:	0.067	Y:	-1.063	Z:	1.012	yaw:	6.784	yaw rate:	-9.027	Roll:	-3.390	Pitch:	-30.000	Yaw:	12.641	Thrust:	0.000
Time:	3.069	Roll Set Point:	-0.011	Pitch Set Point:	2.126	Yaw Set Point:	-0.117	X_WP:	0.000	Y_WP:	0.000	Y_WP:	0.500	X:	0.067	Y:	-1.063	Z:	1.012	yaw:	6.695	yaw rate:	8.935	Roll:	-0.452	Pitch:	-30.000	Yaw:	10.178	Thrust:	0.000
Time:	3.089	Roll Set Point:	-0.033	Pitch Set Point:	2.127	Yaw Set Point:	-0.096	X_WP:	0.000	Y_WP:	0.000	Y_WP:	0.500	X:	0.068	Y:	-1.063	Z:	1.012	yaw:	5.481	yaw rate:	121.373	Roll:	18.025	Pitch:	-30.000	Yaw:	-6.359	Thrust:	0.000
Time:	3.109	Roll Set Point:	-0.039	Pitch Set Point:	2.127	Yaw Set Point:	-0.091	X_WP:	0.000	Y_WP:	0.000	Y_WP:	0.500	X:	0.068	Y:	-1.063	Z:	1.012	yaw:	5.194	yaw rate:	28.699	Roll:	3.597	Pitch:	-30.000	Yaw:	5.469	Thrust:	0.000
Time:	3.129	Roll Set Point:	-0.021	Pitch Set Point:	2.126	Yaw Set Point:	-0.108	X_WP:	0.000	Y_WP:	0.000	Y_WP:	0.500	X:	0.068	Y:	-1.062	Z:	1.011	yaw:	6.168	yaw rate:	-97.432	Roll:	-16.615	Pitch:	-30.000	Yaw:	23.321	Thrust:	0.000
Time:	3.150	Roll Set Point:	-0.024	Pitch Set Point:	2.125	Yaw Set Point:	-0.104	X_WP:	0.000	Y_WP:	0.000	Y_WP:	0.500	X:	0.068	Y:	-1.062	Z:	1.011	yaw:	5.977	yaw rate:	19.145	Roll:	1.257	Pitch:	-30.000	Yaw:	7.992	Thrust:	0.000
Time:	3.170	Roll Set Point:	-0.022	Pitch Set Point:	2.125	Yaw Set Point:	-0.106	X_WP:	0.000	Y_WP:	0.000	Y_WP:	0.500	X:	0.067	Y:	-1.062	Z:	1.011	yaw:	6.071	yaw rate:	-9.411	Roll:	-3.202	Pitch:	-30.000	Yaw:	11.706	Thrust:	0.000
Time:	3.189	Roll Set Point:	0.013	Pitch Set Point:	2.121	Yaw Set Point:	-0.139	X_WP:	0.000	Y_WP:	0.000	Y_WP:	0.500	X:	0.067	Y:	-1.061	Z:	1.011	yaw:	7.945	yaw rate:	-187.375	Roll:	-30.000	Pitch:	-28.803	Yaw:	39.123	Thrust:	0.000
Time:	3.209	Roll Set Point:	-0.016	Pitch Set Point:	2.124	Yaw Set Point:	-0.112	X_WP:	0.000	Y_WP:	0.000	Y_WP:	0.500	X:	0.067	Y:	-1.061	Z:	1.011	yaw:	6.412	yaw rate:	153.308	Roll:	22.593	Pitch:	-30.000	Yaw:	-8.340	Thrust:	0.000
Time:	3.229	Roll Set Point:	-0.003	Pitch Set Point:	2.122	Yaw Set Point:	-0.123	X_WP:	0.000	Y_WP:	0.000	Y_WP:	0.500	X:	0.067	Y:	-1.061	Z:	1.011	yaw:	7.073	yaw rate:	-66.188	Roll:	-12.258	Pitch:	-30.000	Yaw:	20.696	Thrust:	0.000
Time:	3.249	Roll Set Point:	-0.005	Pitch Set Point:	2.122	Yaw Set Point:	-0.122	X_WP:	0.000	Y_WP:	0.000	Y_WP:	0.500	X:	0.067	Y:	-1.061	Z:	1.011	yaw:	6.992	yaw rate:	8.166	Roll:	-0.918	Pitch:	-30.000	Yaw:	10.675	Thrust:	0.000
Time:	3.269	Roll Set Point:	-0.025	Pitch Set Point:	2.123	Yaw Set Point:	-0.103	X_WP:	0.000	Y_WP:	0.000	Y_WP:	0.500	X:	0.067	Y:	-1.061	Z:	1.011	yaw:	5.899	yaw rate:	109.311	Roll:	15.566	Pitch:	-30.000	Yaw:	-3.730	Thrust:	0.000
Time:	3.290	Roll Set Point:	-0.013	Pitch Set Point:	2.122	Yaw Set Point:	-0.114	X_WP:	0.000	Y_WP:	0.000	Y_WP:	0.500	X:	0.067	Y:	-1.061	Z:	1.011	yaw:	6.544	yaw rate:	-64.574	Roll:	-12.216	Pitch:	-30.000	Yaw:	19.464	Thrust:	0.000
Time:	3.309	Roll Set Point:	0.010	Pitch Set Point:	2.120	Yaw Set Point:	-0.136	X_WP:	0.000	Y_WP:	0.000	Y_WP:	0.500	X:	0.067	Y:	-1.060	Z:	1.011	yaw:	7.779	yaw rate:	-123.419	Roll:	-22.421	Pitch:	-29.760	Yaw:	30.159	Thrust:	0.000
Time:	3.330	Roll Set Point:	-0.001	Pitch Set Point:	2.121	Yaw Set Point:	-0.125	X_WP:	0.000	Y_WP:	0.000	Y_WP:	0.500	X:	0.067	Y:	-1.060	Z:	1.011	yaw:	7.150	yaw rate:	62.890	Roll:	7.109	Pitch:	-30.000	Yaw:	4.341	Thrust:	0.000
Time:	3.351	Roll Set Point:	-0.007	Pitch Set Point:	2.121	Yaw Set Point:	-0.120	X_WP:	0.000	Y_WP:	0.000	Y_WP:	0.500	X:	0.067	Y:	-1.060	Z:	1.011	yaw:	6.863	yaw rate:	28.642	Roll:	2.374	Pitch:	-30.000	Yaw:	8.207	Thrust:	0.000
Time:	3.370	Roll Set Point:	-0.038	Pitch Set Point:	2.123	Yaw Set Point:	-0.090	X_WP:	0.000	Y_WP:	0.000	Y_WP:	0.500	X:	0.067	Y:	-1.061	Z:	1.011	yaw:	5.170	yaw rate:	169.360	Roll:	26.026	Pitch:	-30.000	Yaw:	-14.797	Thrust:	0.000
Time:	3.389	Roll Set Point:	0.001	Pitch Set Point:	2.120	Yaw Set Point:	-0.128	X_WP:	0.000	Y_WP:	0.000	Y_WP:	0.500	X:	0.067	Y:	-1.060	Z:	1.011	yaw:	7.310	yaw rate:	-214.077	Roll:	-30.000	Pitch:	-29.375	Yaw:	39.962	Thrust:	0.000
Time:	3.409	Roll Set Point:	-0.010	Pitch Set Point:	2.121	Yaw Set Point:	-0.116	X_WP:	0.000	Y_WP:	0.000	Y_WP:	0.500	X:	0.067	Y:	-1.060	Z:	1.011	yaw:	6.656	yaw rate:	65.396	Roll:	8.328	Pitch:	-30.000	Yaw:	2.555	Thrust:	0.000
Time:	3.430	Roll Set Point:	-0.014	Pitch Set Point:	2.121	Yaw Set Point:	-0.113	X_WP:	0.000	Y_WP:	0.000	Y_WP:	0.500	X:	0.067	Y:	-1.060	Z:	1.011	yaw:	6.467	yaw rate:	18.951	Roll:	0.996	Pitch:	-30.000	Yaw:	8.827	Thrust:	0.000
Time:	3.451	Roll Set Point:	0.016	Pitch Set Point:	2.118	Yaw Set Point:	-0.140	X_WP:	0.000	Y_WP:	0.000	Y_WP:	0.500	X:	0.067	Y:	-1.060	Z:	1.011	yaw:	8.049	yaw rate:	-158.187	Roll:	-27.224	Pitch:	-29.235	Yaw:	33.522	Thrust:	0.000
Time:	3.470	Roll Set Point:	-0.008	Pitch Set Point:	2.120	Yaw Set Point:	-0.118	X_WP:	0.000	Y_WP:	0.000	Y_WP:	0.500	X:	0.067	Y:	-1.060	Z:	1.011	yaw:	6.775	yaw rate:	127.372	Roll:	18.707	Pitch:	-30.000	Yaw:	-6.460	Thrust:	0.000
Time:	3.492	Roll Set Point:	-0.008	Pitch Set Point:	2.120	Yaw Set Point:	-0.118	X_WP:	0.000	Y_WP:	0.000	Y_WP:	0.500	X:	0.066	Y:	-1.060	Z:	1.011	yaw:	6.761	yaw rate:	1.384	Roll:	-2.048	Pitch:	-30.000	Yaw:	11.516	Thrust:	0.000
Time:	3.509	Roll Set Point:	0.089	Pitch Set Point:	2.106	Yaw Set Point:	-0.210	X_WP:	0.000	Y_WP:	0.000	Y_WP:	0.500	X:	0.066	Y:	-1.058	Z:	1.011	yaw:	12.024	yaw rate:	-526.252	Roll:	-30.000	Pitch:	-19.201	Yaw:	97.671	Thrust:	0.000
Time:	3.530	Roll Set Point:	0.098	Pitch Set Point:	2.105	Yaw Set Point:	-0.218	X_WP:	0.000	Y_WP:	0.000	Y_WP:	0.500	X:	0.066	Y:	-1.058	Z:	1.011	yaw:	12.507	yaw rate:	-48.357	Roll:	-12.741	Pitch:	-30.000	Yaw:	25.774	Thrust:	0.000
Time:	3.551	Roll Set Point:	0.100	Pitch Set Point:	2.105	Yaw Set Point:	-0.220	X_WP:	0.000	Y_WP:	0.000	Y_WP:	0.500	X:	0.066	Y:	-1.058	Z:	1.012	yaw:	12.607	yaw rate:	-9.960	Roll:	-6.841	Pitch:	-30.000	Yaw:	20.948	Thrust:	0.000
Time:	3.569	Roll Set Point:	-0.020	Pitch Set Point:	2.122	Yaw Set Point:	-0.106	X_WP:	0.000	Y_WP:	0.000	Y_WP:	0.500	X:	0.066	Y:	-1.060	Z:	1.012	yaw:	6.082	yaw rate:	652.497	Roll:	30.000	Pitch:	-30.000	Yaw:	-81.802	Thrust:	0.000
Time:	3.590	Roll Set Point:	-0.023	Pitch Set Point:	2.122	Yaw Set Point:	-0.103	X_WP:	0.000	Y_WP:	0.000	Y_WP:	0.500	X:	0.066	Y:	-1.060	Z:	1.012	yaw:	5.923	yaw rate:	15.927	Roll:	0.866	Pitch:	-30.000	Yaw:	8.282	Thrust:	0.000
Time:	3.609	Roll Set Point:	-0.004	Pitch Set Point:	2.121	Yaw Set Point:	-0.121	X_WP:	0.000	Y_WP:	0.000	Y_WP:	0.500	X:	0.066	Y:	-1.060	Z:	1.012	yaw:	6.908	yaw rate:	-98.490	Roll:	-17.994	Pitch:	-30.000	Yaw:	24.993	Thrust:	0.000
Time:	3.629	Roll Set Point:	-0.002	Pitch Set Point:	2.121	Yaw Set Point:	-0.122	X_WP:	0.000	Y_WP:	0.000	Y_WP:	0.500	X:	0.066	Y:	-1.060	Z:	1.013	yaw:	6.973	yaw rate:	-6.567	Roll:	-3.369	Pitch:	-30.000	Yaw:	12.629	Thrust:	0.000
Time:	3.650	Roll Set Point:	-0.022	Pitch Set Point:	2.123	Yaw Set Point:	-0.103	X_WP:	0.000	Y_WP:	0.000	Y_WP:	0.500	X:	0.066	Y:	-1.061	Z:	1.013	yaw:	5.904	yaw rate:	106.885	Roll:	14.762	Pitch:	-30.000	Yaw:	-3.482	Thrust:	0.000
Time:	3.669	Roll Set Point:	-0.003	Pitch Set Point:	2.122	Yaw Set Point:	-0.121	X_WP:	0.000	Y_WP:	0.000	Y_WP:	0.500	X:	0.066	Y:	-1.061	Z:	1.013	yaw:	6.919	yaw rate:	-101.498	Roll:	-18.510	Pitch:	-30.000	Yaw:	25.089	Thrust:	0.000
Time:	3.689	Roll Set Point:	-0.017	Pitch Set Point:	2.123	Yaw Set Point:	-0.107	X_WP:	0.000	Y_WP:	0.000	Y_WP:	0.500	X:	0.066	Y:	-1.061	Z:	1.014	yaw:	6.154	yaw rate:	76.583	Roll:	10.836	Pitch:	-30.000	Yaw:	0.224	Thrust:	0.000
Time:	3.708	Roll Set Point:	-0.004	Pitch Set Point:	2.122	Yaw Set Point:	-0.120	X_WP:	0.000	Y_WP:	0.000	Y_WP:	0.500	X:	0.065	Y:	-1.061	Z:	1.014	yaw:	6.869	yaw rate:	-71.549	Roll:	-13.719	Pitch:	-30.000	Yaw:	21.288	Thrust:	0.000
Time:	3.728	Roll Set Point:	-0.190	Pitch Set Point:	2.123	Yaw Set Point:	0.053	X_WP:	0.000	Y_WP:	0.000	Y_WP:	0.500	X:	0.066	Y:	-1.064	Z:	1.016	yaw:	-3.062	yaw rate:	993.089	Roll:	30.000	Pitch:	-29.699	Yaw:	-130.012	Thrust:	0.000
Time:	3.750	Roll Set Point:	-0.208	Pitch Set Point:	2.122	Yaw Set Point:	0.071	X_WP:	0.000	Y_WP:	0.000	Y_WP:	0.500	X:	0.066	Y:	-1.064	Z:	1.017	yaw:	-4.074	yaw rate:	101.225	Roll:	18.688	Pitch:	-29.942	Yaw:	-15.928	Thrust:	0.000
Time:	3.769	Roll Set Point:	0.094	Pitch Set Point:	2.108	Yaw Set Point:	-0.212	X_WP:	0.000	Y_WP:	0.000	Y_WP:	0.500	X:	0.065	Y:	-1.059	Z:	1.015	yaw:	12.159	yaw rate:	-1623.291	Roll:	-30.000	Pitch:	-23.722	Yaw:	242.451	Thrust:	0.000
Time:	3.788	Roll Set Point:	0.096	Pitch Set Point:	2.108	Yaw Set Point:	-0.214	X_WP:	0.000	Y_WP:	0.000	Y_WP:	0.500	X:	0.065	Y:	-1.059	Z:	1.015	yaw:	12.280	yaw rate:	-12.130	Roll:	-7.028	Pitch:	-30.000	Yaw:	20.726	Thrust:	0.000
Time:	3.808	Roll Set Point:	0.096	Pitch Set Point:	2.108	Yaw Set Point:	-0.214	X_WP:	0.000	Y_WP:	0.000	Y_WP:	0.500	X:	0.065	Y:	-1.059	Z:	1.015	yaw:	12.256	yaw rate:	2.442	Roll:	-4.720	Pitch:	-30.000	Yaw:	18.797	Thrust:	0.000
Time:	3.829	Roll Set Point:	0.094	Pitch Set Point:	2.109	Yaw Set Point:	-0.212	X_WP:	0.000	Y_WP:	0.000	Y_WP:	0.500	X:	0.065	Y:	-1.059	Z:	1.015	yaw:	12.164	yaw rate:	9.126	Roll:	-3.707	Pitch:	-30.000	Yaw:	17.899	Thrust:	0.000
Time:	3.849	Roll Set Point:	0.094	Pitch Set Point:	2.108	Yaw Set Point:	-0.213	X_WP:	0.000	Y_WP:	0.000	Y_WP:	0.500	X:	0.065	Y:	-1.059	Z:	1.015	yaw:	12.177	yaw rate:	-1.260	Roll:	-5.292	Pitch:	-30.000	Yaw:	19.195	Thrust:	0.000
Time:	3.869	Roll Set Point:	0.085	Pitch Set Point:	2.110	Yaw Set Point:	-0.203	X_WP:	0.000	Y_WP:	0.000	Y_WP:	0.500	X:	0.065	Y:	-1.059	Z:	1.015	yaw:	11.638	yaw rate:	53.887	Roll:	3.366	Pitch:	-30.000	Yaw:	11.034	Thrust:	0.000
Time:	3.888	Roll Set Point:	0.093	Pitch Set Point:	2.108	Yaw Set Point:	-0.211	X_WP:	0.000	Y_WP:	0.000	Y_WP:	0.500	X:	0.065	Y:	-1.059	Z:	1.016	yaw:	12.085	yaw rate:	-44.651	Roll:	-11.909	Pitch:	-29.973	Yaw:	24.821	Thrust:	0.000
Time:	3.909	Roll Set Point:	0.089	Pitch Set Point:	2.109	Yaw Set Point:	-0.207	X_WP:	0.000	Y_WP:	0.000	Y_WP:	0.500	X:	0.065	Y:	-1.059	Z:	1.016	yaw:	11.841	yaw rate:	24.344	Roll:	-1.132	Pitch:	-30.000	Yaw:	15.512	Thrust:	0.000
Time:	3.929	Roll Set Point:	-0.014	Pitch Set Point:	2.122	Yaw Set Point:	-0.110	X_WP:	0.000	Y_WP:	0.000	Y_WP:	0.500	X:	0.065	Y:	-1.061	Z:	1.016	yaw:	6.297	yaw rate:	554.446	Roll:	30.000	Pitch:	-30.000	Yaw:	-63.354	Thrust:	0.000
Time:	3.950	Roll Set Point:	-0.025	Pitch Set Point:	2.123	Yaw Set Point:	-0.100	X_WP:	0.000	Y_WP:	0.000	Y_WP:	0.500	X:	0.065	Y:	-1.061	Z:	1.017	yaw:	5.721	yaw rate:	57.562	Roll:	7.287	Pitch:	-30.000	Yaw:	2.370	Thrust:	0.000
Time:	3.969	Roll Set Point:	0.097	Pitch Set Point:	2.107	Yaw Set Point:	-0.215	X_WP:	0.000	Y_WP:	0.000	Y_WP:	0.500	X:	0.065	Y:	-1.059	Z:	1.017	yaw:	12.313	yaw rate:	-659.168	Roll:	-30.000	Pitch:	-19.556	Yaw:	102.061	Thrust:	0.000
Time:	3.988	Roll Set Point:	0.090	Pitch Set Point:	2.108	Yaw Set Point:	-0.208	X_WP:	0.000	Y_WP:	0.000	Y_WP:	0.500	X:	0.065	Y:	-1.059	Z:	1.018	yaw:	11.915	yaw rate:	39.825	Roll:	1.417	Pitch:	-30.000	Yaw:	13.089	Thrust:	0.000
Time:	4.009	Roll Set Point:	-0.194	Pitch Set Point:	2.121	Yaw Set Point:	0.058	X_WP:	0.000	Y_WP:	0.000	Y_WP:	0.500	X:	0.066	Y:	-1.063	Z:	1.020	yaw:	-3.349	yaw rate:	1526.314	Roll:	30.000	Pitch:	-30.000	Yaw:	-200.055	Thrust:	0.000
Time:	4.029	Roll Set Point:	-0.212	Pitch Set Point:	2.118	Yaw Set Point:	0.075	X_WP:	0.000	Y_WP:	0.000	Y_WP:	0.500	X:	0.066	Y:	-1.063	Z:	1.021	yaw:	-4.312	yaw rate:	96.396	Roll:	18.485	Pitch:	-29.411	Yaw:	-16.201	Thrust:	0.000
Time:	4.049	Roll Set Point:	-0.215	Pitch Set Point:	2.117	Yaw Set Point:	0.078	X_WP:	0.000	Y_WP:	0.000	Y_WP:	0.500	X:	0.066	Y:	-1.063	Z:	1.021	yaw:	-4.449	yaw rate:	13.610	Roll:	6.094	Pitch:	-30.000	Yaw:	-6.072	Thrust:	0.000
Time:	4.069	Roll Set Point:	0.092	Pitch Set Point:	2.105	Yaw Set Point:	-0.212	X_WP:	0.000	Y_WP:	0.000	Y_WP:	0.500	X:	0.066	Y:	-1.057	Z:	1.018	yaw:	12.125	yaw rate:	-1657.402	Roll:	-30.000	Pitch:	-24.976	Yaw:	241.679	Thrust:	0.000
Time:	4.088	Roll Set Point:	0.086	Pitch Set Point:	2.105	Yaw Set Point:	-0.207	X_WP:	0.000	Y_WP:	0.000	Y_WP:	0.500	X:	0.066	Y:	-1.057	Z:	1.018	yaw:	11.837	yaw rate:	28.852	Roll:	-0.006	Pitch:	-30.000	Yaw:	14.630	Thrust:	0.000
Time:	4.109	Roll Set Point:	0.085	Pitch Set Point:	2.104	Yaw Set Point:	-0.205	X_WP:	0.000	Y_WP:	0.000	Y_WP:	0.500	X:	0.066	Y:	-1.056	Z:	1.018	yaw:	11.752	yaw rate:	8.515	Roll:	-3.461	Pitch:	-30.000	Yaw:	17.370	Thrust:	0.000
Time:	4.129	Roll Set Point:	0.083	Pitch Set Point:	2.103	Yaw Set Point:	-0.204	X_WP:	0.000	Y_WP:	0.000	Y_WP:	0.500	X:	0.066	Y:	-1.056	Z:	1.018	yaw:	11.688	yaw rate:	6.403	Roll:	-3.759	Pitch:	-30.000	Yaw:	17.572	Thrust:	0.000
Time:	4.150	Roll Set Point:	0.084	Pitch Set Point:	2.102	Yaw Set Point:	-0.205	X_WP:	0.000	Y_WP:	0.000	Y_WP:	0.500	X:	0.066	Y:	-1.055	Z:	1.018	yaw:	11.718	yaw rate:	-2.990	Roll:	-5.200	Pitch:	-30.000	Yaw:	18.807	Thrust:	0.000
Time:	4.169	Roll Set Point:	0.080	Pitch Set Point:	2.101	Yaw Set Point:	-0.201	X_WP:	0.000	Y_WP:	0.000	Y_WP:	0.500	X:	0.066	Y:	-1.055	Z:	1.018	yaw:	11.532	yaw rate:	18.563	Roll:	-1.640	Pitch:	-30.000	Yaw:	15.327	Thrust:	0.000
Time:	4.190	Roll Set Point:	0.079	Pitch Set Point:	2.100	Yaw Set Point:	-0.200	X_WP:	0.000	Y_WP:	0.000	Y_WP:	0.500	X:	0.066	Y:	-1.054	Z:	1.018	yaw:	11.441	yaw rate:	9.140	Roll:	-3.437	Pitch:	-30.000	Yaw:	16.974	Thrust:	0.000
Time:	4.209	Roll Set Point:	0.080	Pitch Set Point:	2.099	Yaw Set Point:	-0.201	X_WP:	0.000	Y_WP:	0.000	Y_WP:	0.500	X:	0.066	Y:	-1.054	Z:	1.018	yaw:	11.491	yaw rate:	-5.006	Roll:	-5.540	Pitch:	-30.000	Yaw:	18.612	Thrust:	0.000
Time:	4.230	Roll Set Point:	0.080	Pitch Set Point:	2.099	Yaw Set Point:	-0.201	X_WP:	0.000	Y_WP:	0.000	Y_WP:	0.500	X:	0.066	Y:	-1.053	Z:	1.018	yaw:	11.488	yaw rate:	0.276	Roll:	-4.753	Pitch:	-30.000	Yaw:	18.115	Thrust:	0.000
Time:	4.249	Roll Set Point:	0.081	Pitch Set Point:	2.098	Yaw Set Point:	-0.202	X_WP:	0.000	Y_WP:	0.000	Y_WP:	0.500	X:	0.066	Y:	-1.053	Z:	1.018	yaw:	11.548	yaw rate:	-5.968	Roll:	-5.747	Pitch:	-30.000	Yaw:	18.884	Thrust:	0.000
Time:	4.268	Roll Set Point:	0.080	Pitch Set Point:	2.098	Yaw Set Point:	-0.201	X_WP:	0.000	Y_WP:	0.000	Y_WP:	0.500	X:	0.066	Y:	-1.053	Z:	1.018	yaw:	11.494	yaw rate:	5.343	Roll:	-3.886	Pitch:	-30.000	Yaw:	17.219	Thrust:	0.000
Time:	4.289	Roll Set Point:	0.080	Pitch Set Point:	2.098	Yaw Set Point:	-0.201	X_WP:	0.000	Y_WP:	0.000	Y_WP:	0.500	X:	0.066	Y:	-1.053	Z:	1.018	yaw:	11.511	yaw rate:	-1.686	Roll:	-5.073	Pitch:	-30.000	Yaw:	18.364	Thrust:	0.000
Time:	4.309	Roll Set Point:	0.081	Pitch Set Point:	2.098	Yaw Set Point:	-0.201	X_WP:	0.000	Y_WP:	0.000	Y_WP:	0.500	X:	0.066	Y:	-1.053	Z:	1.018	yaw:	11.524	yaw rate:	-1.255	Roll:	-5.080	Pitch:	-30.000	Yaw:	18.229	Thrust:	0.000
Time:	4.328	Roll Set Point:	0.080	Pitch Set Point:	2.098	Yaw Set Point:	-0.200	X_WP:	0.000	Y_WP:	0.000	Y_WP:	0.500	X:	0.065	Y:	-1.053	Z:	1.018	yaw:	11.482	yaw rate:	4.126	Roll:	-4.301	Pitch:	-30.000	Yaw:	17.436	Thrust:	0.000
Time:	4.350	Roll Set Point:	0.082	Pitch Set Point:	2.097	Yaw Set Point:	-0.201	X_WP:	0.000	Y_WP:	0.000	Y_WP:	0.500	X:	0.065	Y:	-1.053	Z:	1.018	yaw:	11.544	yaw rate:	-6.213	Roll:	-6.002	Pitch:	-30.000	Yaw:	18.953	Thrust:	0.000
Time:	4.369	Roll Set Point:	0.083	Pitch Set Point:	2.097	Yaw Set Point:	-0.202	X_WP:	0.000	Y_WP:	0.000	Y_WP:	0.500	X:	0.065	Y:	-1.053	Z:	1.018	yaw:	11.565	yaw rate:	-2.011	Roll:	-5.395	Pitch:	-30.000	Yaw:	18.427	Thrust:	0.000
Time:	4.389	Roll Set Point:	0.083	Pitch Set Point:	2.097	Yaw Set Point:	-0.202	X_WP:	0.000	Y_WP:	0.000	Y_WP:	0.500	X:	0.065	Y:	-1.053	Z:	1.019	yaw:	11.555	yaw rate:	0.962	Roll:	-4.988	Pitch:	-30.000	Yaw:	17.967	Thrust:	0.000
Time:	4.409	Roll Set Point:	-0.041	Pitch Set Point:	2.112	Yaw Set Point:	-0.084	X_WP:	0.000	Y_WP:	0.000	Y_WP:	0.500	X:	0.065	Y:	-1.055	Z:	1.019	yaw:	4.807	yaw rate:	674.796	Roll:	30.000	Pitch:	-30.000	Yaw:	-79.796	Thrust:	0.000
Time:	4.429	Roll Set Point:	-0.055	Pitch Set Point:	2.112	Yaw Set Point:	-0.069	X_WP:	0.000	Y_WP:	0.000	Y_WP:	0.500	X:	0.064	Y:	-1.055	Z:	1.020	yaw:	3.980	yaw rate:	82.702	Roll:	11.824	Pitch:	-30.000	Yaw:	-3.207	Thrust:	0.000
Time:	4.449	Roll Set Point:	-0.037	Pitch Set Point:	2.111	Yaw Set Point:	-0.087	X_WP:	0.000	Y_WP:	0.000	Y_WP:	0.500	X:	0.064	Y:	-1.055	Z:	1.020	yaw:	4.959	yaw rate:	-97.883	Roll:	-16.639	Pitch:	-30.000	Yaw:	21.712	Thrust:	0.000
Time:	4.469	Roll Set Point:	-0.045	Pitch Set Point:	2.112	Yaw Set Point:	-0.079	X_WP:	0.000	Y_WP:	0.000	Y_WP:	0.500	X:	0.064	Y:	-1.055	Z:	1.020	yaw:	4.505	yaw rate:	45.398	Roll:	5.911	Pitch:	-30.000	Yaw:	2.442	Thrust:	0.000
Time:	4.489	Roll Set Point:	-0.051	Pitch Set Point:	2.113	Yaw Set Point:	-0.072	X_WP:	0.000	Y_WP:	0.000	Y_WP:	0.500	X:	0.064	Y:	-1.055	Z:	1.020	yaw:	4.127	yaw rate:	37.753	Roll:	4.831	Pitch:	-30.000	Yaw:	2.805	Thrust:	0.000
Time:	4.508	Roll Set Point:	-0.063	Pitch Set Point:	2.113	Yaw Set Point:	-0.060	X_WP:	0.000	Y_WP:	0.000	Y_WP:	0.500	X:	0.064	Y:	-1.056	Z:	1.020	yaw:	3.460	yaw rate:	66.776	Roll:	9.859	Pitch:	-30.000	Yaw:	-2.348	Thrust:	0.000
Time:	4.528	Roll Set Point:	-0.063	Pitch Set Point:	2.114	Yaw Set Point:	-0.061	X_WP:	0.000	Y_WP:	0.000	Y_WP:	0.500	X:	0.063	Y:	-1.056	Z:	1.020	yaw:	3.467	yaw rate:	-0.780	Roll:	-0.867	Pitch:	-30.000	Yaw:	6.985	Thrust:	0.000
Time:	4.550	Roll Set Point:	-0.065	Pitch Set Point:	2.114	Yaw Set Point:	-0.058	X_WP:	0.000	Y_WP:	0.000	Y_WP:	0.500	X:	0.063	Y:	-1.056	Z:	1.020	yaw:	3.332	yaw rate:	13.543	Roll:	1.440	Pitch:	-30.000	Yaw:	5.074	Thrust:	0.000
Time:	4.569	Roll Set Point:	-0.064	Pitch Set Point:	2.115	Yaw Set Point:	-0.059	X_WP:	0.000	Y_WP:	0.000	Y_WP:	0.500	X:	0.063	Y:	-1.056	Z:	1.021	yaw:	3.388	yaw rate:	-5.646	Roll:	-1.573	Pitch:	-30.000	Yaw:	7.410	Thrust:	0.000
Time:	4.588	Roll Set Point:	-0.061	Pitch Set Point:	2.115	Yaw Set Point:	-0.061	X_WP:	0.000	Y_WP:	0.000	Y_WP:	0.500	X:	0.063	Y:	-1.057	Z:	1.021	yaw:	3.519	yaw rate:	-13.064	Roll:	-2.892	Pitch:	-30.000	Yaw:	8.616	Thrust:	0.000
Time:	4.608	Roll Set Point:	-0.002	Pitch Set Point:	2.112	Yaw Set Point:	-0.118	X_WP:	0.000	Y_WP:	0.000	Y_WP:	0.500	X:	0.063	Y:	-1.056	Z:	1.021	yaw:	6.741	yaw rate:	-322.197	Roll:	-30.000	Pitch:	-29.209	Yaw:	52.979	Thrust:	0.000
Time:	4.628	Roll Set Point:	0.002	Pitch Set Point:	2.111	Yaw Set Point:	-0.121	X_WP:	0.000	Y_WP:	0.000	Y_WP:	0.500	X:	0.063	Y:	-1.056	Z:	1.021	yaw:	6.912	yaw rate:	-17.066	Roll:	-5.345	Pitch:	-30.000	Yaw:	13.883	Thrust:	0.000
Time:	4.649	Roll Set Point:	0.000	Pitch Set Point:	2.112	Yaw Set Point:	-0.119	X_WP:	0.000	Y_WP:	0.000	Y_WP:	0.500	X:	0.063	Y:	-1.056	Z:	1.021	yaw:	6.814	yaw rate:	9.728	Roll:	-1.100	Pitch:	-30.000	Yaw:	10.291	Thrust:	0.000
Time:	4.669	Roll Set Point:	-0.001	Pitch Set Point:	2.111	Yaw Set Point:	-0.117	X_WP:	0.000	Y_WP:	0.000	Y_WP:	0.500	X:	0.063	Y:	-1.056	Z:	1.021	yaw:	6.720	yaw rate:	9.446	Roll:	-0.951	Pitch:	-30.000	Yaw:	10.120	Thrust:	0.000
Time:	4.688	Roll Set Point:	0.000	Pitch Set Point:	2.111	Yaw Set Point:	-0.118	X_WP:	0.000	Y_WP:	0.000	Y_WP:	0.500	X:	0.062	Y:	-1.056	Z:	1.021	yaw:	6.777	yaw rate:	-5.682	Roll:	-3.406	Pitch:	-30.000	Yaw:	12.202	Thrust:	0.000
Time:	4.709	Roll Set Point:	-0.003	Pitch Set Point:	2.111	Yaw Set Point:	-0.115	X_WP:	0.000	Y_WP:	0.000	Y_WP:	0.500	X:	0.062	Y:	-1.055	Z:	1.021	yaw:	6.596	yaw rate:	18.096	Roll:	0.498	Pitch:	-30.000	Yaw:	8.924	Thrust:	0.000
Time:	4.730	Roll Set Point:	-0.005	Pitch Set Point:	2.111	Yaw Set Point:	-0.113	X_WP:	0.000	Y_WP:	0.000	Y_WP:	0.500	X:	0.062	Y:	-1.055	Z:	1.021	yaw:	6.482	yaw rate:	11.326	Roll:	-0.573	Pitch:	-30.000	Yaw:	9.757	Thrust:	0.000
Time:	4.749	Roll Set Point:	-0.007	Pitch Set Point:	2.111	Yaw Set Point:	-0.112	X_WP:	0.000	Y_WP:	0.000	Y_WP:	0.500	X:	0.062	Y:	-1.055	Z:	1.021	yaw:	6.418	yaw rate:	6.472	Roll:	-1.130	Pitch:	-30.000	Yaw:	10.029	Thrust:	0.000
Time:	4.769	Roll Set Point:	-0.013	Pitch Set Point:	2.111	Yaw Set Point:	-0.107	X_WP:	0.000	Y_WP:	0.000	Y_WP:	0.500	X:	0.063	Y:	-1.055	Z:	1.021	yaw:	6.104	yaw rate:	31.356	Roll:	3.063	Pitch:	-30.000	Yaw:	6.148	Thrust:	0.000
Time:	4.790	Roll Set Point:	-0.015	Pitch Set Point:	2.111	Yaw Set Point:	-0.105	X_WP:	0.000	Y_WP:	0.000	Y_WP:	0.500	X:	0.063	Y:	-1.055	Z:	1.021	yaw:	5.992	yaw rate:	11.199	Roll:	-0.196	Pitch:	-30.000	Yaw:	9.168	Thrust:	0.000
Time:	4.808	Roll Set Point:	-0.015	Pitch Set Point:	2.110	Yaw Set Point:	-0.104	X_WP:	0.000	Y_WP:	0.000	Y_WP:	0.500	X:	0.063	Y:	-1.055	Z:	1.021	yaw:	5.979	yaw rate:	1.294	Roll:	-1.739	Pitch:	-30.000	Yaw:	9.982	Thrust:	0.000
Time:	4.829	Roll Set Point:	-0.004	Pitch Set Point:	2.109	Yaw Set Point:	-0.115	X_WP:	0.000	Y_WP:	0.000	Y_WP:	0.500	X:	0.063	Y:	-1.054	Z:	1.021	yaw:	6.576	yaw rate:	-59.638	Roll:	-11.211	Pitch:	-30.000	Yaw:	18.806	Thrust:	0.000
Time:	4.851	Roll Set Point:	-0.005	Pitch Set Point:	2.109	Yaw Set Point:	-0.114	X_WP:	0.000	Y_WP:	0.000	Y_WP:	0.500	X:	0.063	Y:	-1.054	Z:	1.021	yaw:	6.527	yaw rate:	4.911	Roll:	-1.595	Pitch:	-30.000	Yaw:	10.716	Thrust:	0.000
Time:	4.869	Roll Set Point:	-0.007	Pitch Set Point:	2.109	Yaw Set Point:	-0.112	X_WP:	0.000	Y_WP:	0.000	Y_WP:	0.500	X:	0.063	Y:	-1.054	Z:	1.020	yaw:	6.420	yaw rate:	10.651	Roll:	-0.416	Pitch:	-30.000	Yaw:	9.107	Thrust:	0.000
Time:	4.888	Roll Set Point:	-0.006	Pitch Set Point:	2.109	Yaw Set Point:	-0.113	X_WP:	0.000	Y_WP:	0.000	Y_WP:	0.500	X:	0.063	Y:	-1.054	Z:	1.020	yaw:	6.467	yaw rate:	-4.649	Roll:	-3.026	Pitch:	-30.000	Yaw:	11.640	Thrust:	0.000
Time:	4.908	Roll Set Point:	-0.007	Pitch Set Point:	2.109	Yaw Set Point:	-0.112	X_WP:	0.000	Y_WP:	0.000	Y_WP:	0.500	X:	0.063	Y:	-1.054	Z:	1.021	yaw:	6.431	yaw rate:	3.563	Roll:	-1.709	Pitch:	-30.000	Yaw:	10.490	Thrust:	0.000
Time:	4.930	Roll Set Point:	-0.009	Pitch Set Point:	2.110	Yaw Set Point:	-0.110	X_WP:	0.000	Y_WP:	0.000	Y_WP:	0.500	X:	0.063	Y:	-1.055	Z:	1.021	yaw:	6.331	yaw rate:	9.997	Roll:	-0.771	Pitch:	-30.000	Yaw:	9.764	Thrust:	0.000
Time:	4.950	Roll Set Point:	-0.015	Pitch Set Point:	2.110	Yaw Set Point:	-0.105	X_WP:	0.000	Y_WP:	0.000	Y_WP:	0.500	X:	0.063	Y:	-1.055	Z:	1.021	yaw:	5.988	yaw rate:	34.262	Roll:	3.429	Pitch:	-30.000	Yaw:	5.884	Thrust:	0.000
Time:	4.969	Roll Set Point:	-0.013	Pitch Set Point:	2.111	Yaw Set Point:	-0.106	X_WP:	0.000	Y_WP:	0.000	Y_WP:	0.500	X:	0.063	Y:	-1.055	Z:	1.021	yaw:	6.100	yaw rate:	-11.119	Roll:	-3.896	Pitch:	-30.000	Yaw:	11.958	Thrust:	0.000
Time:	4.989	Roll Set Point:	-0.015	Pitch Set Point:	2.111	Yaw Set Point:	-0.104	X_WP:	0.000	Y_WP:	0.000	Y_WP:	0.500	X:	0.063	Y:	-1.055	Z:	1.021	yaw:	5.975	yaw rate:	12.459	Roll:	-0.186	Pitch:	-30.000	Yaw:	8.650	Thrust:	0.000
Time:	5.009	Roll Set Point:	-0.013	Pitch Set Point:	2.112	Yaw Set Point:	-0.106	X_WP:	0.000	Y_WP:	0.000	Y_WP:	0.500	X:	0.063	Y:	-1.055	Z:	1.021	yaw:	6.067	yaw rate:	-9.164	Roll:	-3.625	Pitch:	-30.000	Yaw:	11.684	Thrust:	0.000
Time:	5.030	Roll Set Point:	-0.012	Pitch Set Point:	2.112	Yaw Set Point:	-0.107	X_WP:	0.000	Y_WP:	0.000	Y_WP:	0.500	X:	0.063	Y:	-1.056	Z:	1.022	yaw:	6.145	yaw rate:	-7.811	Roll:	-3.341	Pitch:	-30.000	Yaw:	11.631	Thrust:	0.000
Time:	5.049	Roll Set Point:	-0.009	Pitch Set Point:	2.112	Yaw Set Point:	-0.110	X_WP:	0.000	Y_WP:	0.000	Y_WP:	0.500	X:	0.063	Y:	-1.056	Z:	1.022	yaw:	6.313	yaw rate:	-16.806	Roll:	-5.051	Pitch:	-30.000	Yaw:	13.025	Thrust:	0.000
Time:	5.070	Roll Set Point:	-0.009	Pitch Set Point:	2.113	Yaw Set Point:	-0.109	X_WP:	0.000	Y_WP:	0.000	Y_WP:	0.500	X:	0.062	Y:	-1.056	Z:	1.022	yaw:	6.261	yaw rate:	5.141	Roll:	-1.548	Pitch:	-30.000	Yaw:	10.152	Thrust:	0.000
Time:	5.089	Roll Set Point:	-0.001	Pitch Set Point:	2.112	Yaw Set Point:	-0.117	X_WP:	0.000	Y_WP:	0.000	Y_WP:	0.500	X:	0.062	Y:	-1.056	Z:	1.022	yaw:	6.718	yaw rate:	-45.656	Roll:	-9.847	Pitch:	-30.000	Yaw:	17.365	Thrust:	0.000
Time:	5.109	Roll Set Point:	-0.001	Pitch Set Point:	2.112	Yaw Set Point:	-0.117	X_WP:	0.000	Y_WP:	0.000	Y_WP:	0.500	X:	0.062	Y:	-1.056	Z:	1.022	yaw:	6.703	yaw rate:	1.530	Roll:	-2.286	Pitch:	-30.000	Yaw:	11.115	Thrust:	0.000
Time:	5.131	Roll Set Point:	-0.003	Pitch Set Point:	2.113	Yaw Set Point:	-0.114	X_WP:	0.000	Y_WP:	0.000	Y_WP:	0.500	X:	0.062	Y:	-1.056	Z:	1.022	yaw:	6.545	yaw rate:	15.761	Roll:	-0.362	Pitch:	-30.000	Yaw:	9.392	Thrust:	0.000
Time:	5.151	Roll Set Point:	0.002	Pitch Set Point:	2.112	Yaw Set Point:	-0.119	X_WP:	0.000	Y_WP:	0.000	Y_WP:	0.500	X:	0.062	Y:	-1.056	Z:	1.022	yaw:	6.807	yaw rate:	-26.171	Roll:	-6.835	Pitch:	-30.000	Yaw:	14.919	Thrust:	0.000
Time:	5.170	Roll Set Point:	0.001	Pitch Set Point:	2.112	Yaw Set Point:	-0.119	X_WP:	0.000	Y_WP:	0.000	Y_WP:	0.500	X:	0.062	Y:	-1.056	Z:	1.022	yaw:	6.798	yaw rate:	0.915	Roll:	-2.395	Pitch:	-30.000	Yaw:	11.192	Thrust:	0.000
Time:	5.189	Roll Set Point:	0.004	Pitch Set Point:	2.112	Yaw Set Point:	-0.121	X_WP:	0.000	Y_WP:	0.000	Y_WP:	0.500	X:	0.062	Y:	-1.056	Z:	1.022	yaw:	6.936	yaw rate:	-13.840	Roll:	-4.817	Pitch:	-30.000	Yaw:	13.494	Thrust:	0.000
Time:	5.209	Roll Set Point:	0.002	Pitch Set Point:	2.112	Yaw Set Point:	-0.120	X_WP:	0.000	Y_WP:	0.000	Y_WP:	0.500	X:	0.062	Y:	-1.056	Z:	1.022	yaw:	6.849	yaw rate:	8.710	Roll:	-1.161	Pitch:	-30.000	Yaw:	10.467	Thrust:	0.000
Time:	5.230	Roll Set Point:	0.004	Pitch Set Point:	2.112	Yaw Set Point:	-0.121	X_WP:	0.000	Y_WP:	0.000	Y_WP:	0.500	X:	0.062	Y:	-1.056	Z:	1.022	yaw:	6.910	yaw rate:	-6.105	Roll:	-3.545	Pitch:	-30.000	Yaw:	12.478	Thrust:	0.000
Time:	5.251	Roll Set Point:	0.003	Pitch Set Point:	2.112	Yaw Set Point:	-0.120	X_WP:	0.000	Y_WP:	0.000	Y_WP:	0.500	X:	0.062	Y:	-1.056	Z:	1.022	yaw:	6.889	yaw rate:	2.067	Roll:	-2.321	Pitch:	-30.000	Yaw:	11.535	Thrust:	0.000
Time:	5.270	Roll Set Point:	0.004	Pitch Set Point:	2.111	Yaw Set Point:	-0.121	X_WP:	0.000	Y_WP:	0.000	Y_WP:	0.500	X:	0.062	Y:	-1.056	Z:	1.022	yaw:	6.939	yaw rate:	-4.935	Roll:	-3.351	Pitch:	-30.000	Yaw:	12.214	Thrust:	0.000
Time:	5.290	Roll Set Point:	0.005	Pitch Set Point:	2.111	Yaw Set Point:	-0.123	X_WP:	0.000	Y_WP:	0.000	Y_WP:	0.500	X:	0.062	Y:	-1.056	Z:	1.022	yaw:	7.019	yaw rate:	-8.055	Roll:	-3.846	Pitch:	-30.000	Yaw:	12.857	Thrust:	0.000
Time:	5.309	Roll Set Point:	0.003	Pitch Set Point:	2.111	Yaw Set Point:	-0.120	X_WP:	0.000	Y_WP:	0.000	Y_WP:	0.500	X:	0.062	Y:	-1.056	Z:	1.022	yaw:	6.903	yaw rate:	11.629	Roll:	-0.597	Pitch:	-30.000	Yaw:	10.051	Thrust:	0.000
Time:	5.330	Roll Set Point:	-0.002	Pitch Set Point:	2.111	Yaw Set Point:	-0.116	X_WP:	0.000	Y_WP:	0.000	Y_WP:	0.500	X:	0.062	Y:	-1.055	Z:	1.022	yaw:	6.662	yaw rate:	24.042	Roll:	1.219	Pitch:	-30.000	Yaw:	8.306	Thrust:	0.000
Time:	5.351	Roll Set Point:	-0.002	Pitch Set Point:	2.111	Yaw Set Point:	-0.117	X_WP:	0.000	Y_WP:	0.000	Y_WP:	0.500	X:	0.062	Y:	-1.055	Z:	1.022	yaw:	6.694	yaw rate:	-3.189	Roll:	-2.856	Pitch:	-30.000	Yaw:	11.823	Thrust:	0.000
