Time:	0.035	Roll Set Point:	0.008	Pitch Set Point:	0.007	Yaw Set Point:	-3.113	X_WP:	0.000	Y_WP:	0.000	Y_WP:	1.000	X:	0.240	Y:	-0.268	Z:	0.056	yaw:	178.361	yaw rate:	-0.542	Roll:	-7.184	Pitch:	7.577	Yaw:	249.039	Thrust:	51.932
Time:	0.053	Roll Set Point:	0.008	Pitch Set Point:	0.007	Yaw Set Point:	-3.113	X_WP:	0.000	Y_WP:	0.000	Y_WP:	1.000	X:	0.240	Y:	-0.268	Z:	0.056	yaw:	178.358	yaw rate:	0.234	Roll:	-7.207	Pitch:	7.577	Yaw:	250.067	Thrust:	53.856
Time:	0.074	Roll Set Point:	0.008	Pitch Set Point:	0.007	Yaw Set Point:	-3.113	X_WP:	0.000	Y_WP:	0.000	Y_WP:	1.000	X:	0.240	Y:	-0.268	Z:	0.056	yaw:	178.362	yaw rate:	-0.366	Roll:	-7.204	Pitch:	7.614	Yaw:	251.234	Thrust:	56.756
Time:	0.094	Roll Set Point:	0.008	Pitch Set Point:	0.007	Yaw Set Point:	-3.113	X_WP:	0.000	Y_WP:	0.000	Y_WP:	1.000	X:	0.240	Y:	-0.268	Z:	0.056	yaw:	178.357	yaw rate:	0.488	Roll:	-7.234	Pitch:	7.600	Yaw:	250.979	Thrust:	58.866
Time:	0.113	Roll Set Point:	0.008	Pitch Set Point:	0.007	Yaw Set Point:	-3.113	X_WP:	0.000	Y_WP:	0.000	Y_WP:	1.000	X:	0.240	Y:	-0.268	Z:	0.056	yaw:	178.362	yaw rate:	-0.491	Roll:	-7.213	Pitch:	7.650	Yaw:	251.017	Thrust:	60.527
Time:	0.133	Roll Set Point:	0.008	Pitch Set Point:	0.007	Yaw Set Point:	-3.113	X_WP:	0.000	Y_WP:	0.000	Y_WP:	1.000	X:	0.240	Y:	-0.268	Z:	0.056	yaw:	178.360	yaw rate:	0.182	Roll:	-7.255	Pitch:	7.633	Yaw:	251.010	Thrust:	62.889
Time:	0.154	Roll Set Point:	0.008	Pitch Set Point:	0.007	Yaw Set Point:	-3.113	X_WP:	0.000	Y_WP:	0.000	Y_WP:	1.000	X:	0.240	Y:	-0.268	Z:	0.056	yaw:	178.351	yaw rate:	0.964	Roll:	-7.307	Pitch:	7.612	Yaw:	250.917	Thrust:	65.378
Time:	0.173	Roll Set Point:	0.008	Pitch Set Point:	0.007	Yaw Set Point:	-3.113	X_WP:	0.000	Y_WP:	0.000	Y_WP:	1.000	X:	0.240	Y:	-0.268	Z:	0.056	yaw:	178.362	yaw rate:	-1.116	Roll:	-7.220	Pitch:	7.713	Yaw:	251.165	Thrust:	68.425
Time:	0.193	Roll Set Point:	0.008	Pitch Set Point:	0.007	Yaw Set Point:	-3.113	X_WP:	0.000	Y_WP:	0.000	Y_WP:	1.000	X:	0.240	Y:	-0.268	Z:	0.056	yaw:	178.352	yaw rate:	1.034	Roll:	-7.331	Pitch:	7.642	Yaw:	250.896	Thrust:	70.062
Time:	0.217	Roll Set Point:	0.008	Pitch Set Point:	0.007	Yaw Set Point:	-3.113	X_WP:	0.000	Y_WP:	0.000	Y_WP:	1.000	X:	0.240	Y:	-0.268	Z:	0.056	yaw:	178.356	yaw rate:	-0.469	Roll:	-7.295	Pitch:	7.733	Yaw:	251.432	Thrust:	75.875
Time:	0.233	Roll Set Point:	0.008	Pitch Set Point:	0.007	Yaw Set Point:	-3.113	X_WP:	0.000	Y_WP:	0.000	Y_WP:	1.000	X:	0.240	Y:	-0.268	Z:	0.056	yaw:	178.366	yaw rate:	-0.950	Roll:	-7.234	Pitch:	7.730	Yaw:	250.800	Thrust:	70.146
Time:	0.253	Roll Set Point:	0.008	Pitch Set Point:	0.007	Yaw Set Point:	-3.113	X_WP:	0.000	Y_WP:	0.000	Y_WP:	1.000	X:	0.240	Y:	-0.268	Z:	0.056	yaw:	178.358	yaw rate:	0.820	Roll:	-7.362	Pitch:	7.695	Yaw:	250.991	Thrust:	77.521
Time:	0.274	Roll Set Point:	0.008	Pitch Set Point:	0.007	Yaw Set Point:	-3.113	X_WP:	0.000	Y_WP:	0.000	Y_WP:	1.000	X:	0.240	Y:	-0.268	Z:	0.056	yaw:	178.348	yaw rate:	0.950	Roll:	-7.379	Pitch:	7.694	Yaw:	250.967	Thrust:	80.043
Time:	0.294	Roll Set Point:	0.008	Pitch Set Point:	0.007	Yaw Set Point:	-3.113	X_WP:	0.000	Y_WP:	0.000	Y_WP:	1.000	X:	0.240	Y:	-0.268	Z:	0.056	yaw:	178.361	yaw rate:	-1.322	Roll:	-7.287	Pitch:	7.805	Yaw:	251.224	Thrust:	81.613
Time:	0.313	Roll Set Point:	0.008	Pitch Set Point:	0.007	Yaw Set Point:	-3.113	X_WP:	0.000	Y_WP:	0.000	Y_WP:	1.000	X:	0.240	Y:	-0.268	Z:	0.056	yaw:	178.351	yaw rate:	0.988	Roll:	-7.406	Pitch:	7.711	Yaw:	250.806	Thrust:	82.277
Time:	0.333	Roll Set Point:	0.008	Pitch Set Point:	0.007	Yaw Set Point:	-3.113	X_WP:	0.000	Y_WP:	0.000	Y_WP:	1.000	X:	0.240	Y:	-0.268	Z:	0.056	yaw:	178.358	yaw rate:	-0.681	Roll:	-7.337	Pitch:	7.801	Yaw:	251.124	Thrust:	85.942
Time:	0.353	Roll Set Point:	0.008	Pitch Set Point:	0.007	Yaw Set Point:	-3.113	X_WP:	0.000	Y_WP:	0.000	Y_WP:	1.000	X:	0.240	Y:	-0.268	Z:	0.056	yaw:	178.357	yaw rate:	0.070	Roll:	-7.388	Pitch:	7.774	Yaw:	250.989	Thrust:	87.527
Time:	0.373	Roll Set Point:	0.008	Pitch Set Point:	0.007	Yaw Set Point:	-3.113	X_WP:	0.000	Y_WP:	0.000	Y_WP:	1.000	X:	0.240	Y:	-0.268	Z:	0.056	yaw:	178.362	yaw rate:	-0.462	Roll:	-7.368	Pitch:	7.813	Yaw:	251.162	Thrust:	89.740
Time:	0.393	Roll Set Point:	0.008	Pitch Set Point:	0.007	Yaw Set Point:	-3.113	X_WP:	0.000	Y_WP:	0.000	Y_WP:	1.000	X:	0.240	Y:	-0.268	Z:	0.056	yaw:	178.356	yaw rate:	0.572	Roll:	-7.436	Pitch:	7.807	Yaw:	250.931	Thrust:	94.252
Time:	0.416	Roll Set Point:	0.008	Pitch Set Point:	0.007	Yaw Set Point:	-3.113	X_WP:	0.000	Y_WP:	0.000	Y_WP:	1.000	X:	0.240	Y:	-0.268	Z:	0.056	yaw:	178.360	yaw rate:	-0.398	Roll:	-7.432	Pitch:	7.868	Yaw:	251.419	Thrust:	100.000
Time:	0.433	Roll Set Point:	0.008	Pitch Set Point:	0.007	Yaw Set Point:	-3.113	X_WP:	0.000	Y_WP:	0.000	Y_WP:	1.000	X:	0.240	Y:	-0.268	Z:	0.056	yaw:	178.366	yaw rate:	-0.561	Roll:	-7.383	Pitch:	7.820	Yaw:	250.796	Thrust:	89.511
Time:	0.453	Roll Set Point:	0.008	Pitch Set Point:	0.007	Yaw Set Point:	-3.113	X_WP:	0.000	Y_WP:	0.000	Y_WP:	1.000	X:	0.240	Y:	-0.268	Z:	0.056	yaw:	178.361	yaw rate:	0.475	Roll:	-7.444	Pitch:	7.819	Yaw:	250.998	Thrust:	97.714
Time:	0.474	Roll Set Point:	0.008	Pitch Set Point:	0.007	Yaw Set Point:	-3.113	X_WP:	0.000	Y_WP:	0.000	Y_WP:	1.000	X:	0.240	Y:	-0.268	Z:	0.056	yaw:	178.359	yaw rate:	0.253	Roll:	-7.472	Pitch:	7.889	Yaw:	251.024	Thrust:	100.000
Time:	0.494	Roll Set Point:	0.008	Pitch Set Point:	0.007	Yaw Set Point:	-3.113	X_WP:	0.000	Y_WP:	0.000	Y_WP:	1.000	X:	0.240	Y:	-0.268	Z:	0.056	yaw:	178.358	yaw rate:	0.086	Roll:	-7.490	Pitch:	7.863	Yaw:	251.066	Thrust:	100.000
Time:	0.513	Roll Set Point:	0.008	Pitch Set Point:	0.007	Yaw Set Point:	-3.113	X_WP:	0.000	Y_WP:	0.000	Y_WP:	1.000	X:	0.240	Y:	-0.268	Z:	0.056	yaw:	178.351	yaw rate:	0.685	Roll:	-7.513	Pitch:	7.853	Yaw:	250.888	Thrust:	100.000
Time:	0.533	Roll Set Point:	0.008	Pitch Set Point:	0.007	Yaw Set Point:	-3.113	X_WP:	0.000	Y_WP:	0.000	Y_WP:	1.000	X:	0.240	Y:	-0.268	Z:	0.056	yaw:	178.360	yaw rate:	-0.889	Roll:	-7.439	Pitch:	7.946	Yaw:	251.104	Thrust:	100.000
Time:	0.557	Roll Set Point:	0.008	Pitch Set Point:	0.007	Yaw Set Point:	-3.113	X_WP:	0.000	Y_WP:	0.000	Y_WP:	1.000	X:	0.240	Y:	-0.268	Z:	0.056	yaw:	178.357	yaw rate:	0.318	Roll:	-7.568	Pitch:	7.952	Yaw:	251.361	Thrust:	100.000
Time:	0.573	Roll Set Point:	0.008	Pitch Set Point:	0.007	Yaw Set Point:	-3.113	X_WP:	0.000	Y_WP:	0.000	Y_WP:	1.000	X:	0.240	Y:	-0.268	Z:	0.056	yaw:	178.355	yaw rate:	0.124	Roll:	-7.464	Pitch:	7.852	Yaw:	250.539	Thrust:	98.639
Time:	0.593	Roll Set Point:	0.008	Pitch Set Point:	0.007	Yaw Set Point:	-3.113	X_WP:	0.000	Y_WP:	0.000	Y_WP:	1.000	X:	0.240	Y:	-0.268	Z:	0.056	yaw:	178.352	yaw rate:	0.368	Roll:	-7.563	Pitch:	7.955	Yaw:	251.151	Thrust:	100.000
Time:	0.615	Roll Set Point:	0.008	Pitch Set Point:	0.007	Yaw Set Point:	-3.113	X_WP:	0.000	Y_WP:	0.000	Y_WP:	1.000	X:	0.240	Y:	-0.268	Z:	0.056	yaw:	178.353	yaw rate:	-0.160	Roll:	-7.569	Pitch:	8.009	Yaw:	251.244	Thrust:	100.000
Time:	0.633	Roll Set Point:	0.008	Pitch Set Point:	0.007	Yaw Set Point:	-3.113	X_WP:	0.000	Y_WP:	0.000	Y_WP:	1.000	X:	0.240	Y:	-0.268	Z:	0.056	yaw:	178.360	yaw rate:	-0.668	Roll:	-7.485	Pitch:	7.936	Yaw:	250.904	Thrust:	100.000
Time:	0.653	Roll Set Point:	0.008	Pitch Set Point:	0.007	Yaw Set Point:	-3.113	X_WP:	0.000	Y_WP:	0.000	Y_WP:	1.000	X:	0.240	Y:	-0.268	Z:	0.056	yaw:	178.355	yaw rate:	0.490	Roll:	-7.589	Pitch:	7.960	Yaw:	250.905	Thrust:	100.000
Time:	0.675	Roll Set Point:	0.008	Pitch Set Point:	0.007	Yaw Set Point:	-3.113	X_WP:	0.000	Y_WP:	0.000	Y_WP:	1.000	X:	0.240	Y:	-0.268	Z:	0.056	yaw:	178.356	yaw rate:	-0.120	Roll:	-7.609	Pitch:	8.043	Yaw:	251.243	Thrust:	100.000
Time:	0.696	Roll Set Point:	0.008	Pitch Set Point:	0.007	Yaw Set Point:	-3.113	X_WP:	0.000	Y_WP:	0.000	Y_WP:	1.000	X:	0.240	Y:	-0.268	Z:	0.056	yaw:	178.357	yaw rate:	-0.046	Roll:	-7.611	Pitch:	8.025	Yaw:	251.147	Thrust:	100.000
Time:	0.713	Roll Set Point:	0.008	Pitch Set Point:	0.007	Yaw Set Point:	-3.113	X_WP:	0.000	Y_WP:	0.000	Y_WP:	1.000	X:	0.240	Y:	-0.268	Z:	0.056	yaw:	178.355	yaw rate:	0.213	Roll:	-7.566	Pitch:	7.954	Yaw:	250.709	Thrust:	100.000
Time:	0.732	Roll Set Point:	0.008	Pitch Set Point:	0.007	Yaw Set Point:	-3.113	X_WP:	0.000	Y_WP:	0.000	Y_WP:	1.000	X:	0.240	Y:	-0.268	Z:	0.056	yaw:	178.363	yaw rate:	-0.857	Roll:	-7.574	Pitch:	8.066	Yaw:	251.144	Thrust:	100.000
Time:	0.753	Roll Set Point:	0.008	Pitch Set Point:	0.007	Yaw Set Point:	-3.113	X_WP:	0.000	Y_WP:	0.000	Y_WP:	1.000	X:	0.240	Y:	-0.268	Z:	0.056	yaw:	178.353	yaw rate:	1.002	Roll:	-7.679	Pitch:	8.021	Yaw:	250.959	Thrust:	100.000
Time:	0.773	Roll Set Point:	0.008	Pitch Set Point:	0.007	Yaw Set Point:	-3.113	X_WP:	0.000	Y_WP:	0.000	Y_WP:	1.000	X:	0.240	Y:	-0.268	Z:	0.056	yaw:	178.356	yaw rate:	-0.237	Roll:	-7.652	Pitch:	8.063	Yaw:	251.032	Thrust:	100.000
Time:	0.793	Roll Set Point:	0.008	Pitch Set Point:	0.007	Yaw Set Point:	-3.113	X_WP:	0.000	Y_WP:	0.000	Y_WP:	1.000	X:	0.240	Y:	-0.268	Z:	0.056	yaw:	178.359	yaw rate:	-0.350	Roll:	-7.623	Pitch:	8.074	Yaw:	251.106	Thrust:	100.000
Time:	0.816	Roll Set Point:	0.008	Pitch Set Point:	0.007	Yaw Set Point:	-3.113	X_WP:	0.000	Y_WP:	0.000	Y_WP:	1.000	X:	0.240	Y:	-0.268	Z:	0.056	yaw:	178.355	yaw rate:	0.449	Roll:	-7.733	Pitch:	8.160	Yaw:	251.224	Thrust:	100.000
Time:	0.834	Roll Set Point:	0.008	Pitch Set Point:	0.007	Yaw Set Point:	-3.113	X_WP:	0.000	Y_WP:	0.000	Y_WP:	1.000	X:	0.240	Y:	-0.268	Z:	0.056	yaw:	178.356	yaw rate:	-0.181	Roll:	-7.635	Pitch:	8.033	Yaw:	250.880	Thrust:	100.000
Time:	0.853	Roll Set Point:	0.008	Pitch Set Point:	0.007	Yaw Set Point:	-3.113	X_WP:	0.000	Y_WP:	0.000	Y_WP:	1.000	X:	0.240	Y:	-0.268	Z:	0.056	yaw:	178.353	yaw rate:	0.353	Roll:	-7.712	Pitch:	8.093	Yaw:	250.887	Thrust:	100.000
Time:	0.874	Roll Set Point:	0.008	Pitch Set Point:	0.007	Yaw Set Point:	-3.113	X_WP:	0.000	Y_WP:	0.000	Y_WP:	1.000	X:	0.240	Y:	-0.268	Z:	0.056	yaw:	178.353	yaw rate:	-0.003	Roll:	-7.717	Pitch:	8.145	Yaw:	251.152	Thrust:	100.000
Time:	0.895	Roll Set Point:	0.008	Pitch Set Point:	0.007	Yaw Set Point:	-3.113	X_WP:	0.000	Y_WP:	0.000	Y_WP:	1.000	X:	0.240	Y:	-0.268	Z:	0.056	yaw:	178.359	yaw rate:	-0.601	Roll:	-7.709	Pitch:	8.177	Yaw:	251.171	Thrust:	100.000
Time:	0.913	Roll Set Point:	0.008	Pitch Set Point:	0.007	Yaw Set Point:	-3.113	X_WP:	0.000	Y_WP:	0.000	Y_WP:	1.000	X:	0.240	Y:	-0.268	Z:	0.056	yaw:	178.355	yaw rate:	0.365	Roll:	-7.724	Pitch:	8.116	Yaw:	250.851	Thrust:	100.000
Time:	0.933	Roll Set Point:	0.008	Pitch Set Point:	0.007	Yaw Set Point:	-3.113	X_WP:	0.000	Y_WP:	0.000	Y_WP:	1.000	X:	0.240	Y:	-0.268	Z:	0.056	yaw:	178.356	yaw rate:	-0.064	Roll:	-7.719	Pitch:	8.149	Yaw:	251.032	Thrust:	100.000
Time:	0.954	Roll Set Point:	0.008	Pitch Set Point:	0.007	Yaw Set Point:	-3.113	X_WP:	0.000	Y_WP:	0.000	Y_WP:	1.000	X:	0.240	Y:	-0.268	Z:	0.056	yaw:	178.349	yaw rate:	0.677	Roll:	-7.813	Pitch:	8.193	Yaw:	251.001	Thrust:	100.000
Time:	0.973	Roll Set Point:	0.008	Pitch Set Point:	0.007	Yaw Set Point:	-3.113	X_WP:	0.000	Y_WP:	0.000	Y_WP:	1.000	X:	0.240	Y:	-0.268	Z:	0.056	yaw:	178.364	yaw rate:	-1.529	Roll:	-7.656	Pitch:	8.192	Yaw:	251.079	Thrust:	100.000
Time:	0.993	Roll Set Point:	0.008	Pitch Set Point:	0.007	Yaw Set Point:	-3.113	X_WP:	0.000	Y_WP:	0.000	Y_WP:	1.000	X:	0.240	Y:	-0.268	Z:	0.056	yaw:	178.346	yaw rate:	1.808	Roll:	-7.868	Pitch:	8.165	Yaw:	250.919	Thrust:	100.000
Time:	1.013	Roll Set Point:	0.008	Pitch Set Point:	0.007	Yaw Set Point:	-3.113	X_WP:	0.000	Y_WP:	0.000	Y_WP:	1.000	X:	0.240	Y:	-0.268	Z:	0.056	yaw:	178.352	yaw rate:	-0.576	Roll:	-7.769	Pitch:	8.235	Yaw:	251.059	Thrust:	100.000
Time:	1.033	Roll Set Point:	0.008	Pitch Set Point:	0.007	Yaw Set Point:	-3.113	X_WP:	0.000	Y_WP:	0.000	Y_WP:	1.000	X:	0.240	Y:	-0.268	Z:	0.056	yaw:	178.364	yaw rate:	-1.177	Roll:	-7.777	Pitch:	8.272	Yaw:	251.200	Thrust:	100.000
Time:	1.053	Roll Set Point:	0.008	Pitch Set Point:	0.007	Yaw Set Point:	-3.113	X_WP:	0.000	Y_WP:	0.000	Y_WP:	1.000	X:	0.240	Y:	-0.268	Z:	0.056	yaw:	178.353	yaw rate:	1.068	Roll:	-7.849	Pitch:	8.210	Yaw:	250.887	Thrust:	100.000
Time:	1.074	Roll Set Point:	0.008	Pitch Set Point:	0.007	Yaw Set Point:	-3.113	X_WP:	0.000	Y_WP:	0.000	Y_WP:	1.000	X:	0.240	Y:	-0.268	Z:	0.056	yaw:	178.351	yaw rate:	0.253	Roll:	-7.844	Pitch:	8.250	Yaw:	251.018	Thrust:	100.000
Time:	1.095	Roll Set Point:	0.008	Pitch Set Point:	0.007	Yaw Set Point:	-3.113	X_WP:	0.000	Y_WP:	0.000	Y_WP:	1.000	X:	0.240	Y:	-0.268	Z:	0.056	yaw:	178.358	yaw rate:	-0.706	Roll:	-7.852	Pitch:	8.328	Yaw:	251.230	Thrust:	100.000
Time:	1.113	Roll Set Point:	0.008	Pitch Set Point:	0.007	Yaw Set Point:	-3.113	X_WP:	0.000	Y_WP:	0.000	Y_WP:	1.000	X:	0.240	Y:	-0.268	Z:	0.056	yaw:	178.361	yaw rate:	-0.313	Roll:	-7.778	Pitch:	8.262	Yaw:	250.989	Thrust:	100.000
Time:	1.133	Roll Set Point:	0.008	Pitch Set Point:	0.007	Yaw Set Point:	-3.113	X_WP:	0.000	Y_WP:	0.000	Y_WP:	1.000	X:	0.240	Y:	-0.268	Z:	0.056	yaw:	178.357	yaw rate:	0.385	Roll:	-7.879	Pitch:	8.250	Yaw:	250.928	Thrust:	100.000
Time:	1.154	Roll Set Point:	0.008	Pitch Set Point:	0.007	Yaw Set Point:	-3.113	X_WP:	0.000	Y_WP:	0.000	Y_WP:	1.000	X:	0.240	Y:	-0.268	Z:	0.056	yaw:	178.360	yaw rate:	-0.289	Roll:	-7.881	Pitch:	8.337	Yaw:	251.177	Thrust:	100.000
Time:	1.173	Roll Set Point:	0.008	Pitch Set Point:	0.007	Yaw Set Point:	-3.113	X_WP:	0.000	Y_WP:	0.000	Y_WP:	1.000	X:	0.240	Y:	-0.268	Z:	0.056	yaw:	178.355	yaw rate:	0.529	Roll:	-7.889	Pitch:	8.309	Yaw:	250.866	Thrust:	100.000
Time:	1.193	Roll Set Point:	0.008	Pitch Set Point:	0.007	Yaw Set Point:	-3.113	X_WP:	0.000	Y_WP:	0.000	Y_WP:	1.000	X:	0.240	Y:	-0.268	Z:	0.056	yaw:	178.356	yaw rate:	-0.123	Roll:	-7.922	Pitch:	8.314	Yaw:	251.063	Thrust:	100.000
Time:	1.213	Roll Set Point:	0.008	Pitch Set Point:	0.007	Yaw Set Point:	-3.113	X_WP:	0.000	Y_WP:	0.000	Y_WP:	1.000	X:	0.240	Y:	-0.268	Z:	0.056	yaw:	178.360	yaw rate:	-0.422	Roll:	-7.907	Pitch:	8.363	Yaw:	251.093	Thrust:	100.000
Time:	1.233	Roll Set Point:	0.008	Pitch Set Point:	0.007	Yaw Set Point:	-3.113	X_WP:	0.000	Y_WP:	0.000	Y_WP:	1.000	X:	0.240	Y:	-0.268	Z:	0.056	yaw:	178.355	yaw rate:	0.505	Roll:	-7.967	Pitch:	8.307	Yaw:	250.986	Thrust:	100.000
Time:	1.253	Roll Set Point:	0.008	Pitch Set Point:	0.007	Yaw Set Point:	-3.113	X_WP:	0.000	Y_WP:	0.000	Y_WP:	1.000	X:	0.240	Y:	-0.268	Z:	0.056	yaw:	178.358	yaw rate:	-0.338	Roll:	-7.865	Pitch:	8.305	Yaw:	251.057	Thrust:	100.000
Time:	1.275	Roll Set Point:	0.008	Pitch Set Point:	0.007	Yaw Set Point:	-3.113	X_WP:	0.000	Y_WP:	0.000	Y_WP:	1.000	X:	0.240	Y:	-0.268	Z:	0.056	yaw:	178.359	yaw rate:	-0.058	Roll:	-8.038	Pitch:	8.433	Yaw:	251.208	Thrust:	100.000
Time:	1.295	Roll Set Point:	0.008	Pitch Set Point:	0.007	Yaw Set Point:	-3.113	X_WP:	0.000	Y_WP:	0.000	Y_WP:	1.000	X:	0.240	Y:	-0.268	Z:	0.056	yaw:	178.353	yaw rate:	0.638	Roll:	-7.959	Pitch:	8.287	Yaw:	250.922	Thrust:	100.000
Time:	1.313	Roll Set Point:	0.008	Pitch Set Point:	0.007	Yaw Set Point:	-3.113	X_WP:	0.000	Y_WP:	0.000	Y_WP:	1.000	X:	0.240	Y:	-0.268	Z:	0.056	yaw:	178.359	yaw rate:	-0.640	Roll:	-7.799	Pitch:	8.304	Yaw:	250.989	Thrust:	100.000
Time:	1.334	Roll Set Point:	0.008	Pitch Set Point:	0.007	Yaw Set Point:	-3.113	X_WP:	0.000	Y_WP:	0.000	Y_WP:	1.000	X:	0.240	Y:	-0.268	Z:	0.056	yaw:	178.349	yaw rate:	1.007	Roll:	-8.002	Pitch:	8.280	Yaw:	250.866	Thrust:	100.000
Time:	1.354	Roll Set Point:	0.008	Pitch Set Point:	0.007	Yaw Set Point:	-3.113	X_WP:	0.000	Y_WP:	0.000	Y_WP:	1.000	X:	0.240	Y:	-0.268	Z:	0.056	yaw:	178.360	yaw rate:	-1.117	Roll:	-7.936	Pitch:	8.391	Yaw:	251.262	Thrust:	100.000
Time:	1.373	Roll Set Point:	0.008	Pitch Set Point:	0.007	Yaw Set Point:	-3.113	X_WP:	0.000	Y_WP:	0.000	Y_WP:	1.000	X:	0.240	Y:	-0.268	Z:	0.056	yaw:	178.350	yaw rate:	0.994	Roll:	-7.898	Pitch:	8.222	Yaw:	250.800	Thrust:	100.000
Time:	1.393	Roll Set Point:	0.008	Pitch Set Point:	0.007	Yaw Set Point:	-3.113	X_WP:	0.000	Y_WP:	0.000	Y_WP:	1.000	X:	0.240	Y:	-0.268	Z:	0.056	yaw:	178.360	yaw rate:	-1.008	Roll:	-7.918	Pitch:	8.404	Yaw:	251.185	Thrust:	100.000
Time:	1.415	Roll Set Point:	0.008	Pitch Set Point:	0.007	Yaw Set Point:	-3.113	X_WP:	0.000	Y_WP:	0.000	Y_WP:	1.000	X:	0.240	Y:	-0.268	Z:	0.056	yaw:	178.357	yaw rate:	0.295	Roll:	-7.967	Pitch:	8.308	Yaw:	251.063	Thrust:	100.000
Time:	1.433	Roll Set Point:	0.008	Pitch Set Point:	0.007	Yaw Set Point:	-3.113	X_WP:	0.000	Y_WP:	0.000	Y_WP:	1.000	X:	0.240	Y:	-0.268	Z:	0.056	yaw:	178.361	yaw rate:	-0.335	Roll:	-7.905	Pitch:	8.328	Yaw:	251.038	Thrust:	100.000
Time:	1.453	Roll Set Point:	0.008	Pitch Set Point:	0.007	Yaw Set Point:	-3.113	X_WP:	0.000	Y_WP:	0.000	Y_WP:	1.000	X:	0.240	Y:	-0.268	Z:	0.056	yaw:	178.356	yaw rate:	0.445	Roll:	-7.971	Pitch:	8.330	Yaw:	250.947	Thrust:	100.000
Time:	1.474	Roll Set Point:	0.008	Pitch Set Point:	0.007	Yaw Set Point:	-3.113	X_WP:	0.000	Y_WP:	0.000	Y_WP:	1.000	X:	0.240	Y:	-0.268	Z:	0.056	yaw:	178.359	yaw rate:	-0.235	Roll:	-7.931	Pitch:	8.353	Yaw:	251.104	Thrust:	100.000
Time:	1.495	Roll Set Point:	0.008	Pitch Set Point:	0.007	Yaw Set Point:	-3.113	X_WP:	0.000	Y_WP:	0.000	Y_WP:	1.000	X:	0.240	Y:	-0.268	Z:	0.056	yaw:	178.358	yaw rate:	0.017	Roll:	-7.978	Pitch:	8.345	Yaw:	251.167	Thrust:	100.000
Time:	1.512	Roll Set Point:	0.008	Pitch Set Point:	0.007	Yaw Set Point:	-3.113	X_WP:	0.000	Y_WP:	0.000	Y_WP:	1.000	X:	0.240	Y:	-0.268	Z:	0.056	yaw:	178.360	yaw rate:	-0.150	Roll:	-7.841	Pitch:	8.271	Yaw:	250.821	Thrust:	100.000
Time:	1.533	Roll Set Point:	0.008	Pitch Set Point:	0.007	Yaw Set Point:	-3.113	X_WP:	0.000	Y_WP:	0.000	Y_WP:	1.000	X:	0.240	Y:	-0.268	Z:	0.056	yaw:	178.355	yaw rate:	0.495	Roll:	-7.974	Pitch:	8.326	Yaw:	250.983	Thrust:	100.000
Time:	1.553	Roll Set Point:	0.008	Pitch Set Point:	0.007	Yaw Set Point:	-3.113	X_WP:	0.000	Y_WP:	0.000	Y_WP:	1.000	X:	0.240	Y:	-0.268	Z:	0.056	yaw:	178.362	yaw rate:	-0.707	Roll:	-7.931	Pitch:	8.357	Yaw:	251.179	Thrust:	100.000
Time:	1.573	Roll Set Point:	0.008	Pitch Set Point:	0.007	Yaw Set Point:	-3.113	X_WP:	0.000	Y_WP:	0.000	Y_WP:	1.000	X:	0.240	Y:	-0.268	Z:	0.056	yaw:	178.358	yaw rate:	0.395	Roll:	-7.917	Pitch:	8.317	Yaw:	250.989	Thrust:	100.000
Time:	1.593	Roll Set Point:	0.008	Pitch Set Point:	0.007	Yaw Set Point:	-3.113	X_WP:	0.000	Y_WP:	0.000	Y_WP:	1.000	X:	0.240	Y:	-0.268	Z:	0.056	yaw:	178.360	yaw rate:	-0.149	Roll:	-7.955	Pitch:	8.339	Yaw:	251.028	Thrust:	100.000
Time:	1.612	Roll Set Point:	0.008	Pitch Set Point:	0.007	Yaw Set Point:	-3.113	X_WP:	0.000	Y_WP:	0.000	Y_WP:	1.000	X:	0.240	Y:	-0.268	Z:	0.056	yaw:	178.360	yaw rate:	-0.045	Roll:	-7.930	Pitch:	8.300	Yaw:	251.021	Thrust:	100.000
Time:	1.634	Roll Set Point:	0.008	Pitch Set Point:	0.007	Yaw Set Point:	-3.113	X_WP:	0.000	Y_WP:	0.000	Y_WP:	1.000	X:	0.240	Y:	-0.268	Z:	0.056	yaw:	178.365	yaw rate:	-0.504	Roll:	-7.949	Pitch:	8.394	Yaw:	251.227	Thrust:	100.000
Time:	1.653	Roll Set Point:	0.008	Pitch Set Point:	0.007	Yaw Set Point:	-3.113	X_WP:	0.000	Y_WP:	0.000	Y_WP:	1.000	X:	0.240	Y:	-0.268	Z:	0.056	yaw:	178.363	yaw rate:	0.189	Roll:	-7.909	Pitch:	8.289	Yaw:	250.923	Thrust:	100.000
Time:	1.674	Roll Set Point:	0.008	Pitch Set Point:	0.007	Yaw Set Point:	-3.113	X_WP:	0.000	Y_WP:	0.000	Y_WP:	1.000	X:	0.240	Y:	-0.268	Z:	0.056	yaw:	178.357	yaw rate:	0.569	Roll:	-7.963	Pitch:	8.322	Yaw:	251.009	Thrust:	100.000
Time:	1.694	Roll Set Point:	0.008	Pitch Set Point:	0.007	Yaw Set Point:	-3.113	X_WP:	0.000	Y_WP:	0.000	Y_WP:	1.000	X:	0.240	Y:	-0.268	Z:	0.056	yaw:	178.361	yaw rate:	-0.355	Roll:	-7.961	Pitch:	8.359	Yaw:	251.203	Thrust:	100.000
Time:	1.713	Roll Set Point:	0.008	Pitch Set Point:	0.007	Yaw Set Point:	-3.113	X_WP:	0.000	Y_WP:	0.000	Y_WP:	1.000	X:	0.240	Y:	-0.268	Z:	0.056	yaw:	178.357	yaw rate:	0.415	Roll:	-7.894	Pitch:	8.255	Yaw:	250.749	Thrust:	100.000
Time:	1.734	Roll Set Point:	0.008	Pitch Set Point:	0.007	Yaw Set Point:	-3.113	X_WP:	0.000	Y_WP:	0.000	Y_WP:	1.000	X:	0.240	Y:	-0.268	Z:	0.056	yaw:	178.360	yaw rate:	-0.329	Roll:	-7.952	Pitch:	8.365	Yaw:	251.163	Thrust:	100.000
Time:	1.755	Roll Set Point:	0.008	Pitch Set Point:	0.007	Yaw Set Point:	-3.113	X_WP:	0.000	Y_WP:	0.000	Y_WP:	1.000	X:	0.240	Y:	-0.268	Z:	0.056	yaw:	178.353	yaw rate:	0.699	Roll:	-8.002	Pitch:	8.376	Yaw:	251.111	Thrust:	100.000
Time:	1.773	Roll Set Point:	0.008	Pitch Set Point:	0.007	Yaw Set Point:	-3.113	X_WP:	0.000	Y_WP:	0.000	Y_WP:	1.000	X:	0.240	Y:	-0.268	Z:	0.056	yaw:	178.361	yaw rate:	-0.836	Roll:	-7.838	Pitch:	8.279	Yaw:	250.970	Thrust:	100.000
Time:	1.793	Roll Set Point:	0.008	Pitch Set Point:	0.007	Yaw Set Point:	-3.113	X_WP:	0.000	Y_WP:	0.000	Y_WP:	1.000	X:	0.240	Y:	-0.268	Z:	0.056	yaw:	178.361	yaw rate:	0.092	Roll:	-7.959	Pitch:	8.326	Yaw:	251.030	Thrust:	100.000
Time:	1.813	Roll Set Point:	0.008	Pitch Set Point:	0.007	Yaw Set Point:	-3.113	X_WP:	0.000	Y_WP:	0.000	Y_WP:	1.000	X:	0.240	Y:	-0.268	Z:	0.056	yaw:	178.358	yaw rate:	0.208	Roll:	-7.939	Pitch:	8.322	Yaw:	251.020	Thrust:	100.000
Time:	1.834	Roll Set Point:	0.008	Pitch Set Point:	0.007	Yaw Set Point:	-3.113	X_WP:	0.000	Y_WP:	0.000	Y_WP:	1.000	X:	0.240	Y:	-0.268	Z:	0.056	yaw:	178.368	yaw rate:	-0.932	Roll:	-7.901	Pitch:	8.373	Yaw:	251.195	Thrust:	100.000
Time:	1.853	Roll Set Point:	0.008	Pitch Set Point:	0.007	Yaw Set Point:	-3.113	X_WP:	0.000	Y_WP:	0.000	Y_WP:	1.000	X:	0.240	Y:	-0.268	Z:	0.056	yaw:	178.360	yaw rate:	0.796	Roll:	-7.941	Pitch:	8.265	Yaw:	250.838	Thrust:	100.000
Time:	1.874	Roll Set Point:	0.008	Pitch Set Point:	0.007	Yaw Set Point:	-3.113	X_WP:	0.000	Y_WP:	0.000	Y_WP:	1.000	X:	0.240	Y:	-0.268	Z:	0.056	yaw:	178.360	yaw rate:	0.024	Roll:	-7.958	Pitch:	8.370	Yaw:	251.148	Thrust:	100.000
Time:	1.894	Roll Set Point:	0.008	Pitch Set Point:	0.007	Yaw Set Point:	-3.113	X_WP:	0.000	Y_WP:	0.000	Y_WP:	1.000	X:	0.240	Y:	-0.268	Z:	0.056	yaw:	178.361	yaw rate:	-0.095	Roll:	-7.933	Pitch:	8.332	Yaw:	251.110	Thrust:	100.000
Time:	1.913	Roll Set Point:	0.008	Pitch Set Point:	0.007	Yaw Set Point:	-3.113	X_WP:	0.000	Y_WP:	0.000	Y_WP:	1.000	X:	0.240	Y:	-0.268	Z:	0.056	yaw:	178.357	yaw rate:	0.357	Roll:	-7.939	Pitch:	8.283	Yaw:	250.838	Thrust:	100.000
Time:	1.933	Roll Set Point:	0.008	Pitch Set Point:	0.007	Yaw Set Point:	-3.113	X_WP:	0.000	Y_WP:	0.000	Y_WP:	1.000	X:	0.240	Y:	-0.268	Z:	0.056	yaw:	178.362	yaw rate:	-0.489	Roll:	-7.921	Pitch:	8.364	Yaw:	251.172	Thrust:	100.000
Time:	1.954	Roll Set Point:	0.008	Pitch Set Point:	0.007	Yaw Set Point:	-3.113	X_WP:	0.000	Y_WP:	0.000	Y_WP:	1.000	X:	0.240	Y:	-0.268	Z:	0.056	yaw:	178.359	yaw rate:	0.334	Roll:	-7.963	Pitch:	8.322	Yaw:	250.997	Thrust:	100.000
Time:	1.973	Roll Set Point:	0.008	Pitch Set Point:	0.007	Yaw Set Point:	-3.113	X_WP:	0.000	Y_WP:	0.000	Y_WP:	1.000	X:	0.240	Y:	-0.268	Z:	0.056	yaw:	178.360	yaw rate:	-0.185	Roll:	-7.907	Pitch:	8.311	Yaw:	251.005	Thrust:	100.000
Time:	1.993	Roll Set Point:	0.008	Pitch Set Point:	0.007	Yaw Set Point:	-3.113	X_WP:	0.000	Y_WP:	0.000	Y_WP:	1.000	X:	0.240	Y:	-0.268	Z:	0.056	yaw:	178.355	yaw rate:	0.571	Roll:	-7.956	Pitch:	8.293	Yaw:	250.989	Thrust:	100.000
Time:	2.013	Roll Set Point:	0.008	Pitch Set Point:	0.007	Yaw Set Point:	-3.113	X_WP:	0.000	Y_WP:	0.000	Y_WP:	1.000	X:	0.240	Y:	-0.268	Z:	0.056	yaw:	178.358	yaw rate:	-0.342	Roll:	-7.907	Pitch:	8.325	Yaw:	251.081	Thrust:	100.000
Time:	2.034	Roll Set Point:	0.008	Pitch Set Point:	0.007	Yaw Set Point:	-3.113	X_WP:	0.000	Y_WP:	0.000	Y_WP:	1.000	X:	0.240	Y:	-0.268	Z:	0.056	yaw:	178.362	yaw rate:	-0.428	Roll:	-7.955	Pitch:	8.400	Yaw:	251.122	Thrust:	100.000
Time:	2.053	Roll Set Point:	0.008	Pitch Set Point:	0.007	Yaw Set Point:	-3.113	X_WP:	0.000	Y_WP:	0.000	Y_WP:	1.000	X:	0.240	Y:	-0.268	Z:	0.056	yaw:	178.359	yaw rate:	0.332	Roll:	-7.910	Pitch:	8.260	Yaw:	250.976	Thrust:	100.000
Time:	2.074	Roll Set Point:	0.008	Pitch Set Point:	0.007	Yaw Set Point:	-3.113	X_WP:	0.000	Y_WP:	0.000	Y_WP:	1.000	X:	0.240	Y:	-0.268	Z:	0.056	yaw:	178.360	yaw rate:	-0.082	Roll:	-7.984	Pitch:	8.384	Yaw:	251.088	Thrust:	100.000
Time:	2.095	Roll Set Point:	0.008	Pitch Set Point:	0.007	Yaw Set Point:	-3.113	X_WP:	0.000	Y_WP:	0.000	Y_WP:	1.000	X:	0.240	Y:	-0.268	Z:	0.056	yaw:	178.361	yaw rate:	-0.137	Roll:	-7.928	Pitch:	8.361	Yaw:	251.118	Thrust:	100.000
Time:	2.112	Roll Set Point:	0.008	Pitch Set Point:	0.007	Yaw Set Point:	-3.113	X_WP:	0.000	Y_WP:	0.000	Y_WP:	1.000	X:	0.240	Y:	-0.268	Z:	0.056	yaw:	178.362	yaw rate:	-0.031	Roll:	-7.884	Pitch:	8.252	Yaw:	250.850	Thrust:	100.000
Time:	2.133	Roll Set Point:	0.008	Pitch Set Point:	0.007	Yaw Set Point:	-3.113	X_WP:	0.000	Y_WP:	0.000	Y_WP:	1.000	X:	0.240	Y:	-0.268	Z:	0.056	yaw:	178.354	yaw rate:	0.776	Roll:	-7.995	Pitch:	8.347	Yaw:	251.054	Thrust:	100.000
Time:	2.154	Roll Set Point:	0.008	Pitch Set Point:	0.007	Yaw Set Point:	-3.113	X_WP:	0.000	Y_WP:	0.000	Y_WP:	1.000	X:	0.240	Y:	-0.268	Z:	0.056	yaw:	178.360	yaw rate:	-0.578	Roll:	-7.928	Pitch:	8.340	Yaw:	251.118	Thrust:	100.000
Time:	2.173	Roll Set Point:	0.008	Pitch Set Point:	0.007	Yaw Set Point:	-3.113	X_WP:	0.000	Y_WP:	0.000	Y_WP:	1.000	X:	0.240	Y:	-0.268	Z:	0.056	yaw:	178.364	yaw rate:	-0.472	Roll:	-7.861	Pitch:	8.303	Yaw:	251.052	Thrust:	100.000
Time:	2.194	Roll Set Point:	0.008	Pitch Set Point:	0.007	Yaw Set Point:	-3.113	X_WP:	0.000	Y_WP:	0.000	Y_WP:	1.000	X:	0.240	Y:	-0.268	Z:	0.056	yaw:	178.363	yaw rate:	0.109	Roll:	-7.995	Pitch:	8.404	Yaw:	251.151	Thrust:	100.000
Time:	2.222	Roll Set Point:	0.008	Pitch Set Point:	0.007	Yaw Set Point:	-3.113	X_WP:	0.000	Y_WP:	0.000	Y_WP:	1.000	X:	0.240	Y:	-0.268	Z:	0.056	yaw:	178.357	yaw rate:	0.642	Roll:	-8.221	Pitch:	8.554	Yaw:	251.668	Thrust:	100.000
Time:	2.241	Roll Set Point:	0.008	Pitch Set Point:	0.007	Yaw Set Point:	-3.113	X_WP:	0.000	Y_WP:	0.000	Y_WP:	1.000	X:	0.240	Y:	-0.268	Z:	0.056	yaw:	178.358	yaw rate:	-0.103	Roll:	-7.935	Pitch:	8.321	Yaw:	251.063	Thrust:	100.000
Time:	2.254	Roll Set Point:	0.008	Pitch Set Point:	0.007	Yaw Set Point:	-3.113	X_WP:	0.000	Y_WP:	0.000	Y_WP:	1.000	X:	0.240	Y:	-0.268	Z:	0.056	yaw:	178.357	yaw rate:	0.060	Roll:	-7.673	Pitch:	8.093	Yaw:	250.300	Thrust:	100.000
Time:	2.275	Roll Set Point:	0.008	Pitch Set Point:	0.007	Yaw Set Point:	-3.113	X_WP:	0.000	Y_WP:	0.000	Y_WP:	1.000	X:	0.240	Y:	-0.268	Z:	0.056	yaw:	178.353	yaw rate:	0.435	Roll:	-7.966	Pitch:	8.321	Yaw:	251.018	Thrust:	100.000
Time:	2.294	Roll Set Point:	0.008	Pitch Set Point:	0.007	Yaw Set Point:	-3.113	X_WP:	0.000	Y_WP:	0.000	Y_WP:	1.000	X:	0.240	Y:	-0.268	Z:	0.056	yaw:	178.363	yaw rate:	-1.015	Roll:	-7.874	Pitch:	8.338	Yaw:	251.094	Thrust:	100.000
Time:	2.321	Roll Set Point:	0.008	Pitch Set Point:	0.007	Yaw Set Point:	-3.113	X_WP:	0.000	Y_WP:	0.000	Y_WP:	1.000	X:	0.240	Y:	-0.268	Z:	0.056	yaw:	178.347	yaw rate:	1.588	Roll:	-8.258	Pitch:	8.553	Yaw:	251.579	Thrust:	100.000
Time:	2.342	Roll Set Point:	0.008	Pitch Set Point:	0.007	Yaw Set Point:	-3.113	X_WP:	0.000	Y_WP:	0.000	Y_WP:	1.000	X:	0.240	Y:	-0.268	Z:	0.056	yaw:	178.359	yaw rate:	-1.223	Roll:	-7.919	Pitch:	8.398	Yaw:	251.284	Thrust:	100.000
Time:	2.361	Roll Set Point:	0.008	Pitch Set Point:	0.007	Yaw Set Point:	-3.113	X_WP:	0.000	Y_WP:	0.000	Y_WP:	1.000	X:	0.240	Y:	-0.268	Z:	0.056	yaw:	178.345	yaw rate:	1.432	Roll:	-7.977	Pitch:	8.266	Yaw:	250.780	Thrust:	100.000
Time:	2.381	Roll Set Point:	0.008	Pitch Set Point:	0.007	Yaw Set Point:	-3.113	X_WP:	0.000	Y_WP:	0.000	Y_WP:	1.000	X:	0.240	Y:	-0.268	Z:	0.056	yaw:	178.358	yaw rate:	-1.286	Roll:	-7.831	Pitch:	8.349	Yaw:	251.171	Thrust:	100.000
Time:	2.402	Roll Set Point:	0.008	Pitch Set Point:	0.007	Yaw Set Point:	-3.113	X_WP:	0.000	Y_WP:	0.000	Y_WP:	1.000	X:	0.240	Y:	-0.268	Z:	0.056	yaw:	178.351	yaw rate:	0.724	Roll:	-8.017	Pitch:	8.340	Yaw:	251.001	Thrust:	100.000
Time:	2.422	Roll Set Point:	0.008	Pitch Set Point:	0.007	Yaw Set Point:	-3.113	X_WP:	0.000	Y_WP:	0.000	Y_WP:	1.000	X:	0.240	Y:	-0.268	Z:	0.056	yaw:	178.356	yaw rate:	-0.532	Roll:	-7.911	Pitch:	8.347	Yaw:	251.118	Thrust:	100.000
Time:	2.442	Roll Set Point:	0.008	Pitch Set Point:	0.007	Yaw Set Point:	-3.113	X_WP:	0.000	Y_WP:	0.000	Y_WP:	1.000	X:	0.240	Y:	-0.268	Z:	0.056	yaw:	178.361	yaw rate:	-0.548	Roll:	-7.896	Pitch:	8.317	Yaw:	251.045	Thrust:	100.000
Time:	2.461	Roll Set Point:	0.008	Pitch Set Point:	0.007	Yaw Set Point:	-3.113	X_WP:	0.000	Y_WP:	0.000	Y_WP:	1.000	X:	0.240	Y:	-0.268	Z:	0.056	yaw:	178.359	yaw rate:	0.203	Roll:	-7.960	Pitch:	8.335	Yaw:	251.041	Thrust:	100.000
Time:	2.488	Roll Set Point:	0.008	Pitch Set Point:	0.007	Yaw Set Point:	-3.113	X_WP:	0.000	Y_WP:	0.000	Y_WP:	1.000	X:	0.240	Y:	-0.268	Z:	0.056	yaw:	178.361	yaw rate:	-0.193	Roll:	-8.146	Pitch:	8.570	Yaw:	251.731	Thrust:	100.000
Time:	2.502	Roll Set Point:	0.008	Pitch Set Point:	0.007	Yaw Set Point:	-3.113	X_WP:	0.000	Y_WP:	0.000	Y_WP:	1.000	X:	0.240	Y:	-0.268	Z:	0.056	yaw:	178.363	yaw rate:	-0.139	Roll:	-7.701	Pitch:	8.075	Yaw:	250.422	Thrust:	100.000
Time:	2.515	Roll Set Point:	0.008	Pitch Set Point:	0.007	Yaw Set Point:	-3.113	X_WP:	0.000	Y_WP:	0.000	Y_WP:	1.000	X:	0.240	Y:	-0.268	Z:	0.056	yaw:	178.365	yaw rate:	-0.188	Roll:	-7.635	Pitch:	8.100	Yaw:	250.378	Thrust:	100.000
Time:	2.536	Roll Set Point:	0.008	Pitch Set Point:	0.007	Yaw Set Point:	-3.113	X_WP:	0.000	Y_WP:	0.000	Y_WP:	1.000	X:	0.240	Y:	-0.268	Z:	0.056	yaw:	178.351	yaw rate:	1.344	Roll:	-8.061	Pitch:	8.310	Yaw:	250.957	Thrust:	100.000
Time:	2.559	Roll Set Point:	0.008	Pitch Set Point:	0.007	Yaw Set Point:	-3.113	X_WP:	0.000	Y_WP:	0.000	Y_WP:	1.000	X:	0.240	Y:	-0.268	Z:	0.056	yaw:	178.366	yaw rate:	-1.477	Roll:	-7.926	Pitch:	8.452	Yaw:	251.436	Thrust:	100.000
Time:	2.576	Roll Set Point:	0.006	Pitch Set Point:	0.006	Yaw Set Point:	-3.117	X_WP:	0.000	Y_WP:	0.000	Y_WP:	1.000	X:	0.240	Y:	-0.268	Z:	0.056	yaw:	178.608	yaw rate:	-24.244	Roll:	-7.031	Pitch:	9.177	Yaw:	254.700	Thrust:	100.000
Time:	2.594	Roll Set Point:	0.008	Pitch Set Point:	0.007	Yaw Set Point:	-3.113	X_WP:	0.000	Y_WP:	0.000	Y_WP:	1.000	X:	0.240	Y:	-0.268	Z:	0.056	yaw:	178.336	yaw rate:	27.228	Roll:	-9.188	Pitch:	7.134	Yaw:	246.970	Thrust:	100.000
Time:	2.617	Roll Set Point:	0.008	Pitch Set Point:	0.007	Yaw Set Point:	-3.113	X_WP:	0.000	Y_WP:	0.000	Y_WP:	1.000	X:	0.240	Y:	-0.268	Z:	0.056	yaw:	178.339	yaw rate:	-0.323	Roll:	-7.968	Pitch:	8.398	Yaw:	251.228	Thrust:	100.000
Time:	2.635	Roll Set Point:	0.008	Pitch Set Point:	0.007	Yaw Set Point:	-3.112	X_WP:	0.000	Y_WP:	0.000	Y_WP:	1.000	X:	0.240	Y:	-0.268	Z:	0.056	yaw:	178.328	yaw rate:	1.101	Roll:	-7.972	Pitch:	8.209	Yaw:	250.653	Thrust:	100.000
Time:	2.654	Roll Set Point:	0.008	Pitch Set Point:	0.007	Yaw Set Point:	-3.113	X_WP:	0.000	Y_WP:	0.000	Y_WP:	1.000	X:	0.240	Y:	-0.268	Z:	0.056	yaw:	178.345	yaw rate:	-1.623	Roll:	-7.843	Pitch:	8.344	Yaw:	251.166	Thrust:	100.000
Time:	2.674	Roll Set Point:	0.008	Pitch Set Point:	0.007	Yaw Set Point:	-3.113	X_WP:	0.000	Y_WP:	0.000	Y_WP:	1.000	X:	0.240	Y:	-0.268	Z:	0.056	yaw:	178.334	yaw rate:	1.016	Roll:	-8.010	Pitch:	8.307	Yaw:	250.956	Thrust:	100.000
Time:	2.694	Roll Set Point:	0.008	Pitch Set Point:	0.007	Yaw Set Point:	-3.112	X_WP:	0.000	Y_WP:	0.000	Y_WP:	1.000	X:	0.240	Y:	-0.268	Z:	0.056	yaw:	178.330	yaw rate:	0.410	Roll:	-7.949	Pitch:	8.292	Yaw:	250.866	Thrust:	100.000
Time:	2.714	Roll Set Point:	0.008	Pitch Set Point:	0.007	Yaw Set Point:	-3.113	X_WP:	0.000	Y_WP:	0.000	Y_WP:	1.000	X:	0.240	Y:	-0.268	Z:	0.056	yaw:	178.341	yaw rate:	-1.030	Roll:	-7.910	Pitch:	8.356	Yaw:	251.156	Thrust:	100.000
Time:	2.735	Roll Set Point:	0.008	Pitch Set Point:	0.007	Yaw Set Point:	-3.113	X_WP:	0.000	Y_WP:	0.000	Y_WP:	1.000	X:	0.240	Y:	-0.268	Z:	0.056	yaw:	178.339	yaw rate:	0.117	Roll:	-7.954	Pitch:	8.348	Yaw:	251.101	Thrust:	100.000
Time:	2.758	Roll Set Point:	0.008	Pitch Set Point:	0.007	Yaw Set Point:	-3.113	X_WP:	0.000	Y_WP:	0.000	Y_WP:	1.000	X:	0.241	Y:	-0.268	Z:	0.056	yaw:	178.357	yaw rate:	-1.735	Roll:	-7.967	Pitch:	8.516	Yaw:	251.411	Thrust:	100.000
Time:	2.775	Roll Set Point:	0.008	Pitch Set Point:	0.007	Yaw Set Point:	-3.113	X_WP:	0.000	Y_WP:	0.000	Y_WP:	1.000	X:	0.241	Y:	-0.268	Z:	0.056	yaw:	178.365	yaw rate:	-0.819	Roll:	-7.955	Pitch:	8.399	Yaw:	250.980	Thrust:	100.000
Time:	2.795	Roll Set Point:	0.008	Pitch Set Point:	0.007	Yaw Set Point:	-3.113	X_WP:	0.000	Y_WP:	0.000	Y_WP:	1.000	X:	0.241	Y:	-0.268	Z:	0.056	yaw:	178.359	yaw rate:	0.570	Roll:	-7.973	Pitch:	8.210	Yaw:	250.917	Thrust:	100.000
Time:	2.819	Roll Set Point:	0.008	Pitch Set Point:	0.007	Yaw Set Point:	-3.113	X_WP:	0.000	Y_WP:	0.000	Y_WP:	1.000	X:	0.241	Y:	-0.268	Z:	0.056	yaw:	178.346	yaw rate:	1.337	Roll:	-8.114	Pitch:	8.401	Yaw:	251.398	Thrust:	100.000
Time:	2.835	Roll Set Point:	0.008	Pitch Set Point:	0.007	Yaw Set Point:	-3.113	X_WP:	0.000	Y_WP:	0.000	Y_WP:	1.000	X:	0.241	Y:	-0.268	Z:	0.056	yaw:	178.351	yaw rate:	-0.550	Roll:	-7.796	Pitch:	8.203	Yaw:	250.638	Thrust:	100.000
Time:	2.854	Roll Set Point:	0.008	Pitch Set Point:	0.007	Yaw Set Point:	-3.113	X_WP:	0.000	Y_WP:	0.000	Y_WP:	1.000	X:	0.241	Y:	-0.268	Z:	0.056	yaw:	178.355	yaw rate:	-0.354	Roll:	-7.923	Pitch:	8.301	Yaw:	250.993	Thrust:	100.000
Time:	2.875	Roll Set Point:	0.008	Pitch Set Point:	0.007	Yaw Set Point:	-3.113	X_WP:	0.000	Y_WP:	0.000	Y_WP:	1.000	X:	0.241	Y:	-0.268	Z:	0.056	yaw:	178.349	yaw rate:	0.609	Roll:	-7.994	Pitch:	8.337	Yaw:	251.045	Thrust:	100.000
Time:	2.895	Roll Set Point:	0.008	Pitch Set Point:	0.007	Yaw Set Point:	-3.113	X_WP:	0.000	Y_WP:	0.000	Y_WP:	1.000	X:	0.241	Y:	-0.268	Z:	0.056	yaw:	178.357	yaw rate:	-0.830	Roll:	-7.932	Pitch:	8.349	Yaw:	251.139	Thrust:	100.000
Time:	2.915	Roll Set Point:	0.008	Pitch Set Point:	0.007	Yaw Set Point:	-3.113	X_WP:	0.000	Y_WP:	0.000	Y_WP:	1.000	X:	0.241	Y:	-0.268	Z:	0.056	yaw:	178.358	yaw rate:	-0.119	Roll:	-7.963	Pitch:	8.334	Yaw:	251.088	Thrust:	100.000
Time:	2.935	Roll Set Point:	0.008	Pitch Set Point:	0.007	Yaw Set Point:	-3.113	X_WP:	0.000	Y_WP:	0.000	Y_WP:	1.000	X:	0.241	Y:	-0.268	Z:	0.056	yaw:	178.352	yaw rate:	0.655	Roll:	-7.964	Pitch:	8.279	Yaw:	250.940	Thrust:	100.000
Time:	2.957	Roll Set Point:	0.008	Pitch Set Point:	0.007	Yaw Set Point:	-3.113	X_WP:	0.000	Y_WP:	0.000	Y_WP:	1.000	X:	0.241	Y:	-0.268	Z:	0.056	yaw:	178.352	yaw rate:	0.009	Roll:	-7.974	Pitch:	8.370	Yaw:	251.129	Thrust:	100.000
Time:	2.976	Roll Set Point:	0.008	Pitch Set Point:	0.007	Yaw Set Point:	-3.113	X_WP:	0.000	Y_WP:	0.000	Y_WP:	1.000	X:	0.241	Y:	-0.268	Z:	0.056	yaw:	178.358	yaw rate:	-0.581	Roll:	-7.936	Pitch:	8.345	Yaw:	251.080	Thrust:	100.000
Time:	2.996	Roll Set Point:	0.008	Pitch Set Point:	0.007	Yaw Set Point:	-3.113	X_WP:	0.000	Y_WP:	0.000	Y_WP:	1.000	X:	0.241	Y:	-0.268	Z:	0.056	yaw:	178.353	yaw rate:	0.455	Roll:	-7.949	Pitch:	8.277	Yaw:	250.953	Thrust:	100.000
Time:	3.019	Roll Set Point:	0.008	Pitch Set Point:	0.007	Yaw Set Point:	-3.113	X_WP:	0.000	Y_WP:	0.000	Y_WP:	1.000	X:	0.241	Y:	-0.268	Z:	0.056	yaw:	178.357	yaw rate:	-0.376	Roll:	-7.999	Pitch:	8.442	Yaw:	251.294	Thrust:	100.000
Time:	3.035	Roll Set Point:	0.008	Pitch Set Point:	0.007	Yaw Set Point:	-3.113	X_WP:	0.000	Y_WP:	0.000	Y_WP:	1.000	X:	0.241	Y:	-0.268	Z:	0.056	yaw:	178.347	yaw rate:	0.946	Roll:	-7.908	Pitch:	8.175	Yaw:	250.587	Thrust:	100.000
Time:	3.054	Roll Set Point:	0.008	Pitch Set Point:	0.007	Yaw Set Point:	-3.113	X_WP:	0.000	Y_WP:	0.000	Y_WP:	1.000	X:	0.241	Y:	-0.268	Z:	0.056	yaw:	178.349	yaw rate:	-0.218	Roll:	-7.899	Pitch:	8.286	Yaw:	250.944	Thrust:	100.000
Time:	3.075	Roll Set Point:	0.008	Pitch Set Point:	0.007	Yaw Set Point:	-3.113	X_WP:	0.000	Y_WP:	0.000	Y_WP:	1.000	X:	0.241	Y:	-0.268	Z:	0.056	yaw:	178.355	yaw rate:	-0.571	Roll:	-7.947	Pitch:	8.352	Yaw:	251.181	Thrust:	100.000
Time:	3.094	Roll Set Point:	0.008	Pitch Set Point:	0.007	Yaw Set Point:	-3.113	X_WP:	0.000	Y_WP:	0.000	Y_WP:	1.000	X:	0.241	Y:	-0.268	Z:	0.056	yaw:	178.353	yaw rate:	0.190	Roll:	-7.901	Pitch:	8.278	Yaw:	250.855	Thrust:	100.000
Time:	3.114	Roll Set Point:	0.008	Pitch Set Point:	0.007	Yaw Set Point:	-3.113	X_WP:	0.000	Y_WP:	0.000	Y_WP:	1.000	X:	0.241	Y:	-0.268	Z:	0.056	yaw:	178.347	yaw rate:	0.618	Roll:	-7.972	Pitch:	8.290	Yaw:	250.899	Thrust:	100.000
Time:	3.133	Roll Set Point:	0.008	Pitch Set Point:	0.007	Yaw Set Point:	-3.113	X_WP:	0.000	Y_WP:	0.000	Y_WP:	1.000	X:	0.241	Y:	-0.268	Z:	0.056	yaw:	178.355	yaw rate:	-0.767	Roll:	-7.937	Pitch:	8.367	Yaw:	251.166	Thrust:	100.000
Time:	3.156	Roll Set Point:	0.008	Pitch Set Point:	0.007	Yaw Set Point:	-3.113	X_WP:	0.000	Y_WP:	0.000	Y_WP:	1.000	X:	0.241	Y:	-0.268	Z:	0.056	yaw:	178.353	yaw rate:	0.198	Roll:	-7.991	Pitch:	8.361	Yaw:	251.164	Thrust:	100.000
Time:	3.172	Roll Set Point:	0.008	Pitch Set Point:	0.007	Yaw Set Point:	-3.113	X_WP:	0.000	Y_WP:	0.000	Y_WP:	1.000	X:	0.241	Y:	-0.268	Z:	0.056	yaw:	178.356	yaw rate:	-0.325	Roll:	-7.850	Pitch:	8.259	Yaw:	250.841	Thrust:	100.000
Time:	3.193	Roll Set Point:	0.008	Pitch Set Point:	0.007	Yaw Set Point:	-3.113	X_WP:	0.000	Y_WP:	0.000	Y_WP:	1.000	X:	0.241	Y:	-0.268	Z:	0.056	yaw:	178.356	yaw rate:	0.005	Roll:	-7.979	Pitch:	8.328	Yaw:	251.041	Thrust:	100.000
Time:	3.213	Roll Set Point:	0.008	Pitch Set Point:	0.007	Yaw Set Point:	-3.113	X_WP:	0.000	Y_WP:	0.000	Y_WP:	1.000	X:	0.241	Y:	-0.268	Z:	0.056	yaw:	178.352	yaw rate:	0.363	Roll:	-7.937	Pitch:	8.296	Yaw:	250.942	Thrust:	100.000
Time:	3.233	Roll Set Point:	0.008	Pitch Set Point:	0.007	Yaw Set Point:	-3.113	X_WP:	0.000	Y_WP:	0.000	Y_WP:	1.000	X:	0.241	Y:	-0.268	Z:	0.056	yaw:	178.355	yaw rate:	-0.246	Roll:	-7.943	Pitch:	8.347	Yaw:	251.099	Thrust:	100.000
Time:	3.253	Roll Set Point:	0.008	Pitch Set Point:	0.007	Yaw Set Point:	-3.113	X_WP:	0.000	Y_WP:	0.000	Y_WP:	1.000	X:	0.241	Y:	-0.268	Z:	0.056	yaw:	178.350	yaw rate:	0.503	Roll:	-7.940	Pitch:	8.308	Yaw:	250.967	Thrust:	100.000
Time:	3.273	Roll Set Point:	0.008	Pitch Set Point:	0.007	Yaw Set Point:	-3.113	X_WP:	0.000	Y_WP:	0.000	Y_WP:	1.000	X:	0.241	Y:	-0.268	Z:	0.056	yaw:	178.349	yaw rate:	0.078	Roll:	-7.990	Pitch:	8.323	Yaw:	251.005	Thrust:	100.000
Time:	3.293	Roll Set Point:	0.008	Pitch Set Point:	0.007	Yaw Set Point:	-3.113	X_WP:	0.000	Y_WP:	0.000	Y_WP:	1.000	X:	0.241	Y:	-0.268	Z:	0.056	yaw:	178.350	yaw rate:	-0.106	Roll:	-7.945	Pitch:	8.327	Yaw:	251.104	Thrust:	100.000
Time:	3.313	Roll Set Point:	0.006	Pitch Set Point:	0.006	Yaw Set Point:	-3.118	X_WP:	0.000	Y_WP:	0.000	Y_WP:	1.000	X:	0.240	Y:	-0.268	Z:	0.056	yaw:	178.630	yaw rate:	-27.972	Roll:	-6.707	Pitch:	9.447	Yaw:	255.075	Thrust:	100.000
Time:	3.334	Roll Set Point:	0.006	Pitch Set Point:	0.006	Yaw Set Point:	-3.118	X_WP:	0.000	Y_WP:	0.000	Y_WP:	1.000	X:	0.240	Y:	-0.268	Z:	0.056	yaw:	178.631	yaw rate:	-0.110	Roll:	-7.896	Pitch:	8.307	Yaw:	251.437	Thrust:	100.000
Time:	3.357	Roll Set Point:	0.006	Pitch Set Point:	0.006	Yaw Set Point:	-3.118	X_WP:	0.000	Y_WP:	0.000	Y_WP:	1.000	X:	0.240	Y:	-0.268	Z:	0.056	yaw:	178.628	yaw rate:	0.289	Roll:	-8.018	Pitch:	8.446	Yaw:	251.789	Thrust:	100.000
Time:	3.373	Roll Set Point:	0.007	Pitch Set Point:	0.007	Yaw Set Point:	-3.113	X_WP:	0.000	Y_WP:	0.000	Y_WP:	1.000	X:	0.240	Y:	-0.268	Z:	0.056	yaw:	178.384	yaw rate:	24.385	Roll:	-8.743	Pitch:	7.008	Yaw:	246.136	Thrust:	100.000
Time:	3.393	Roll Set Point:	0.007	Pitch Set Point:	0.007	Yaw Set Point:	-3.113	X_WP:	0.000	Y_WP:	0.000	Y_WP:	1.000	X:	0.240	Y:	-0.268	Z:	0.056	yaw:	178.382	yaw rate:	0.172	Roll:	-7.904	Pitch:	8.304	Yaw:	251.155	Thrust:	100.000
Time:	3.413	Roll Set Point:	0.008	Pitch Set Point:	0.007	Yaw Set Point:	-3.112	X_WP:	0.000	Y_WP:	0.000	Y_WP:	1.000	X:	0.240	Y:	-0.268	Z:	0.056	yaw:	178.321	yaw rate:	6.187	Roll:	-8.164	Pitch:	8.073	Yaw:	250.107	Thrust:	100.000
Time:	3.433	Roll Set Point:	0.008	Pitch Set Point:	0.007	Yaw Set Point:	-3.112	X_WP:	0.000	Y_WP:	0.000	Y_WP:	1.000	X:	0.240	Y:	-0.268	Z:	0.056	yaw:	178.314	yaw rate:	0.692	Roll:	-7.955	Pitch:	8.257	Yaw:	250.943	Thrust:	100.000
Time:	3.453	Roll Set Point:	0.008	Pitch Set Point:	0.007	Yaw Set Point:	-3.112	X_WP:	0.000	Y_WP:	0.000	Y_WP:	1.000	X:	0.240	Y:	-0.268	Z:	0.056	yaw:	178.313	yaw rate:	0.015	Roll:	-7.871	Pitch:	8.241	Yaw:	250.882	Thrust:	100.000
Time:	3.474	Roll Set Point:	0.007	Pitch Set Point:	0.007	Yaw Set Point:	-3.114	X_WP:	0.000	Y_WP:	0.000	Y_WP:	1.000	X:	0.240	Y:	-0.268	Z:	0.056	yaw:	178.430	yaw rate:	-11.695	Roll:	-7.529	Pitch:	8.629	Yaw:	252.694	Thrust:	100.000
Time:	3.493	Roll Set Point:	0.007	Pitch Set Point:	0.006	Yaw Set Point:	-3.116	X_WP:	0.000	Y_WP:	0.000	Y_WP:	1.000	X:	0.240	Y:	-0.268	Z:	0.056	yaw:	178.542	yaw rate:	-11.161	Roll:	-7.329	Pitch:	8.971	Yaw:	252.743	Thrust:	100.000
Time:	3.513	Roll Set Point:	0.007	Pitch Set Point:	0.006	Yaw Set Point:	-3.116	X_WP:	0.000	Y_WP:	0.000	Y_WP:	1.000	X:	0.240	Y:	-0.268	Z:	0.056	yaw:	178.530	yaw rate:	1.168	Roll:	-7.908	Pitch:	8.221	Yaw:	251.133	Thrust:	100.000
Time:	3.534	Roll Set Point:	0.007	Pitch Set Point:	0.006	Yaw Set Point:	-3.116	X_WP:	0.000	Y_WP:	0.000	Y_WP:	1.000	X:	0.240	Y:	-0.268	Z:	0.056	yaw:	178.547	yaw rate:	-1.657	Roll:	-7.872	Pitch:	8.363	Yaw:	251.567	Thrust:	100.000
Time:	3.561	Roll Set Point:	0.007	Pitch Set Point:	0.006	Yaw Set Point:	-3.116	X_WP:	0.000	Y_WP:	0.000	Y_WP:	1.000	X:	0.240	Y:	-0.268	Z:	0.056	yaw:	178.536	yaw rate:	1.042	Roll:	-8.212	Pitch:	8.588	Yaw:	251.895	Thrust:	100.000
Time:	3.573	Roll Set Point:	0.007	Pitch Set Point:	0.006	Yaw Set Point:	-3.116	X_WP:	0.000	Y_WP:	0.000	Y_WP:	1.000	X:	0.240	Y:	-0.268	Z:	0.056	yaw:	178.544	yaw rate:	-0.792	Roll:	-7.523	Pitch:	8.023	Yaw:	250.674	Thrust:	100.000
Time:	3.593	Roll Set Point:	0.007	Pitch Set Point:	0.006	Yaw Set Point:	-3.116	X_WP:	0.000	Y_WP:	0.000	Y_WP:	1.000	X:	0.240	Y:	-0.268	Z:	0.056	yaw:	178.550	yaw rate:	-0.599	Roll:	-7.871	Pitch:	8.317	Yaw:	251.424	Thrust:	100.000
Time:	3.614	Roll Set Point:	0.007	Pitch Set Point:	0.006	Yaw Set Point:	-3.116	X_WP:	0.000	Y_WP:	0.000	Y_WP:	1.000	X:	0.240	Y:	-0.268	Z:	0.056	yaw:	178.553	yaw rate:	-0.242	Roll:	-7.878	Pitch:	8.373	Yaw:	251.390	Thrust:	100.000
Time:	3.634	Roll Set Point:	0.007	Pitch Set Point:	0.006	Yaw Set Point:	-3.116	X_WP:	0.000	Y_WP:	0.000	Y_WP:	1.000	X:	0.240	Y:	-0.268	Z:	0.056	yaw:	178.549	yaw rate:	0.425	Roll:	-7.940	Pitch:	8.300	Yaw:	251.208	Thrust:	100.000
Time:	3.654	Roll Set Point:	0.007	Pitch Set Point:	0.006	Yaw Set Point:	-3.116	X_WP:	0.000	Y_WP:	0.000	Y_WP:	1.000	X:	0.240	Y:	-0.268	Z:	0.056	yaw:	178.544	yaw rate:	0.472	Roll:	-7.833	Pitch:	8.309	Yaw:	251.236	Thrust:	100.000
Time:	3.674	Roll Set Point:	0.006	Pitch Set Point:	0.006	Yaw Set Point:	-3.119	X_WP:	0.000	Y_WP:	0.000	Y_WP:	1.000	X:	0.240	Y:	-0.268	Z:	0.056	yaw:	178.687	yaw rate:	-14.309	Roll:	-7.538	Pitch:	8.852	Yaw:	253.371	Thrust:	100.000
Time:	3.693	Roll Set Point:	0.007	Pitch Set Point:	0.007	Yaw Set Point:	-3.114	X_WP:	0.000	Y_WP:	0.000	Y_WP:	1.000	X:	0.240	Y:	-0.268	Z:	0.056	yaw:	178.438	yaw rate:	24.935	Roll:	-8.702	Pitch:	7.349	Yaw:	247.692	Thrust:	100.000
Time:	3.713	Roll Set Point:	0.006	Pitch Set Point:	0.006	Yaw Set Point:	-3.119	X_WP:	0.000	Y_WP:	0.000	Y_WP:	1.000	X:	0.240	Y:	-0.268	Z:	0.056	yaw:	178.682	yaw rate:	-24.469	Roll:	-6.850	Pitch:	9.333	Yaw:	254.753	Thrust:	100.000
Time:	3.733	Roll Set Point:	0.008	Pitch Set Point:	0.008	Yaw Set Point:	-3.111	X_WP:	0.000	Y_WP:	0.000	Y_WP:	1.000	X:	0.239	Y:	-0.268	Z:	0.056	yaw:	178.225	yaw rate:	45.777	Roll:	-9.407	Pitch:	6.845	Yaw:	245.323	Thrust:	100.000
Time:	3.757	Roll Set Point:	0.007	Pitch Set Point:	0.006	Yaw Set Point:	-3.117	X_WP:	0.000	Y_WP:	0.000	Y_WP:	1.000	X:	0.240	Y:	-0.268	Z:	0.056	yaw:	178.582	yaw rate:	-35.752	Roll:	-6.910	Pitch:	9.483	Yaw:	255.739	Thrust:	100.000
Time:	3.774	Roll Set Point:	0.007	Pitch Set Point:	0.006	Yaw Set Point:	-3.116	X_WP:	0.000	Y_WP:	0.000	Y_WP:	1.000	X:	0.240	Y:	-0.268	Z:	0.056	yaw:	178.557	yaw rate:	2.463	Roll:	-7.926	Pitch:	8.214	Yaw:	250.582	Thrust:	100.000
Time:	3.793	Roll Set Point:	0.007	Pitch Set Point:	0.006	Yaw Set Point:	-3.117	X_WP:	0.000	Y_WP:	0.000	Y_WP:	1.000	X:	0.240	Y:	-0.268	Z:	0.056	yaw:	178.594	yaw rate:	-3.671	Roll:	-7.613	Pitch:	8.527	Yaw:	251.884	Thrust:	100.000
Time:	3.814	Roll Set Point:	0.007	Pitch Set Point:	0.006	Yaw Set Point:	-3.117	X_WP:	0.000	Y_WP:	0.000	Y_WP:	1.000	X:	0.240	Y:	-0.268	Z:	0.056	yaw:	178.586	yaw rate:	0.763	Roll:	-8.062	Pitch:	8.331	Yaw:	251.239	Thrust:	100.000
Time:	3.834	Roll Set Point:	0.006	Pitch Set Point:	0.006	Yaw Set Point:	-3.118	X_WP:	0.000	Y_WP:	0.000	Y_WP:	1.000	X:	0.240	Y:	-0.268	Z:	0.056	yaw:	178.641	yaw rate:	-5.435	Roll:	-7.736	Pitch:	8.436	Yaw:	252.156	Thrust:	100.000
Time:	3.853	Roll Set Point:	0.006	Pitch Set Point:	0.006	Yaw Set Point:	-3.118	X_WP:	0.000	Y_WP:	0.000	Y_WP:	1.000	X:	0.240	Y:	-0.268	Z:	0.056	yaw:	178.646	yaw rate:	-0.503	Roll:	-7.796	Pitch:	8.312	Yaw:	251.358	Thrust:	100.000
Time:	3.875	Roll Set Point:	0.006	Pitch Set Point:	0.006	Yaw Set Point:	-3.118	X_WP:	0.000	Y_WP:	0.000	Y_WP:	1.000	X:	0.240	Y:	-0.268	Z:	0.056	yaw:	178.648	yaw rate:	-0.208	Roll:	-7.950	Pitch:	8.431	Yaw:	251.738	Thrust:	100.000
Time:	3.893	Roll Set Point:	0.006	Pitch Set Point:	0.006	Yaw Set Point:	-3.118	X_WP:	0.000	Y_WP:	0.000	Y_WP:	1.000	X:	0.240	Y:	-0.268	Z:	0.056	yaw:	178.669	yaw rate:	-2.136	Roll:	-7.806	Pitch:	8.298	Yaw:	251.587	Thrust:	100.000
Time:	3.913	Roll Set Point:	0.006	Pitch Set Point:	0.006	Yaw Set Point:	-3.118	X_WP:	0.000	Y_WP:	0.000	Y_WP:	1.000	X:	0.240	Y:	-0.268	Z:	0.056	yaw:	178.643	yaw rate:	2.626	Roll:	-8.004	Pitch:	8.178	Yaw:	251.016	Thrust:	100.000
Time:	3.933	Roll Set Point:	0.006	Pitch Set Point:	0.005	Yaw Set Point:	-3.119	X_WP:	0.000	Y_WP:	0.000	Y_WP:	1.000	X:	0.240	Y:	-0.268	Z:	0.056	yaw:	178.729	yaw rate:	-8.608	Roll:	-7.488	Pitch:	8.762	Yaw:	252.735	Thrust:	100.000
Time:	3.954	Roll Set Point:	0.005	Pitch Set Point:	0.005	Yaw Set Point:	-3.121	X_WP:	0.000	Y_WP:	0.000	Y_WP:	1.000	X:	0.240	Y:	-0.268	Z:	0.055	yaw:	178.835	yaw rate:	-10.607	Roll:	-7.720	Pitch:	8.823	Yaw:	253.109	Thrust:	100.000
Time:	3.973	Roll Set Point:	0.009	Pitch Set Point:	0.008	Yaw Set Point:	-3.107	X_WP:	0.000	Y_WP:	0.000	Y_WP:	1.000	X:	0.240	Y:	-0.269	Z:	0.056	yaw:	178.038	yaw rate:	79.728	Roll:	-11.282	Pitch:	6.188	Yaw:	239.233	Thrust:	100.000
Time:	3.994	Roll Set Point:	0.018	Pitch Set Point:	0.017	Yaw Set Point:	-3.075	X_WP:	0.000	Y_WP:	0.000	Y_WP:	1.000	X:	0.242	Y:	-0.271	Z:	0.056	yaw:	176.171	yaw rate:	186.712	Roll:	-17.002	Pitch:	3.022	Yaw:	224.279	Thrust:	100.000
Time:	4.015	Roll Set Point:	0.030	Pitch Set Point:	0.030	Yaw Set Point:	-3.026	X_WP:	0.000	Y_WP:	0.000	Y_WP:	1.000	X:	0.245	Y:	-0.273	Z:	0.057	yaw:	173.353	yaw rate:	281.819	Roll:	-21.892	Pitch:	-1.737	Yaw:	209.064	Thrust:	100.000
Time:	4.034	Roll Set Point:	0.030	Pitch Set Point:	0.030	Yaw Set Point:	-3.028	X_WP:	0.000	Y_WP:	0.000	Y_WP:	1.000	X:	0.245	Y:	-0.274	Z:	0.058	yaw:	173.483	yaw rate:	-13.001	Roll:	-8.203	Pitch:	9.175	Yaw:	245.924	Thrust:	100.000
Time:	4.053	Roll Set Point:	0.026	Pitch Set Point:	0.025	Yaw Set Point:	-3.043	X_WP:	0.000	Y_WP:	0.000	Y_WP:	1.000	X:	0.244	Y:	-0.275	Z:	0.060	yaw:	174.340	yaw rate:	-85.744	Roll:	-4.526	Pitch:	12.710	Yaw:	257.486	Thrust:	100.000
Time:	4.075	Roll Set Point:	0.019	Pitch Set Point:	0.018	Yaw Set Point:	-3.070	X_WP:	0.000	Y_WP:	0.000	Y_WP:	1.000	X:	0.243	Y:	-0.276	Z:	0.062	yaw:	175.887	yaw rate:	-154.743	Roll:	-2.241	Pitch:	14.495	Yaw:	266.059	Thrust:	100.000
Time:	4.093	Roll Set Point:	0.013	Pitch Set Point:	0.012	Yaw Set Point:	-3.092	X_WP:	0.000	Y_WP:	0.000	Y_WP:	1.000	X:	0.242	Y:	-0.276	Z:	0.066	yaw:	177.152	yaw rate:	-126.474	Roll:	-2.130	Pitch:	13.356	Yaw:	267.176	Thrust:	100.000
Time:	4.113	Roll Set Point:	0.014	Pitch Set Point:	0.013	Yaw Set Point:	-3.089	X_WP:	0.000	Y_WP:	0.000	Y_WP:	1.000	X:	0.241	Y:	-0.275	Z:	0.072	yaw:	176.993	yaw rate:	15.875	Roll:	-8.106	Pitch:	6.908	Yaw:	247.111	Thrust:	100.000
Time:	4.135	Roll Set Point:	0.021	Pitch Set Point:	0.020	Yaw Set Point:	-3.061	X_WP:	0.000	Y_WP:	0.000	Y_WP:	1.000	X:	0.242	Y:	-0.274	Z:	0.080	yaw:	175.357	yaw rate:	163.631	Roll:	-14.321	Pitch:	1.692	Yaw:	226.821	Thrust:	100.000
Time:	4.157	Roll Set Point:	0.028	Pitch Set Point:	0.027	Yaw Set Point:	-3.035	X_WP:	0.000	Y_WP:	0.000	Y_WP:	1.000	X:	0.242	Y:	-0.274	Z:	0.090	yaw:	173.897	yaw rate:	146.009	Roll:	-13.780	Pitch:	2.338	Yaw:	227.664	Thrust:	100.000
Time:	4.172	Roll Set Point:	0.029	Pitch Set Point:	0.029	Yaw Set Point:	-3.030	X_WP:	0.000	Y_WP:	0.000	Y_WP:	1.000	X:	0.242	Y:	-0.274	Z:	0.102	yaw:	173.601	yaw rate:	29.608	Roll:	-10.260	Pitch:	6.262	Yaw:	239.018	Thrust:	100.000
Time:	4.194	Roll Set Point:	0.025	Pitch Set Point:	0.025	Yaw Set Point:	-3.045	X_WP:	0.000	Y_WP:	0.000	Y_WP:	1.000	X:	0.243	Y:	-0.274	Z:	0.116	yaw:	174.459	yaw rate:	-85.792	Roll:	-5.636	Pitch:	11.484	Yaw:	256.294	Thrust:	100.000
Time:	4.214	Roll Set Point:	0.022	Pitch Set Point:	0.021	Yaw Set Point:	-3.059	X_WP:	0.000	Y_WP:	0.000	Y_WP:	1.000	X:	0.241	Y:	-0.274	Z:	0.132	yaw:	175.294	yaw rate:	-83.554	Roll:	-4.477	Pitch:	11.904	Yaw:	257.404	Thrust:	100.000
Time:	4.234	Roll Set Point:	0.020	Pitch Set Point:	0.018	Yaw Set Point:	-3.068	X_WP:	0.000	Y_WP:	0.000	Y_WP:	1.000	X:	0.240	Y:	-0.275	Z:	0.150	yaw:	175.764	yaw rate:	-46.914	Roll:	-4.866	Pitch:	10.463	Yaw:	253.735	Thrust:	100.000
Time:	4.252	Roll Set Point:	0.019	Pitch Set Point:	0.018	Yaw Set Point:	-3.069	X_WP:	0.000	Y_WP:	0.000	Y_WP:	1.000	X:	0.236	Y:	-0.275	Z:	0.170	yaw:	175.850	yaw rate:	-8.603	Roll:	-4.985	Pitch:	9.061	Yaw:	248.631	Thrust:	100.000
Time:	4.273	Roll Set Point:	0.019	Pitch Set Point:	0.017	Yaw Set Point:	-3.071	X_WP:	0.000	Y_WP:	0.000	Y_WP:	1.000	X:	0.232	Y:	-0.276	Z:	0.193	yaw:	175.932	yaw rate:	-8.277	Roll:	-4.561	Pitch:	9.340	Yaw:	248.758	Thrust:	100.000
Time:	4.293	Roll Set Point:	0.016	Pitch Set Point:	0.014	Yaw Set Point:	-3.082	X_WP:	0.000	Y_WP:	0.000	Y_WP:	1.000	X:	0.228	Y:	-0.277	Z:	0.217	yaw:	176.561	yaw rate:	-62.844	Roll:	-1.668	Pitch:	11.799	Yaw:	256.884	Thrust:	100.000
Time:	4.312	Roll Set Point:	0.013	Pitch Set Point:	0.011	Yaw Set Point:	-3.092	X_WP:	0.000	Y_WP:	0.000	Y_WP:	1.000	X:	0.223	Y:	-0.278	Z:	0.244	yaw:	177.182	yaw rate:	-62.097	Roll:	-0.936	Pitch:	12.175	Yaw:	257.738	Thrust:	100.000
Time:	4.333	Roll Set Point:	0.014	Pitch Set Point:	0.011	Yaw Set Point:	-3.091	X_WP:	0.000	Y_WP:	0.000	Y_WP:	1.000	X:	0.218	Y:	-0.280	Z:	0.271	yaw:	177.108	yaw rate:	7.376	Roll:	-3.237	Pitch:	9.810	Yaw:	248.491	Thrust:	100.000
Time:	4.357	Roll Set Point:	0.010	Pitch Set Point:	0.008	Yaw Set Point:	-3.105	X_WP:	0.000	Y_WP:	0.000	Y_WP:	1.000	X:	0.212	Y:	-0.281	Z:	0.299	yaw:	177.889	yaw rate:	-78.093	Roll:	-0.345	Pitch:	11.918	Yaw:	259.529	Thrust:	100.000
Time:	4.373	Roll Set Point:	0.010	Pitch Set Point:	0.008	Yaw Set Point:	-3.104	X_WP:	0.000	Y_WP:	0.000	Y_WP:	1.000	X:	0.205	Y:	-0.282	Z:	0.329	yaw:	177.851	yaw rate:	3.846	Roll:	-0.072	Pitch:	9.577	Yaw:	249.353	Thrust:	100.000
Time:	4.393	Roll Set Point:	0.013	Pitch Set Point:	0.010	Yaw Set Point:	-3.095	X_WP:	0.000	Y_WP:	0.000	Y_WP:	1.000	X:	0.197	Y:	-0.283	Z:	0.358	yaw:	177.330	yaw rate:	52.089	Roll:	-2.620	Pitch:	8.322	Yaw:	242.886	Thrust:	100.000
Time:	4.413	Roll Set Point:	0.012	Pitch Set Point:	0.008	Yaw Set Point:	-3.099	X_WP:	0.000	Y_WP:	0.000	Y_WP:	1.000	X:	0.190	Y:	-0.283	Z:	0.387	yaw:	177.544	yaw rate:	-21.413	Roll:	0.194	Pitch:	10.319	Yaw:	252.703	Thrust:	100.000
Time:	4.433	Roll Set Point:	0.008	Pitch Set Point:	0.005	Yaw Set Point:	-3.113	X_WP:	0.000	Y_WP:	0.000	Y_WP:	1.000	X:	0.183	Y:	-0.284	Z:	0.416	yaw:	178.387	yaw rate:	-84.328	Roll:	2.851	Pitch:	11.903	Yaw:	261.858	Thrust:	100.000
Time:	4.453	Roll Set Point:	0.004	Pitch Set Point:	0.002	Yaw Set Point:	-3.128	X_WP:	0.000	Y_WP:	0.000	Y_WP:	1.000	X:	0.176	Y:	-0.285	Z:	0.445	yaw:	179.244	yaw rate:	-85.694	Roll:	4.416	Pitch:	12.298	Yaw:	263.889	Thrust:	100.000
Time:	4.474	Roll Set Point:	-0.004	Pitch Set Point:	-0.002	Yaw Set Point:	3.128	X_WP:	0.000	Y_WP:	0.000	Y_WP:	1.000	X:	0.167	Y:	-0.286	Z:	0.474	yaw:	-179.209	yaw rate:	35845.256	Roll:	8.046	Pitch:	13.474	Yaw:	-4686.741	Thrust:	100.000
Time:	4.493	Roll Set Point:	-0.005	Pitch Set Point:	-0.003	Yaw Set Point:	3.124	X_WP:	0.000	Y_WP:	0.000	Y_WP:	1.000	X:	0.158	Y:	-0.286	Z:	0.502	yaw:	-179.012	yaw rate:	-19.611	Roll:	3.372	Pitch:	9.358	Yaw:	-246.603	Thrust:	100.000
Time:	4.513	Roll Set Point:	-0.000	Pitch Set Point:	-0.000	Yaw Set Point:	3.141	X_WP:	0.000	Y_WP:	0.000	Y_WP:	1.000	X:	0.149	Y:	-0.285	Z:	0.528	yaw:	-179.940	yaw rate:	92.719	Roll:	-1.213	Pitch:	6.326	Yaw:	-264.790	Thrust:	100.000
Time:	4.534	Roll Set Point:	0.007	Pitch Set Point:	0.004	Yaw Set Point:	-3.116	X_WP:	0.000	Y_WP:	0.000	Y_WP:	1.000	X:	0.140	Y:	-0.284	Z:	0.553	yaw:	178.540	yaw rate:	-35847.979	Roll:	-4.040	Pitch:	5.229	Yaw:	4659.078	Thrust:	100.000
Time:	4.552	Roll Set Point:	0.006	Pitch Set Point:	0.003	Yaw Set Point:	-3.119	X_WP:	0.000	Y_WP:	0.000	Y_WP:	1.000	X:	0.131	Y:	-0.283	Z:	0.579	yaw:	178.720	yaw rate:	-17.978	Roll:	4.636	Pitch:	7.945	Yaw:	251.530	Thrust:	100.000
Time:	4.572	Roll Set Point:	0.009	Pitch Set Point:	0.004	Yaw Set Point:	-3.110	X_WP:	0.000	Y_WP:	0.000	Y_WP:	1.000	X:	0.120	Y:	-0.282	Z:	0.603	yaw:	178.177	yaw rate:	54.306	Roll:	2.054	Pitch:	7.508	Yaw:	242.311	Thrust:	100.000
Time:	4.592	Roll Set Point:	0.010	Pitch Set Point:	0.004	Yaw Set Point:	-3.106	X_WP:	0.000	Y_WP:	0.000	Y_WP:	1.000	X:	0.110	Y:	-0.282	Z:	0.627	yaw:	177.936	yaw rate:	24.059	Roll:	3.278	Pitch:	8.380	Yaw:	247.414	Thrust:	100.000
Time:	4.614	Roll Set Point:	0.010	Pitch Set Point:	0.004	Yaw Set Point:	-3.105	X_WP:	0.000	Y_WP:	0.000	Y_WP:	1.000	X:	0.101	Y:	-0.282	Z:	0.649	yaw:	177.905	yaw rate:	3.124	Roll:	3.622	Pitch:	9.282	Yaw:	250.119	Thrust:	100.000
Time:	4.632	Roll Set Point:	0.007	Pitch Set Point:	0.002	Yaw Set Point:	-3.116	X_WP:	0.000	Y_WP:	0.000	Y_WP:	1.000	X:	0.090	Y:	-0.283	Z:	0.670	yaw:	178.518	yaw rate:	-61.311	Roll:	8.727	Pitch:	10.755	Yaw:	259.691	Thrust:	100.000
Time:	4.652	Roll Set Point:	0.005	Pitch Set Point:	0.002	Yaw Set Point:	-3.123	X_WP:	0.000	Y_WP:	0.000	Y_WP:	1.000	X:	0.080	Y:	-0.284	Z:	0.689	yaw:	178.931	yaw rate:	-41.324	Roll:	7.462	Pitch:	10.569	Yaw:	257.463	Thrust:	100.000
Time:	4.682	Roll Set Point:	0.009	Pitch Set Point:	0.002	Yaw Set Point:	-3.111	X_WP:	0.000	Y_WP:	0.000	Y_WP:	1.000	X:	0.070	Y:	-0.285	Z:	0.707	yaw:	178.247	yaw rate:	68.483	Roll:	0.409	Pitch:	9.781	Yaw:	246.199	Thrust:	100.000
Time:	4.695	Roll Set Point:	0.007	Pitch Set Point:	0.002	Yaw Set Point:	-3.116	X_WP:	0.000	Y_WP:	0.000	Y_WP:	1.000	X:	0.060	Y:	-0.286	Z:	0.724	yaw:	178.507	yaw rate:	-26.050	Roll:	12.460	Pitch:	11.282	Yaw:	256.105	Thrust:	100.000
Time:	4.712	Roll Set Point:	0.007	Pitch Set Point:	0.001	Yaw Set Point:	-3.117	X_WP:	0.000	Y_WP:	0.000	Y_WP:	1.000	X:	0.049	Y:	-0.289	Z:	0.740	yaw:	178.618	yaw rate:	-11.078	Roll:	8.882	Pitch:	11.532	Yaw:	252.808	Thrust:	100.000
Time:	4.734	Roll Set Point:	0.002	Pitch Set Point:	0.000	Yaw Set Point:	-3.133	X_WP:	0.000	Y_WP:	0.000	Y_WP:	1.000	X:	0.039	Y:	-0.292	Z:	0.754	yaw:	179.522	yaw rate:	-90.403	Roll:	9.619	Pitch:	12.525	Yaw:	263.746	Thrust:	100.000
Time:	4.753	Roll Set Point:	-0.001	Pitch Set Point:	-0.000	Yaw Set Point:	3.139	X_WP:	0.000	Y_WP:	0.000	Y_WP:	1.000	X:	0.027	Y:	-0.295	Z:	0.768	yaw:	-179.860	yaw rate:	35938.203	Roll:	11.366	Pitch:	12.354	Yaw:	-5276.718	Thrust:	100.000
Time:	4.774	Roll Set Point:	-0.002	Pitch Set Point:	-0.000	Yaw Set Point:	3.136	X_WP:	0.000	Y_WP:	0.000	Y_WP:	1.000	X:	0.016	Y:	-0.298	Z:	0.781	yaw:	-179.700	yaw rate:	-16.059	Roll:	9.836	Pitch:	12.408	Yaw:	-248.176	Thrust:	100.000
Time:	4.793	Roll Set Point:	0.000	Pitch Set Point:	0.000	Yaw Set Point:	-3.141	X_WP:	0.000	Y_WP:	0.000	Y_WP:	1.000	X:	0.004	Y:	-0.302	Z:	0.793	yaw:	179.967	yaw rate:	-35966.612	Roll:	7.571	Pitch:	12.173	Yaw:	5462.930	Thrust:	100.000
Time:	4.814	Roll Set Point:	0.000	Pitch Set Point:	-0.000	Yaw Set Point:	-3.141	X_WP:	0.000	Y_WP:	0.000	Y_WP:	1.000	X:	-0.009	Y:	-0.306	Z:	0.804	yaw:	179.967	yaw rate:	-0.006	Roll:	9.654	Pitch:	12.891	Yaw:	252.076	Thrust:	100.000
Time:	4.833	Roll Set Point:	0.001	Pitch Set Point:	-0.000	Yaw Set Point:	-3.139	X_WP:	0.000	Y_WP:	0.000	Y_WP:	1.000	X:	-0.022	Y:	-0.309	Z:	0.815	yaw:	179.857	yaw rate:	10.978	Roll:	10.453	Pitch:	12.991	Yaw:	251.502	Thrust:	100.000
Time:	4.853	Roll Set Point:	0.000	Pitch Set Point:	-0.000	Yaw Set Point:	-3.140	X_WP:	0.000	Y_WP:	0.000	Y_WP:	1.000	X:	-0.034	Y:	-0.314	Z:	0.824	yaw:	179.913	yaw rate:	-5.625	Roll:	12.088	Pitch:	13.796	Yaw:	253.878	Thrust:	100.000
Time:	4.873	Roll Set Point:	0.001	Pitch Set Point:	-0.000	Yaw Set Point:	-3.139	X_WP:	0.000	Y_WP:	0.000	Y_WP:	1.000	X:	-0.048	Y:	-0.318	Z:	0.833	yaw:	179.838	yaw rate:	7.551	Roll:	11.223	Pitch:	13.729	Yaw:	252.239	Thrust:	100.000
Time:	4.894	Roll Set Point:	-0.001	Pitch Set Point:	0.000	Yaw Set Point:	3.138	X_WP:	0.000	Y_WP:	0.000	Y_WP:	1.000	X:	-0.062	Y:	-0.323	Z:	0.842	yaw:	-179.789	yaw rate:	35962.641	Roll:	14.050	Pitch:	13.711	Yaw:	-4681.234	Thrust:	100.000
Time:	4.913	Roll Set Point:	-0.005	Pitch Set Point:	0.001	Yaw Set Point:	3.126	X_WP:	0.000	Y_WP:	0.000	Y_WP:	1.000	X:	-0.076	Y:	-0.328	Z:	0.851	yaw:	-179.130	yaw rate:	-65.894	Roll:	17.951	Pitch:	14.048	Yaw:	-239.934	Thrust:	100.000
Time:	4.933	Roll Set Point:	-0.008	Pitch Set Point:	0.002	Yaw Set Point:	3.117	X_WP:	0.000	Y_WP:	0.000	Y_WP:	1.000	X:	-0.090	Y:	-0.334	Z:	0.859	yaw:	-178.574	yaw rate:	-55.620	Roll:	16.467	Pitch:	13.766	Yaw:	-242.878	Thrust:	100.000
Time:	4.953	Roll Set Point:	-0.013	Pitch Set Point:	0.004	Yaw Set Point:	3.102	X_WP:	0.000	Y_WP:	0.000	Y_WP:	1.000	X:	-0.105	Y:	-0.338	Z:	0.867	yaw:	-177.758	yaw rate:	-81.533	Roll:	20.003	Pitch:	13.023	Yaw:	-239.587	Thrust:	100.000
Time:	4.972	Roll Set Point:	-0.015	Pitch Set Point:	0.005	Yaw Set Point:	3.099	X_WP:	0.000	Y_WP:	0.000	Y_WP:	1.000	X:	-0.119	Y:	-0.343	Z:	0.875	yaw:	-177.545	yaw rate:	-21.316	Roll:	16.899	Pitch:	13.829	Yaw:	-247.677	Thrust:	100.000
Time:	4.993	Roll Set Point:	-0.016	Pitch Set Point:	0.007	Yaw Set Point:	3.096	X_WP:	0.000	Y_WP:	0.000	Y_WP:	1.000	X:	-0.134	Y:	-0.348	Z:	0.884	yaw:	-177.373	yaw rate:	-17.230	Roll:	16.720	Pitch:	13.897	Yaw:	-249.588	Thrust:	100.000
Time:	5.013	Roll Set Point:	0.120	Pitch Set Point:	2.671	Yaw Set Point:	3.093	X_WP:	-0.008	Y_WP:	-2.667	Y_WP:	1.000	X:	-0.148	Y:	-0.353	Z:	0.894	yaw:	-177.239	yaw rate:	-13.422	Roll:	-30.000	Pitch:	-30.000	Yaw:	-249.933	Thrust:	100.000
Time:	5.034	Roll Set Point:	0.124	Pitch Set Point:	2.672	Yaw Set Point:	3.091	X_WP:	-0.008	Y_WP:	-2.667	Y_WP:	1.000	X:	-0.163	Y:	-0.358	Z:	0.903	yaw:	-177.120	yaw rate:	-11.887	Roll:	8.336	Pitch:	-30.000	Yaw:	-249.822	Thrust:	100.000
Time:	5.053	Roll Set Point:	0.115	Pitch Set Point:	2.673	Yaw Set Point:	3.095	X_WP:	-0.008	Y_WP:	-2.667	Y_WP:	1.000	X:	-0.177	Y:	-0.362	Z:	0.912	yaw:	-177.349	yaw rate:	22.885	Roll:	22.402	Pitch:	-30.000	Yaw:	-254.560	Thrust:	100.000
Time:	5.075	Roll Set Point:	0.107	Pitch Set Point:	2.673	Yaw Set Point:	3.099	X_WP:	-0.008	Y_WP:	-2.667	Y_WP:	1.000	X:	-0.191	Y:	-0.366	Z:	0.921	yaw:	-177.542	yaw rate:	19.311	Roll:	19.275	Pitch:	-30.000	Yaw:	-254.665	Thrust:	100.000
Time:	5.094	Roll Set Point:	0.098	Pitch Set Point:	2.673	Yaw Set Point:	3.103	X_WP:	-0.008	Y_WP:	-2.667	Y_WP:	1.000	X:	-0.205	Y:	-0.369	Z:	0.928	yaw:	-177.765	yaw rate:	22.327	Roll:	21.616	Pitch:	-30.000	Yaw:	-255.088	Thrust:	100.000
Time:	5.112	Roll Set Point:	0.109	Pitch Set Point:	2.674	Yaw Set Point:	3.098	X_WP:	-0.008	Y_WP:	-2.667	Y_WP:	1.000	X:	-0.218	Y:	-0.372	Z:	0.935	yaw:	-177.484	yaw rate:	-28.120	Roll:	4.921	Pitch:	-30.000	Yaw:	-247.555	Thrust:	100.000
Time:	5.133	Roll Set Point:	0.087	Pitch Set Point:	2.674	Yaw Set Point:	3.107	X_WP:	-0.008	Y_WP:	-2.667	Y_WP:	1.000	X:	-0.231	Y:	-0.376	Z:	0.942	yaw:	-178.030	yaw rate:	54.658	Roll:	30.000	Pitch:	-30.000	Yaw:	-259.583	Thrust:	100.000
Time:	5.154	Roll Set Point:	0.074	Pitch Set Point:	2.673	Yaw Set Point:	3.113	X_WP:	-0.008	Y_WP:	-2.667	Y_WP:	1.000	X:	-0.244	Y:	-0.379	Z:	0.949	yaw:	-178.362	yaw rate:	33.110	Roll:	26.975	Pitch:	-30.000	Yaw:	-257.374	Thrust:	100.000
Time:	5.172	Roll Set Point:	0.063	Pitch Set Point:	2.673	Yaw Set Point:	3.118	X_WP:	-0.008	Y_WP:	-2.667	Y_WP:	1.000	X:	-0.258	Y:	-0.381	Z:	0.955	yaw:	-178.634	yaw rate:	27.258	Roll:	26.266	Pitch:	-30.000	Yaw:	-256.977	Thrust:	100.000
Time:	5.194	Roll Set Point:	0.074	Pitch Set Point:	2.674	Yaw Set Point:	3.113	X_WP:	-0.008	Y_WP:	-2.667	Y_WP:	1.000	X:	-0.271	Y:	-0.384	Z:	0.961	yaw:	-178.352	yaw rate:	-28.256	Roll:	6.597	Pitch:	-30.000	Yaw:	-249.819	Thrust:	100.000
Time:	5.214	Roll Set Point:	0.069	Pitch Set Point:	2.674	Yaw Set Point:	3.115	X_WP:	-0.008	Y_WP:	-2.667	Y_WP:	1.000	X:	-0.285	Y:	-0.387	Z:	0.968	yaw:	-178.473	yaw rate:	12.136	Roll:	21.206	Pitch:	-30.000	Yaw:	-254.711	Thrust:	100.000
Time:	5.233	Roll Set Point:	0.037	Pitch Set Point:	2.671	Yaw Set Point:	3.129	X_WP:	-0.008	Y_WP:	-2.667	Y_WP:	1.000	X:	-0.299	Y:	-0.390	Z:	0.974	yaw:	-179.276	yaw rate:	80.315	Roll:	30.000	Pitch:	-30.000	Yaw:	-264.922	Thrust:	100.000
Time:	5.253	Roll Set Point:	0.052	Pitch Set Point:	2.673	Yaw Set Point:	3.122	X_WP:	-0.008	Y_WP:	-2.667	Y_WP:	1.000	X:	-0.313	Y:	-0.392	Z:	0.981	yaw:	-178.889	yaw rate:	-38.710	Roll:	5.588	Pitch:	-30.000	Yaw:	-248.673	Thrust:	100.000
