Time:	0.037	Roll Set Point:	1.070	Pitch Set Point:	1.744	Yaw Set Point:	-1.087	X_WP:	0.000	Y_WP:	0.000	Y_WP:	0.750	X:	-0.008	Y:	-1.195	Z:	0.044	yaw:	62.290	yaw rate:	-0.651	Roll:	-30.000	Pitch:	-15.918	Yaw:	86.973	Thrust:	38.822
Time:	0.054	Roll Set Point:	1.070	Pitch Set Point:	1.744	Yaw Set Point:	-1.088	X_WP:	0.000	Y_WP:	0.000	Y_WP:	0.750	X:	-0.008	Y:	-1.195	Z:	0.044	yaw:	62.315	yaw rate:	-2.506	Roll:	-30.000	Pitch:	-15.390	Yaw:	87.763	Thrust:	40.197
Time:	0.074	Roll Set Point:	1.070	Pitch Set Point:	1.744	Yaw Set Point:	-1.087	X_WP:	0.000	Y_WP:	0.000	Y_WP:	0.750	X:	-0.008	Y:	-1.195	Z:	0.044	yaw:	62.301	yaw rate:	1.383	Roll:	-30.000	Pitch:	-16.215	Yaw:	87.664	Thrust:	42.170
Time:	0.094	Roll Set Point:	1.070	Pitch Set Point:	1.744	Yaw Set Point:	-1.087	X_WP:	0.000	Y_WP:	0.000	Y_WP:	0.750	X:	-0.008	Y:	-1.195	Z:	0.044	yaw:	62.286	yaw rate:	1.541	Roll:	-30.000	Pitch:	-16.266	Yaw:	88.054	Thrust:	43.784
Time:	0.114	Roll Set Point:	1.070	Pitch Set Point:	1.744	Yaw Set Point:	-1.087	X_WP:	0.000	Y_WP:	0.000	Y_WP:	0.750	X:	-0.008	Y:	-1.195	Z:	0.044	yaw:	62.290	yaw rate:	-0.449	Roll:	-30.000	Pitch:	-15.950	Yaw:	88.803	Thrust:	45.804
Time:	0.137	Roll Set Point:	1.070	Pitch Set Point:	1.744	Yaw Set Point:	-1.087	X_WP:	0.000	Y_WP:	0.000	Y_WP:	0.750	X:	-0.008	Y:	-1.195	Z:	0.044	yaw:	62.289	yaw rate:	0.111	Roll:	-30.000	Pitch:	-16.070	Yaw:	89.134	Thrust:	47.802
Time:	0.154	Roll Set Point:	1.070	Pitch Set Point:	1.744	Yaw Set Point:	-1.087	X_WP:	0.000	Y_WP:	0.000	Y_WP:	0.750	X:	-0.008	Y:	-1.195	Z:	0.044	yaw:	62.292	yaw rate:	-0.260	Roll:	-30.000	Pitch:	-16.026	Yaw:	88.817	Thrust:	48.273
Time:	0.174	Roll Set Point:	1.070	Pitch Set Point:	1.744	Yaw Set Point:	-1.087	X_WP:	0.000	Y_WP:	0.000	Y_WP:	0.750	X:	-0.008	Y:	-1.195	Z:	0.044	yaw:	62.292	yaw rate:	-0.035	Roll:	-30.000	Pitch:	-16.090	Yaw:	88.993	Thrust:	50.175
Time:	0.193	Roll Set Point:	1.070	Pitch Set Point:	1.744	Yaw Set Point:	-1.087	X_WP:	0.000	Y_WP:	0.000	Y_WP:	0.750	X:	-0.008	Y:	-1.195	Z:	0.044	yaw:	62.308	yaw rate:	-1.596	Roll:	-30.000	Pitch:	-15.882	Yaw:	89.120	Thrust:	52.315
Time:	0.214	Roll Set Point:	1.070	Pitch Set Point:	1.744	Yaw Set Point:	-1.087	X_WP:	0.000	Y_WP:	0.000	Y_WP:	0.750	X:	-0.008	Y:	-1.195	Z:	0.044	yaw:	62.290	yaw rate:	1.770	Roll:	-30.000	Pitch:	-16.448	Yaw:	88.842	Thrust:	54.837
Time:	0.234	Roll Set Point:	1.070	Pitch Set Point:	1.745	Yaw Set Point:	-1.087	X_WP:	0.000	Y_WP:	0.000	Y_WP:	0.750	X:	-0.008	Y:	-1.195	Z:	0.044	yaw:	62.274	yaw rate:	1.567	Roll:	-30.000	Pitch:	-16.463	Yaw:	88.794	Thrust:	56.045
Time:	0.254	Roll Set Point:	1.070	Pitch Set Point:	1.744	Yaw Set Point:	-1.087	X_WP:	0.000	Y_WP:	0.000	Y_WP:	0.750	X:	-0.008	Y:	-1.195	Z:	0.044	yaw:	62.292	yaw rate:	-1.760	Roll:	-30.000	Pitch:	-15.914	Yaw:	89.169	Thrust:	57.174
Time:	0.274	Roll Set Point:	1.070	Pitch Set Point:	1.744	Yaw Set Point:	-1.087	X_WP:	0.000	Y_WP:	0.000	Y_WP:	0.750	X:	-0.008	Y:	-1.195	Z:	0.044	yaw:	62.304	yaw rate:	-1.156	Roll:	-30.000	Pitch:	-16.051	Yaw:	89.124	Thrust:	58.861
Time:	0.294	Roll Set Point:	1.070	Pitch Set Point:	1.744	Yaw Set Point:	-1.087	X_WP:	0.000	Y_WP:	0.000	Y_WP:	0.750	X:	-0.008	Y:	-1.195	Z:	0.044	yaw:	62.281	yaw rate:	2.277	Roll:	-30.000	Pitch:	-16.656	Yaw:	88.699	Thrust:	61.201
Time:	0.314	Roll Set Point:	1.070	Pitch Set Point:	1.744	Yaw Set Point:	-1.088	X_WP:	0.000	Y_WP:	0.000	Y_WP:	0.750	X:	-0.008	Y:	-1.195	Z:	0.044	yaw:	62.310	yaw rate:	-2.940	Roll:	-30.000	Pitch:	-15.793	Yaw:	89.362	Thrust:	62.216
Time:	0.334	Roll Set Point:	1.070	Pitch Set Point:	1.744	Yaw Set Point:	-1.087	X_WP:	0.000	Y_WP:	0.000	Y_WP:	0.750	X:	-0.008	Y:	-1.195	Z:	0.044	yaw:	62.297	yaw rate:	1.284	Roll:	-30.000	Pitch:	-16.533	Yaw:	88.889	Thrust:	65.075
Time:	0.354	Roll Set Point:	1.070	Pitch Set Point:	1.744	Yaw Set Point:	-1.088	X_WP:	0.000	Y_WP:	0.000	Y_WP:	0.750	X:	-0.008	Y:	-1.195	Z:	0.044	yaw:	62.317	yaw rate:	-1.989	Roll:	-30.000	Pitch:	-15.964	Yaw:	89.237	Thrust:	65.472
Time:	0.374	Roll Set Point:	1.070	Pitch Set Point:	1.745	Yaw Set Point:	-1.087	X_WP:	0.000	Y_WP:	0.000	Y_WP:	0.750	X:	-0.008	Y:	-1.195	Z:	0.044	yaw:	62.266	yaw rate:	5.178	Roll:	-30.000	Pitch:	-17.245	Yaw:	88.234	Thrust:	67.218
Time:	0.394	Roll Set Point:	1.070	Pitch Set Point:	1.744	Yaw Set Point:	-1.087	X_WP:	0.000	Y_WP:	0.000	Y_WP:	0.750	X:	-0.008	Y:	-1.195	Z:	0.044	yaw:	62.296	yaw rate:	-3.054	Roll:	-30.000	Pitch:	-15.902	Yaw:	89.386	Thrust:	69.463
Time:	0.415	Roll Set Point:	1.070	Pitch Set Point:	1.744	Yaw Set Point:	-1.087	X_WP:	0.000	Y_WP:	0.000	Y_WP:	0.750	X:	-0.008	Y:	-1.195	Z:	0.044	yaw:	62.286	yaw rate:	1.049	Roll:	-30.000	Pitch:	-16.635	Yaw:	88.920	Thrust:	72.274
Time:	0.434	Roll Set Point:	1.070	Pitch Set Point:	1.745	Yaw Set Point:	-1.087	X_WP:	0.000	Y_WP:	0.000	Y_WP:	0.750	X:	-0.008	Y:	-1.195	Z:	0.044	yaw:	62.279	yaw rate:	0.619	Roll:	-30.000	Pitch:	-16.551	Yaw:	88.804	Thrust:	71.522
Time:	0.454	Roll Set Point:	1.070	Pitch Set Point:	1.744	Yaw Set Point:	-1.088	X_WP:	0.000	Y_WP:	0.000	Y_WP:	0.750	X:	-0.008	Y:	-1.195	Z:	0.044	yaw:	62.325	yaw rate:	-4.584	Roll:	-30.000	Pitch:	-15.678	Yaw:	89.629	Thrust:	74.614
Time:	0.474	Roll Set Point:	1.070	Pitch Set Point:	1.744	Yaw Set Point:	-1.088	X_WP:	0.000	Y_WP:	0.000	Y_WP:	0.750	X:	-0.008	Y:	-1.195	Z:	0.044	yaw:	62.312	yaw rate:	1.318	Roll:	-30.000	Pitch:	-16.708	Yaw:	88.809	Thrust:	75.779
Time:	0.494	Roll Set Point:	1.070	Pitch Set Point:	1.744	Yaw Set Point:	-1.087	X_WP:	0.000	Y_WP:	0.000	Y_WP:	0.750	X:	-0.008	Y:	-1.195	Z:	0.044	yaw:	62.306	yaw rate:	0.577	Roll:	-30.000	Pitch:	-16.655	Yaw:	88.932	Thrust:	76.990
Time:	0.516	Roll Set Point:	1.070	Pitch Set Point:	1.744	Yaw Set Point:	-1.087	X_WP:	0.000	Y_WP:	0.000	Y_WP:	0.750	X:	-0.008	Y:	-1.195	Z:	0.044	yaw:	62.296	yaw rate:	1.064	Roll:	-30.000	Pitch:	-16.801	Yaw:	89.087	Thrust:	83.086
Time:	0.535	Roll Set Point:	1.070	Pitch Set Point:	1.744	Yaw Set Point:	-1.087	X_WP:	0.000	Y_WP:	0.000	Y_WP:	0.750	X:	-0.008	Y:	-1.195	Z:	0.044	yaw:	62.309	yaw rate:	-1.349	Roll:	-30.000	Pitch:	-16.301	Yaw:	89.035	Thrust:	80.029
Time:	0.556	Roll Set Point:	1.070	Pitch Set Point:	1.744	Yaw Set Point:	-1.087	X_WP:	0.000	Y_WP:	0.000	Y_WP:	0.750	X:	-0.008	Y:	-1.195	Z:	0.044	yaw:	62.286	yaw rate:	2.357	Roll:	-30.000	Pitch:	-17.027	Yaw:	88.725	Thrust:	84.221
Time:	0.574	Roll Set Point:	1.070	Pitch Set Point:	1.744	Yaw Set Point:	-1.087	X_WP:	0.000	Y_WP:	0.000	Y_WP:	0.750	X:	-0.008	Y:	-1.195	Z:	0.044	yaw:	62.297	yaw rate:	-1.112	Roll:	-30.000	Pitch:	-16.447	Yaw:	89.014	Thrust:	81.630
Time:	0.594	Roll Set Point:	1.070	Pitch Set Point:	1.744	Yaw Set Point:	-1.087	X_WP:	0.000	Y_WP:	0.000	Y_WP:	0.750	X:	-0.008	Y:	-1.195	Z:	0.044	yaw:	62.309	yaw rate:	-1.222	Roll:	-30.000	Pitch:	-16.449	Yaw:	89.165	Thrust:	86.410
Time:	0.615	Roll Set Point:	1.070	Pitch Set Point:	1.744	Yaw Set Point:	-1.088	X_WP:	0.000	Y_WP:	0.000	Y_WP:	0.750	X:	-0.008	Y:	-1.195	Z:	0.044	yaw:	62.310	yaw rate:	-0.134	Roll:	-30.000	Pitch:	-16.606	Yaw:	89.081	Thrust:	87.048
Time:	0.634	Roll Set Point:	1.070	Pitch Set Point:	1.744	Yaw Set Point:	-1.087	X_WP:	0.000	Y_WP:	0.000	Y_WP:	0.750	X:	-0.008	Y:	-1.195	Z:	0.044	yaw:	62.309	yaw rate:	0.175	Roll:	-30.000	Pitch:	-16.684	Yaw:	88.941	Thrust:	91.348
Time:	0.654	Roll Set Point:	1.070	Pitch Set Point:	1.744	Yaw Set Point:	-1.087	X_WP:	0.000	Y_WP:	0.000	Y_WP:	0.750	X:	-0.008	Y:	-1.195	Z:	0.044	yaw:	62.302	yaw rate:	0.653	Roll:	-30.000	Pitch:	-16.798	Yaw:	88.827	Thrust:	89.293
Time:	0.674	Roll Set Point:	1.070	Pitch Set Point:	1.745	Yaw Set Point:	-1.087	X_WP:	0.000	Y_WP:	0.000	Y_WP:	0.750	X:	-0.008	Y:	-1.195	Z:	0.044	yaw:	62.279	yaw rate:	2.286	Roll:	-30.000	Pitch:	-17.037	Yaw:	88.676	Thrust:	93.391
Time:	0.694	Roll Set Point:	1.070	Pitch Set Point:	1.744	Yaw Set Point:	-1.088	X_WP:	0.000	Y_WP:	0.000	Y_WP:	0.750	X:	-0.008	Y:	-1.195	Z:	0.044	yaw:	62.310	yaw rate:	-3.074	Roll:	-30.000	Pitch:	-16.150	Yaw:	89.440	Thrust:	94.543
Time:	0.714	Roll Set Point:	1.070	Pitch Set Point:	1.744	Yaw Set Point:	-1.087	X_WP:	0.000	Y_WP:	0.000	Y_WP:	0.750	X:	-0.008	Y:	-1.195	Z:	0.044	yaw:	62.304	yaw rate:	0.629	Roll:	-30.000	Pitch:	-16.763	Yaw:	88.864	Thrust:	96.717
Time:	0.734	Roll Set Point:	1.070	Pitch Set Point:	1.745	Yaw Set Point:	-1.087	X_WP:	0.000	Y_WP:	0.000	Y_WP:	0.750	X:	-0.008	Y:	-1.195	Z:	0.044	yaw:	62.275	yaw rate:	2.857	Roll:	-30.000	Pitch:	-17.163	Yaw:	88.635	Thrust:	99.519
Time:	0.754	Roll Set Point:	1.070	Pitch Set Point:	1.744	Yaw Set Point:	-1.088	X_WP:	0.000	Y_WP:	0.000	Y_WP:	0.750	X:	-0.008	Y:	-1.195	Z:	0.044	yaw:	62.319	yaw rate:	-4.413	Roll:	-30.000	Pitch:	-15.868	Yaw:	89.541	Thrust:	97.599
Time:	0.774	Roll Set Point:	1.070	Pitch Set Point:	1.744	Yaw Set Point:	-1.087	X_WP:	0.000	Y_WP:	0.000	Y_WP:	0.750	X:	-0.008	Y:	-1.195	Z:	0.044	yaw:	62.297	yaw rate:	2.208	Roll:	-30.000	Pitch:	-17.026	Yaw:	88.745	Thrust:	100.000
Time:	0.794	Roll Set Point:	1.070	Pitch Set Point:	1.744	Yaw Set Point:	-1.088	X_WP:	0.000	Y_WP:	0.000	Y_WP:	0.750	X:	-0.008	Y:	-1.195	Z:	0.044	yaw:	62.315	yaw rate:	-1.787	Roll:	-30.000	Pitch:	-16.375	Yaw:	89.250	Thrust:	100.000
Time:	0.814	Roll Set Point:	1.070	Pitch Set Point:	1.744	Yaw Set Point:	-1.087	X_WP:	0.000	Y_WP:	0.000	Y_WP:	0.750	X:	-0.008	Y:	-1.195	Z:	0.044	yaw:	62.292	yaw rate:	2.327	Roll:	-30.000	Pitch:	-17.042	Yaw:	88.678	Thrust:	100.000
Time:	0.835	Roll Set Point:	1.070	Pitch Set Point:	1.744	Yaw Set Point:	-1.087	X_WP:	0.000	Y_WP:	0.000	Y_WP:	0.750	X:	-0.008	Y:	-1.195	Z:	0.044	yaw:	62.299	yaw rate:	-0.704	Roll:	-30.000	Pitch:	-16.580	Yaw:	89.132	Thrust:	100.000
Time:	0.853	Roll Set Point:	1.070	Pitch Set Point:	1.744	Yaw Set Point:	-1.087	X_WP:	0.000	Y_WP:	0.000	Y_WP:	0.750	X:	-0.008	Y:	-1.195	Z:	0.044	yaw:	62.289	yaw rate:	0.932	Roll:	-30.000	Pitch:	-16.767	Yaw:	88.696	Thrust:	100.000
Time:	0.874	Roll Set Point:	1.070	Pitch Set Point:	1.744	Yaw Set Point:	-1.087	X_WP:	0.000	Y_WP:	0.000	Y_WP:	0.750	X:	-0.008	Y:	-1.195	Z:	0.044	yaw:	62.285	yaw rate:	0.454	Roll:	-30.000	Pitch:	-16.758	Yaw:	88.991	Thrust:	100.000
Time:	0.894	Roll Set Point:	1.070	Pitch Set Point:	1.744	Yaw Set Point:	-1.087	X_WP:	0.000	Y_WP:	0.000	Y_WP:	0.750	X:	-0.008	Y:	-1.195	Z:	0.044	yaw:	62.300	yaw rate:	-1.505	Roll:	-30.000	Pitch:	-16.426	Yaw:	89.204	Thrust:	100.000
Time:	0.913	Roll Set Point:	1.070	Pitch Set Point:	1.744	Yaw Set Point:	-1.087	X_WP:	0.000	Y_WP:	0.000	Y_WP:	0.750	X:	-0.008	Y:	-1.195	Z:	0.044	yaw:	62.290	yaw rate:	0.940	Roll:	-30.000	Pitch:	-16.825	Yaw:	88.723	Thrust:	100.000
Time:	0.934	Roll Set Point:	1.070	Pitch Set Point:	1.744	Yaw Set Point:	-1.088	X_WP:	0.000	Y_WP:	0.000	Y_WP:	0.750	X:	-0.008	Y:	-1.195	Z:	0.044	yaw:	62.324	yaw rate:	-3.305	Roll:	-30.000	Pitch:	-16.165	Yaw:	89.528	Thrust:	100.000
Time:	0.954	Roll Set Point:	1.070	Pitch Set Point:	1.744	Yaw Set Point:	-1.087	X_WP:	0.000	Y_WP:	0.000	Y_WP:	0.750	X:	-0.008	Y:	-1.195	Z:	0.044	yaw:	62.308	yaw rate:	1.515	Roll:	-30.000	Pitch:	-16.899	Yaw:	88.760	Thrust:	100.000
Time:	0.973	Roll Set Point:	1.070	Pitch Set Point:	1.744	Yaw Set Point:	-1.087	X_WP:	0.000	Y_WP:	0.000	Y_WP:	0.750	X:	-0.008	Y:	-1.195	Z:	0.044	yaw:	62.300	yaw rate:	0.811	Roll:	-30.000	Pitch:	-16.764	Yaw:	88.828	Thrust:	100.000
Time:	0.993	Roll Set Point:	1.070	Pitch Set Point:	1.744	Yaw Set Point:	-1.087	X_WP:	0.000	Y_WP:	0.000	Y_WP:	0.750	X:	-0.008	Y:	-1.195	Z:	0.044	yaw:	62.290	yaw rate:	1.064	Roll:	-30.000	Pitch:	-16.851	Yaw:	88.839	Thrust:	100.000
Time:	1.014	Roll Set Point:	1.070	Pitch Set Point:	1.744	Yaw Set Point:	-1.088	X_WP:	0.000	Y_WP:	0.000	Y_WP:	0.750	X:	-0.008	Y:	-1.195	Z:	0.044	yaw:	62.312	yaw rate:	-2.285	Roll:	-30.000	Pitch:	-16.348	Yaw:	89.390	Thrust:	100.000
Time:	1.034	Roll Set Point:	1.070	Pitch Set Point:	1.744	Yaw Set Point:	-1.087	X_WP:	0.000	Y_WP:	0.000	Y_WP:	0.750	X:	-0.008	Y:	-1.195	Z:	0.044	yaw:	62.282	yaw rate:	3.016	Roll:	-30.000	Pitch:	-17.152	Yaw:	88.492	Thrust:	100.000
Time:	1.054	Roll Set Point:	1.070	Pitch Set Point:	1.744	Yaw Set Point:	-1.088	X_WP:	0.000	Y_WP:	0.000	Y_WP:	0.750	X:	-0.008	Y:	-1.195	Z:	0.044	yaw:	62.323	yaw rate:	-4.075	Roll:	-30.000	Pitch:	-16.023	Yaw:	89.594	Thrust:	100.000
Time:	1.074	Roll Set Point:	1.070	Pitch Set Point:	1.744	Yaw Set Point:	-1.087	X_WP:	0.000	Y_WP:	0.000	Y_WP:	0.750	X:	-0.008	Y:	-1.195	Z:	0.044	yaw:	62.307	yaw rate:	1.630	Roll:	-30.000	Pitch:	-16.927	Yaw:	88.802	Thrust:	100.000
Time:	1.095	Roll Set Point:	1.070	Pitch Set Point:	1.744	Yaw Set Point:	-1.087	X_WP:	0.000	Y_WP:	0.000	Y_WP:	0.750	X:	-0.008	Y:	-1.195	Z:	0.044	yaw:	62.298	yaw rate:	0.851	Roll:	-30.000	Pitch:	-16.831	Yaw:	88.963	Thrust:	100.000
Time:	1.115	Roll Set Point:	1.070	Pitch Set Point:	1.744	Yaw Set Point:	-1.087	X_WP:	0.000	Y_WP:	0.000	Y_WP:	0.750	X:	-0.008	Y:	-1.195	Z:	0.044	yaw:	62.298	yaw rate:	0.058	Roll:	-30.000	Pitch:	-16.672	Yaw:	88.932	Thrust:	100.000
Time:	1.136	Roll Set Point:	1.070	Pitch Set Point:	1.744	Yaw Set Point:	-1.088	X_WP:	0.000	Y_WP:	0.000	Y_WP:	0.750	X:	-0.008	Y:	-1.195	Z:	0.044	yaw:	62.326	yaw rate:	-2.868	Roll:	-30.000	Pitch:	-16.177	Yaw:	89.458	Thrust:	100.000
Time:	1.155	Roll Set Point:	1.070	Pitch Set Point:	1.745	Yaw Set Point:	-1.087	X_WP:	0.000	Y_WP:	0.000	Y_WP:	0.750	X:	-0.008	Y:	-1.195	Z:	0.044	yaw:	62.277	yaw rate:	4.976	Roll:	-30.000	Pitch:	-17.515	Yaw:	88.195	Thrust:	100.000
Time:	1.175	Roll Set Point:	1.070	Pitch Set Point:	1.744	Yaw Set Point:	-1.087	X_WP:	0.000	Y_WP:	0.000	Y_WP:	0.750	X:	-0.008	Y:	-1.195	Z:	0.044	yaw:	62.294	yaw rate:	-1.695	Roll:	-30.000	Pitch:	-16.434	Yaw:	89.157	Thrust:	100.000
Time:	1.195	Roll Set Point:	1.070	Pitch Set Point:	1.744	Yaw Set Point:	-1.088	X_WP:	0.000	Y_WP:	0.000	Y_WP:	0.750	X:	-0.008	Y:	-1.195	Z:	0.044	yaw:	62.318	yaw rate:	-2.480	Roll:	-30.000	Pitch:	-16.245	Yaw:	89.437	Thrust:	100.000
Time:	1.215	Roll Set Point:	1.070	Pitch Set Point:	1.744	Yaw Set Point:	-1.087	X_WP:	0.000	Y_WP:	0.000	Y_WP:	0.750	X:	-0.008	Y:	-1.195	Z:	0.044	yaw:	62.303	yaw rate:	1.552	Roll:	-30.000	Pitch:	-16.892	Yaw:	88.753	Thrust:	100.000
Time:	1.235	Roll Set Point:	1.070	Pitch Set Point:	1.744	Yaw Set Point:	-1.087	X_WP:	0.000	Y_WP:	0.000	Y_WP:	0.750	X:	-0.008	Y:	-1.195	Z:	0.044	yaw:	62.302	yaw rate:	0.083	Roll:	-30.000	Pitch:	-16.705	Yaw:	88.943	Thrust:	100.000
Time:	1.254	Roll Set Point:	1.070	Pitch Set Point:	1.744	Yaw Set Point:	-1.087	X_WP:	0.000	Y_WP:	0.000	Y_WP:	0.750	X:	-0.008	Y:	-1.195	Z:	0.044	yaw:	62.298	yaw rate:	0.421	Roll:	-30.000	Pitch:	-16.707	Yaw:	88.840	Thrust:	100.000
Time:	1.274	Roll Set Point:	1.070	Pitch Set Point:	1.744	Yaw Set Point:	-1.088	X_WP:	0.000	Y_WP:	0.000	Y_WP:	0.750	X:	-0.008	Y:	-1.195	Z:	0.044	yaw:	62.321	yaw rate:	-2.326	Roll:	-30.000	Pitch:	-16.240	Yaw:	89.300	Thrust:	100.000
Time:	1.294	Roll Set Point:	1.070	Pitch Set Point:	1.745	Yaw Set Point:	-1.087	X_WP:	0.000	Y_WP:	0.000	Y_WP:	0.750	X:	-0.008	Y:	-1.195	Z:	0.044	yaw:	62.280	yaw rate:	4.074	Roll:	-30.000	Pitch:	-17.356	Yaw:	88.462	Thrust:	100.000
Time:	1.315	Roll Set Point:	1.070	Pitch Set Point:	1.744	Yaw Set Point:	-1.087	X_WP:	0.000	Y_WP:	0.000	Y_WP:	0.750	X:	-0.008	Y:	-1.195	Z:	0.044	yaw:	62.289	yaw rate:	-0.884	Roll:	-30.000	Pitch:	-16.529	Yaw:	89.151	Thrust:	100.000
Time:	1.334	Roll Set Point:	1.070	Pitch Set Point:	1.744	Yaw Set Point:	-1.088	X_WP:	0.000	Y_WP:	0.000	Y_WP:	0.750	X:	-0.008	Y:	-1.195	Z:	0.044	yaw:	62.320	yaw rate:	-3.038	Roll:	-30.000	Pitch:	-16.165	Yaw:	89.389	Thrust:	100.000
Time:	1.354	Roll Set Point:	1.070	Pitch Set Point:	1.745	Yaw Set Point:	-1.087	X_WP:	0.000	Y_WP:	0.000	Y_WP:	0.750	X:	-0.008	Y:	-1.195	Z:	0.044	yaw:	62.273	yaw rate:	4.616	Roll:	-30.000	Pitch:	-17.429	Yaw:	88.371	Thrust:	100.000
Time:	1.374	Roll Set Point:	1.070	Pitch Set Point:	1.744	Yaw Set Point:	-1.087	X_WP:	0.000	Y_WP:	0.000	Y_WP:	0.750	X:	-0.008	Y:	-1.195	Z:	0.044	yaw:	62.298	yaw rate:	-2.492	Roll:	-30.000	Pitch:	-16.303	Yaw:	89.286	Thrust:	100.000
Time:	1.394	Roll Set Point:	1.070	Pitch Set Point:	1.744	Yaw Set Point:	-1.088	X_WP:	0.000	Y_WP:	0.000	Y_WP:	0.750	X:	-0.008	Y:	-1.195	Z:	0.044	yaw:	62.315	yaw rate:	-1.628	Roll:	-30.000	Pitch:	-16.331	Yaw:	89.134	Thrust:	100.000
Time:	1.413	Roll Set Point:	1.070	Pitch Set Point:	1.744	Yaw Set Point:	-1.087	X_WP:	0.000	Y_WP:	0.000	Y_WP:	0.750	X:	-0.008	Y:	-1.195	Z:	0.044	yaw:	62.308	yaw rate:	0.666	Roll:	-30.000	Pitch:	-16.770	Yaw:	88.939	Thrust:	100.000
Time:	1.434	Roll Set Point:	1.070	Pitch Set Point:	1.744	Yaw Set Point:	-1.087	X_WP:	0.000	Y_WP:	0.000	Y_WP:	0.750	X:	-0.008	Y:	-1.195	Z:	0.044	yaw:	62.297	yaw rate:	1.125	Roll:	-30.000	Pitch:	-16.875	Yaw:	88.910	Thrust:	100.000
Time:	1.454	Roll Set Point:	1.070	Pitch Set Point:	1.744	Yaw Set Point:	-1.087	X_WP:	0.000	Y_WP:	0.000	Y_WP:	0.750	X:	-0.008	Y:	-1.195	Z:	0.044	yaw:	62.292	yaw rate:	0.429	Roll:	-30.000	Pitch:	-16.713	Yaw:	88.864	Thrust:	100.000
Time:	1.474	Roll Set Point:	1.070	Pitch Set Point:	1.744	Yaw Set Point:	-1.088	X_WP:	0.000	Y_WP:	0.000	Y_WP:	0.750	X:	-0.008	Y:	-1.195	Z:	0.044	yaw:	62.322	yaw rate:	-2.914	Roll:	-30.000	Pitch:	-16.189	Yaw:	89.395	Thrust:	100.000
Time:	1.494	Roll Set Point:	1.070	Pitch Set Point:	1.744	Yaw Set Point:	-1.087	X_WP:	0.000	Y_WP:	0.000	Y_WP:	0.750	X:	-0.008	Y:	-1.195	Z:	0.044	yaw:	62.286	yaw rate:	3.531	Roll:	-30.000	Pitch:	-17.242	Yaw:	88.591	Thrust:	100.000
Time:	1.513	Roll Set Point:	1.070	Pitch Set Point:	1.744	Yaw Set Point:	-1.088	X_WP:	0.000	Y_WP:	0.000	Y_WP:	0.750	X:	-0.008	Y:	-1.195	Z:	0.044	yaw:	62.323	yaw rate:	-3.666	Roll:	-30.000	Pitch:	-16.050	Yaw:	89.432	Thrust:	100.000
Time:	1.535	Roll Set Point:	1.070	Pitch Set Point:	1.744	Yaw Set Point:	-1.087	X_WP:	0.000	Y_WP:	0.000	Y_WP:	0.750	X:	-0.008	Y:	-1.195	Z:	0.044	yaw:	62.291	yaw rate:	3.164	Roll:	-30.000	Pitch:	-17.178	Yaw:	88.720	Thrust:	100.000
Time:	1.554	Roll Set Point:	1.070	Pitch Set Point:	1.744	Yaw Set Point:	-1.087	X_WP:	0.000	Y_WP:	0.000	Y_WP:	0.750	X:	-0.008	Y:	-1.195	Z:	0.044	yaw:	62.302	yaw rate:	-1.129	Roll:	-30.000	Pitch:	-16.443	Yaw:	89.068	Thrust:	100.000
Time:	1.574	Roll Set Point:	1.070	Pitch Set Point:	1.744	Yaw Set Point:	-1.087	X_WP:	0.000	Y_WP:	0.000	Y_WP:	0.750	X:	-0.008	Y:	-1.195	Z:	0.044	yaw:	62.290	yaw rate:	1.258	Roll:	-30.000	Pitch:	-16.907	Yaw:	88.819	Thrust:	100.000
Time:	1.599	Roll Set Point:	1.070	Pitch Set Point:	1.744	Yaw Set Point:	-1.087	X_WP:	0.000	Y_WP:	0.000	Y_WP:	0.750	X:	-0.008	Y:	-1.195	Z:	0.044	yaw:	62.303	yaw rate:	-1.263	Roll:	-30.000	Pitch:	-16.561	Yaw:	89.513	Thrust:	100.000
Time:	1.616	Roll Set Point:	1.070	Pitch Set Point:	1.744	Yaw Set Point:	-1.087	X_WP:	0.000	Y_WP:	0.000	Y_WP:	0.750	X:	-0.008	Y:	-1.195	Z:	0.044	yaw:	62.283	yaw rate:	1.938	Roll:	-30.000	Pitch:	-16.969	Yaw:	88.490	Thrust:	100.000
Time:	1.637	Roll Set Point:	1.070	Pitch Set Point:	1.744	Yaw Set Point:	-1.088	X_WP:	0.000	Y_WP:	0.000	Y_WP:	0.750	X:	-0.008	Y:	-1.195	Z:	0.044	yaw:	62.311	yaw rate:	-2.765	Roll:	-30.000	Pitch:	-16.194	Yaw:	89.376	Thrust:	100.000
Time:	1.658	Roll Set Point:	1.070	Pitch Set Point:	1.744	Yaw Set Point:	-1.087	X_WP:	0.000	Y_WP:	0.000	Y_WP:	0.750	X:	-0.008	Y:	-1.195	Z:	0.044	yaw:	62.305	yaw rate:	0.631	Roll:	-30.000	Pitch:	-16.819	Yaw:	89.117	Thrust:	100.000
Time:	1.675	Roll Set Point:	1.070	Pitch Set Point:	1.744	Yaw Set Point:	-1.088	X_WP:	0.000	Y_WP:	0.000	Y_WP:	0.750	X:	-0.008	Y:	-1.195	Z:	0.044	yaw:	62.321	yaw rate:	-1.631	Roll:	-30.000	Pitch:	-16.238	Yaw:	88.970	Thrust:	100.000
Time:	1.695	Roll Set Point:	1.070	Pitch Set Point:	1.744	Yaw Set Point:	-1.087	X_WP:	0.000	Y_WP:	0.000	Y_WP:	0.750	X:	-0.008	Y:	-1.195	Z:	0.044	yaw:	62.302	yaw rate:	1.901	Roll:	-30.000	Pitch:	-17.001	Yaw:	88.704	Thrust:	100.000
Time:	1.715	Roll Set Point:	1.070	Pitch Set Point:	1.744	Yaw Set Point:	-1.087	X_WP:	0.000	Y_WP:	0.000	Y_WP:	0.750	X:	-0.008	Y:	-1.195	Z:	0.044	yaw:	62.288	yaw rate:	1.414	Roll:	-30.000	Pitch:	-16.868	Yaw:	88.793	Thrust:	100.000
Time:	1.735	Roll Set Point:	1.070	Pitch Set Point:	1.744	Yaw Set Point:	-1.087	X_WP:	0.000	Y_WP:	0.000	Y_WP:	0.750	X:	-0.008	Y:	-1.195	Z:	0.044	yaw:	62.297	yaw rate:	-0.898	Roll:	-30.000	Pitch:	-16.551	Yaw:	89.144	Thrust:	100.000
Time:	1.754	Roll Set Point:	1.070	Pitch Set Point:	1.744	Yaw Set Point:	-1.087	X_WP:	0.000	Y_WP:	0.000	Y_WP:	0.750	X:	-0.008	Y:	-1.195	Z:	0.044	yaw:	62.292	yaw rate:	0.424	Roll:	-30.000	Pitch:	-16.691	Yaw:	88.777	Thrust:	100.000
Time:	1.774	Roll Set Point:	1.070	Pitch Set Point:	1.744	Yaw Set Point:	-1.087	X_WP:	0.000	Y_WP:	0.000	Y_WP:	0.750	X:	-0.008	Y:	-1.195	Z:	0.044	yaw:	62.290	yaw rate:	0.253	Roll:	-30.000	Pitch:	-16.698	Yaw:	88.847	Thrust:	100.000
Time:	1.793	Roll Set Point:	1.070	Pitch Set Point:	1.744	Yaw Set Point:	-1.087	X_WP:	0.000	Y_WP:	0.000	Y_WP:	0.750	X:	-0.008	Y:	-1.195	Z:	0.044	yaw:	62.293	yaw rate:	-0.273	Roll:	-30.000	Pitch:	-16.646	Yaw:	89.020	Thrust:	100.000
Time:	1.814	Roll Set Point:	1.070	Pitch Set Point:	1.744	Yaw Set Point:	-1.087	X_WP:	0.000	Y_WP:	0.000	Y_WP:	0.750	X:	-0.008	Y:	-1.195	Z:	0.044	yaw:	62.298	yaw rate:	-0.521	Roll:	-30.000	Pitch:	-16.600	Yaw:	89.163	Thrust:	100.000
Time:	1.835	Roll Set Point:	1.070	Pitch Set Point:	1.744	Yaw Set Point:	-1.087	X_WP:	0.000	Y_WP:	0.000	Y_WP:	0.750	X:	-0.008	Y:	-1.195	Z:	0.044	yaw:	62.300	yaw rate:	-0.259	Roll:	-30.000	Pitch:	-16.671	Yaw:	89.080	Thrust:	100.000
Time:	1.854	Roll Set Point:	1.070	Pitch Set Point:	1.744	Yaw Set Point:	-1.087	X_WP:	0.000	Y_WP:	0.000	Y_WP:	0.750	X:	-0.008	Y:	-1.195	Z:	0.044	yaw:	62.294	yaw rate:	0.640	Roll:	-30.000	Pitch:	-16.724	Yaw:	88.780	Thrust:	100.000
Time:	1.874	Roll Set Point:	1.070	Pitch Set Point:	1.744	Yaw Set Point:	-1.087	X_WP:	0.000	Y_WP:	0.000	Y_WP:	0.750	X:	-0.008	Y:	-1.195	Z:	0.044	yaw:	62.291	yaw rate:	0.276	Roll:	-30.000	Pitch:	-16.714	Yaw:	88.973	Thrust:	100.000
Time:	1.895	Roll Set Point:	1.070	Pitch Set Point:	1.744	Yaw Set Point:	-1.088	X_WP:	0.000	Y_WP:	0.000	Y_WP:	0.750	X:	-0.008	Y:	-1.195	Z:	0.044	yaw:	62.315	yaw rate:	-2.417	Roll:	-30.000	Pitch:	-16.287	Yaw:	89.336	Thrust:	100.000
Time:	1.914	Roll Set Point:	1.070	Pitch Set Point:	1.744	Yaw Set Point:	-1.087	X_WP:	0.000	Y_WP:	0.000	Y_WP:	0.750	X:	-0.008	Y:	-1.195	Z:	0.044	yaw:	62.307	yaw rate:	0.816	Roll:	-30.000	Pitch:	-16.783	Yaw:	88.896	Thrust:	100.000
Time:	1.935	Roll Set Point:	1.070	Pitch Set Point:	1.744	Yaw Set Point:	-1.087	X_WP:	0.000	Y_WP:	0.000	Y_WP:	0.750	X:	-0.008	Y:	-1.195	Z:	0.044	yaw:	62.306	yaw rate:	0.113	Roll:	-30.000	Pitch:	-16.694	Yaw:	89.002	Thrust:	100.000
Time:	1.955	Roll Set Point:	1.070	Pitch Set Point:	1.745	Yaw Set Point:	-1.087	X_WP:	0.000	Y_WP:	0.000	Y_WP:	0.750	X:	-0.008	Y:	-1.195	Z:	0.044	yaw:	62.267	yaw rate:	3.875	Roll:	-30.000	Pitch:	-17.320	Yaw:	88.373	Thrust:	100.000
Time:	1.974	Roll Set Point:	1.070	Pitch Set Point:	1.744	Yaw Set Point:	-1.087	X_WP:	0.000	Y_WP:	0.000	Y_WP:	0.750	X:	-0.008	Y:	-1.195	Z:	0.044	yaw:	62.305	yaw rate:	-3.753	Roll:	-30.000	Pitch:	-16.041	Yaw:	89.504	Thrust:	100.000
Time:	1.995	Roll Set Point:	1.070	Pitch Set Point:	1.744	Yaw Set Point:	-1.088	X_WP:	0.000	Y_WP:	0.000	Y_WP:	0.750	X:	-0.008	Y:	-1.195	Z:	0.044	yaw:	62.318	yaw rate:	-1.309	Roll:	-30.000	Pitch:	-16.471	Yaw:	89.251	Thrust:	100.000
Time:	2.014	Roll Set Point:	1.070	Pitch Set Point:	1.744	Yaw Set Point:	-1.087	X_WP:	0.000	Y_WP:	0.000	Y_WP:	0.750	X:	-0.008	Y:	-1.195	Z:	0.044	yaw:	62.282	yaw rate:	3.621	Roll:	-30.000	Pitch:	-17.248	Yaw:	88.351	Thrust:	100.000
Time:	2.035	Roll Set Point:	1.070	Pitch Set Point:	1.744	Yaw Set Point:	-1.087	X_WP:	0.000	Y_WP:	0.000	Y_WP:	0.750	X:	-0.008	Y:	-1.195	Z:	0.044	yaw:	62.291	yaw rate:	-0.962	Roll:	-30.000	Pitch:	-16.525	Yaw:	89.145	Thrust:	100.000
Time:	2.054	Roll Set Point:	1.070	Pitch Set Point:	1.744	Yaw Set Point:	-1.087	X_WP:	0.000	Y_WP:	0.000	Y_WP:	0.750	X:	-0.008	Y:	-1.195	Z:	0.044	yaw:	62.284	yaw rate:	0.785	Roll:	-30.000	Pitch:	-16.793	Yaw:	88.876	Thrust:	100.000
Time:	2.074	Roll Set Point:	1.070	Pitch Set Point:	1.744	Yaw Set Point:	-1.087	X_WP:	0.000	Y_WP:	0.000	Y_WP:	0.750	X:	-0.008	Y:	-1.195	Z:	0.044	yaw:	62.302	yaw rate:	-1.880	Roll:	-30.000	Pitch:	-16.328	Yaw:	89.201	Thrust:	100.000
Time:	2.094	Roll Set Point:	1.070	Pitch Set Point:	1.744	Yaw Set Point:	-1.087	X_WP:	0.000	Y_WP:	0.000	Y_WP:	0.750	X:	-0.008	Y:	-1.195	Z:	0.044	yaw:	62.286	yaw rate:	1.674	Roll:	-30.000	Pitch:	-16.977	Yaw:	88.765	Thrust:	100.000
Time:	2.115	Roll Set Point:	1.070	Pitch Set Point:	1.744	Yaw Set Point:	-1.087	X_WP:	0.000	Y_WP:	0.000	Y_WP:	0.750	X:	-0.008	Y:	-1.195	Z:	0.044	yaw:	62.284	yaw rate:	0.122	Roll:	-30.000	Pitch:	-16.681	Yaw:	88.979	Thrust:	100.000
Time:	2.134	Roll Set Point:	1.070	Pitch Set Point:	1.744	Yaw Set Point:	-1.087	X_WP:	0.000	Y_WP:	0.000	Y_WP:	0.750	X:	-0.008	Y:	-1.195	Z:	0.044	yaw:	62.288	yaw rate:	-0.341	Roll:	-30.000	Pitch:	-16.580	Yaw:	89.004	Thrust:	100.000
Time:	2.155	Roll Set Point:	1.070	Pitch Set Point:	1.744	Yaw Set Point:	-1.087	X_WP:	0.000	Y_WP:	0.000	Y_WP:	0.750	X:	-0.008	Y:	-1.195	Z:	0.044	yaw:	62.291	yaw rate:	-0.357	Roll:	-30.000	Pitch:	-16.639	Yaw:	89.041	Thrust:	100.000
Time:	2.174	Roll Set Point:	1.070	Pitch Set Point:	1.744	Yaw Set Point:	-1.087	X_WP:	0.000	Y_WP:	0.000	Y_WP:	0.750	X:	-0.008	Y:	-1.195	Z:	0.044	yaw:	62.305	yaw rate:	-1.326	Roll:	-30.000	Pitch:	-16.444	Yaw:	89.096	Thrust:	100.000
Time:	2.194	Roll Set Point:	1.070	Pitch Set Point:	1.744	Yaw Set Point:	-1.088	X_WP:	0.000	Y_WP:	0.000	Y_WP:	0.750	X:	-0.008	Y:	-1.195	Z:	0.044	yaw:	62.320	yaw rate:	-1.511	Roll:	-30.000	Pitch:	-16.400	Yaw:	89.217	Thrust:	100.000
Time:	2.215	Roll Set Point:	1.070	Pitch Set Point:	1.744	Yaw Set Point:	-1.087	X_WP:	0.000	Y_WP:	0.000	Y_WP:	0.750	X:	-0.008	Y:	-1.195	Z:	0.044	yaw:	62.292	yaw rate:	2.744	Roll:	-30.000	Pitch:	-17.119	Yaw:	88.718	Thrust:	100.000
Time:	2.235	Roll Set Point:	1.070	Pitch Set Point:	1.745	Yaw Set Point:	-1.087	X_WP:	0.000	Y_WP:	0.000	Y_WP:	0.750	X:	-0.008	Y:	-1.195	Z:	0.044	yaw:	62.267	yaw rate:	2.540	Roll:	-30.000	Pitch:	-17.108	Yaw:	88.583	Thrust:	100.000
Time:	2.254	Roll Set Point:	1.070	Pitch Set Point:	1.744	Yaw Set Point:	-1.087	X_WP:	0.000	Y_WP:	0.000	Y_WP:	0.750	X:	-0.008	Y:	-1.195	Z:	0.044	yaw:	62.298	yaw rate:	-3.091	Roll:	-30.000	Pitch:	-16.113	Yaw:	89.320	Thrust:	100.000
Time:	2.274	Roll Set Point:	1.070	Pitch Set Point:	1.744	Yaw Set Point:	-1.087	X_WP:	0.000	Y_WP:	0.000	Y_WP:	0.750	X:	-0.008	Y:	-1.195	Z:	0.044	yaw:	62.297	yaw rate:	0.107	Roll:	-30.000	Pitch:	-16.660	Yaw:	89.013	Thrust:	100.000
Time:	2.294	Roll Set Point:	1.070	Pitch Set Point:	1.744	Yaw Set Point:	-1.087	X_WP:	0.000	Y_WP:	0.000	Y_WP:	0.750	X:	-0.008	Y:	-1.195	Z:	0.044	yaw:	62.292	yaw rate:	0.495	Roll:	-30.000	Pitch:	-16.768	Yaw:	88.951	Thrust:	100.000
Time:	2.320	Roll Set Point:	1.070	Pitch Set Point:	1.744	Yaw Set Point:	-1.088	X_WP:	0.000	Y_WP:	0.000	Y_WP:	0.750	X:	-0.008	Y:	-1.195	Z:	0.044	yaw:	62.313	yaw rate:	-2.158	Roll:	-30.000	Pitch:	-16.596	Yaw:	89.730	Thrust:	100.000
Time:	2.335	Roll Set Point:	1.070	Pitch Set Point:	1.744	Yaw Set Point:	-1.087	X_WP:	0.000	Y_WP:	0.000	Y_WP:	0.750	X:	-0.008	Y:	-1.195	Z:	0.044	yaw:	62.292	yaw rate:	2.092	Roll:	-30.000	Pitch:	-16.911	Yaw:	88.112	Thrust:	100.000
Time:	2.354	Roll Set Point:	1.070	Pitch Set Point:	1.744	Yaw Set Point:	-1.087	X_WP:	0.000	Y_WP:	0.000	Y_WP:	0.750	X:	-0.008	Y:	-1.195	Z:	0.044	yaw:	62.295	yaw rate:	-0.210	Roll:	-30.000	Pitch:	-16.598	Yaw:	88.924	Thrust:	100.000
Time:	2.374	Roll Set Point:	1.070	Pitch Set Point:	1.744	Yaw Set Point:	-1.088	X_WP:	0.000	Y_WP:	0.000	Y_WP:	0.750	X:	-0.008	Y:	-1.195	Z:	0.044	yaw:	62.319	yaw rate:	-2.432	Roll:	-30.000	Pitch:	-16.253	Yaw:	89.371	Thrust:	100.000
Time:	2.395	Roll Set Point:	1.070	Pitch Set Point:	1.744	Yaw Set Point:	-1.087	X_WP:	0.000	Y_WP:	0.000	Y_WP:	0.750	X:	-0.008	Y:	-1.195	Z:	0.044	yaw:	62.294	yaw rate:	2.512	Roll:	-30.000	Pitch:	-17.079	Yaw:	88.656	Thrust:	100.000
Time:	2.415	Roll Set Point:	1.070	Pitch Set Point:	1.744	Yaw Set Point:	-1.088	X_WP:	0.000	Y_WP:	0.000	Y_WP:	0.750	X:	-0.008	Y:	-1.195	Z:	0.044	yaw:	62.309	yaw rate:	-1.547	Roll:	-30.000	Pitch:	-16.411	Yaw:	89.256	Thrust:	100.000
Time:	2.434	Roll Set Point:	1.070	Pitch Set Point:	1.744	Yaw Set Point:	-1.087	X_WP:	0.000	Y_WP:	0.000	Y_WP:	0.750	X:	-0.008	Y:	-1.195	Z:	0.044	yaw:	62.301	yaw rate:	0.844	Roll:	-30.000	Pitch:	-16.833	Yaw:	88.841	Thrust:	100.000
Time:	2.454	Roll Set Point:	1.070	Pitch Set Point:	1.744	Yaw Set Point:	-1.087	X_WP:	0.000	Y_WP:	0.000	Y_WP:	0.750	X:	-0.008	Y:	-1.195	Z:	0.044	yaw:	62.307	yaw rate:	-0.587	Roll:	-30.000	Pitch:	-16.553	Yaw:	89.039	Thrust:	100.000
Time:	2.474	Roll Set Point:	1.070	Pitch Set Point:	1.745	Yaw Set Point:	-1.087	X_WP:	0.000	Y_WP:	0.000	Y_WP:	0.750	X:	-0.008	Y:	-1.195	Z:	0.044	yaw:	62.275	yaw rate:	3.130	Roll:	-30.000	Pitch:	-17.174	Yaw:	88.590	Thrust:	100.000
Time:	2.494	Roll Set Point:	1.070	Pitch Set Point:	1.744	Yaw Set Point:	-1.087	X_WP:	0.000	Y_WP:	0.000	Y_WP:	0.750	X:	-0.008	Y:	-1.195	Z:	0.044	yaw:	62.292	yaw rate:	-1.642	Roll:	-30.000	Pitch:	-16.359	Yaw:	89.121	Thrust:	100.000
Time:	2.514	Roll Set Point:	1.070	Pitch Set Point:	1.744	Yaw Set Point:	-1.087	X_WP:	0.000	Y_WP:	0.000	Y_WP:	0.750	X:	-0.008	Y:	-1.195	Z:	0.044	yaw:	62.309	yaw rate:	-1.709	Roll:	-30.000	Pitch:	-16.399	Yaw:	89.272	Thrust:	100.000
Time:	2.534	Roll Set Point:	1.070	Pitch Set Point:	1.744	Yaw Set Point:	-1.087	X_WP:	0.000	Y_WP:	0.000	Y_WP:	0.750	X:	-0.008	Y:	-1.195	Z:	0.044	yaw:	62.305	yaw rate:	0.397	Roll:	-30.000	Pitch:	-16.745	Yaw:	88.948	Thrust:	100.000
Time:	2.553	Roll Set Point:	1.070	Pitch Set Point:	1.744	Yaw Set Point:	-1.087	X_WP:	0.000	Y_WP:	0.000	Y_WP:	0.750	X:	-0.008	Y:	-1.195	Z:	0.044	yaw:	62.290	yaw rate:	1.446	Roll:	-30.000	Pitch:	-16.834	Yaw:	88.635	Thrust:	100.000
Time:	2.573	Roll Set Point:	1.070	Pitch Set Point:	1.745	Yaw Set Point:	-1.087	X_WP:	0.000	Y_WP:	0.000	Y_WP:	0.750	X:	-0.008	Y:	-1.195	Z:	0.044	yaw:	62.271	yaw rate:	1.950	Roll:	-30.000	Pitch:	-17.020	Yaw:	88.717	Thrust:	100.000
Time:	2.593	Roll Set Point:	1.070	Pitch Set Point:	1.744	Yaw Set Point:	-1.088	X_WP:	0.000	Y_WP:	0.000	Y_WP:	0.750	X:	-0.008	Y:	-1.195	Z:	0.044	yaw:	62.313	yaw rate:	-4.230	Roll:	-30.000	Pitch:	-15.978	Yaw:	89.565	Thrust:	100.000
Time:	2.614	Roll Set Point:	1.067	Pitch Set Point:	1.750	Yaw Set Point:	-1.083	X_WP:	0.000	Y_WP:	0.000	Y_WP:	0.750	X:	-0.008	Y:	-1.196	Z:	0.044	yaw:	62.026	yaw rate:	28.727	Roll:	-29.187	Pitch:	-21.451	Yaw:	85.056	Thrust:	100.000
Time:	2.634	Roll Set Point:	1.070	Pitch Set Point:	1.744	Yaw Set Point:	-1.087	X_WP:	0.000	Y_WP:	0.000	Y_WP:	0.750	X:	-0.008	Y:	-1.195	Z:	0.044	yaw:	62.297	yaw rate:	-27.086	Roll:	-30.000	Pitch:	-12.058	Yaw:	92.507	Thrust:	100.000
Time:	2.654	Roll Set Point:	1.070	Pitch Set Point:	1.744	Yaw Set Point:	-1.088	X_WP:	0.000	Y_WP:	0.000	Y_WP:	0.750	X:	-0.008	Y:	-1.195	Z:	0.044	yaw:	62.326	yaw rate:	-2.935	Roll:	-30.000	Pitch:	-16.220	Yaw:	89.376	Thrust:	100.000
Time:	2.673	Roll Set Point:	1.070	Pitch Set Point:	1.744	Yaw Set Point:	-1.087	X_WP:	0.000	Y_WP:	0.000	Y_WP:	0.750	X:	-0.008	Y:	-1.195	Z:	0.044	yaw:	62.295	yaw rate:	3.136	Roll:	-30.000	Pitch:	-17.170	Yaw:	88.500	Thrust:	100.000
Time:	2.694	Roll Set Point:	1.070	Pitch Set Point:	1.744	Yaw Set Point:	-1.087	X_WP:	0.000	Y_WP:	0.000	Y_WP:	0.750	X:	-0.008	Y:	-1.195	Z:	0.044	yaw:	62.288	yaw rate:	0.726	Roll:	-30.000	Pitch:	-16.794	Yaw:	88.933	Thrust:	100.000
Time:	2.714	Roll Set Point:	1.070	Pitch Set Point:	1.744	Yaw Set Point:	-1.087	X_WP:	0.000	Y_WP:	0.000	Y_WP:	0.750	X:	-0.008	Y:	-1.195	Z:	0.044	yaw:	62.284	yaw rate:	0.338	Roll:	-30.000	Pitch:	-16.748	Yaw:	88.947	Thrust:	100.000
Time:	2.736	Roll Set Point:	1.070	Pitch Set Point:	1.744	Yaw Set Point:	-1.087	X_WP:	0.000	Y_WP:	0.000	Y_WP:	0.750	X:	-0.008	Y:	-1.195	Z:	0.044	yaw:	62.289	yaw rate:	-0.516	Roll:	-30.000	Pitch:	-16.611	Yaw:	89.198	Thrust:	100.000
Time:	2.753	Roll Set Point:	1.070	Pitch Set Point:	1.744	Yaw Set Point:	-1.087	X_WP:	0.000	Y_WP:	0.000	Y_WP:	0.750	X:	-0.008	Y:	-1.195	Z:	0.044	yaw:	62.298	yaw rate:	-0.841	Roll:	-30.000	Pitch:	-16.458	Yaw:	88.868	Thrust:	100.000
Time:	2.774	Roll Set Point:	1.070	Pitch Set Point:	1.744	Yaw Set Point:	-1.087	X_WP:	0.000	Y_WP:	0.000	Y_WP:	0.750	X:	-0.008	Y:	-1.195	Z:	0.044	yaw:	62.301	yaw rate:	-0.349	Roll:	-30.000	Pitch:	-16.586	Yaw:	88.986	Thrust:	100.000
Time:	2.794	Roll Set Point:	1.070	Pitch Set Point:	1.744	Yaw Set Point:	-1.088	X_WP:	0.000	Y_WP:	0.000	Y_WP:	0.750	X:	-0.008	Y:	-1.195	Z:	0.044	yaw:	62.310	yaw rate:	-0.869	Roll:	-30.000	Pitch:	-16.531	Yaw:	89.215	Thrust:	100.000
Time:	2.814	Roll Set Point:	1.070	Pitch Set Point:	1.745	Yaw Set Point:	-1.087	X_WP:	0.000	Y_WP:	0.000	Y_WP:	0.750	X:	-0.008	Y:	-1.195	Z:	0.044	yaw:	62.275	yaw rate:	3.491	Roll:	-30.000	Pitch:	-17.228	Yaw:	88.524	Thrust:	100.000
Time:	2.835	Roll Set Point:	1.070	Pitch Set Point:	1.744	Yaw Set Point:	-1.087	X_WP:	0.000	Y_WP:	0.000	Y_WP:	0.750	X:	-0.008	Y:	-1.195	Z:	0.044	yaw:	62.306	yaw rate:	-3.087	Roll:	-30.000	Pitch:	-16.212	Yaw:	89.410	Thrust:	100.000
Time:	2.855	Roll Set Point:	1.070	Pitch Set Point:	1.744	Yaw Set Point:	-1.088	X_WP:	0.000	Y_WP:	0.000	Y_WP:	0.750	X:	-0.008	Y:	-1.195	Z:	0.044	yaw:	62.316	yaw rate:	-1.026	Roll:	-30.000	Pitch:	-16.465	Yaw:	89.202	Thrust:	100.000
Time:	2.876	Roll Set Point:	1.070	Pitch Set Point:	1.744	Yaw Set Point:	-1.088	X_WP:	0.000	Y_WP:	0.000	Y_WP:	0.750	X:	-0.008	Y:	-1.195	Z:	0.044	yaw:	62.318	yaw rate:	-0.208	Roll:	-30.000	Pitch:	-16.641	Yaw:	89.010	Thrust:	100.000
Time:	2.895	Roll Set Point:	1.070	Pitch Set Point:	1.744	Yaw Set Point:	-1.087	X_WP:	0.000	Y_WP:	0.000	Y_WP:	0.750	X:	-0.008	Y:	-1.195	Z:	0.044	yaw:	62.291	yaw rate:	2.737	Roll:	-30.000	Pitch:	-17.122	Yaw:	88.623	Thrust:	100.000
Time:	2.915	Roll Set Point:	1.070	Pitch Set Point:	1.745	Yaw Set Point:	-1.087	X_WP:	0.000	Y_WP:	0.000	Y_WP:	0.750	X:	-0.008	Y:	-1.195	Z:	0.044	yaw:	62.271	yaw rate:	2.008	Roll:	-30.000	Pitch:	-16.980	Yaw:	88.641	Thrust:	100.000
Time:	2.935	Roll Set Point:	1.070	Pitch Set Point:	1.744	Yaw Set Point:	-1.087	X_WP:	0.000	Y_WP:	0.000	Y_WP:	0.750	X:	-0.008	Y:	-1.195	Z:	0.044	yaw:	62.293	yaw rate:	-2.183	Roll:	-30.000	Pitch:	-16.333	Yaw:	89.318	Thrust:	100.000
Time:	2.954	Roll Set Point:	1.070	Pitch Set Point:	1.744	Yaw Set Point:	-1.087	X_WP:	0.000	Y_WP:	0.000	Y_WP:	0.750	X:	-0.008	Y:	-1.195	Z:	0.044	yaw:	62.304	yaw rate:	-1.159	Roll:	-30.000	Pitch:	-16.411	Yaw:	88.968	Thrust:	100.000
Time:	2.973	Roll Set Point:	1.070	Pitch Set Point:	1.744	Yaw Set Point:	-1.087	X_WP:	0.000	Y_WP:	0.000	Y_WP:	0.750	X:	-0.008	Y:	-1.195	Z:	0.044	yaw:	62.287	yaw rate:	1.707	Roll:	-30.000	Pitch:	-16.986	Yaw:	88.802	Thrust:	100.000
Time:	2.994	Roll Set Point:	1.070	Pitch Set Point:	1.744	Yaw Set Point:	-1.087	X_WP:	0.000	Y_WP:	0.000	Y_WP:	0.750	X:	-0.008	Y:	-1.195	Z:	0.044	yaw:	62.289	yaw rate:	-0.188	Roll:	-30.000	Pitch:	-16.609	Yaw:	89.098	Thrust:	100.000
Time:	3.015	Roll Set Point:	1.070	Pitch Set Point:	1.744	Yaw Set Point:	-1.087	X_WP:	0.000	Y_WP:	0.000	Y_WP:	0.750	X:	-0.008	Y:	-1.195	Z:	0.044	yaw:	62.297	yaw rate:	-0.799	Roll:	-30.000	Pitch:	-16.589	Yaw:	89.162	Thrust:	100.000
Time:	3.035	Roll Set Point:	1.070	Pitch Set Point:	1.744	Yaw Set Point:	-1.087	X_WP:	0.000	Y_WP:	0.000	Y_WP:	0.750	X:	-0.008	Y:	-1.195	Z:	0.044	yaw:	62.304	yaw rate:	-0.696	Roll:	-30.000	Pitch:	-16.542	Yaw:	88.999	Thrust:	100.000
Time:	3.055	Roll Set Point:	1.070	Pitch Set Point:	1.744	Yaw Set Point:	-1.087	X_WP:	0.000	Y_WP:	0.000	Y_WP:	0.750	X:	-0.008	Y:	-1.195	Z:	0.044	yaw:	62.296	yaw rate:	0.782	Roll:	-30.000	Pitch:	-16.816	Yaw:	88.922	Thrust:	100.000
Time:	3.075	Roll Set Point:	1.070	Pitch Set Point:	1.744	Yaw Set Point:	-1.087	X_WP:	0.000	Y_WP:	0.000	Y_WP:	0.750	X:	-0.008	Y:	-1.195	Z:	0.044	yaw:	62.293	yaw rate:	0.273	Roll:	-30.000	Pitch:	-16.688	Yaw:	88.894	Thrust:	100.000
Time:	3.093	Roll Set Point:	1.070	Pitch Set Point:	1.744	Yaw Set Point:	-1.087	X_WP:	0.000	Y_WP:	0.000	Y_WP:	0.750	X:	-0.008	Y:	-1.195	Z:	0.044	yaw:	62.307	yaw rate:	-1.330	Roll:	-30.000	Pitch:	-16.400	Yaw:	89.092	Thrust:	100.000
Time:	3.115	Roll Set Point:	1.070	Pitch Set Point:	1.744	Yaw Set Point:	-1.087	X_WP:	0.000	Y_WP:	0.000	Y_WP:	0.750	X:	-0.008	Y:	-1.195	Z:	0.044	yaw:	62.289	yaw rate:	1.804	Roll:	-30.000	Pitch:	-16.982	Yaw:	88.839	Thrust:	100.000
Time:	3.135	Roll Set Point:	1.070	Pitch Set Point:	1.744	Yaw Set Point:	-1.087	X_WP:	0.000	Y_WP:	0.000	Y_WP:	0.750	X:	-0.008	Y:	-1.195	Z:	0.044	yaw:	62.295	yaw rate:	-0.583	Roll:	-30.000	Pitch:	-16.555	Yaw:	89.097	Thrust:	100.000
Time:	3.154	Roll Set Point:	1.070	Pitch Set Point:	1.744	Yaw Set Point:	-1.087	X_WP:	0.000	Y_WP:	0.000	Y_WP:	0.750	X:	-0.008	Y:	-1.195	Z:	0.044	yaw:	62.284	yaw rate:	1.049	Roll:	-30.000	Pitch:	-16.854	Yaw:	88.745	Thrust:	100.000
Time:	3.174	Roll Set Point:	1.070	Pitch Set Point:	1.744	Yaw Set Point:	-1.087	X_WP:	0.000	Y_WP:	0.000	Y_WP:	0.750	X:	-0.008	Y:	-1.195	Z:	0.044	yaw:	62.287	yaw rate:	-0.308	Roll:	-30.000	Pitch:	-16.591	Yaw:	88.928	Thrust:	100.000
Time:	3.193	Roll Set Point:	1.070	Pitch Set Point:	1.744	Yaw Set Point:	-1.087	X_WP:	0.000	Y_WP:	0.000	Y_WP:	0.750	X:	-0.008	Y:	-1.195	Z:	0.044	yaw:	62.292	yaw rate:	-0.525	Roll:	-30.000	Pitch:	-16.536	Yaw:	89.050	Thrust:	100.000
Time:	3.216	Roll Set Point:	1.070	Pitch Set Point:	1.745	Yaw Set Point:	-1.087	X_WP:	0.000	Y_WP:	0.000	Y_WP:	0.750	X:	-0.008	Y:	-1.195	Z:	0.044	yaw:	62.272	yaw rate:	2.056	Roll:	-30.000	Pitch:	-17.094	Yaw:	88.885	Thrust:	100.000
Time:	3.236	Roll Set Point:	1.070	Pitch Set Point:	1.744	Yaw Set Point:	-1.087	X_WP:	0.000	Y_WP:	0.000	Y_WP:	0.750	X:	-0.008	Y:	-1.195	Z:	0.044	yaw:	62.291	yaw rate:	-1.946	Roll:	-30.000	Pitch:	-16.346	Yaw:	89.251	Thrust:	100.000
Time:	3.255	Roll Set Point:	1.070	Pitch Set Point:	1.744	Yaw Set Point:	-1.087	X_WP:	0.000	Y_WP:	0.000	Y_WP:	0.750	X:	-0.008	Y:	-1.195	Z:	0.044	yaw:	62.297	yaw rate:	-0.539	Roll:	-30.000	Pitch:	-16.509	Yaw:	88.903	Thrust:	100.000
Time:	3.275	Roll Set Point:	1.070	Pitch Set Point:	1.744	Yaw Set Point:	-1.088	X_WP:	0.000	Y_WP:	0.000	Y_WP:	0.750	X:	-0.008	Y:	-1.195	Z:	0.044	yaw:	62.315	yaw rate:	-1.823	Roll:	-30.000	Pitch:	-16.371	Yaw:	89.360	Thrust:	100.000
Time:	3.295	Roll Set Point:	1.070	Pitch Set Point:	1.744	Yaw Set Point:	-1.087	X_WP:	0.000	Y_WP:	0.000	Y_WP:	0.750	X:	-0.008	Y:	-1.195	Z:	0.044	yaw:	62.301	yaw rate:	1.384	Roll:	-30.000	Pitch:	-16.920	Yaw:	88.759	Thrust:	100.000
Time:	3.316	Roll Set Point:	1.070	Pitch Set Point:	1.744	Yaw Set Point:	-1.087	X_WP:	0.000	Y_WP:	0.000	Y_WP:	0.750	X:	-0.008	Y:	-1.195	Z:	0.044	yaw:	62.297	yaw rate:	0.356	Roll:	-30.000	Pitch:	-16.726	Yaw:	89.045	Thrust:	100.000
Time:	3.334	Roll Set Point:	1.070	Pitch Set Point:	1.744	Yaw Set Point:	-1.088	X_WP:	0.000	Y_WP:	0.000	Y_WP:	0.750	X:	-0.008	Y:	-1.195	Z:	0.044	yaw:	62.319	yaw rate:	-2.105	Roll:	-30.000	Pitch:	-16.242	Yaw:	89.170	Thrust:	100.000
Time:	3.354	Roll Set Point:	1.070	Pitch Set Point:	1.744	Yaw Set Point:	-1.087	X_WP:	0.000	Y_WP:	0.000	Y_WP:	0.750	X:	-0.008	Y:	-1.195	Z:	0.044	yaw:	62.294	yaw rate:	2.496	Roll:	-30.000	Pitch:	-17.076	Yaw:	88.598	Thrust:	100.000
Time:	3.374	Roll Set Point:	1.070	Pitch Set Point:	1.745	Yaw Set Point:	-1.087	X_WP:	0.000	Y_WP:	0.000	Y_WP:	0.750	X:	-0.008	Y:	-1.195	Z:	0.044	yaw:	62.281	yaw rate:	1.297	Roll:	-30.000	Pitch:	-16.875	Yaw:	88.790	Thrust:	100.000
Time:	3.394	Roll Set Point:	1.070	Pitch Set Point:	1.744	Yaw Set Point:	-1.088	X_WP:	0.000	Y_WP:	0.000	Y_WP:	0.750	X:	-0.008	Y:	-1.195	Z:	0.044	yaw:	62.315	yaw rate:	-3.404	Roll:	-30.000	Pitch:	-16.147	Yaw:	89.457	Thrust:	100.000
Time:	3.414	Roll Set Point:	1.070	Pitch Set Point:	1.744	Yaw Set Point:	-1.088	X_WP:	0.000	Y_WP:	0.000	Y_WP:	0.750	X:	-0.008	Y:	-1.195	Z:	0.044	yaw:	62.312	yaw rate:	0.216	Roll:	-30.000	Pitch:	-16.726	Yaw:	89.039	Thrust:	100.000
Time:	3.434	Roll Set Point:	1.070	Pitch Set Point:	1.745	Yaw Set Point:	-1.087	X_WP:	0.000	Y_WP:	0.000	Y_WP:	0.750	X:	-0.008	Y:	-1.195	Z:	0.044	yaw:	62.279	yaw rate:	3.316	Roll:	-30.000	Pitch:	-17.210	Yaw:	88.450	Thrust:	100.000
Time:	3.454	Roll Set Point:	1.070	Pitch Set Point:	1.744	Yaw Set Point:	-1.088	X_WP:	0.000	Y_WP:	0.000	Y_WP:	0.750	X:	-0.008	Y:	-1.195	Z:	0.044	yaw:	62.323	yaw rate:	-4.349	Roll:	-30.000	Pitch:	-15.819	Yaw:	89.570	Thrust:	100.000
Time:	3.473	Roll Set Point:	1.070	Pitch Set Point:	1.744	Yaw Set Point:	-1.087	X_WP:	0.000	Y_WP:	0.000	Y_WP:	0.750	X:	-0.008	Y:	-1.195	Z:	0.044	yaw:	62.282	yaw rate:	4.085	Roll:	-30.000	Pitch:	-17.356	Yaw:	88.386	Thrust:	100.000
Time:	3.494	Roll Set Point:	1.070	Pitch Set Point:	1.744	Yaw Set Point:	-1.087	X_WP:	0.000	Y_WP:	0.000	Y_WP:	0.750	X:	-0.008	Y:	-1.195	Z:	0.044	yaw:	62.302	yaw rate:	-1.996	Roll:	-30.000	Pitch:	-16.395	Yaw:	89.307	Thrust:	100.000
Time:	3.514	Roll Set Point:	1.070	Pitch Set Point:	1.744	Yaw Set Point:	-1.087	X_WP:	0.000	Y_WP:	0.000	Y_WP:	0.750	X:	-0.008	Y:	-1.195	Z:	0.044	yaw:	62.300	yaw rate:	0.239	Roll:	-30.000	Pitch:	-16.685	Yaw:	89.001	Thrust:	100.000
Time:	3.535	Roll Set Point:	1.070	Pitch Set Point:	1.744	Yaw Set Point:	-1.087	X_WP:	0.000	Y_WP:	0.000	Y_WP:	0.750	X:	-0.008	Y:	-1.195	Z:	0.044	yaw:	62.297	yaw rate:	0.220	Roll:	-30.000	Pitch:	-16.709	Yaw:	89.040	Thrust:	100.000
Time:	3.554	Roll Set Point:	1.070	Pitch Set Point:	1.744	Yaw Set Point:	-1.087	X_WP:	0.000	Y_WP:	0.000	Y_WP:	0.750	X:	-0.008	Y:	-1.195	Z:	0.044	yaw:	62.296	yaw rate:	0.170	Roll:	-30.000	Pitch:	-16.635	Yaw:	88.867	Thrust:	100.000
Time:	3.574	Roll Set Point:	1.070	Pitch Set Point:	1.744	Yaw Set Point:	-1.087	X_WP:	0.000	Y_WP:	0.000	Y_WP:	0.750	X:	-0.008	Y:	-1.195	Z:	0.044	yaw:	62.305	yaw rate:	-0.936	Roll:	-30.000	Pitch:	-16.509	Yaw:	89.070	Thrust:	100.000
Time:	3.594	Roll Set Point:	1.070	Pitch Set Point:	1.744	Yaw Set Point:	-1.087	X_WP:	0.000	Y_WP:	0.000	Y_WP:	0.750	X:	-0.008	Y:	-1.195	Z:	0.044	yaw:	62.293	yaw rate:	1.201	Roll:	-30.000	Pitch:	-16.843	Yaw:	88.826	Thrust:	100.000
Time:	3.614	Roll Set Point:	1.070	Pitch Set Point:	1.744	Yaw Set Point:	-1.088	X_WP:	0.000	Y_WP:	0.000	Y_WP:	0.750	X:	-0.008	Y:	-1.195	Z:	0.044	yaw:	62.326	yaw rate:	-3.325	Roll:	-30.000	Pitch:	-16.202	Yaw:	89.502	Thrust:	100.000
Time:	3.634	Roll Set Point:	1.070	Pitch Set Point:	1.744	Yaw Set Point:	-1.087	X_WP:	0.000	Y_WP:	0.000	Y_WP:	0.750	X:	-0.008	Y:	-1.195	Z:	0.044	yaw:	62.290	yaw rate:	3.634	Roll:	-30.000	Pitch:	-17.217	Yaw:	88.431	Thrust:	100.000
Time:	3.653	Roll Set Point:	1.070	Pitch Set Point:	1.744	Yaw Set Point:	-1.087	X_WP:	0.000	Y_WP:	0.000	Y_WP:	0.750	X:	-0.008	Y:	-1.195	Z:	0.044	yaw:	62.300	yaw rate:	-0.970	Roll:	-30.000	Pitch:	-16.512	Yaw:	89.032	Thrust:	100.000
Time:	3.673	Roll Set Point:	1.070	Pitch Set Point:	1.744	Yaw Set Point:	-1.087	X_WP:	0.000	Y_WP:	0.000	Y_WP:	0.750	X:	-0.008	Y:	-1.195	Z:	0.044	yaw:	62.302	yaw rate:	-0.268	Roll:	-30.000	Pitch:	-16.626	Yaw:	89.059	Thrust:	100.000
Time:	3.693	Roll Set Point:	1.070	Pitch Set Point:	1.744	Yaw Set Point:	-1.087	X_WP:	0.000	Y_WP:	0.000	Y_WP:	0.750	X:	-0.008	Y:	-1.195	Z:	0.044	yaw:	62.285	yaw rate:	1.709	Roll:	-30.000	Pitch:	-16.910	Yaw:	88.711	Thrust:	100.000
Time:	3.714	Roll Set Point:	1.070	Pitch Set Point:	1.744	Yaw Set Point:	-1.087	X_WP:	0.000	Y_WP:	0.000	Y_WP:	0.750	X:	-0.008	Y:	-1.195	Z:	0.044	yaw:	62.283	yaw rate:	0.227	Roll:	-30.000	Pitch:	-16.763	Yaw:	89.026	Thrust:	100.000
Time:	3.734	Roll Set Point:	1.070	Pitch Set Point:	1.744	Yaw Set Point:	-1.087	X_WP:	0.000	Y_WP:	0.000	Y_WP:	0.750	X:	-0.008	Y:	-1.195	Z:	0.044	yaw:	62.293	yaw rate:	-0.995	Roll:	-30.000	Pitch:	-16.490	Yaw:	89.095	Thrust:	100.000
Time:	3.754	Roll Set Point:	1.070	Pitch Set Point:	1.744	Yaw Set Point:	-1.087	X_WP:	0.000	Y_WP:	0.000	Y_WP:	0.750	X:	-0.008	Y:	-1.195	Z:	0.044	yaw:	62.297	yaw rate:	-0.435	Roll:	-30.000	Pitch:	-16.600	Yaw:	89.033	Thrust:	100.000
Time:	3.773	Roll Set Point:	1.070	Pitch Set Point:	1.744	Yaw Set Point:	-1.087	X_WP:	0.000	Y_WP:	0.000	Y_WP:	0.750	X:	-0.008	Y:	-1.195	Z:	0.044	yaw:	62.302	yaw rate:	-0.442	Roll:	-30.000	Pitch:	-16.552	Yaw:	88.972	Thrust:	100.000
Time:	3.794	Roll Set Point:	1.070	Pitch Set Point:	1.744	Yaw Set Point:	-1.087	X_WP:	0.000	Y_WP:	0.000	Y_WP:	0.750	X:	-0.008	Y:	-1.195	Z:	0.044	yaw:	62.299	yaw rate:	0.255	Roll:	-30.000	Pitch:	-16.705	Yaw:	89.060	Thrust:	100.000
Time:	3.815	Roll Set Point:	1.070	Pitch Set Point:	1.744	Yaw Set Point:	-1.087	X_WP:	0.000	Y_WP:	0.000	Y_WP:	0.750	X:	-0.008	Y:	-1.195	Z:	0.044	yaw:	62.293	yaw rate:	0.564	Roll:	-30.000	Pitch:	-16.811	Yaw:	89.011	Thrust:	100.000
Time:	3.834	Roll Set Point:	1.070	Pitch Set Point:	1.744	Yaw Set Point:	-1.087	X_WP:	0.000	Y_WP:	0.000	Y_WP:	0.750	X:	-0.008	Y:	-1.195	Z:	0.044	yaw:	62.288	yaw rate:	0.517	Roll:	-30.000	Pitch:	-16.710	Yaw:	88.814	Thrust:	100.000
Time:	3.854	Roll Set Point:	1.070	Pitch Set Point:	1.744	Yaw Set Point:	-1.087	X_WP:	0.000	Y_WP:	0.000	Y_WP:	0.750	X:	-0.008	Y:	-1.195	Z:	0.044	yaw:	62.283	yaw rate:	0.512	Roll:	-30.000	Pitch:	-16.758	Yaw:	88.864	Thrust:	100.000
Time:	3.874	Roll Set Point:	1.070	Pitch Set Point:	1.744	Yaw Set Point:	-1.087	X_WP:	0.000	Y_WP:	0.000	Y_WP:	0.750	X:	-0.008	Y:	-1.195	Z:	0.044	yaw:	62.297	yaw rate:	-1.382	Roll:	-30.000	Pitch:	-16.492	Yaw:	89.192	Thrust:	100.000
Time:	3.894	Roll Set Point:	1.070	Pitch Set Point:	1.744	Yaw Set Point:	-1.087	X_WP:	0.000	Y_WP:	0.000	Y_WP:	0.750	X:	-0.008	Y:	-1.195	Z:	0.044	yaw:	62.289	yaw rate:	0.805	Roll:	-30.000	Pitch:	-16.770	Yaw:	88.835	Thrust:	100.000
Time:	3.914	Roll Set Point:	1.070	Pitch Set Point:	1.744	Yaw Set Point:	-1.087	X_WP:	0.000	Y_WP:	0.000	Y_WP:	0.750	X:	-0.008	Y:	-1.195	Z:	0.044	yaw:	62.296	yaw rate:	-0.728	Roll:	-30.000	Pitch:	-16.569	Yaw:	89.096	Thrust:	100.000
Time:	3.934	Roll Set Point:	1.070	Pitch Set Point:	1.744	Yaw Set Point:	-1.088	X_WP:	0.000	Y_WP:	0.000	Y_WP:	0.750	X:	-0.008	Y:	-1.195	Z:	0.044	yaw:	62.313	yaw rate:	-1.720	Roll:	-30.000	Pitch:	-16.358	Yaw:	89.181	Thrust:	100.000
Time:	3.954	Roll Set Point:	1.070	Pitch Set Point:	1.744	Yaw Set Point:	-1.087	X_WP:	0.000	Y_WP:	0.000	Y_WP:	0.750	X:	-0.008	Y:	-1.195	Z:	0.044	yaw:	62.286	yaw rate:	2.707	Roll:	-30.000	Pitch:	-17.111	Yaw:	88.661	Thrust:	100.000
Time:	3.973	Roll Set Point:	1.070	Pitch Set Point:	1.744	Yaw Set Point:	-1.087	X_WP:	0.000	Y_WP:	0.000	Y_WP:	0.750	X:	-0.008	Y:	-1.195	Z:	0.044	yaw:	62.287	yaw rate:	-0.039	Roll:	-30.000	Pitch:	-16.634	Yaw:	88.871	Thrust:	100.000
Time:	3.993	Roll Set Point:	1.070	Pitch Set Point:	1.744	Yaw Set Point:	-1.087	X_WP:	0.000	Y_WP:	0.000	Y_WP:	0.750	X:	-0.008	Y:	-1.195	Z:	0.044	yaw:	62.285	yaw rate:	0.141	Roll:	-30.000	Pitch:	-16.679	Yaw:	88.953	Thrust:	100.000
Time:	4.014	Roll Set Point:	1.070	Pitch Set Point:	1.744	Yaw Set Point:	-1.087	X_WP:	0.000	Y_WP:	0.000	Y_WP:	0.750	X:	-0.008	Y:	-1.195	Z:	0.044	yaw:	62.293	yaw rate:	-0.748	Roll:	-30.000	Pitch:	-16.600	Yaw:	89.149	Thrust:	100.000
Time:	4.034	Roll Set Point:	1.070	Pitch Set Point:	1.744	Yaw Set Point:	-1.087	X_WP:	0.000	Y_WP:	0.000	Y_WP:	0.750	X:	-0.008	Y:	-1.195	Z:	0.044	yaw:	62.307	yaw rate:	-1.406	Roll:	-30.000	Pitch:	-16.438	Yaw:	89.186	Thrust:	100.000
Time:	4.054	Roll Set Point:	1.070	Pitch Set Point:	1.744	Yaw Set Point:	-1.087	X_WP:	0.000	Y_WP:	0.000	Y_WP:	0.750	X:	-0.008	Y:	-1.195	Z:	0.044	yaw:	62.289	yaw rate:	1.785	Roll:	-30.000	Pitch:	-16.915	Yaw:	88.708	Thrust:	100.000
Time:	4.074	Roll Set Point:	1.070	Pitch Set Point:	1.744	Yaw Set Point:	-1.087	X_WP:	0.000	Y_WP:	0.000	Y_WP:	0.750	X:	-0.008	Y:	-1.195	Z:	0.044	yaw:	62.284	yaw rate:	0.479	Roll:	-30.000	Pitch:	-16.785	Yaw:	88.932	Thrust:	100.000
Time:	4.093	Roll Set Point:	1.070	Pitch Set Point:	1.744	Yaw Set Point:	-1.087	X_WP:	0.000	Y_WP:	0.000	Y_WP:	0.750	X:	-0.008	Y:	-1.195	Z:	0.044	yaw:	62.283	yaw rate:	0.141	Roll:	-30.000	Pitch:	-16.682	Yaw:	88.882	Thrust:	100.000
Time:	4.114	Roll Set Point:	1.070	Pitch Set Point:	1.744	Yaw Set Point:	-1.088	X_WP:	0.000	Y_WP:	0.000	Y_WP:	0.750	X:	-0.008	Y:	-1.195	Z:	0.044	yaw:	62.320	yaw rate:	-3.705	Roll:	-30.000	Pitch:	-16.155	Yaw:	89.590	Thrust:	100.000
Time:	4.134	Roll Set Point:	1.070	Pitch Set Point:	1.745	Yaw Set Point:	-1.087	X_WP:	0.000	Y_WP:	0.000	Y_WP:	0.750	X:	-0.008	Y:	-1.195	Z:	0.044	yaw:	62.270	yaw rate:	4.999	Roll:	-30.000	Pitch:	-17.472	Yaw:	88.196	Thrust:	100.000
Time:	4.153	Roll Set Point:	1.070	Pitch Set Point:	1.744	Yaw Set Point:	-1.087	X_WP:	0.000	Y_WP:	0.000	Y_WP:	0.750	X:	-0.008	Y:	-1.195	Z:	0.044	yaw:	62.307	yaw rate:	-3.749	Roll:	-30.000	Pitch:	-15.965	Yaw:	89.417	Thrust:	100.000
Time:	4.173	Roll Set Point:	1.070	Pitch Set Point:	1.745	Yaw Set Point:	-1.087	X_WP:	0.000	Y_WP:	0.000	Y_WP:	0.750	X:	-0.008	Y:	-1.195	Z:	0.044	yaw:	62.276	yaw rate:	3.148	Roll:	-30.000	Pitch:	-17.202	Yaw:	88.576	Thrust:	100.000
Time:	4.193	Roll Set Point:	1.070	Pitch Set Point:	1.745	Yaw Set Point:	-1.087	X_WP:	0.000	Y_WP:	0.000	Y_WP:	0.750	X:	-0.008	Y:	-1.195	Z:	0.044	yaw:	62.279	yaw rate:	-0.308	Roll:	-30.000	Pitch:	-16.630	Yaw:	89.003	Thrust:	100.000
Time:	4.214	Roll Set Point:	1.070	Pitch Set Point:	1.744	Yaw Set Point:	-1.087	X_WP:	0.000	Y_WP:	0.000	Y_WP:	0.750	X:	-0.008	Y:	-1.195	Z:	0.044	yaw:	62.288	yaw rate:	-0.910	Roll:	-30.000	Pitch:	-16.551	Yaw:	89.197	Thrust:	100.000
Time:	4.234	Roll Set Point:	1.070	Pitch Set Point:	1.744	Yaw Set Point:	-1.087	X_WP:	0.000	Y_WP:	0.000	Y_WP:	0.750	X:	-0.008	Y:	-1.195	Z:	0.044	yaw:	62.308	yaw rate:	-1.961	Roll:	-30.000	Pitch:	-16.344	Yaw:	89.212	Thrust:	100.000
Time:	4.254	Roll Set Point:	1.070	Pitch Set Point:	1.744	Yaw Set Point:	-1.087	X_WP:	0.000	Y_WP:	0.000	Y_WP:	0.750	X:	-0.008	Y:	-1.195	Z:	0.044	yaw:	62.297	yaw rate:	1.065	Roll:	-30.000	Pitch:	-16.796	Yaw:	88.829	Thrust:	100.000
Time:	4.274	Roll Set Point:	1.070	Pitch Set Point:	1.744	Yaw Set Point:	-1.088	X_WP:	0.000	Y_WP:	0.000	Y_WP:	0.750	X:	-0.008	Y:	-1.195	Z:	0.044	yaw:	62.313	yaw rate:	-1.597	Roll:	-30.000	Pitch:	-16.450	Yaw:	89.240	Thrust:	100.000
Time:	4.293	Roll Set Point:	1.070	Pitch Set Point:	1.744	Yaw Set Point:	-1.087	X_WP:	0.000	Y_WP:	0.000	Y_WP:	0.750	X:	-0.008	Y:	-1.195	Z:	0.044	yaw:	62.298	yaw rate:	1.486	Roll:	-30.000	Pitch:	-16.921	Yaw:	88.746	Thrust:	100.000
Time:	4.316	Roll Set Point:	1.070	Pitch Set Point:	1.744	Yaw Set Point:	-1.087	X_WP:	0.000	Y_WP:	0.000	Y_WP:	0.750	X:	-0.008	Y:	-1.195	Z:	0.044	yaw:	62.292	yaw rate:	0.647	Roll:	-30.000	Pitch:	-16.822	Yaw:	89.129	Thrust:	100.000
Time:	4.334	Roll Set Point:	1.070	Pitch Set Point:	1.744	Yaw Set Point:	-1.087	X_WP:	0.000	Y_WP:	0.000	Y_WP:	0.750	X:	-0.008	Y:	-1.195	Z:	0.044	yaw:	62.285	yaw rate:	0.670	Roll:	-30.000	Pitch:	-16.712	Yaw:	88.665	Thrust:	100.000
Time:	4.354	Roll Set Point:	1.070	Pitch Set Point:	1.744	Yaw Set Point:	-1.088	X_WP:	0.000	Y_WP:	0.000	Y_WP:	0.750	X:	-0.008	Y:	-1.195	Z:	0.044	yaw:	62.313	yaw rate:	-2.787	Roll:	-30.000	Pitch:	-16.262	Yaw:	89.395	Thrust:	100.000
Time:	4.374	Roll Set Point:	1.070	Pitch Set Point:	1.744	Yaw Set Point:	-1.087	X_WP:	0.000	Y_WP:	0.000	Y_WP:	0.750	X:	-0.008	Y:	-1.195	Z:	0.044	yaw:	62.301	yaw rate:	1.143	Roll:	-30.000	Pitch:	-16.793	Yaw:	88.726	Thrust:	100.000
Time:	4.393	Roll Set Point:	1.070	Pitch Set Point:	1.744	Yaw Set Point:	-1.087	X_WP:	0.000	Y_WP:	0.000	Y_WP:	0.750	X:	-0.008	Y:	-1.195	Z:	0.044	yaw:	62.303	yaw rate:	-0.156	Roll:	-30.000	Pitch:	-16.655	Yaw:	89.017	Thrust:	100.000
Time:	4.413	Roll Set Point:	1.070	Pitch Set Point:	1.744	Yaw Set Point:	-1.088	X_WP:	0.000	Y_WP:	0.000	Y_WP:	0.750	X:	-0.008	Y:	-1.195	Z:	0.044	yaw:	62.316	yaw rate:	-1.305	Roll:	-30.000	Pitch:	-16.466	Yaw:	89.219	Thrust:	100.000
Time:	4.434	Roll Set Point:	1.070	Pitch Set Point:	1.744	Yaw Set Point:	-1.087	X_WP:	0.000	Y_WP:	0.000	Y_WP:	0.750	X:	-0.008	Y:	-1.195	Z:	0.044	yaw:	62.301	yaw rate:	1.461	Roll:	-30.000	Pitch:	-16.900	Yaw:	88.828	Thrust:	100.000
Time:	4.453	Roll Set Point:	1.070	Pitch Set Point:	1.744	Yaw Set Point:	-1.087	X_WP:	0.000	Y_WP:	0.000	Y_WP:	0.750	X:	-0.008	Y:	-1.195	Z:	0.044	yaw:	62.305	yaw rate:	-0.363	Roll:	-30.000	Pitch:	-16.571	Yaw:	88.961	Thrust:	100.000
Time:	4.473	Roll Set Point:	1.070	Pitch Set Point:	1.744	Yaw Set Point:	-1.087	X_WP:	0.000	Y_WP:	0.000	Y_WP:	0.750	X:	-0.008	Y:	-1.195	Z:	0.044	yaw:	62.284	yaw rate:	2.090	Roll:	-30.000	Pitch:	-16.998	Yaw:	88.718	Thrust:	100.000
Time:	4.493	Roll Set Point:	1.070	Pitch Set Point:	1.744	Yaw Set Point:	-1.088	X_WP:	0.000	Y_WP:	0.000	Y_WP:	0.750	X:	-0.008	Y:	-1.195	Z:	0.044	yaw:	62.314	yaw rate:	-2.947	Roll:	-30.000	Pitch:	-16.201	Yaw:	89.397	Thrust:	100.000
Time:	4.514	Roll Set Point:	1.070	Pitch Set Point:	1.745	Yaw Set Point:	-1.087	X_WP:	0.000	Y_WP:	0.000	Y_WP:	0.750	X:	-0.008	Y:	-1.195	Z:	0.044	yaw:	62.282	yaw rate:	3.203	Roll:	-30.000	Pitch:	-17.226	Yaw:	88.613	Thrust:	100.000
Time:	4.534	Roll Set Point:	1.070	Pitch Set Point:	1.744	Yaw Set Point:	-1.087	X_WP:	0.000	Y_WP:	0.000	Y_WP:	0.750	X:	-0.008	Y:	-1.195	Z:	0.044	yaw:	62.289	yaw rate:	-0.733	Roll:	-30.000	Pitch:	-16.529	Yaw:	89.124	Thrust:	100.000
Time:	4.553	Roll Set Point:	1.070	Pitch Set Point:	1.744	Yaw Set Point:	-1.087	X_WP:	0.000	Y_WP:	0.000	Y_WP:	0.750	X:	-0.008	Y:	-1.195	Z:	0.044	yaw:	62.286	yaw rate:	0.339	Roll:	-30.000	Pitch:	-16.704	Yaw:	88.817	Thrust:	100.000
Time:	4.573	Roll Set Point:	1.070	Pitch Set Point:	1.744	Yaw Set Point:	-1.087	X_WP:	0.000	Y_WP:	0.000	Y_WP:	0.750	X:	-0.008	Y:	-1.195	Z:	0.044	yaw:	62.296	yaw rate:	-1.057	Roll:	-30.000	Pitch:	-16.480	Yaw:	89.074	Thrust:	100.000
Time:	4.593	Roll Set Point:	1.070	Pitch Set Point:	1.744	Yaw Set Point:	-1.087	X_WP:	0.000	Y_WP:	0.000	Y_WP:	0.750	X:	-0.008	Y:	-1.195	Z:	0.044	yaw:	62.297	yaw rate:	-0.065	Roll:	-30.000	Pitch:	-16.655	Yaw:	88.999	Thrust:	100.000
Time:	4.614	Roll Set Point:	1.070	Pitch Set Point:	1.744	Yaw Set Point:	-1.087	X_WP:	0.000	Y_WP:	0.000	Y_WP:	0.750	X:	-0.008	Y:	-1.195	Z:	0.044	yaw:	62.285	yaw rate:	1.126	Roll:	-30.000	Pitch:	-16.870	Yaw:	88.938	Thrust:	100.000
Time:	4.634	Roll Set Point:	1.070	Pitch Set Point:	1.744	Yaw Set Point:	-1.088	X_WP:	0.000	Y_WP:	0.000	Y_WP:	0.750	X:	-0.008	Y:	-1.195	Z:	0.044	yaw:	62.318	yaw rate:	-3.250	Roll:	-30.000	Pitch:	-16.145	Yaw:	89.433	Thrust:	100.000
Time:	4.663	Roll Set Point:	1.070	Pitch Set Point:	1.744	Yaw Set Point:	-1.087	X_WP:	0.000	Y_WP:	0.000	Y_WP:	0.750	X:	-0.008	Y:	-1.195	Z:	0.044	yaw:	62.289	yaw rate:	2.923	Roll:	-30.000	Pitch:	-17.332	Yaw:	89.608	Thrust:	100.000
Time:	4.676	Roll Set Point:	1.070	Pitch Set Point:	1.744	Yaw Set Point:	-1.088	X_WP:	0.000	Y_WP:	0.000	Y_WP:	0.750	X:	-0.008	Y:	-1.195	Z:	0.044	yaw:	62.324	yaw rate:	-3.514	Roll:	-30.000	Pitch:	-15.494	Yaw:	89.021	Thrust:	100.000
Time:	4.694	Roll Set Point:	1.070	Pitch Set Point:	1.744	Yaw Set Point:	-1.087	X_WP:	0.000	Y_WP:	0.000	Y_WP:	0.750	X:	-0.008	Y:	-1.195	Z:	0.044	yaw:	62.286	yaw rate:	3.804	Roll:	-30.000	Pitch:	-17.286	Yaw:	88.150	Thrust:	100.000
Time:	4.714	Roll Set Point:	1.070	Pitch Set Point:	1.745	Yaw Set Point:	-1.087	X_WP:	0.000	Y_WP:	0.000	Y_WP:	0.750	X:	-0.008	Y:	-1.195	Z:	0.044	yaw:	62.272	yaw rate:	1.366	Roll:	-30.000	Pitch:	-16.939	Yaw:	88.877	Thrust:	100.000
Time:	4.735	Roll Set Point:	1.070	Pitch Set Point:	1.744	Yaw Set Point:	-1.087	X_WP:	0.000	Y_WP:	0.000	Y_WP:	0.750	X:	-0.008	Y:	-1.195	Z:	0.044	yaw:	62.288	yaw rate:	-1.562	Roll:	-30.000	Pitch:	-16.404	Yaw:	89.158	Thrust:	100.000
Time:	4.756	Roll Set Point:	1.070	Pitch Set Point:	1.744	Yaw Set Point:	-1.087	X_WP:	0.000	Y_WP:	0.000	Y_WP:	0.750	X:	-0.008	Y:	-1.195	Z:	0.044	yaw:	62.303	yaw rate:	-1.475	Roll:	-30.000	Pitch:	-16.380	Yaw:	89.341	Thrust:	100.000
Time:	4.773	Roll Set Point:	1.070	Pitch Set Point:	1.744	Yaw Set Point:	-1.087	X_WP:	0.000	Y_WP:	0.000	Y_WP:	0.750	X:	-0.008	Y:	-1.195	Z:	0.044	yaw:	62.300	yaw rate:	0.223	Roll:	-30.000	Pitch:	-16.686	Yaw:	88.721	Thrust:	100.000
Time:	4.793	Roll Set Point:	1.070	Pitch Set Point:	1.744	Yaw Set Point:	-1.087	X_WP:	0.000	Y_WP:	0.000	Y_WP:	0.750	X:	-0.008	Y:	-1.195	Z:	0.044	yaw:	62.291	yaw rate:	0.944	Roll:	-30.000	Pitch:	-16.812	Yaw:	88.853	Thrust:	100.000
Time:	4.813	Roll Set Point:	1.070	Pitch Set Point:	1.744	Yaw Set Point:	-1.087	X_WP:	0.000	Y_WP:	0.000	Y_WP:	0.750	X:	-0.008	Y:	-1.195	Z:	0.044	yaw:	62.309	yaw rate:	-1.777	Roll:	-30.000	Pitch:	-16.417	Yaw:	89.229	Thrust:	100.000
Time:	4.834	Roll Set Point:	1.070	Pitch Set Point:	1.744	Yaw Set Point:	-1.087	X_WP:	0.000	Y_WP:	0.000	Y_WP:	0.750	X:	-0.008	Y:	-1.195	Z:	0.044	yaw:	62.288	yaw rate:	2.036	Roll:	-30.000	Pitch:	-17.007	Yaw:	88.746	Thrust:	100.000
Time:	4.853	Roll Set Point:	1.070	Pitch Set Point:	1.744	Yaw Set Point:	-1.087	X_WP:	0.000	Y_WP:	0.000	Y_WP:	0.750	X:	-0.008	Y:	-1.195	Z:	0.044	yaw:	62.293	yaw rate:	-0.455	Roll:	-30.000	Pitch:	-16.570	Yaw:	88.944	Thrust:	100.000
Time:	4.873	Roll Set Point:	1.070	Pitch Set Point:	1.744	Yaw Set Point:	-1.088	X_WP:	0.000	Y_WP:	0.000	Y_WP:	0.750	X:	-0.008	Y:	-1.195	Z:	0.044	yaw:	62.315	yaw rate:	-2.203	Roll:	-30.000	Pitch:	-16.309	Yaw:	89.326	Thrust:	100.000
Time:	4.893	Roll Set Point:	1.070	Pitch Set Point:	1.744	Yaw Set Point:	-1.088	X_WP:	0.000	Y_WP:	0.000	Y_WP:	0.750	X:	-0.008	Y:	-1.195	Z:	0.044	yaw:	62.325	yaw rate:	-0.981	Roll:	-30.000	Pitch:	-16.459	Yaw:	89.130	Thrust:	100.000
Time:	4.914	Roll Set Point:	1.070	Pitch Set Point:	1.744	Yaw Set Point:	-1.087	X_WP:	0.000	Y_WP:	0.000	Y_WP:	0.750	X:	-0.008	Y:	-1.195	Z:	0.044	yaw:	62.292	yaw rate:	3.262	Roll:	-30.000	Pitch:	-17.227	Yaw:	88.690	Thrust:	100.000
Time:	4.933	Roll Set Point:	1.070	Pitch Set Point:	1.744	Yaw Set Point:	-1.087	X_WP:	0.000	Y_WP:	0.000	Y_WP:	0.750	X:	-0.008	Y:	-1.195	Z:	0.044	yaw:	62.295	yaw rate:	-0.339	Roll:	-30.000	Pitch:	-16.594	Yaw:	88.942	Thrust:	100.000
Time:	4.954	Roll Set Point:	1.070	Pitch Set Point:	1.744	Yaw Set Point:	-1.088	X_WP:	0.000	Y_WP:	0.000	Y_WP:	0.750	X:	-0.008	Y:	-1.195	Z:	0.044	yaw:	62.311	yaw rate:	-1.543	Roll:	-30.000	Pitch:	-16.355	Yaw:	89.225	Thrust:	100.000
Time:	4.973	Roll Set Point:	1.070	Pitch Set Point:	1.744	Yaw Set Point:	-1.087	X_WP:	0.000	Y_WP:	0.000	Y_WP:	0.750	X:	-0.008	Y:	-1.195	Z:	0.044	yaw:	62.297	yaw rate:	1.400	Roll:	-30.000	Pitch:	-16.899	Yaw:	88.712	Thrust:	100.000
Time:	4.995	Roll Set Point:	1.070	Pitch Set Point:	1.744	Yaw Set Point:	-1.087	X_WP:	0.000	Y_WP:	0.000	Y_WP:	0.750	X:	-0.008	Y:	-1.195	Z:	0.044	yaw:	62.291	yaw rate:	0.592	Roll:	-30.000	Pitch:	-16.804	Yaw:	89.126	Thrust:	100.000
Time:	5.015	Roll Set Point:	1.070	Pitch Set Point:	1.744	Yaw Set Point:	-1.087	X_WP:	0.000	Y_WP:	0.000	Y_WP:	0.750	X:	-0.008	Y:	-1.195	Z:	0.044	yaw:	62.291	yaw rate:	0.034	Roll:	-30.000	Pitch:	-16.646	Yaw:	88.925	Thrust:	100.000
Time:	5.035	Roll Set Point:	1.070	Pitch Set Point:	1.744	Yaw Set Point:	-1.087	X_WP:	0.000	Y_WP:	0.000	Y_WP:	0.750	X:	-0.008	Y:	-1.195	Z:	0.044	yaw:	62.280	yaw rate:	1.080	Roll:	-30.000	Pitch:	-16.880	Yaw:	88.867	Thrust:	100.000
Time:	5.056	Roll Set Point:	1.070	Pitch Set Point:	1.744	Yaw Set Point:	-1.087	X_WP:	0.000	Y_WP:	0.000	Y_WP:	0.750	X:	-0.008	Y:	-1.195	Z:	0.044	yaw:	62.292	yaw rate:	-1.202	Roll:	-30.000	Pitch:	-16.459	Yaw:	89.098	Thrust:	100.000
Time:	5.076	Roll Set Point:	1.070	Pitch Set Point:	1.744	Yaw Set Point:	-1.087	X_WP:	0.000	Y_WP:	0.000	Y_WP:	0.750	X:	-0.008	Y:	-1.195	Z:	0.044	yaw:	62.297	yaw rate:	-0.495	Roll:	-30.000	Pitch:	-16.584	Yaw:	89.078	Thrust:	100.000
Time:	5.095	Roll Set Point:	1.070	Pitch Set Point:	1.744	Yaw Set Point:	-1.088	X_WP:	0.000	Y_WP:	0.000	Y_WP:	0.750	X:	-0.008	Y:	-1.195	Z:	0.044	yaw:	62.315	yaw rate:	-1.804	Roll:	-30.000	Pitch:	-16.372	Yaw:	89.282	Thrust:	100.000
Time:	5.116	Roll Set Point:	1.070	Pitch Set Point:	1.744	Yaw Set Point:	-1.087	X_WP:	0.000	Y_WP:	0.000	Y_WP:	0.750	X:	-0.008	Y:	-1.195	Z:	0.044	yaw:	62.292	yaw rate:	2.275	Roll:	-30.000	Pitch:	-17.024	Yaw:	88.706	Thrust:	100.000
Time:	5.137	Roll Set Point:	1.070	Pitch Set Point:	1.744	Yaw Set Point:	-1.087	X_WP:	0.000	Y_WP:	0.000	Y_WP:	0.750	X:	-0.008	Y:	-1.195	Z:	0.044	yaw:	62.293	yaw rate:	-0.114	Roll:	-30.000	Pitch:	-16.700	Yaw:	89.121	Thrust:	100.000
Time:	5.156	Roll Set Point:	1.070	Pitch Set Point:	1.744	Yaw Set Point:	-1.087	X_WP:	0.000	Y_WP:	0.000	Y_WP:	0.750	X:	-0.008	Y:	-1.195	Z:	0.044	yaw:	62.294	yaw rate:	-0.071	Roll:	-30.000	Pitch:	-16.616	Yaw:	88.866	Thrust:	100.000
Time:	5.175	Roll Set Point:	1.070	Pitch Set Point:	1.744	Yaw Set Point:	-1.088	X_WP:	0.000	Y_WP:	0.000	Y_WP:	0.750	X:	-0.008	Y:	-1.195	Z:	0.044	yaw:	62.317	yaw rate:	-2.347	Roll:	-30.000	Pitch:	-16.251	Yaw:	89.294	Thrust:	100.000
Time:	5.198	Roll Set Point:	1.070	Pitch Set Point:	1.744	Yaw Set Point:	-1.088	X_WP:	0.000	Y_WP:	0.000	Y_WP:	0.750	X:	-0.008	Y:	-1.195	Z:	0.044	yaw:	62.321	yaw rate:	-0.364	Roll:	-30.000	Pitch:	-16.615	Yaw:	89.113	Thrust:	100.000
Time:	5.217	Roll Set Point:	1.070	Pitch Set Point:	1.744	Yaw Set Point:	-1.087	X_WP:	0.000	Y_WP:	0.000	Y_WP:	0.750	X:	-0.008	Y:	-1.195	Z:	0.044	yaw:	62.296	yaw rate:	2.493	Roll:	-30.000	Pitch:	-17.082	Yaw:	88.695	Thrust:	100.000
Time:	5.235	Roll Set Point:	1.070	Pitch Set Point:	1.744	Yaw Set Point:	-1.087	X_WP:	0.000	Y_WP:	0.000	Y_WP:	0.750	X:	-0.008	Y:	-1.195	Z:	0.044	yaw:	62.297	yaw rate:	-0.115	Roll:	-30.000	Pitch:	-16.636	Yaw:	88.873	Thrust:	100.000
