Time:	0.033	Roll Set Point:	-0.001	Pitch Set Point:	0.032	Yaw Set Point:	-1.687	X_WP:	0.000	Y_WP:	0.000	Z_WP:	0.500	X:	0.018	Y:	-0.015	Z:	0.048	yaw:	96.683	yaw rate:	3.345	Roll:	-0.170	Pitch:	-0.166	Yaw:	134.995	Thrust:	24.856
Time:	0.055	Roll Set Point:	-0.001	Pitch Set Point:	0.032	Yaw Set Point:	-1.687	X_WP:	0.000	Y_WP:	0.000	Z_WP:	0.500	X:	0.019	Y:	-0.015	Z:	0.048	yaw:	96.656	yaw rate:	2.750	Roll:	-0.172	Pitch:	-0.216	Yaw:	135.372	Thrust:	25.904
Time:	0.074	Roll Set Point:	-0.001	Pitch Set Point:	0.031	Yaw Set Point:	-1.699	X_WP:	0.000	Y_WP:	0.000	Z_WP:	0.500	X:	0.019	Y:	-0.015	Z:	0.049	yaw:	97.333	yaw rate:	-67.668	Roll:	-0.317	Pitch:	-0.080	Yaw:	146.508	Thrust:	25.882
Time:	0.094	Roll Set Point:	-0.000	Pitch Set Point:	0.033	Yaw Set Point:	-1.734	X_WP:	0.000	Y_WP:	0.000	Z_WP:	0.500	X:	0.019	Y:	-0.016	Z:	0.049	yaw:	99.343	yaw rate:	-201.043	Roll:	-2.038	Pitch:	-0.119	Yaw:	166.887	Thrust:	26.130
Time:	0.115	Roll Set Point:	-0.001	Pitch Set Point:	0.032	Yaw Set Point:	-1.795	X_WP:	0.000	Y_WP:	0.000	Z_WP:	0.500	X:	0.021	Y:	-0.016	Z:	0.050	yaw:	102.830	yaw rate:	-348.719	Roll:	-0.664	Pitch:	-0.281	Yaw:	187.976	Thrust:	27.423
Time:	0.133	Roll Set Point:	-0.001	Pitch Set Point:	0.033	Yaw Set Point:	-1.789	X_WP:	0.000	Y_WP:	0.000	Z_WP:	0.500	X:	0.021	Y:	-0.016	Z:	0.050	yaw:	102.502	yaw rate:	32.845	Roll:	-0.356	Pitch:	-0.319	Yaw:	140.161	Thrust:	29.538
Time:	0.155	Roll Set Point:	-0.001	Pitch Set Point:	0.033	Yaw Set Point:	-1.709	X_WP:	0.000	Y_WP:	0.000	Z_WP:	0.500	X:	0.019	Y:	-0.016	Z:	0.049	yaw:	97.893	yaw rate:	460.882	Roll:	1.058	Pitch:	-0.314	Yaw:	79.461	Thrust:	35.320
Time:	0.173	Roll Set Point:	-0.002	Pitch Set Point:	0.031	Yaw Set Point:	-1.702	X_WP:	0.000	Y_WP:	0.000	Z_WP:	0.500	X:	0.019	Y:	-0.015	Z:	0.048	yaw:	97.525	yaw rate:	36.806	Roll:	1.097	Pitch:	0.102	Yaw:	133.018	Thrust:	32.560
Time:	0.193	Roll Set Point:	-0.000	Pitch Set Point:	0.033	Yaw Set Point:	-1.712	X_WP:	0.000	Y_WP:	0.000	Z_WP:	0.500	X:	0.019	Y:	-0.016	Z:	0.049	yaw:	98.087	yaw rate:	-56.175	Roll:	-1.518	Pitch:	-0.146	Yaw:	146.232	Thrust:	33.140
Time:	0.212	Roll Set Point:	-0.000	Pitch Set Point:	0.033	Yaw Set Point:	-1.730	X_WP:	0.000	Y_WP:	0.000	Z_WP:	0.500	X:	0.019	Y:	-0.016	Z:	0.050	yaw:	99.138	yaw rate:	-105.135	Roll:	-0.408	Pitch:	-0.163	Yaw:	154.578	Thrust:	31.835
Time:	0.233	Roll Set Point:	-0.000	Pitch Set Point:	0.033	Yaw Set Point:	-1.718	X_WP:	0.000	Y_WP:	0.000	Z_WP:	0.500	X:	0.019	Y:	-0.016	Z:	0.049	yaw:	98.441	yaw rate:	69.738	Roll:	-0.301	Pitch:	-0.294	Yaw:	130.897	Thrust:	36.659
Time:	0.254	Roll Set Point:	-0.002	Pitch Set Point:	0.032	Yaw Set Point:	-1.685	X_WP:	0.000	Y_WP:	0.000	Z_WP:	0.500	X:	0.019	Y:	-0.015	Z:	0.048	yaw:	96.552	yaw rate:	188.840	Roll:	1.785	Pitch:	-0.302	Yaw:	112.464	Thrust:	39.668
Time:	0.273	Roll Set Point:	-0.002	Pitch Set Point:	0.032	Yaw Set Point:	-1.693	X_WP:	0.000	Y_WP:	0.000	Z_WP:	0.500	X:	0.019	Y:	-0.015	Z:	0.049	yaw:	96.993	yaw rate:	-44.111	Roll:	-0.428	Pitch:	-0.003	Yaw:	143.267	Thrust:	36.955
Time:	0.293	Roll Set Point:	-0.001	Pitch Set Point:	0.032	Yaw Set Point:	-1.706	X_WP:	0.000	Y_WP:	0.000	Z_WP:	0.500	X:	0.019	Y:	-0.015	Z:	0.048	yaw:	97.738	yaw rate:	-74.515	Roll:	-0.453	Pitch:	-0.049	Yaw:	148.319	Thrust:	38.954
Time:	0.313	Roll Set Point:	-0.001	Pitch Set Point:	0.032	Yaw Set Point:	-1.706	X_WP:	0.000	Y_WP:	0.000	Z_WP:	0.500	X:	0.019	Y:	-0.015	Z:	0.048	yaw:	97.756	yaw rate:	-1.801	Roll:	-0.175	Pitch:	-0.097	Yaw:	138.693	Thrust:	39.666
Time:	0.333	Roll Set Point:	-0.002	Pitch Set Point:	0.034	Yaw Set Point:	-1.678	X_WP:	0.000	Y_WP:	0.000	Z_WP:	0.500	X:	0.020	Y:	-0.016	Z:	0.049	yaw:	96.165	yaw rate:	159.191	Roll:	-0.718	Pitch:	-1.383	Yaw:	115.287	Thrust:	40.507
Time:	0.355	Roll Set Point:	-0.001	Pitch Set Point:	0.033	Yaw Set Point:	-1.695	X_WP:	0.000	Y_WP:	0.000	Z_WP:	0.500	X:	0.019	Y:	-0.016	Z:	0.049	yaw:	97.121	yaw rate:	-95.667	Roll:	-0.075	Pitch:	0.602	Yaw:	149.002	Thrust:	42.912
Time:	0.373	Roll Set Point:	-0.002	Pitch Set Point:	0.032	Yaw Set Point:	-1.662	X_WP:	0.000	Y_WP:	0.000	Z_WP:	0.500	X:	0.018	Y:	-0.015	Z:	0.048	yaw:	95.238	yaw rate:	188.367	Roll:	1.327	Pitch:	-0.350	Yaw:	107.091	Thrust:	43.902
Time:	0.394	Roll Set Point:	-0.002	Pitch Set Point:	0.034	Yaw Set Point:	-1.665	X_WP:	0.000	Y_WP:	0.000	Z_WP:	0.500	X:	0.020	Y:	-0.016	Z:	0.048	yaw:	95.370	yaw rate:	-13.252	Roll:	-1.364	Pitch:	-1.245	Yaw:	136.916	Thrust:	45.613
Time:	0.412	Roll Set Point:	-0.003	Pitch Set Point:	0.033	Yaw Set Point:	-1.647	X_WP:	0.000	Y_WP:	0.000	Z_WP:	0.500	X:	0.020	Y:	-0.015	Z:	0.049	yaw:	94.340	yaw rate:	102.971	Roll:	0.891	Pitch:	-0.297	Yaw:	118.790	Thrust:	42.305
Time:	0.433	Roll Set Point:	-0.004	Pitch Set Point:	0.036	Yaw Set Point:	-1.594	X_WP:	0.000	Y_WP:	0.000	Z_WP:	0.500	X:	0.020	Y:	-0.016	Z:	0.049	yaw:	91.340	yaw rate:	300.016	Roll:	0.044	Pitch:	-1.577	Yaw:	91.317	Thrust:	46.092
Time:	0.455	Roll Set Point:	-0.005	Pitch Set Point:	0.037	Yaw Set Point:	-1.592	X_WP:	0.000	Y_WP:	0.000	Z_WP:	0.500	X:	0.021	Y:	-0.016	Z:	0.049	yaw:	91.224	yaw rate:	11.612	Roll:	-0.307	Pitch:	-0.988	Yaw:	128.153	Thrust:	49.431
Time:	0.473	Roll Set Point:	-0.006	Pitch Set Point:	0.039	Yaw Set Point:	-1.552	X_WP:	0.000	Y_WP:	0.000	Z_WP:	0.500	X:	0.022	Y:	-0.016	Z:	0.049	yaw:	88.942	yaw rate:	228.186	Roll:	0.003	Pitch:	-1.334	Yaw:	92.960	Thrust:	47.617
Time:	0.493	Roll Set Point:	-0.008	Pitch Set Point:	0.039	Yaw Set Point:	-1.509	X_WP:	0.000	Y_WP:	0.000	Z_WP:	0.500	X:	0.022	Y:	-0.016	Z:	0.049	yaw:	86.441	yaw rate:	250.100	Roll:	1.403	Pitch:	-0.972	Yaw:	90.467	Thrust:	50.239
Time:	0.513	Roll Set Point:	-0.010	Pitch Set Point:	0.041	Yaw Set Point:	-1.480	X_WP:	0.000	Y_WP:	0.000	Z_WP:	0.500	X:	0.023	Y:	-0.016	Z:	0.048	yaw:	84.825	yaw rate:	161.596	Roll:	0.154	Pitch:	-1.696	Yaw:	99.416	Thrust:	52.212
Time:	0.533	Roll Set Point:	-0.012	Pitch Set Point:	0.040	Yaw Set Point:	-1.411	X_WP:	0.000	Y_WP:	0.000	Z_WP:	0.500	X:	0.023	Y:	-0.015	Z:	0.048	yaw:	80.837	yaw rate:	398.777	Roll:	2.271	Pitch:	-0.799	Yaw:	62.578	Thrust:	51.845
Time:	0.554	Roll Set Point:	-0.014	Pitch Set Point:	0.042	Yaw Set Point:	-1.392	X_WP:	0.000	Y_WP:	0.000	Z_WP:	0.500	X:	0.024	Y:	-0.015	Z:	0.049	yaw:	79.755	yaw rate:	108.202	Roll:	0.158	Pitch:	-1.367	Yaw:	99.616	Thrust:	52.144
Time:	0.573	Roll Set Point:	-0.015	Pitch Set Point:	0.043	Yaw Set Point:	-1.354	X_WP:	0.000	Y_WP:	0.000	Z_WP:	0.500	X:	0.025	Y:	-0.015	Z:	0.049	yaw:	77.593	yaw rate:	216.225	Roll:	0.855	Pitch:	-1.271	Yaw:	81.184	Thrust:	53.900
Time:	0.594	Roll Set Point:	-0.018	Pitch Set Point:	0.044	Yaw Set Point:	-1.307	X_WP:	0.000	Y_WP:	0.000	Z_WP:	0.500	X:	0.026	Y:	-0.015	Z:	0.048	yaw:	74.880	yaw rate:	271.286	Roll:	1.230	Pitch:	-1.309	Yaw:	72.253	Thrust:	56.319
Time:	0.614	Roll Set Point:	-0.019	Pitch Set Point:	0.046	Yaw Set Point:	-1.264	X_WP:	0.000	Y_WP:	0.000	Z_WP:	0.500	X:	0.026	Y:	-0.016	Z:	0.049	yaw:	72.416	yaw rate:	246.433	Roll:	0.690	Pitch:	-1.197	Yaw:	69.264	Thrust:	52.785
Time:	0.633	Roll Set Point:	-0.023	Pitch Set Point:	0.047	Yaw Set Point:	-1.209	X_WP:	0.000	Y_WP:	0.000	Z_WP:	0.500	X:	0.028	Y:	-0.016	Z:	0.049	yaw:	69.260	yaw rate:	315.631	Roll:	1.887	Pitch:	-1.405	Yaw:	57.532	Thrust:	58.064
Time:	0.654	Roll Set Point:	-0.026	Pitch Set Point:	0.049	Yaw Set Point:	-1.190	X_WP:	0.000	Y_WP:	0.000	Z_WP:	0.500	X:	0.029	Y:	-0.016	Z:	0.051	yaw:	68.176	yaw rate:	108.346	Roll:	0.852	Pitch:	-2.054	Yaw:	83.632	Thrust:	55.845
Time:	0.673	Roll Set Point:	-0.028	Pitch Set Point:	0.049	Yaw Set Point:	-1.136	X_WP:	0.000	Y_WP:	0.000	Z_WP:	0.500	X:	0.029	Y:	-0.016	Z:	0.050	yaw:	65.116	yaw rate:	306.014	Roll:	1.656	Pitch:	-0.310	Yaw:	52.206	Thrust:	58.875
Time:	0.693	Roll Set Point:	-0.031	Pitch Set Point:	0.049	Yaw Set Point:	-1.082	X_WP:	0.000	Y_WP:	0.000	Z_WP:	0.500	X:	0.030	Y:	-0.015	Z:	0.051	yaw:	62.002	yaw rate:	311.377	Roll:	2.006	Pitch:	-0.860	Yaw:	47.507	Thrust:	60.173
Time:	0.713	Roll Set Point:	-0.035	Pitch Set Point:	0.051	Yaw Set Point:	-1.032	X_WP:	0.000	Y_WP:	0.000	Z_WP:	0.500	X:	0.032	Y:	-0.015	Z:	0.052	yaw:	59.153	yaw rate:	284.918	Roll:	2.176	Pitch:	-1.659	Yaw:	47.661	Thrust:	59.152
Time:	0.732	Roll Set Point:	-0.039	Pitch Set Point:	0.051	Yaw Set Point:	-0.973	X_WP:	0.000	Y_WP:	0.000	Z_WP:	0.500	X:	0.033	Y:	-0.015	Z:	0.054	yaw:	55.772	yaw rate:	338.091	Roll:	2.573	Pitch:	-0.958	Yaw:	33.311	Thrust:	56.569
Time:	0.755	Roll Set Point:	-0.043	Pitch Set Point:	0.050	Yaw Set Point:	-0.902	X_WP:	0.000	Y_WP:	0.000	Z_WP:	0.500	X:	0.034	Y:	-0.014	Z:	0.056	yaw:	51.697	yaw rate:	407.524	Roll:	2.810	Pitch:	-0.053	Yaw:	24.047	Thrust:	61.882
Time:	0.773	Roll Set Point:	-0.046	Pitch Set Point:	0.050	Yaw Set Point:	-0.856	X_WP:	0.000	Y_WP:	0.000	Z_WP:	0.500	X:	0.035	Y:	-0.014	Z:	0.058	yaw:	49.068	yaw rate:	262.885	Roll:	2.077	Pitch:	-0.410	Yaw:	34.958	Thrust:	58.535
Time:	0.793	Roll Set Point:	-0.050	Pitch Set Point:	0.049	Yaw Set Point:	-0.792	X_WP:	0.000	Y_WP:	0.000	Z_WP:	0.500	X:	0.035	Y:	-0.014	Z:	0.060	yaw:	45.406	yaw rate:	366.211	Roll:	2.670	Pitch:	-0.085	Yaw:	16.760	Thrust:	58.798
Time:	0.812	Roll Set Point:	-0.053	Pitch Set Point:	0.047	Yaw Set Point:	-0.740	X_WP:	0.000	Y_WP:	0.000	Z_WP:	0.500	X:	0.036	Y:	-0.013	Z:	0.063	yaw:	42.370	yaw rate:	303.568	Roll:	2.390	Pitch:	0.656	Yaw:	20.544	Thrust:	57.741
Time:	0.833	Roll Set Point:	-0.056	Pitch Set Point:	0.046	Yaw Set Point:	-0.689	X_WP:	0.000	Y_WP:	0.000	Z_WP:	0.500	X:	0.036	Y:	-0.013	Z:	0.067	yaw:	39.488	yaw rate:	288.285	Roll:	2.129	Pitch:	0.531	Yaw:	20.598	Thrust:	60.036
Time:	0.855	Roll Set Point:	-0.058	Pitch Set Point:	0.043	Yaw Set Point:	-0.636	X_WP:	0.000	Y_WP:	0.000	Z_WP:	0.500	X:	0.036	Y:	-0.012	Z:	0.071	yaw:	36.455	yaw rate:	303.281	Roll:	1.960	Pitch:	1.087	Yaw:	15.922	Thrust:	62.005
Time:	0.873	Roll Set Point:	-0.060	Pitch Set Point:	0.041	Yaw Set Point:	-0.589	X_WP:	0.000	Y_WP:	0.000	Z_WP:	0.500	X:	0.036	Y:	-0.011	Z:	0.077	yaw:	33.773	yaw rate:	268.126	Roll:	2.015	Pitch:	1.016	Yaw:	11.148	Thrust:	51.382
Time:	0.893	Roll Set Point:	-0.060	Pitch Set Point:	0.037	Yaw Set Point:	-0.538	X_WP:	0.000	Y_WP:	0.000	Z_WP:	0.500	X:	0.035	Y:	-0.010	Z:	0.082	yaw:	30.831	yaw rate:	294.214	Roll:	1.281	Pitch:	1.925	Yaw:	6.748	Thrust:	59.081
Time:	0.913	Roll Set Point:	-0.062	Pitch Set Point:	0.035	Yaw Set Point:	-0.501	X_WP:	0.000	Y_WP:	0.000	Z_WP:	0.500	X:	0.035	Y:	-0.010	Z:	0.089	yaw:	28.709	yaw rate:	212.249	Roll:	1.415	Pitch:	1.062	Yaw:	13.437	Thrust:	52.853
Time:	0.933	Roll Set Point:	-0.062	Pitch Set Point:	0.032	Yaw Set Point:	-0.477	X_WP:	0.000	Y_WP:	0.000	Z_WP:	0.500	X:	0.035	Y:	-0.009	Z:	0.094	yaw:	27.321	yaw rate:	138.803	Roll:	0.682	Pitch:	1.099	Yaw:	22.531	Thrust:	57.361
Time:	0.954	Roll Set Point:	-0.061	Pitch Set Point:	0.029	Yaw Set Point:	-0.457	X_WP:	0.000	Y_WP:	0.000	Z_WP:	0.500	X:	0.034	Y:	-0.007	Z:	0.101	yaw:	26.208	yaw rate:	111.230	Roll:	0.542	Pitch:	1.379	Yaw:	24.952	Thrust:	61.509
Time:	0.973	Roll Set Point:	-0.061	Pitch Set Point:	0.026	Yaw Set Point:	-0.443	X_WP:	0.000	Y_WP:	0.000	Z_WP:	0.500	X:	0.033	Y:	-0.006	Z:	0.107	yaw:	25.358	yaw rate:	85.015	Roll:	0.339	Pitch:	1.185	Yaw:	24.994	Thrust:	51.936
Time:	0.994	Roll Set Point:	-0.060	Pitch Set Point:	0.023	Yaw Set Point:	-0.404	X_WP:	0.000	Y_WP:	0.000	Z_WP:	0.500	X:	0.032	Y:	-0.005	Z:	0.114	yaw:	23.141	yaw rate:	221.740	Roll:	0.356	Pitch:	2.004	Yaw:	5.736	Thrust:	57.712
Time:	1.013	Roll Set Point:	-0.058	Pitch Set Point:	0.019	Yaw Set Point:	-0.378	X_WP:	0.000	Y_WP:	0.000	Z_WP:	0.500	X:	0.031	Y:	-0.004	Z:	0.121	yaw:	21.683	yaw rate:	145.786	Roll:	-0.201	Pitch:	1.843	Yaw:	13.286	Thrust:	58.740
Time:	1.033	Roll Set Point:	-0.057	Pitch Set Point:	0.017	Yaw Set Point:	-0.370	X_WP:	0.000	Y_WP:	0.000	Z_WP:	0.500	X:	0.030	Y:	-0.003	Z:	0.127	yaw:	21.188	yaw rate:	49.501	Roll:	0.292	Pitch:	0.762	Yaw:	25.067	Thrust:	57.950
Time:	1.054	Roll Set Point:	-0.056	Pitch Set Point:	0.013	Yaw Set Point:	-0.359	X_WP:	0.000	Y_WP:	0.000	Z_WP:	0.500	X:	0.029	Y:	-0.002	Z:	0.134	yaw:	20.545	yaw rate:	64.287	Roll:	-0.061	Pitch:	1.491	Yaw:	22.663	Thrust:	61.908
Time:	1.073	Roll Set Point:	-0.054	Pitch Set Point:	0.011	Yaw Set Point:	-0.316	X_WP:	0.000	Y_WP:	0.000	Z_WP:	0.500	X:	0.028	Y:	-0.001	Z:	0.141	yaw:	18.089	yaw rate:	245.612	Roll:	-0.371	Pitch:	1.511	Yaw:	-5.809	Thrust:	56.216
Time:	1.094	Roll Set Point:	-0.051	Pitch Set Point:	0.006	Yaw Set Point:	-0.304	X_WP:	0.000	Y_WP:	0.000	Z_WP:	0.500	X:	0.026	Y:	0.001	Z:	0.147	yaw:	17.399	yaw rate:	69.004	Roll:	-0.506	Pitch:	2.430	Yaw:	17.100	Thrust:	60.461
Time:	1.112	Roll Set Point:	-0.049	Pitch Set Point:	0.004	Yaw Set Point:	-0.296	X_WP:	0.000	Y_WP:	0.000	Z_WP:	0.500	X:	0.025	Y:	0.002	Z:	0.154	yaw:	16.942	yaw rate:	45.692	Roll:	-0.278	Pitch:	0.950	Yaw:	19.536	Thrust:	59.506
Time:	1.136	Roll Set Point:	-0.048	Pitch Set Point:	0.002	Yaw Set Point:	-0.277	X_WP:	0.000	Y_WP:	0.000	Z_WP:	0.500	X:	0.024	Y:	0.003	Z:	0.161	yaw:	15.876	yaw rate:	106.574	Roll:	-0.035	Pitch:	0.951	Yaw:	13.023	Thrust:	75.328
Time:	1.154	Roll Set Point:	-0.047	Pitch Set Point:	-0.001	Yaw Set Point:	-0.267	X_WP:	0.000	Y_WP:	0.000	Z_WP:	0.500	X:	0.023	Y:	0.004	Z:	0.168	yaw:	15.286	yaw rate:	59.033	Roll:	-0.440	Pitch:	1.477	Yaw:	14.244	Thrust:	51.075
Time:	1.173	Roll Set Point:	-0.045	Pitch Set Point:	-0.003	Yaw Set Point:	-0.259	X_WP:	0.000	Y_WP:	0.000	Z_WP:	0.500	X:	0.022	Y:	0.005	Z:	0.175	yaw:	14.863	yaw rate:	42.308	Roll:	-0.459	Pitch:	1.088	Yaw:	16.866	Thrust:	55.776
Time:	1.192	Roll Set Point:	-0.042	Pitch Set Point:	-0.005	Yaw Set Point:	-0.270	X_WP:	0.000	Y_WP:	0.000	Z_WP:	0.500	X:	0.021	Y:	0.005	Z:	0.181	yaw:	15.461	yaw rate:	-59.761	Roll:	-0.822	Pitch:	0.759	Yaw:	31.554	Thrust:	63.438
Time:	1.212	Roll Set Point:	-0.041	Pitch Set Point:	-0.007	Yaw Set Point:	-0.253	X_WP:	0.000	Y_WP:	0.000	Z_WP:	0.500	X:	0.020	Y:	0.006	Z:	0.188	yaw:	14.512	yaw rate:	94.839	Roll:	-0.081	Pitch:	0.749	Yaw:	9.572	Thrust:	59.794
Time:	1.233	Roll Set Point:	-0.040	Pitch Set Point:	-0.010	Yaw Set Point:	-0.241	X_WP:	0.000	Y_WP:	0.000	Z_WP:	0.500	X:	0.019	Y:	0.007	Z:	0.197	yaw:	13.828	yaw rate:	68.417	Roll:	-0.142	Pitch:	1.374	Yaw:	12.850	Thrust:	62.335
Time:	1.255	Roll Set Point:	-0.039	Pitch Set Point:	-0.011	Yaw Set Point:	-0.228	X_WP:	0.000	Y_WP:	0.000	Z_WP:	0.500	X:	0.019	Y:	0.008	Z:	0.204	yaw:	13.078	yaw rate:	74.979	Roll:	-0.291	Pitch:	0.863	Yaw:	11.168	Thrust:	67.236
Time:	1.273	Roll Set Point:	-0.038	Pitch Set Point:	-0.013	Yaw Set Point:	-0.217	X_WP:	0.000	Y_WP:	0.000	Z_WP:	0.500	X:	0.018	Y:	0.009	Z:	0.211	yaw:	12.411	yaw rate:	66.720	Roll:	0.025	Pitch:	0.808	Yaw:	9.789	Thrust:	56.095
Time:	1.293	Roll Set Point:	-0.036	Pitch Set Point:	-0.015	Yaw Set Point:	-0.218	X_WP:	0.000	Y_WP:	0.000	Z_WP:	0.500	X:	0.017	Y:	0.009	Z:	0.218	yaw:	12.463	yaw rate:	-5.160	Roll:	-0.473	Pitch:	0.823	Yaw:	20.087	Thrust:	60.710
Time:	1.312	Roll Set Point:	-0.036	Pitch Set Point:	-0.016	Yaw Set Point:	-0.235	X_WP:	0.000	Y_WP:	0.000	Z_WP:	0.500	X:	0.017	Y:	0.010	Z:	0.226	yaw:	13.487	yaw rate:	-102.437	Roll:	-0.054	Pitch:	0.421	Yaw:	34.839	Thrust:	60.623
Time:	1.333	Roll Set Point:	-0.036	Pitch Set Point:	-0.017	Yaw Set Point:	-0.207	X_WP:	0.000	Y_WP:	0.000	Z_WP:	0.500	X:	0.017	Y:	0.011	Z:	0.233	yaw:	11.880	yaw rate:	160.653	Roll:	0.355	Pitch:	0.845	Yaw:	-1.177	Thrust:	67.029
Time:	1.354	Roll Set Point:	-0.035	Pitch Set Point:	-0.019	Yaw Set Point:	-0.221	X_WP:	0.000	Y_WP:	0.000	Z_WP:	0.500	X:	0.017	Y:	0.011	Z:	0.241	yaw:	12.687	yaw rate:	-80.633	Roll:	0.030	Pitch:	0.455	Yaw:	29.832	Thrust:	62.090
Time:	1.373	Roll Set Point:	-0.036	Pitch Set Point:	-0.018	Yaw Set Point:	-0.233	X_WP:	0.000	Y_WP:	0.000	Z_WP:	0.500	X:	0.017	Y:	0.011	Z:	0.250	yaw:	13.332	yaw rate:	-64.537	Roll:	0.675	Pitch:	-0.382	Yaw:	29.564	Thrust:	59.357
Time:	1.393	Roll Set Point:	-0.036	Pitch Set Point:	-0.020	Yaw Set Point:	-0.203	X_WP:	0.000	Y_WP:	0.000	Z_WP:	0.500	X:	0.017	Y:	0.012	Z:	0.259	yaw:	11.659	yaw rate:	167.361	Roll:	0.191	Pitch:	0.879	Yaw:	-4.046	Thrust:	57.636
Time:	1.413	Roll Set Point:	-0.037	Pitch Set Point:	-0.021	Yaw Set Point:	-0.199	X_WP:	0.000	Y_WP:	0.000	Z_WP:	0.500	X:	0.018	Y:	0.012	Z:	0.267	yaw:	11.380	yaw rate:	27.818	Roll:	0.471	Pitch:	0.504	Yaw:	14.289	Thrust:	60.866
Time:	1.433	Roll Set Point:	-0.039	Pitch Set Point:	-0.021	Yaw Set Point:	-0.201	X_WP:	0.000	Y_WP:	0.000	Z_WP:	0.500	X:	0.018	Y:	0.013	Z:	0.277	yaw:	11.496	yaw rate:	-11.513	Roll:	0.954	Pitch:	0.274	Yaw:	19.566	Thrust:	58.098
Time:	1.453	Roll Set Point:	-0.040	Pitch Set Point:	-0.022	Yaw Set Point:	-0.205	X_WP:	0.000	Y_WP:	0.000	Z_WP:	0.500	X:	0.019	Y:	0.013	Z:	0.286	yaw:	11.774	yaw rate:	-27.873	Roll:	0.913	Pitch:	0.138	Yaw:	22.059	Thrust:	63.410
Time:	1.473	Roll Set Point:	-0.041	Pitch Set Point:	-0.024	Yaw Set Point:	-0.174	X_WP:	0.000	Y_WP:	0.000	Z_WP:	0.500	X:	0.019	Y:	0.014	Z:	0.296	yaw:	9.965	yaw rate:	180.925	Roll:	0.330	Pitch:	1.378	Yaw:	-9.173	Thrust:	53.192
Time:	1.493	Roll Set Point:	-0.043	Pitch Set Point:	-0.024	Yaw Set Point:	-0.193	X_WP:	0.000	Y_WP:	0.000	Z_WP:	0.500	X:	0.020	Y:	0.014	Z:	0.306	yaw:	11.041	yaw rate:	-107.558	Roll:	1.113	Pitch:	-0.336	Yaw:	31.311	Thrust:	58.855
Time:	1.512	Roll Set Point:	-0.045	Pitch Set Point:	-0.024	Yaw Set Point:	-0.189	X_WP:	0.000	Y_WP:	0.000	Z_WP:	0.500	X:	0.021	Y:	0.014	Z:	0.315	yaw:	10.807	yaw rate:	23.344	Roll:	1.123	Pitch:	0.152	Yaw:	13.911	Thrust:	55.721
Time:	1.532	Roll Set Point:	-0.047	Pitch Set Point:	-0.024	Yaw Set Point:	-0.182	X_WP:	0.000	Y_WP:	0.000	Z_WP:	0.500	X:	0.022	Y:	0.014	Z:	0.325	yaw:	10.444	yaw rate:	36.293	Roll:	1.305	Pitch:	0.023	Yaw:	11.857	Thrust:	58.000
Time:	1.555	Roll Set Point:	-0.049	Pitch Set Point:	-0.026	Yaw Set Point:	-0.170	X_WP:	0.000	Y_WP:	0.000	Z_WP:	0.500	X:	0.023	Y:	0.015	Z:	0.335	yaw:	9.765	yaw rate:	67.942	Roll:	1.058	Pitch:	0.570	Yaw:	7.863	Thrust:	63.297
Time:	1.573	Roll Set Point:	-0.051	Pitch Set Point:	-0.025	Yaw Set Point:	-0.165	X_WP:	0.000	Y_WP:	0.000	Z_WP:	0.500	X:	0.025	Y:	0.015	Z:	0.344	yaw:	9.482	yaw rate:	28.299	Roll:	1.323	Pitch:	-0.225	Yaw:	11.103	Thrust:	54.031
Time:	1.593	Roll Set Point:	-0.054	Pitch Set Point:	-0.026	Yaw Set Point:	-0.162	X_WP:	0.000	Y_WP:	0.000	Z_WP:	0.500	X:	0.026	Y:	0.015	Z:	0.354	yaw:	9.284	yaw rate:	19.765	Roll:	1.315	Pitch:	0.456	Yaw:	12.404	Thrust:	59.474
Time:	1.613	Roll Set Point:	-0.057	Pitch Set Point:	-0.025	Yaw Set Point:	-0.159	X_WP:	0.000	Y_WP:	0.000	Z_WP:	0.500	X:	0.028	Y:	0.015	Z:	0.364	yaw:	9.098	yaw rate:	18.609	Roll:	1.677	Pitch:	-0.377	Yaw:	12.122	Thrust:	55.022
Time:	1.633	Roll Set Point:	-0.059	Pitch Set Point:	-0.026	Yaw Set Point:	-0.153	X_WP:	0.000	Y_WP:	0.000	Z_WP:	0.500	X:	0.029	Y:	0.015	Z:	0.374	yaw:	8.746	yaw rate:	35.176	Roll:	1.299	Pitch:	0.412	Yaw:	9.777	Thrust:	58.990
Time:	1.654	Roll Set Point:	-0.063	Pitch Set Point:	-0.026	Yaw Set Point:	-0.147	X_WP:	0.000	Y_WP:	0.000	Z_WP:	0.500	X:	0.030	Y:	0.015	Z:	0.383	yaw:	8.430	yaw rate:	31.626	Roll:	1.667	Pitch:	-0.238	Yaw:	9.692	Thrust:	58.557
Time:	1.673	Roll Set Point:	-0.066	Pitch Set Point:	-0.025	Yaw Set Point:	-0.138	X_WP:	0.000	Y_WP:	0.000	Z_WP:	0.500	X:	0.032	Y:	0.015	Z:	0.392	yaw:	7.881	yaw rate:	54.865	Roll:	1.560	Pitch:	0.057	Yaw:	5.666	Thrust:	53.532
Time:	1.693	Roll Set Point:	-0.069	Pitch Set Point:	-0.026	Yaw Set Point:	-0.145	X_WP:	0.000	Y_WP:	0.000	Z_WP:	0.500	X:	0.033	Y:	0.015	Z:	0.402	yaw:	8.283	yaw rate:	-40.184	Roll:	1.778	Pitch:	0.070	Yaw:	18.866	Thrust:	57.532
Time:	1.712	Roll Set Point:	-0.072	Pitch Set Point:	-0.026	Yaw Set Point:	-0.129	X_WP:	0.000	Y_WP:	0.000	Z_WP:	0.500	X:	0.035	Y:	0.015	Z:	0.411	yaw:	7.366	yaw rate:	91.677	Roll:	1.568	Pitch:	0.167	Yaw:	0.128	Thrust:	55.801
Time:	1.734	Roll Set Point:	-0.075	Pitch Set Point:	-0.025	Yaw Set Point:	-0.131	X_WP:	0.000	Y_WP:	0.000	Z_WP:	0.500	X:	0.037	Y:	0.015	Z:	0.421	yaw:	7.501	yaw rate:	-13.462	Roll:	1.968	Pitch:	-0.293	Yaw:	14.244	Thrust:	59.664
Time:	1.756	Roll Set Point:	-0.078	Pitch Set Point:	-0.024	Yaw Set Point:	-0.125	X_WP:	0.000	Y_WP:	0.000	Z_WP:	0.500	X:	0.038	Y:	0.015	Z:	0.429	yaw:	7.180	yaw rate:	32.148	Roll:	1.650	Pitch:	-0.347	Yaw:	8.241	Thrust:	64.375
Time:	1.773	Roll Set Point:	-0.082	Pitch Set Point:	-0.025	Yaw Set Point:	-0.119	X_WP:	0.000	Y_WP:	0.000	Z_WP:	0.500	X:	0.040	Y:	0.015	Z:	0.439	yaw:	6.813	yaw rate:	36.632	Roll:	2.060	Pitch:	0.257	Yaw:	6.228	Thrust:	49.886
Time:	1.793	Roll Set Point:	-0.086	Pitch Set Point:	-0.023	Yaw Set Point:	-0.113	X_WP:	0.000	Y_WP:	0.000	Z_WP:	0.500	X:	0.042	Y:	0.014	Z:	0.447	yaw:	6.501	yaw rate:	31.231	Roll:	2.054	Pitch:	-0.638	Yaw:	6.847	Thrust:	55.180
Time:	1.813	Roll Set Point:	-0.089	Pitch Set Point:	-0.024	Yaw Set Point:	-0.105	X_WP:	0.000	Y_WP:	0.000	Z_WP:	0.500	X:	0.044	Y:	0.014	Z:	0.456	yaw:	6.032	yaw rate:	46.881	Roll:	1.734	Pitch:	0.302	Yaw:	4.217	Thrust:	55.349
Time:	1.833	Roll Set Point:	-0.092	Pitch Set Point:	-0.023	Yaw Set Point:	-0.106	X_WP:	0.000	Y_WP:	0.000	Z_WP:	0.500	X:	0.045	Y:	0.014	Z:	0.465	yaw:	6.079	yaw rate:	-4.674	Roll:	1.781	Pitch:	-0.207	Yaw:	11.103	Thrust:	56.631
Time:	1.854	Roll Set Point:	-0.096	Pitch Set Point:	-0.022	Yaw Set Point:	-0.105	X_WP:	0.000	Y_WP:	0.000	Z_WP:	0.500	X:	0.048	Y:	0.014	Z:	0.473	yaw:	6.031	yaw rate:	4.797	Roll:	2.303	Pitch:	-0.552	Yaw:	9.958	Thrust:	62.592
Time:	1.873	Roll Set Point:	-0.099	Pitch Set Point:	-0.022	Yaw Set Point:	-0.087	X_WP:	0.000	Y_WP:	0.000	Z_WP:	0.500	X:	0.049	Y:	0.013	Z:	0.481	yaw:	4.999	yaw rate:	103.238	Roll:	1.790	Pitch:	0.161	Yaw:	-5.152	Thrust:	53.524
Time:	1.893	Roll Set Point:	-0.103	Pitch Set Point:	-0.021	Yaw Set Point:	-0.086	X_WP:	0.000	Y_WP:	0.000	Z_WP:	0.500	X:	0.051	Y:	0.013	Z:	0.489	yaw:	4.901	yaw rate:	9.745	Roll:	1.875	Pitch:	-0.033	Yaw:	7.545	Thrust:	55.529
Time:	1.913	Roll Set Point:	-0.106	Pitch Set Point:	-0.020	Yaw Set Point:	-0.093	X_WP:	0.000	Y_WP:	0.000	Z_WP:	0.500	X:	0.053	Y:	0.012	Z:	0.497	yaw:	5.355	yaw rate:	-45.357	Roll:	2.157	Pitch:	-0.895	Yaw:	15.319	Thrust:	55.115
Time:	1.933	Roll Set Point:	-0.110	Pitch Set Point:	-0.019	Yaw Set Point:	-0.072	X_WP:	0.000	Y_WP:	0.000	Z_WP:	0.500	X:	0.054	Y:	0.012	Z:	0.505	yaw:	4.120	yaw rate:	123.442	Roll:	1.997	Pitch:	0.208	Yaw:	-9.321	Thrust:	56.735
Time:	1.954	Roll Set Point:	-0.113	Pitch Set Point:	-0.019	Yaw Set Point:	-0.076	X_WP:	0.000	Y_WP:	0.000	Z_WP:	0.500	X:	0.056	Y:	0.012	Z:	0.512	yaw:	4.354	yaw rate:	-23.365	Roll:	1.879	Pitch:	-0.269	Yaw:	11.084	Thrust:	61.762
Time:	1.973	Roll Set Point:	-0.116	Pitch Set Point:	-0.018	Yaw Set Point:	-0.073	X_WP:	0.000	Y_WP:	0.000	Z_WP:	0.500	X:	0.058	Y:	0.011	Z:	0.519	yaw:	4.189	yaw rate:	16.511	Roll:	2.236	Pitch:	-0.475	Yaw:	5.553	Thrust:	54.559
Time:	1.994	Roll Set Point:	-0.119	Pitch Set Point:	-0.017	Yaw Set Point:	-0.066	X_WP:	0.000	Y_WP:	0.000	Z_WP:	0.500	X:	0.059	Y:	0.011	Z:	0.527	yaw:	3.778	yaw rate:	41.103	Roll:	1.748	Pitch:	-0.055	Yaw:	2.110	Thrust:	54.742
Time:	2.012	Roll Set Point:	-0.122	Pitch Set Point:	-0.016	Yaw Set Point:	-0.065	X_WP:	0.000	Y_WP:	0.000	Z_WP:	0.500	X:	0.061	Y:	0.010	Z:	0.533	yaw:	3.748	yaw rate:	3.003	Roll:	2.044	Pitch:	-0.406	Yaw:	6.695	Thrust:	57.359
Time:	2.033	Roll Set Point:	-0.125	Pitch Set Point:	-0.018	Yaw Set Point:	-0.036	X_WP:	0.000	Y_WP:	0.000	Z_WP:	0.500	X:	0.062	Y:	0.010	Z:	0.540	yaw:	2.089	yaw rate:	165.826	Roll:	1.855	Pitch:	1.269	Yaw:	-15.765	Thrust:	59.505
Time:	2.056	Roll Set Point:	-0.128	Pitch Set Point:	-0.017	Yaw Set Point:	-0.037	X_WP:	0.000	Y_WP:	0.000	Z_WP:	0.500	X:	0.064	Y:	0.010	Z:	0.547	yaw:	2.130	yaw rate:	-4.031	Roll:	1.886	Pitch:	-0.338	Yaw:	5.615	Thrust:	63.228
Time:	2.073	Roll Set Point:	-0.131	Pitch Set Point:	-0.016	Yaw Set Point:	-0.035	X_WP:	0.000	Y_WP:	0.000	Z_WP:	0.500	X:	0.065	Y:	0.009	Z:	0.553	yaw:	2.028	yaw rate:	10.146	Roll:	1.964	Pitch:	-0.153	Yaw:	3.123	Thrust:	46.365
Time:	2.092	Roll Set Point:	-0.134	Pitch Set Point:	-0.014	Yaw Set Point:	-0.043	X_WP:	0.000	Y_WP:	0.000	Z_WP:	0.500	X:	0.067	Y:	0.009	Z:	0.559	yaw:	2.466	yaw rate:	-43.735	Roll:	2.054	Pitch:	-1.200	Yaw:	11.330	Thrust:	53.461
Time:	2.113	Roll Set Point:	-0.136	Pitch Set Point:	-0.012	Yaw Set Point:	-0.056	X_WP:	0.000	Y_WP:	0.000	Z_WP:	0.500	X:	0.068	Y:	0.008	Z:	0.566	yaw:	3.193	yaw rate:	-72.696	Roll:	1.742	Pitch:	-1.342	Yaw:	15.593	Thrust:	59.983
Time:	2.133	Roll Set Point:	-0.140	Pitch Set Point:	-0.010	Yaw Set Point:	-0.054	X_WP:	0.000	Y_WP:	0.000	Z_WP:	0.500	X:	0.070	Y:	0.007	Z:	0.571	yaw:	3.113	yaw rate:	7.979	Roll:	2.455	Pitch:	-0.723	Yaw:	5.235	Thrust:	55.087
Time:	2.154	Roll Set Point:	-0.141	Pitch Set Point:	-0.010	Yaw Set Point:	-0.049	X_WP:	0.000	Y_WP:	0.000	Z_WP:	0.500	X:	0.070	Y:	0.007	Z:	0.577	yaw:	2.795	yaw rate:	31.767	Roll:	1.237	Pitch:	-0.026	Yaw:	2.205	Thrust:	62.103
Time:	2.173	Roll Set Point:	-0.145	Pitch Set Point:	-0.008	Yaw Set Point:	-0.045	X_WP:	0.000	Y_WP:	0.000	Z_WP:	0.500	X:	0.072	Y:	0.006	Z:	0.583	yaw:	2.601	yaw rate:	19.368	Roll:	2.300	Pitch:	-0.902	Yaw:	2.880	Thrust:	52.250
Time:	2.194	Roll Set Point:	-0.147	Pitch Set Point:	-0.008	Yaw Set Point:	-0.045	X_WP:	0.000	Y_WP:	0.000	Z_WP:	0.500	X:	0.073	Y:	0.005	Z:	0.588	yaw:	2.568	yaw rate:	3.361	Roll:	1.686	Pitch:	-0.098	Yaw:	5.274	Thrust:	60.228
Time:	2.214	Roll Set Point:	-0.149	Pitch Set Point:	-0.006	Yaw Set Point:	-0.048	X_WP:	0.000	Y_WP:	0.000	Z_WP:	0.500	X:	0.074	Y:	0.005	Z:	0.593	yaw:	2.767	yaw rate:	-19.886	Roll:	1.836	Pitch:	-0.831	Yaw:	8.481	Thrust:	54.521
Time:	2.233	Roll Set Point:	-0.151	Pitch Set Point:	-0.005	Yaw Set Point:	-0.049	X_WP:	0.000	Y_WP:	0.000	Z_WP:	0.500	X:	0.076	Y:	0.004	Z:	0.598	yaw:	2.793	yaw rate:	-2.593	Roll:	1.829	Pitch:	-0.615	Yaw:	6.161	Thrust:	52.744
Time:	2.254	Roll Set Point:	-0.154	Pitch Set Point:	-0.004	Yaw Set Point:	-0.038	X_WP:	0.000	Y_WP:	0.000	Z_WP:	0.500	X:	0.077	Y:	0.003	Z:	0.602	yaw:	2.203	yaw rate:	58.957	Roll:	2.024	Pitch:	-0.103	Yaw:	-2.291	Thrust:	60.125
Time:	2.273	Roll Set Point:	-0.158	Pitch Set Point:	-0.005	Yaw Set Point:	-0.007	X_WP:	0.000	Y_WP:	0.000	Z_WP:	0.500	X:	0.079	Y:	0.003	Z:	0.605	yaw:	0.387	yaw rate:	181.577	Roll:	2.851	Pitch:	1.522	Yaw:	-22.493	Thrust:	55.355
Time:	2.293	Roll Set Point:	-0.159	Pitch Set Point:	-0.003	Yaw Set Point:	-0.038	X_WP:	0.000	Y_WP:	0.000	Z_WP:	0.500	X:	0.079	Y:	0.003	Z:	0.608	yaw:	2.188	yaw rate:	-180.044	Roll:	1.004	Pitch:	-1.896	Yaw:	28.473	Thrust:	58.561
Time:	2.313	Roll Set Point:	-0.162	Pitch Set Point:	-0.002	Yaw Set Point:	-0.036	X_WP:	0.000	Y_WP:	0.000	Z_WP:	0.500	X:	0.081	Y:	0.002	Z:	0.612	yaw:	2.086	yaw rate:	10.221	Roll:	2.214	Pitch:	-0.609	Yaw:	3.557	Thrust:	55.865
Time:	2.333	Roll Set Point:	-0.162	Pitch Set Point:	0.001	Yaw Set Point:	-0.046	X_WP:	0.000	Y_WP:	0.000	Z_WP:	0.500	X:	0.081	Y:	0.002	Z:	0.618	yaw:	2.660	yaw rate:	-57.419	Roll:	1.025	Pitch:	-1.452	Yaw:	13.248	Thrust:	51.208
Time:	2.355	Roll Set Point:	-0.163	Pitch Set Point:	-0.001	Yaw Set Point:	-0.034	X_WP:	0.000	Y_WP:	0.000	Z_WP:	0.500	X:	0.082	Y:	0.002	Z:	0.622	yaw:	1.956	yaw rate:	70.383	Roll:	1.529	Pitch:	0.795	Yaw:	-3.878	Thrust:	60.301
Time:	2.373	Roll Set Point:	-0.166	Pitch Set Point:	0.000	Yaw Set Point:	-0.031	X_WP:	0.000	Y_WP:	0.000	Z_WP:	0.500	X:	0.083	Y:	0.001	Z:	0.625	yaw:	1.786	yaw rate:	17.023	Roll:	1.884	Pitch:	-0.353	Yaw:	2.067	Thrust:	52.314
Time:	2.393	Roll Set Point:	-0.167	Pitch Set Point:	0.001	Yaw Set Point:	-0.029	X_WP:	0.000	Y_WP:	0.000	Z_WP:	0.500	X:	0.084	Y:	0.001	Z:	0.628	yaw:	1.687	yaw rate:	9.840	Roll:	1.738	Pitch:	-0.350	Yaw:	3.098	Thrust:	57.056
Time:	2.413	Roll Set Point:	-0.169	Pitch Set Point:	0.002	Yaw Set Point:	-0.029	X_WP:	0.000	Y_WP:	0.000	Z_WP:	0.500	X:	0.085	Y:	0.000	Z:	0.631	yaw:	1.648	yaw rate:	3.934	Roll:	1.752	Pitch:	-0.584	Yaw:	3.807	Thrust:	57.055
Time:	2.434	Roll Set Point:	-0.171	Pitch Set Point:	0.003	Yaw Set Point:	-0.030	X_WP:	0.000	Y_WP:	0.000	Z_WP:	0.500	X:	0.086	Y:	-0.000	Z:	0.634	yaw:	1.720	yaw rate:	-7.227	Roll:	1.913	Pitch:	-0.479	Yaw:	5.352	Thrust:	56.733
Time:	2.454	Roll Set Point:	-0.173	Pitch Set Point:	0.003	Yaw Set Point:	-0.028	X_WP:	0.000	Y_WP:	0.000	Z_WP:	0.500	X:	0.086	Y:	-0.000	Z:	0.636	yaw:	1.588	yaw rate:	13.261	Roll:	1.542	Pitch:	0.011	Yaw:	2.704	Thrust:	56.541
Time:	2.473	Roll Set Point:	-0.175	Pitch Set Point:	0.006	Yaw Set Point:	-0.040	X_WP:	0.000	Y_WP:	0.000	Z_WP:	0.500	X:	0.087	Y:	-0.001	Z:	0.638	yaw:	2.275	yaw rate:	-68.744	Roll:	1.906	Pitch:	-1.732	Yaw:	14.910	Thrust:	54.382
Time:	2.492	Roll Set Point:	-0.176	Pitch Set Point:	0.006	Yaw Set Point:	-0.029	X_WP:	0.000	Y_WP:	0.000	Z_WP:	0.500	X:	0.088	Y:	-0.002	Z:	0.640	yaw:	1.669	yaw rate:	60.572	Roll:	1.684	Pitch:	0.366	Yaw:	-3.948	Thrust:	53.722
Time:	2.513	Roll Set Point:	-0.178	Pitch Set Point:	0.006	Yaw Set Point:	-0.021	X_WP:	0.000	Y_WP:	0.000	Z_WP:	0.500	X:	0.089	Y:	-0.002	Z:	0.642	yaw:	1.202	yaw rate:	46.700	Roll:	1.845	Pitch:	0.049	Yaw:	-1.972	Thrust:	61.002
Time:	2.533	Roll Set Point:	-0.179	Pitch Set Point:	0.006	Yaw Set Point:	-0.026	X_WP:	0.000	Y_WP:	0.000	Z_WP:	0.500	X:	0.090	Y:	-0.002	Z:	0.643	yaw:	1.505	yaw rate:	-30.251	Roll:	1.540	Pitch:	-0.418	Yaw:	8.111	Thrust:	55.177
Time:	2.555	Roll Set Point:	-0.181	Pitch Set Point:	0.007	Yaw Set Point:	-0.028	X_WP:	0.000	Y_WP:	0.000	Z_WP:	0.500	X:	0.091	Y:	-0.002	Z:	0.645	yaw:	1.596	yaw rate:	-9.168	Roll:	1.855	Pitch:	-0.372	Yaw:	5.520	Thrust:	63.564
Time:	2.573	Roll Set Point:	-0.183	Pitch Set Point:	0.007	Yaw Set Point:	-0.029	X_WP:	0.000	Y_WP:	0.000	Z_WP:	0.500	X:	0.091	Y:	-0.002	Z:	0.646	yaw:	1.643	yaw rate:	-4.625	Roll:	1.796	Pitch:	-0.277	Yaw:	4.770	Thrust:	50.022
Time:	2.593	Roll Set Point:	-0.184	Pitch Set Point:	0.011	Yaw Set Point:	-0.049	X_WP:	0.000	Y_WP:	0.000	Z_WP:	0.500	X:	0.092	Y:	-0.003	Z:	0.646	yaw:	2.821	yaw rate:	-117.820	Roll:	1.463	Pitch:	-2.440	Yaw:	21.152	Thrust:	60.047
Time:	2.613	Roll Set Point:	-0.186	Pitch Set Point:	0.009	Yaw Set Point:	-0.035	X_WP:	0.000	Y_WP:	0.000	Z_WP:	0.500	X:	0.093	Y:	-0.003	Z:	0.647	yaw:	2.008	yaw rate:	81.248	Roll:	2.144	Pitch:	1.023	Yaw:	-6.033	Thrust:	55.250
Time:	2.633	Roll Set Point:	-0.187	Pitch Set Point:	0.011	Yaw Set Point:	-0.046	X_WP:	0.000	Y_WP:	0.000	Z_WP:	0.500	X:	0.094	Y:	-0.003	Z:	0.647	yaw:	2.624	yaw rate:	-61.552	Roll:	1.525	Pitch:	-1.248	Yaw:	13.724	Thrust:	57.779
Time:	2.653	Roll Set Point:	-0.189	Pitch Set Point:	0.010	Yaw Set Point:	-0.032	X_WP:	0.000	Y_WP:	0.000	Z_WP:	0.500	X:	0.095	Y:	-0.004	Z:	0.647	yaw:	1.846	yaw rate:	77.818	Roll:	2.233	Pitch:	0.777	Yaw:	-5.145	Thrust:	59.509
Time:	2.673	Roll Set Point:	-0.189	Pitch Set Point:	0.010	Yaw Set Point:	-0.036	X_WP:	0.000	Y_WP:	0.000	Z_WP:	0.500	X:	0.095	Y:	-0.003	Z:	0.647	yaw:	2.074	yaw rate:	-22.813	Roll:	1.118	Pitch:	-0.369	Yaw:	7.942	Thrust:	54.513
Time:	2.692	Roll Set Point:	-0.191	Pitch Set Point:	0.009	Yaw Set Point:	-0.024	X_WP:	0.000	Y_WP:	0.000	Z_WP:	0.500	X:	0.096	Y:	-0.004	Z:	0.647	yaw:	1.381	yaw rate:	69.264	Roll:	2.073	Pitch:	0.772	Yaw:	-5.434	Thrust:	55.799
Time:	2.712	Roll Set Point:	-0.193	Pitch Set Point:	0.009	Yaw Set Point:	-0.020	X_WP:	0.000	Y_WP:	0.000	Z_WP:	0.500	X:	0.097	Y:	-0.004	Z:	0.646	yaw:	1.124	yaw rate:	25.746	Roll:	2.027	Pitch:	0.198	Yaw:	0.275	Thrust:	59.234
Time:	2.733	Roll Set Point:	-0.195	Pitch Set Point:	0.010	Yaw Set Point:	-0.021	X_WP:	0.000	Y_WP:	0.000	Z_WP:	0.500	X:	0.097	Y:	-0.004	Z:	0.646	yaw:	1.194	yaw rate:	-7.027	Roll:	1.750	Pitch:	-0.574	Yaw:	4.582	Thrust:	56.586
Time:	2.753	Roll Set Point:	-0.196	Pitch Set Point:	0.010	Yaw Set Point:	-0.019	X_WP:	0.000	Y_WP:	0.000	Z_WP:	0.500	X:	0.098	Y:	-0.004	Z:	0.645	yaw:	1.086	yaw rate:	10.822	Roll:	1.664	Pitch:	0.136	Yaw:	2.236	Thrust:	60.814
Time:	2.772	Roll Set Point:	-0.197	Pitch Set Point:	0.010	Yaw Set Point:	-0.020	X_WP:	0.000	Y_WP:	0.000	Z_WP:	0.500	X:	0.099	Y:	-0.004	Z:	0.644	yaw:	1.161	yaw rate:	-7.482	Roll:	1.791	Pitch:	-0.313	Yaw:	4.577	Thrust:	56.451
Time:	2.793	Roll Set Point:	-0.199	Pitch Set Point:	0.010	Yaw Set Point:	-0.020	X_WP:	0.000	Y_WP:	0.000	Z_WP:	0.500	X:	0.099	Y:	-0.004	Z:	0.643	yaw:	1.144	yaw rate:	1.654	Roll:	1.816	Pitch:	-0.142	Yaw:	3.464	Thrust:	60.123
Time:	2.813	Roll Set Point:	-0.200	Pitch Set Point:	0.010	Yaw Set Point:	-0.021	X_WP:	0.000	Y_WP:	0.000	Z_WP:	0.500	X:	0.100	Y:	-0.004	Z:	0.642	yaw:	1.224	yaw rate:	-7.973	Roll:	1.785	Pitch:	-0.295	Yaw:	4.740	Thrust:	57.343
Time:	2.833	Roll Set Point:	-0.202	Pitch Set Point:	0.010	Yaw Set Point:	-0.019	X_WP:	0.000	Y_WP:	0.000	Z_WP:	0.500	X:	0.101	Y:	-0.004	Z:	0.640	yaw:	1.061	yaw rate:	16.295	Roll:	2.006	Pitch:	0.117	Yaw:	1.364	Thrust:	58.222
Time:	2.854	Roll Set Point:	-0.203	Pitch Set Point:	0.011	Yaw Set Point:	-0.017	X_WP:	0.000	Y_WP:	0.000	Z_WP:	0.500	X:	0.102	Y:	-0.004	Z:	0.640	yaw:	0.963	yaw rate:	9.772	Roll:	1.792	Pitch:	-0.231	Yaw:	2.164	Thrust:	58.462
Time:	2.873	Roll Set Point:	-0.204	Pitch Set Point:	0.010	Yaw Set Point:	-0.016	X_WP:	0.000	Y_WP:	0.000	Z_WP:	0.500	X:	0.102	Y:	-0.004	Z:	0.638	yaw:	0.944	yaw rate:	1.967	Roll:	1.755	Pitch:	0.047	Yaw:	2.950	Thrust:	55.417
Time:	2.892	Roll Set Point:	-0.206	Pitch Set Point:	0.011	Yaw Set Point:	-0.013	X_WP:	0.000	Y_WP:	0.000	Z_WP:	0.500	X:	0.103	Y:	-0.005	Z:	0.637	yaw:	0.723	yaw rate:	22.006	Roll:	2.101	Pitch:	-0.263	Yaw:	-0.001	Thrust:	55.429
Time:	2.913	Roll Set Point:	-0.207	Pitch Set Point:	0.011	Yaw Set Point:	-0.019	X_WP:	0.000	Y_WP:	0.000	Z_WP:	0.500	X:	0.103	Y:	-0.004	Z:	0.635	yaw:	1.078	yaw rate:	-35.410	Roll:	1.548	Pitch:	-0.329	Yaw:	8.006	Thrust:	60.628
Time:	2.933	Roll Set Point:	-0.208	Pitch Set Point:	0.012	Yaw Set Point:	-0.017	X_WP:	0.000	Y_WP:	0.000	Z_WP:	0.500	X:	0.104	Y:	-0.005	Z:	0.633	yaw:	0.991	yaw rate:	8.674	Roll:	1.889	Pitch:	-0.361	Yaw:	2.184	Thrust:	54.973
Time:	2.955	Roll Set Point:	-0.209	Pitch Set Point:	0.011	Yaw Set Point:	-0.015	X_WP:	0.000	Y_WP:	0.000	Z_WP:	0.500	X:	0.105	Y:	-0.005	Z:	0.632	yaw:	0.888	yaw rate:	10.331	Roll:	1.864	Pitch:	-0.009	Yaw:	2.243	Thrust:	62.220
Time:	2.973	Roll Set Point:	-0.211	Pitch Set Point:	0.011	Yaw Set Point:	-0.019	X_WP:	0.000	Y_WP:	0.000	Z_WP:	0.500	X:	0.105	Y:	-0.005	Z:	0.630	yaw:	1.070	yaw rate:	-18.234	Roll:	1.887	Pitch:	-0.262	Yaw:	5.991	Thrust:	52.353
Time:	2.993	Roll Set Point:	-0.211	Pitch Set Point:	0.011	Yaw Set Point:	-0.012	X_WP:	0.000	Y_WP:	0.000	Z_WP:	0.500	X:	0.106	Y:	-0.005	Z:	0.628	yaw:	0.697	yaw rate:	37.337	Roll:	1.666	Pitch:	0.357	Yaw:	-1.665	Thrust:	60.111
Time:	3.013	Roll Set Point:	-0.214	Pitch Set Point:	0.008	Yaw Set Point:	0.014	X_WP:	0.000	Y_WP:	0.000	Z_WP:	0.500	X:	0.107	Y:	-0.005	Z:	0.626	yaw:	-0.784	yaw rate:	148.053	Roll:	2.709	Pitch:	2.504	Yaw:	-17.896	Thrust:	58.596
Time:	3.033	Roll Set Point:	-0.216	Pitch Set Point:	0.013	Yaw Set Point:	-0.019	X_WP:	0.000	Y_WP:	0.000	Z_WP:	0.500	X:	0.108	Y:	-0.006	Z:	0.624	yaw:	1.094	yaw rate:	-187.777	Roll:	1.760	Pitch:	-3.953	Yaw:	29.226	Thrust:	53.971
Time:	3.053	Roll Set Point:	-0.215	Pitch Set Point:	0.008	Yaw Set Point:	0.002	X_WP:	0.000	Y_WP:	0.000	Z_WP:	0.500	X:	0.108	Y:	-0.004	Z:	0.622	yaw:	-0.136	yaw rate:	123.019	Roll:	1.384	Pitch:	3.065	Yaw:	-13.798	Thrust:	59.936
Time:	3.073	Roll Set Point:	-0.216	Pitch Set Point:	0.011	Yaw Set Point:	-0.015	X_WP:	0.000	Y_WP:	0.000	Z_WP:	0.500	X:	0.108	Y:	-0.005	Z:	0.619	yaw:	0.876	yaw rate:	-101.272	Roll:	1.602	Pitch:	-2.229	Yaw:	16.431	Thrust:	57.585
Time:	3.093	Roll Set Point:	-0.217	Pitch Set Point:	0.013	Yaw Set Point:	-0.025	X_WP:	0.000	Y_WP:	0.000	Z_WP:	0.500	X:	0.108	Y:	-0.005	Z:	0.616	yaw:	1.460	yaw rate:	-58.336	Roll:	1.586	Pitch:	-1.396	Yaw:	11.688	Thrust:	58.446
Time:	3.113	Roll Set Point:	-0.218	Pitch Set Point:	0.012	Yaw Set Point:	-0.014	X_WP:	0.000	Y_WP:	0.000	Z_WP:	0.500	X:	0.109	Y:	-0.005	Z:	0.614	yaw:	0.788	yaw rate:	67.187	Roll:	2.124	Pitch:	0.992	Yaw:	-5.939	Thrust:	56.434
Time:	3.132	Roll Set Point:	-0.220	Pitch Set Point:	0.011	Yaw Set Point:	-0.007	X_WP:	0.000	Y_WP:	0.000	Z_WP:	0.500	X:	0.110	Y:	-0.005	Z:	0.611	yaw:	0.423	yaw rate:	36.437	Roll:	2.150	Pitch:	0.312	Yaw:	-2.322	Thrust:	56.915
Time:	3.154	Roll Set Point:	-0.221	Pitch Set Point:	0.012	Yaw Set Point:	-0.012	X_WP:	0.000	Y_WP:	0.000	Z_WP:	0.500	X:	0.110	Y:	-0.005	Z:	0.609	yaw:	0.671	yaw rate:	-24.805	Roll:	1.824	Pitch:	-0.568	Yaw:	6.108	Thrust:	62.043
Time:	3.173	Roll Set Point:	-0.223	Pitch Set Point:	0.014	Yaw Set Point:	-0.022	X_WP:	0.000	Y_WP:	0.000	Z_WP:	0.500	X:	0.111	Y:	-0.006	Z:	0.605	yaw:	1.246	yaw rate:	-57.466	Roll:	2.238	Pitch:	-1.388	Yaw:	11.510	Thrust:	55.757
Time:	3.193	Roll Set Point:	-0.222	Pitch Set Point:	0.013	Yaw Set Point:	-0.023	X_WP:	0.000	Y_WP:	0.000	Z_WP:	0.500	X:	0.111	Y:	-0.005	Z:	0.602	yaw:	1.291	yaw rate:	-4.529	Roll:	1.118	Pitch:	0.252	Yaw:	4.371	Thrust:	58.531
Time:	3.212	Roll Set Point:	-0.224	Pitch Set Point:	0.011	Yaw Set Point:	-0.011	X_WP:	0.000	Y_WP:	0.000	Z_WP:	0.500	X:	0.112	Y:	-0.005	Z:	0.599	yaw:	0.654	yaw rate:	63.742	Roll:	2.329	Pitch:	0.973	Yaw:	-5.484	Thrust:	58.484
Time:	3.233	Roll Set Point:	-0.225	Pitch Set Point:	0.011	Yaw Set Point:	-0.006	X_WP:	0.000	Y_WP:	0.000	Z_WP:	0.500	X:	0.113	Y:	-0.005	Z:	0.596	yaw:	0.372	yaw rate:	28.196	Roll:	1.997	Pitch:	0.360	Yaw:	-1.152	Thrust:	58.161
Time:	3.255	Roll Set Point:	-0.225	Pitch Set Point:	0.012	Yaw Set Point:	-0.015	X_WP:	0.000	Y_WP:	0.000	Z_WP:	0.500	X:	0.113	Y:	-0.005	Z:	0.593	yaw:	0.855	yaw rate:	-48.281	Roll:	1.601	Pitch:	-0.860	Yaw:	9.195	Thrust:	63.277
Time:	3.273	Roll Set Point:	-0.227	Pitch Set Point:	0.010	Yaw Set Point:	-0.004	X_WP:	0.000	Y_WP:	0.000	Z_WP:	0.500	X:	0.113	Y:	-0.005	Z:	0.590	yaw:	0.250	yaw rate:	60.442	Roll:	2.112	Pitch:	1.088	Yaw:	-6.259	Thrust:	55.208
Time:	3.292	Roll Set Point:	-0.228	Pitch Set Point:	0.010	Yaw Set Point:	-0.001	X_WP:	0.000	Y_WP:	0.000	Z_WP:	0.500	X:	0.114	Y:	-0.005	Z:	0.587	yaw:	0.061	yaw rate:	18.968	Roll:	1.901	Pitch:	0.262	Yaw:	-0.486	Thrust:	57.884
Time:	3.313	Roll Set Point:	-0.229	Pitch Set Point:	0.009	Yaw Set Point:	-0.000	X_WP:	0.000	Y_WP:	0.000	Z_WP:	0.500	X:	0.114	Y:	-0.005	Z:	0.583	yaw:	0.026	yaw rate:	3.477	Roll:	1.865	Pitch:	0.078	Yaw:	1.673	Thrust:	61.042
Time:	3.333	Roll Set Point:	-0.229	Pitch Set Point:	0.010	Yaw Set Point:	-0.011	X_WP:	0.000	Y_WP:	0.000	Z_WP:	0.500	X:	0.114	Y:	-0.005	Z:	0.579	yaw:	0.609	yaw rate:	-58.284	Roll:	1.523	Pitch:	-0.939	Yaw:	10.606	Thrust:	58.649
Time:	3.354	Roll Set Point:	-0.232	Pitch Set Point:	0.013	Yaw Set Point:	-0.056	X_WP:	0.000	Y_WP:	0.000	Z_WP:	0.500	X:	0.116	Y:	-0.003	Z:	0.574	yaw:	3.233	yaw rate:	-262.462	Roll:	2.764	Pitch:	-3.550	Yaw:	38.755	Thrust:	65.286
Time:	3.372	Roll Set Point:	-0.234	Pitch Set Point:	0.004	Yaw Set Point:	0.047	X_WP:	0.000	Y_WP:	0.000	Z_WP:	0.500	X:	0.117	Y:	-0.005	Z:	0.570	yaw:	-2.721	yaw rate:	595.416	Roll:	2.663	Pitch:	9.351	Yaw:	-87.869	Thrust:	56.538
Time:	3.393	Roll Set Point:	-0.234	Pitch Set Point:	0.005	Yaw Set Point:	0.032	X_WP:	0.000	Y_WP:	0.000	Z_WP:	0.500	X:	0.117	Y:	-0.005	Z:	0.567	yaw:	-1.829	yaw rate:	-89.149	Roll:	1.678	Pitch:	-1.406	Yaw:	10.833	Thrust:	58.695
Time:	3.412	Roll Set Point:	-0.235	Pitch Set Point:	0.005	Yaw Set Point:	0.029	X_WP:	0.000	Y_WP:	0.000	Z_WP:	0.500	X:	0.118	Y:	-0.004	Z:	0.563	yaw:	-1.678	yaw rate:	-15.126	Roll:	1.912	Pitch:	-0.159	Yaw:	1.607	Thrust:	60.799
Time:	3.433	Roll Set Point:	-0.236	Pitch Set Point:	0.004	Yaw Set Point:	0.039	X_WP:	0.000	Y_WP:	0.000	Z_WP:	0.500	X:	0.118	Y:	-0.004	Z:	0.560	yaw:	-2.232	yaw rate:	55.440	Roll:	1.973	Pitch:	0.884	Yaw:	-8.432	Thrust:	59.249
Time:	3.454	Roll Set Point:	-0.237	Pitch Set Point:	0.006	Yaw Set Point:	0.023	X_WP:	0.000	Y_WP:	0.000	Z_WP:	0.500	X:	0.118	Y:	-0.004	Z:	0.556	yaw:	-1.326	yaw rate:	-90.600	Roll:	1.929	Pitch:	-1.503	Yaw:	11.658	Thrust:	61.746
Time:	3.473	Roll Set Point:	-0.237	Pitch Set Point:	0.004	Yaw Set Point:	0.033	X_WP:	0.000	Y_WP:	0.000	Z_WP:	0.500	X:	0.118	Y:	-0.004	Z:	0.553	yaw:	-1.881	yaw rate:	55.479	Roll:	1.491	Pitch:	1.199	Yaw:	-7.936	Thrust:	59.340
Time:	3.495	Roll Set Point:	-0.237	Pitch Set Point:	0.003	Yaw Set Point:	0.038	X_WP:	0.000	Y_WP:	0.000	Z_WP:	0.500	X:	0.119	Y:	-0.004	Z:	0.549	yaw:	-2.158	yaw rate:	27.633	Roll:	1.988	Pitch:	0.429	Yaw:	-4.223	Thrust:	63.938
Time:	3.513	Roll Set Point:	-0.238	Pitch Set Point:	0.004	Yaw Set Point:	0.033	X_WP:	0.000	Y_WP:	0.000	Z_WP:	0.500	X:	0.119	Y:	-0.004	Z:	0.546	yaw:	-1.915	yaw rate:	-24.293	Roll:	1.838	Pitch:	-0.782	Yaw:	2.547	Thrust:	53.163
Time:	3.533	Roll Set Point:	-0.238	Pitch Set Point:	0.005	Yaw Set Point:	0.030	X_WP:	0.000	Y_WP:	0.000	Z_WP:	0.500	X:	0.119	Y:	-0.004	Z:	0.543	yaw:	-1.702	yaw rate:	-21.227	Roll:	1.627	Pitch:	-0.455	Yaw:	2.312	Thrust:	60.191
Time:	3.555	Roll Set Point:	-0.239	Pitch Set Point:	0.005	Yaw Set Point:	0.031	X_WP:	0.000	Y_WP:	0.000	Z_WP:	0.500	X:	0.119	Y:	-0.004	Z:	0.540	yaw:	-1.761	yaw rate:	5.904	Roll:	2.007	Pitch:	-0.164	Yaw:	-1.260	Thrust:	59.521
Time:	3.573	Roll Set Point:	-0.239	Pitch Set Point:	0.007	Yaw Set Point:	0.022	X_WP:	0.000	Y_WP:	0.000	Z_WP:	0.500	X:	0.119	Y:	-0.005	Z:	0.537	yaw:	-1.240	yaw rate:	-52.154	Roll:	1.584	Pitch:	-1.426	Yaw:	7.157	Thrust:	57.496
Time:	3.593	Roll Set Point:	-0.237	Pitch Set Point:	0.012	Yaw Set Point:	-0.008	X_WP:	0.000	Y_WP:	0.000	Z_WP:	0.500	X:	0.119	Y:	-0.006	Z:	0.536	yaw:	0.455	yaw rate:	-169.522	Roll:	1.038	Pitch:	-3.612	Yaw:	24.447	Thrust:	53.995
Time:	3.613	Roll Set Point:	-0.237	Pitch Set Point:	0.013	Yaw Set Point:	-0.002	X_WP:	0.000	Y_WP:	0.000	Z_WP:	0.500	X:	0.119	Y:	-0.006	Z:	0.533	yaw:	0.093	yaw rate:	36.201	Roll:	1.530	Pitch:	-0.066	Yaw:	-2.896	Thrust:	58.058
Time:	3.633	Roll Set Point:	-0.237	Pitch Set Point:	0.012	Yaw Set Point:	-0.009	X_WP:	0.000	Y_WP:	0.000	Z_WP:	0.500	X:	0.119	Y:	-0.006	Z:	0.530	yaw:	0.528	yaw rate:	-43.458	Roll:	1.629	Pitch:	-0.387	Yaw:	8.208	Thrust:	61.038
Time:	3.656	Roll Set Point:	-0.238	Pitch Set Point:	0.014	Yaw Set Point:	-0.008	X_WP:	0.000	Y_WP:	0.000	Z_WP:	0.500	X:	0.119	Y:	-0.007	Z:	0.527	yaw:	0.463	yaw rate:	6.458	Roll:	2.087	Pitch:	-0.834	Yaw:	1.880	Thrust:	62.561
Time:	3.673	Roll Set Point:	-0.238	Pitch Set Point:	0.014	Yaw Set Point:	-0.006	X_WP:	0.000	Y_WP:	0.000	Z_WP:	0.500	X:	0.119	Y:	-0.007	Z:	0.524	yaw:	0.355	yaw rate:	10.869	Roll:	1.711	Pitch:	0.021	Yaw:	0.576	Thrust:	54.762
Time:	3.693	Roll Set Point:	-0.240	Pitch Set Point:	0.017	Yaw Set Point:	-0.007	X_WP:	0.000	Y_WP:	0.000	Z_WP:	0.500	X:	0.120	Y:	-0.008	Z:	0.520	yaw:	0.375	yaw rate:	-1.989	Roll:	2.385	Pitch:	-1.380	Yaw:	2.666	Thrust:	60.803
Time:	3.712	Roll Set Point:	-0.239	Pitch Set Point:	0.015	Yaw Set Point:	0.001	X_WP:	0.000	Y_WP:	0.000	Z_WP:	0.500	X:	0.120	Y:	-0.008	Z:	0.517	yaw:	-0.060	yaw rate:	43.420	Roll:	1.457	Pitch:	0.959	Yaw:	-3.965	Thrust:	58.869
Time:	3.733	Roll Set Point:	-0.238	Pitch Set Point:	0.016	Yaw Set Point:	-0.007	X_WP:	0.000	Y_WP:	0.000	Z_WP:	0.500	X:	0.119	Y:	-0.007	Z:	0.514	yaw:	0.422	yaw rate:	-48.181	Roll:	1.133	Pitch:	-0.814	Yaw:	8.757	Thrust:	60.815
Time:	3.753	Roll Set Point:	-0.240	Pitch Set Point:	0.017	Yaw Set Point:	-0.008	X_WP:	0.000	Y_WP:	0.000	Z_WP:	0.500	X:	0.120	Y:	-0.008	Z:	0.510	yaw:	0.484	yaw rate:	-6.135	Roll:	2.368	Pitch:	-0.576	Yaw:	3.394	Thrust:	62.339
Time:	3.772	Roll Set Point:	-0.240	Pitch Set Point:	0.016	Yaw Set Point:	0.005	X_WP:	0.000	Y_WP:	0.000	Z_WP:	0.500	X:	0.120	Y:	-0.008	Z:	0.507	yaw:	-0.287	yaw rate:	77.032	Roll:	1.662	Pitch:	0.998	Yaw:	-9.182	Thrust:	58.564
Time:	3.792	Roll Set Point:	-0.241	Pitch Set Point:	0.018	Yaw Set Point:	-0.002	X_WP:	0.000	Y_WP:	0.000	Z_WP:	0.500	X:	0.120	Y:	-0.009	Z:	0.503	yaw:	0.138	yaw rate:	-42.438	Roll:	2.176	Pitch:	-1.246	Yaw:	7.610	Thrust:	61.107
Time:	3.812	Roll Set Point:	-0.241	Pitch Set Point:	0.017	Yaw Set Point:	0.005	X_WP:	0.000	Y_WP:	0.000	Z_WP:	0.500	X:	0.120	Y:	-0.009	Z:	0.500	yaw:	-0.291	yaw rate:	42.847	Roll:	1.803	Pitch:	0.379	Yaw:	-4.115	Thrust:	61.049
Time:	3.833	Roll Set Point:	-0.241	Pitch Set Point:	0.017	Yaw Set Point:	0.009	X_WP:	0.000	Y_WP:	0.000	Z_WP:	0.500	X:	0.120	Y:	-0.009	Z:	0.497	yaw:	-0.535	yaw rate:	24.403	Roll:	1.622	Pitch:	0.046	Yaw:	-1.974	Thrust:	62.051
Time:	3.854	Roll Set Point:	-0.242	Pitch Set Point:	0.019	Yaw Set Point:	0.013	X_WP:	0.000	Y_WP:	0.000	Z_WP:	0.500	X:	0.121	Y:	-0.010	Z:	0.494	yaw:	-0.724	yaw rate:	18.905	Roll:	2.236	Pitch:	-0.525	Yaw:	-1.643	Thrust:	59.750
Time:	3.873	Roll Set Point:	-0.242	Pitch Set Point:	0.018	Yaw Set Point:	0.019	X_WP:	0.000	Y_WP:	0.000	Z_WP:	0.500	X:	0.121	Y:	-0.010	Z:	0.490	yaw:	-1.104	yaw rate:	37.976	Roll:	1.927	Pitch:	0.366	Yaw:	-4.605	Thrust:	62.510
Time:	3.893	Roll Set Point:	-0.244	Pitch Set Point:	0.021	Yaw Set Point:	0.011	X_WP:	0.000	Y_WP:	0.000	Z_WP:	0.500	X:	0.122	Y:	-0.011	Z:	0.487	yaw:	-0.650	yaw rate:	-45.363	Roll:	2.380	Pitch:	-1.655	Yaw:	6.983	Thrust:	60.509
Time:	3.912	Roll Set Point:	-0.244	Pitch Set Point:	0.021	Yaw Set Point:	0.013	X_WP:	0.000	Y_WP:	0.000	Z_WP:	0.500	X:	0.122	Y:	-0.011	Z:	0.484	yaw:	-0.770	yaw rate:	11.964	Roll:	1.840	Pitch:	-0.149	Yaw:	-0.792	Thrust:	61.358
Time:	3.933	Roll Set Point:	-0.243	Pitch Set Point:	0.020	Yaw Set Point:	0.019	X_WP:	0.000	Y_WP:	0.000	Z_WP:	0.500	X:	0.121	Y:	-0.011	Z:	0.481	yaw:	-1.087	yaw rate:	31.752	Roll:	1.290	Pitch:	0.293	Yaw:	-3.719	Thrust:	61.113
Time:	3.955	Roll Set Point:	-0.244	Pitch Set Point:	0.022	Yaw Set Point:	0.015	X_WP:	0.000	Y_WP:	0.000	Z_WP:	0.500	X:	0.122	Y:	-0.012	Z:	0.479	yaw:	-0.843	yaw rate:	-24.410	Roll:	2.450	Pitch:	-0.887	Yaw:	3.786	Thrust:	63.820
Time:	3.973	Roll Set Point:	-0.244	Pitch Set Point:	0.021	Yaw Set Point:	0.028	X_WP:	0.000	Y_WP:	0.000	Z_WP:	0.500	X:	0.122	Y:	-0.012	Z:	0.476	yaw:	-1.625	yaw rate:	78.202	Roll:	1.529	Pitch:	1.144	Yaw:	-11.571	Thrust:	57.472
Time:	3.992	Roll Set Point:	-0.243	Pitch Set Point:	0.023	Yaw Set Point:	0.003	X_WP:	0.000	Y_WP:	0.000	Z_WP:	0.500	X:	0.121	Y:	-0.012	Z:	0.473	yaw:	-0.183	yaw rate:	-144.232	Roll:	1.345	Pitch:	-2.628	Yaw:	20.820	Thrust:	60.631
Time:	4.012	Roll Set Point:	-0.244	Pitch Set Point:	0.022	Yaw Set Point:	0.029	X_WP:	0.000	Y_WP:	0.000	Z_WP:	0.500	X:	0.122	Y:	-0.013	Z:	0.472	yaw:	-1.687	yaw rate:	150.449	Roll:	2.565	Pitch:	1.674	Yaw:	-20.150	Thrust:	58.885
Time:	4.033	Roll Set Point:	-0.244	Pitch Set Point:	0.023	Yaw Set Point:	0.031	X_WP:	0.000	Y_WP:	0.000	Z_WP:	0.500	X:	0.122	Y:	-0.013	Z:	0.469	yaw:	-1.770	yaw rate:	8.219	Roll:	1.763	Pitch:	-0.331	Yaw:	-1.635	Thrust:	62.657
Time:	4.053	Roll Set Point:	-0.245	Pitch Set Point:	0.025	Yaw Set Point:	0.021	X_WP:	0.000	Y_WP:	0.000	Z_WP:	0.500	X:	0.122	Y:	-0.014	Z:	0.468	yaw:	-1.216	yaw rate:	-55.346	Roll:	1.901	Pitch:	-1.531	Yaw:	7.233	Thrust:	60.888
Time:	4.073	Roll Set Point:	-0.245	Pitch Set Point:	0.024	Yaw Set Point:	0.032	X_WP:	0.000	Y_WP:	0.000	Z_WP:	0.500	X:	0.122	Y:	-0.014	Z:	0.466	yaw:	-1.824	yaw rate:	60.844	Roll:	1.898	Pitch:	0.683	Yaw:	-8.863	Thrust:	58.922
Time:	4.093	Roll Set Point:	-0.245	Pitch Set Point:	0.025	Yaw Set Point:	0.031	X_WP:	0.000	Y_WP:	0.000	Z_WP:	0.500	X:	0.122	Y:	-0.014	Z:	0.464	yaw:	-1.754	yaw rate:	-7.093	Roll:	1.996	Pitch:	-0.711	Yaw:	0.253	Thrust:	60.617
Time:	4.112	Roll Set Point:	-0.244	Pitch Set Point:	0.027	Yaw Set Point:	0.019	X_WP:	0.000	Y_WP:	0.000	Z_WP:	0.500	X:	0.122	Y:	-0.015	Z:	0.462	yaw:	-1.096	yaw rate:	-65.796	Roll:	1.326	Pitch:	-1.545	Yaw:	9.181	Thrust:	58.176
Time:	4.133	Roll Set Point:	-0.244	Pitch Set Point:	0.026	Yaw Set Point:	0.025	X_WP:	0.000	Y_WP:	0.000	Z_WP:	0.500	X:	0.122	Y:	-0.014	Z:	0.460	yaw:	-1.432	yaw rate:	33.630	Roll:	1.759	Pitch:	0.466	Yaw:	-4.440	Thrust:	62.320
Time:	4.156	Roll Set Point:	-0.244	Pitch Set Point:	0.028	Yaw Set Point:	0.017	X_WP:	0.000	Y_WP:	0.000	Z_WP:	0.500	X:	0.122	Y:	-0.015	Z:	0.458	yaw:	-0.963	yaw rate:	-46.925	Roll:	2.122	Pitch:	-1.490	Yaw:	5.991	Thrust:	68.431
Time:	4.173	Roll Set Point:	-0.244	Pitch Set Point:	0.028	Yaw Set Point:	0.021	X_WP:	0.000	Y_WP:	0.000	Z_WP:	0.500	X:	0.122	Y:	-0.015	Z:	0.457	yaw:	-1.198	yaw rate:	23.569	Roll:	1.400	Pitch:	0.053	Yaw:	-3.842	Thrust:	51.459
Time:	4.193	Roll Set Point:	-0.243	Pitch Set Point:	0.030	Yaw Set Point:	0.017	X_WP:	0.000	Y_WP:	0.000	Z_WP:	0.500	X:	0.122	Y:	-0.016	Z:	0.456	yaw:	-0.964	yaw rate:	-23.451	Roll:	1.772	Pitch:	-1.133	Yaw:	3.446	Thrust:	60.344
Time:	4.213	Roll Set Point:	-0.245	Pitch Set Point:	0.031	Yaw Set Point:	0.019	X_WP:	0.000	Y_WP:	0.000	Z_WP:	0.500	X:	0.122	Y:	-0.017	Z:	0.455	yaw:	-1.065	yaw rate:	10.117	Roll:	2.553	Pitch:	-0.618	Yaw:	-1.021	Thrust:	60.861
Time:	4.233	Roll Set Point:	-0.245	Pitch Set Point:	0.031	Yaw Set Point:	0.028	X_WP:	0.000	Y_WP:	0.000	Z_WP:	0.500	X:	0.122	Y:	-0.017	Z:	0.454	yaw:	-1.577	yaw rate:	51.153	Roll:	1.863	Pitch:	0.225	Yaw:	-7.439	Thrust:	57.802
Time:	4.254	Roll Set Point:	-0.245	Pitch Set Point:	0.034	Yaw Set Point:	0.022	X_WP:	0.000	Y_WP:	0.000	Z_WP:	0.500	X:	0.122	Y:	-0.018	Z:	0.452	yaw:	-1.256	yaw rate:	-32.064	Roll:	2.061	Pitch:	-1.491	Yaw:	3.969	Thrust:	62.233
Time:	4.273	Roll Set Point:	-0.245	Pitch Set Point:	0.034	Yaw Set Point:	0.019	X_WP:	0.000	Y_WP:	0.000	Z_WP:	0.500	X:	0.122	Y:	-0.018	Z:	0.451	yaw:	-1.109	yaw rate:	-14.663	Roll:	1.526	Pitch:	-0.312	Yaw:	2.097	Thrust:	59.259
Time:	4.293	Roll Set Point:	-0.242	Pitch Set Point:	0.034	Yaw Set Point:	0.013	X_WP:	0.000	Y_WP:	0.000	Z_WP:	0.500	X:	0.121	Y:	-0.018	Z:	0.449	yaw:	-0.769	yaw rate:	-33.991	Roll:	0.894	Pitch:	-0.657	Yaw:	5.115	Thrust:	61.379
Time:	4.313	Roll Set Point:	-0.242	Pitch Set Point:	0.036	Yaw Set Point:	0.011	X_WP:	0.000	Y_WP:	0.000	Z_WP:	0.500	X:	0.121	Y:	-0.018	Z:	0.448	yaw:	-0.603	yaw rate:	-16.597	Roll:	1.876	Pitch:	-1.088	Yaw:	3.014	Thrust:	60.696
Time:	4.333	Roll Set Point:	-0.242	Pitch Set Point:	0.036	Yaw Set Point:	0.009	X_WP:	0.000	Y_WP:	0.000	Z_WP:	0.500	X:	0.121	Y:	-0.019	Z:	0.447	yaw:	-0.511	yaw rate:	-9.227	Roll:	1.608	Pitch:	-0.554	Yaw:	2.174	Thrust:	61.842
Time:	4.356	Roll Set Point:	-0.243	Pitch Set Point:	0.037	Yaw Set Point:	0.022	X_WP:	0.000	Y_WP:	0.000	Z_WP:	0.500	X:	0.121	Y:	-0.020	Z:	0.446	yaw:	-1.256	yaw rate:	74.461	Roll:	2.451	Pitch:	0.164	Yaw:	-8.739	Thrust:	66.303
Time:	4.373	Roll Set Point:	-0.241	Pitch Set Point:	0.038	Yaw Set Point:	0.010	X_WP:	0.000	Y_WP:	0.000	Z_WP:	0.500	X:	0.120	Y:	-0.019	Z:	0.443	yaw:	-0.589	yaw rate:	-66.626	Roll:	0.964	Pitch:	-1.379	Yaw:	10.356	Thrust:	58.737
Time:	4.394	Roll Set Point:	-0.242	Pitch Set Point:	0.038	Yaw Set Point:	0.010	X_WP:	0.000	Y_WP:	0.000	Z_WP:	0.500	X:	0.121	Y:	-0.020	Z:	0.442	yaw:	-0.597	yaw rate:	0.799	Roll:	2.217	Pitch:	-0.645	Yaw:	0.838	Thrust:	62.406
Time:	4.413	Roll Set Point:	-0.241	Pitch Set Point:	0.038	Yaw Set Point:	0.017	X_WP:	0.000	Y_WP:	0.000	Z_WP:	0.500	X:	0.120	Y:	-0.020	Z:	0.441	yaw:	-0.995	yaw rate:	39.716	Roll:	1.573	Pitch:	0.290	Yaw:	-5.462	Thrust:	61.192
Time:	4.433	Roll Set Point:	-0.242	Pitch Set Point:	0.038	Yaw Set Point:	0.033	X_WP:	0.000	Y_WP:	0.000	Z_WP:	0.500	X:	0.121	Y:	-0.021	Z:	0.440	yaw:	-1.880	yaw rate:	88.532	Roll:	2.445	Pitch:	0.429	Yaw:	-12.378	Thrust:	61.497
Time:	4.454	Roll Set Point:	-0.241	Pitch Set Point:	0.041	Yaw Set Point:	0.012	X_WP:	0.000	Y_WP:	0.000	Z_WP:	0.500	X:	0.121	Y:	-0.021	Z:	0.439	yaw:	-0.692	yaw rate:	-118.790	Roll:	1.554	Pitch:	-2.571	Yaw:	15.142	Thrust:	64.772
Time:	4.473	Roll Set Point:	-0.241	Pitch Set Point:	0.040	Yaw Set Point:	0.032	X_WP:	0.000	Y_WP:	0.000	Z_WP:	0.500	X:	0.120	Y:	-0.022	Z:	0.437	yaw:	-1.833	yaw rate:	114.116	Roll:	2.093	Pitch:	1.318	Yaw:	-17.662	Thrust:	60.057
Time:	4.493	Roll Set Point:	-0.241	Pitch Set Point:	0.042	Yaw Set Point:	0.017	X_WP:	0.000	Y_WP:	0.000	Z_WP:	0.500	X:	0.120	Y:	-0.022	Z:	0.436	yaw:	-0.959	yaw rate:	-87.442	Roll:	1.631	Pitch:	-1.749	Yaw:	11.670	Thrust:	60.173
Time:	4.513	Roll Set Point:	-0.241	Pitch Set Point:	0.042	Yaw Set Point:	0.018	X_WP:	0.000	Y_WP:	0.000	Z_WP:	0.500	X:	0.120	Y:	-0.022	Z:	0.435	yaw:	-1.030	yaw rate:	7.076	Roll:	1.855	Pitch:	-0.294	Yaw:	-0.705	Thrust:	65.702
Time:	4.533	Roll Set Point:	-0.239	Pitch Set Point:	0.042	Yaw Set Point:	0.013	X_WP:	0.000	Y_WP:	0.000	Z_WP:	0.500	X:	0.119	Y:	-0.022	Z:	0.434	yaw:	-0.726	yaw rate:	-30.394	Roll:	0.979	Pitch:	-0.647	Yaw:	4.563	Thrust:	63.110
Time:	4.554	Roll Set Point:	-0.239	Pitch Set Point:	0.042	Yaw Set Point:	0.015	X_WP:	0.000	Y_WP:	0.000	Z_WP:	0.500	X:	0.120	Y:	-0.022	Z:	0.434	yaw:	-0.859	yaw rate:	13.335	Roll:	2.298	Pitch:	-0.332	Yaw:	-1.198	Thrust:	64.491
Time:	4.573	Roll Set Point:	-0.239	Pitch Set Point:	0.046	Yaw Set Point:	-0.013	X_WP:	0.000	Y_WP:	0.000	Z_WP:	0.500	X:	0.119	Y:	-0.022	Z:	0.433	yaw:	0.757	yaw rate:	-161.624	Roll:	1.234	Pitch:	-3.303	Yaw:	25.171	Thrust:	59.533
Time:	4.594	Roll Set Point:	-0.238	Pitch Set Point:	0.043	Yaw Set Point:	0.021	X_WP:	0.000	Y_WP:	0.000	Z_WP:	0.500	X:	0.119	Y:	-0.023	Z:	0.433	yaw:	-1.203	yaw rate:	196.011	Roll:	2.265	Pitch:	2.797	Yaw:	-24.288	Thrust:	60.737
Time:	4.613	Roll Set Point:	-0.238	Pitch Set Point:	0.043	Yaw Set Point:	0.018	X_WP:	0.000	Y_WP:	0.000	Z_WP:	0.500	X:	0.119	Y:	-0.023	Z:	0.433	yaw:	-1.050	yaw rate:	-15.232	Roll:	1.788	Pitch:	-0.742	Yaw:	2.146	Thrust:	61.444
Time:	4.633	Roll Set Point:	-0.240	Pitch Set Point:	0.045	Yaw Set Point:	0.019	X_WP:	0.000	Y_WP:	0.000	Z_WP:	0.500	X:	0.120	Y:	-0.024	Z:	0.433	yaw:	-1.117	yaw rate:	6.622	Roll:	2.555	Pitch:	-0.874	Yaw:	-0.823	Thrust:	60.591
Time:	4.655	Roll Set Point:	-0.238	Pitch Set Point:	0.044	Yaw Set Point:	0.021	X_WP:	0.000	Y_WP:	0.000	Z_WP:	0.500	X:	0.119	Y:	-0.023	Z:	0.434	yaw:	-1.225	yaw rate:	10.789	Roll:	1.264	Pitch:	0.228	Yaw:	-1.243	Thrust:	66.496
Time:	4.673	Roll Set Point:	-0.237	Pitch Set Point:	0.044	Yaw Set Point:	0.011	X_WP:	0.000	Y_WP:	0.000	Z_WP:	0.500	X:	0.119	Y:	-0.023	Z:	0.434	yaw:	-0.612	yaw rate:	-61.223	Roll:	1.648	Pitch:	-1.048	Yaw:	9.618	Thrust:	54.491
Time:	4.693	Roll Set Point:	-0.238	Pitch Set Point:	0.044	Yaw Set Point:	0.023	X_WP:	0.000	Y_WP:	0.000	Z_WP:	0.500	X:	0.119	Y:	-0.023	Z:	0.435	yaw:	-1.343	yaw rate:	73.026	Roll:	2.197	Pitch:	0.600	Yaw:	-9.613	Thrust:	60.621
Time:	4.713	Roll Set Point:	-0.237	Pitch Set Point:	0.044	Yaw Set Point:	0.017	X_WP:	0.000	Y_WP:	0.000	Z_WP:	0.500	X:	0.118	Y:	-0.023	Z:	0.435	yaw:	-0.999	yaw rate:	-34.364	Roll:	1.410	Pitch:	-0.685	Yaw:	4.719	Thrust:	60.477
Time:	4.732	Roll Set Point:	-0.235	Pitch Set Point:	0.043	Yaw Set Point:	0.011	X_WP:	0.000	Y_WP:	0.000	Z_WP:	0.500	X:	0.118	Y:	-0.022	Z:	0.435	yaw:	-0.655	yaw rate:	-34.449	Roll:	1.286	Pitch:	-0.220	Yaw:	5.211	Thrust:	59.988
Time:	4.754	Roll Set Point:	-0.237	Pitch Set Point:	0.044	Yaw Set Point:	0.010	X_WP:	0.000	Y_WP:	0.000	Z_WP:	0.500	X:	0.118	Y:	-0.023	Z:	0.436	yaw:	-0.563	yaw rate:	-9.130	Roll:	2.666	Pitch:	-0.898	Yaw:	1.987	Thrust:	62.355
Time:	4.773	Roll Set Point:	-0.235	Pitch Set Point:	0.041	Yaw Set Point:	0.014	X_WP:	0.000	Y_WP:	0.000	Z_WP:	0.500	X:	0.117	Y:	-0.022	Z:	0.436	yaw:	-0.828	yaw rate:	26.497	Roll:	1.020	Pitch:	1.056	Yaw:	-3.320	Thrust:	61.102
Time:	4.793	Roll Set Point:	-0.235	Pitch Set Point:	0.042	Yaw Set Point:	0.006	X_WP:	0.000	Y_WP:	0.000	Z_WP:	0.500	X:	0.117	Y:	-0.021	Z:	0.437	yaw:	-0.318	yaw rate:	-50.984	Roll:	1.930	Pitch:	-0.971	Yaw:	7.711	Thrust:	62.004
Time:	4.812	Roll Set Point:	-0.234	Pitch Set Point:	0.040	Yaw Set Point:	0.018	X_WP:	0.000	Y_WP:	0.000	Z_WP:	0.500	X:	0.117	Y:	-0.021	Z:	0.437	yaw:	-1.053	yaw rate:	73.429	Roll:	1.734	Pitch:	1.370	Yaw:	-10.030	Thrust:	58.886
Time:	4.833	Roll Set Point:	-0.236	Pitch Set Point:	0.038	Yaw Set Point:	0.034	X_WP:	0.000	Y_WP:	0.000	Z_WP:	0.500	X:	0.118	Y:	-0.021	Z:	0.438	yaw:	-1.953	yaw rate:	90.023	Roll:	2.667	Pitch:	0.981	Yaw:	-12.526	Thrust:	62.013
Time:	4.855	Roll Set Point:	-0.236	Pitch Set Point:	0.039	Yaw Set Point:	0.025	X_WP:	0.000	Y_WP:	0.000	Z_WP:	0.500	X:	0.118	Y:	-0.021	Z:	0.439	yaw:	-1.428	yaw rate:	-52.466	Roll:	1.969	Pitch:	-0.774	Yaw:	5.944	Thrust:	67.804
Time:	4.873	Roll Set Point:	-0.235	Pitch Set Point:	0.037	Yaw Set Point:	0.030	X_WP:	0.000	Y_WP:	0.000	Z_WP:	0.500	X:	0.117	Y:	-0.020	Z:	0.439	yaw:	-1.708	yaw rate:	27.964	Roll:	1.633	Pitch:	0.708	Yaw:	-5.126	Thrust:	54.768
Time:	4.893	Roll Set Point:	-0.235	Pitch Set Point:	0.036	Yaw Set Point:	0.033	X_WP:	0.000	Y_WP:	0.000	Z_WP:	0.500	X:	0.117	Y:	-0.020	Z:	0.440	yaw:	-1.879	yaw rate:	17.070	Roll:	1.673	Pitch:	0.470	Yaw:	-3.325	Thrust:	62.851
Time:	4.913	Roll Set Point:	-0.233	Pitch Set Point:	0.036	Yaw Set Point:	0.018	X_WP:	0.000	Y_WP:	0.000	Z_WP:	0.500	X:	0.116	Y:	-0.019	Z:	0.440	yaw:	-1.015	yaw rate:	-86.353	Roll:	1.201	Pitch:	-0.942	Yaw:	11.343	Thrust:	62.308
Time:	4.933	Roll Set Point:	-0.234	Pitch Set Point:	0.036	Yaw Set Point:	0.012	X_WP:	0.000	Y_WP:	0.000	Z_WP:	0.500	X:	0.117	Y:	-0.018	Z:	0.441	yaw:	-0.685	yaw rate:	-33.038	Roll:	2.004	Pitch:	-0.558	Yaw:	4.830	Thrust:	61.487
Time:	4.954	Roll Set Point:	-0.232	Pitch Set Point:	0.034	Yaw Set Point:	0.013	X_WP:	0.000	Y_WP:	0.000	Z_WP:	0.500	X:	0.116	Y:	-0.018	Z:	0.442	yaw:	-0.759	yaw rate:	7.418	Roll:	1.211	Pitch:	0.257	Yaw:	-0.414	Thrust:	65.286
Time:	4.972	Roll Set Point:	-0.233	Pitch Set Point:	0.036	Yaw Set Point:	-0.032	X_WP:	0.000	Y_WP:	0.000	Z_WP:	0.500	X:	0.117	Y:	-0.016	Z:	0.441	yaw:	1.852	yaw rate:	-261.091	Roll:	2.079	Pitch:	-3.794	Yaw:	41.947	Thrust:	59.487
Time:	4.993	Roll Set Point:	-0.233	Pitch Set Point:	0.032	Yaw Set Point:	0.031	X_WP:	0.000	Y_WP:	0.000	Z_WP:	0.500	X:	0.116	Y:	-0.018	Z:	0.445	yaw:	-1.762	yaw rate:	361.370	Roll:	2.301	Pitch:	4.725	Yaw:	-46.922	Thrust:	55.732
Time:	5.017	Roll Set Point:	-0.233	Pitch Set Point:	0.031	Yaw Set Point:	0.033	X_WP:	0.000	Y_WP:	0.000	Z_WP:	0.500	X:	0.116	Y:	-0.018	Z:	0.446	yaw:	-1.876	yaw rate:	11.392	Roll:	1.907	Pitch:	0.010	Yaw:	-2.108	Thrust:	72.687
Time:	5.034	Roll Set Point:	-0.233	Pitch Set Point:	0.031	Yaw Set Point:	0.020	X_WP:	0.000	Y_WP:	0.000	Z_WP:	0.500	X:	0.116	Y:	-0.017	Z:	0.448	yaw:	-1.172	yaw rate:	-70.362	Roll:	1.668	Pitch:	-0.963	Yaw:	10.691	Thrust:	48.413
Time:	5.057	Roll Set Point:	-0.232	Pitch Set Point:	0.028	Yaw Set Point:	0.035	X_WP:	0.000	Y_WP:	0.000	Z_WP:	0.500	X:	0.116	Y:	-0.016	Z:	0.449	yaw:	-1.981	yaw rate:	80.923	Roll:	1.761	Pitch:	1.527	Yaw:	-10.503	Thrust:	66.457
Time:	5.074	Roll Set Point:	-0.232	Pitch Set Point:	0.028	Yaw Set Point:	0.028	X_WP:	0.000	Y_WP:	0.000	Z_WP:	0.500	X:	0.116	Y:	-0.016	Z:	0.452	yaw:	-1.592	yaw rate:	-38.868	Roll:	1.686	Pitch:	-0.430	Yaw:	4.937	Thrust:	52.237
Time:	5.094	Roll Set Point:	-0.232	Pitch Set Point:	0.027	Yaw Set Point:	0.022	X_WP:	0.000	Y_WP:	0.000	Z_WP:	0.500	X:	0.116	Y:	-0.015	Z:	0.453	yaw:	-1.247	yaw rate:	-34.570	Roll:	1.866	Pitch:	-0.291	Yaw:	4.131	Thrust:	58.261
Time:	5.114	Roll Set Point:	-0.231	Pitch Set Point:	0.025	Yaw Set Point:	0.031	X_WP:	0.000	Y_WP:	0.000	Z_WP:	0.500	X:	0.115	Y:	-0.014	Z:	0.455	yaw:	-1.770	yaw rate:	52.345	Roll:	1.812	Pitch:	1.231	Yaw:	-8.333	Thrust:	58.206
Time:	5.133	Roll Set Point:	-0.231	Pitch Set Point:	0.022	Yaw Set Point:	0.038	X_WP:	0.000	Y_WP:	0.000	Z_WP:	0.500	X:	0.115	Y:	-0.013	Z:	0.457	yaw:	-2.150	yaw rate:	37.932	Roll:	1.639	Pitch:	1.141	Yaw:	-6.379	Thrust:	60.073
Time:	5.158	Roll Set Point:	-0.230	Pitch Set Point:	0.021	Yaw Set Point:	0.032	X_WP:	0.000	Y_WP:	0.000	Z_WP:	0.500	X:	0.115	Y:	-0.012	Z:	0.458	yaw:	-1.809	yaw rate:	-34.022	Roll:	1.546	Pitch:	0.099	Yaw:	2.884	Thrust:	73.678
Time:	5.173	Roll Set Point:	-0.231	Pitch Set Point:	0.020	Yaw Set Point:	0.027	X_WP:	0.000	Y_WP:	0.000	Z_WP:	0.500	X:	0.115	Y:	-0.012	Z:	0.460	yaw:	-1.533	yaw rate:	-27.663	Roll:	2.464	Pitch:	-0.117	Yaw:	3.442	Thrust:	48.482
Time:	5.193	Roll Set Point:	-0.231	Pitch Set Point:	0.018	Yaw Set Point:	0.029	X_WP:	0.000	Y_WP:	0.000	Z_WP:	0.500	X:	0.115	Y:	-0.011	Z:	0.461	yaw:	-1.659	yaw rate:	12.635	Roll:	1.818	Pitch:	0.918	Yaw:	-2.585	Thrust:	61.099
Time:	5.213	Roll Set Point:	-0.230	Pitch Set Point:	0.015	Yaw Set Point:	0.043	X_WP:	0.000	Y_WP:	0.000	Z_WP:	0.500	X:	0.115	Y:	-0.010	Z:	0.463	yaw:	-2.441	yaw rate:	78.189	Roll:	1.467	Pitch:	1.902	Yaw:	-12.580	Thrust:	57.942
Time:	5.234	Roll Set Point:	-0.229	Pitch Set Point:	0.014	Yaw Set Point:	0.037	X_WP:	0.000	Y_WP:	0.000	Z_WP:	0.500	X:	0.114	Y:	-0.009	Z:	0.464	yaw:	-2.116	yaw rate:	-32.502	Roll:	1.510	Pitch:	0.050	Yaw:	2.541	Thrust:	63.246
Time:	5.257	Roll Set Point:	-0.229	Pitch Set Point:	0.012	Yaw Set Point:	0.034	X_WP:	0.000	Y_WP:	0.000	Z_WP:	0.500	X:	0.114	Y:	-0.008	Z:	0.465	yaw:	-1.966	yaw rate:	-15.033	Roll:	1.968	Pitch:	0.376	Yaw:	0.476	Thrust:	68.663
Time:	5.273	Roll Set Point:	-0.228	Pitch Set Point:	0.010	Yaw Set Point:	0.031	X_WP:	0.000	Y_WP:	0.000	Z_WP:	0.500	X:	0.114	Y:	-0.007	Z:	0.465	yaw:	-1.804	yaw rate:	-16.122	Roll:	1.496	Pitch:	0.564	Yaw:	1.099	Thrust:	54.634
Time:	5.294	Roll Set Point:	-0.228	Pitch Set Point:	0.010	Yaw Set Point:	0.022	X_WP:	0.000	Y_WP:	0.000	Z_WP:	0.500	X:	0.114	Y:	-0.006	Z:	0.466	yaw:	-1.261	yaw rate:	-54.338	Roll:	1.956	Pitch:	-0.508	Yaw:	6.727	Thrust:	61.356
Time:	5.313	Roll Set Point:	-0.228	Pitch Set Point:	0.008	Yaw Set Point:	0.022	X_WP:	0.000	Y_WP:	0.000	Z_WP:	0.500	X:	0.114	Y:	-0.005	Z:	0.467	yaw:	-1.255	yaw rate:	-0.636	Roll:	1.857	Pitch:	0.604	Yaw:	-0.352	Thrust:	64.308
Time:	5.334	Roll Set Point:	-0.227	Pitch Set Point:	0.005	Yaw Set Point:	0.034	X_WP:	0.000	Y_WP:	0.000	Z_WP:	0.500	X:	0.114	Y:	-0.004	Z:	0.468	yaw:	-1.960	yaw rate:	70.551	Roll:	1.535	Pitch:	1.831	Yaw:	-10.598	Thrust:	60.768
