Time:	0.038	Roll Set Point:	0.002	Pitch Set Point:	-0.017	Yaw Set Point:	2.168	X_WP:	0.000	Y_WP:	0.000	Z_WP:	0.500	X:	0.015	Y:	0.010	Z:	0.049	yaw:	-124.210	yaw rate:	-1.044	Roll:	-0.172	Pitch:	0.067	Yaw:	-173.429	Thrust:	24.800
Time:	0.058	Roll Set Point:	0.002	Pitch Set Point:	-0.017	Yaw Set Point:	2.168	X_WP:	0.000	Y_WP:	0.000	Z_WP:	0.500	X:	0.015	Y:	0.010	Z:	0.049	yaw:	-124.213	yaw rate:	0.333	Roll:	-0.193	Pitch:	0.047	Yaw:	-174.347	Thrust:	25.891
Time:	0.082	Roll Set Point:	0.002	Pitch Set Point:	-0.017	Yaw Set Point:	2.168	X_WP:	0.000	Y_WP:	0.000	Z_WP:	0.500	X:	0.015	Y:	0.010	Z:	0.049	yaw:	-124.235	yaw rate:	2.183	Roll:	-0.160	Pitch:	0.069	Yaw:	-175.699	Thrust:	27.196
Time:	0.102	Roll Set Point:	0.002	Pitch Set Point:	-0.017	Yaw Set Point:	2.168	X_WP:	0.000	Y_WP:	0.000	Z_WP:	0.500	X:	0.015	Y:	0.010	Z:	0.049	yaw:	-124.215	yaw rate:	-1.973	Roll:	-0.182	Pitch:	0.083	Yaw:	-175.782	Thrust:	28.037
Time:	0.121	Roll Set Point:	0.002	Pitch Set Point:	-0.017	Yaw Set Point:	2.168	X_WP:	0.000	Y_WP:	0.000	Z_WP:	0.500	X:	0.015	Y:	0.010	Z:	0.049	yaw:	-124.228	yaw rate:	1.315	Roll:	-0.165	Pitch:	0.077	Yaw:	-177.105	Thrust:	29.160
Time:	0.141	Roll Set Point:	0.002	Pitch Set Point:	-0.017	Yaw Set Point:	2.168	X_WP:	0.000	Y_WP:	0.000	Z_WP:	0.500	X:	0.015	Y:	0.010	Z:	0.049	yaw:	-124.228	yaw rate:	0.038	Roll:	-0.186	Pitch:	0.059	Yaw:	-177.272	Thrust:	29.959
Time:	0.162	Roll Set Point:	0.002	Pitch Set Point:	-0.017	Yaw Set Point:	2.168	X_WP:	0.000	Y_WP:	0.000	Z_WP:	0.500	X:	0.015	Y:	0.010	Z:	0.049	yaw:	-124.213	yaw rate:	-1.585	Roll:	-0.183	Pitch:	0.058	Yaw:	-177.449	Thrust:	31.585
Time:	0.181	Roll Set Point:	0.002	Pitch Set Point:	-0.017	Yaw Set Point:	2.168	X_WP:	0.000	Y_WP:	0.000	Z_WP:	0.500	X:	0.015	Y:	0.010	Z:	0.049	yaw:	-124.232	yaw rate:	1.929	Roll:	-0.171	Pitch:	0.058	Yaw:	-177.480	Thrust:	31.994
Time:	0.202	Roll Set Point:	0.002	Pitch Set Point:	-0.017	Yaw Set Point:	2.168	X_WP:	0.000	Y_WP:	0.000	Z_WP:	0.500	X:	0.015	Y:	0.010	Z:	0.049	yaw:	-124.227	yaw rate:	-0.516	Roll:	-0.172	Pitch:	0.087	Yaw:	-177.600	Thrust:	33.879
Time:	0.223	Roll Set Point:	0.002	Pitch Set Point:	-0.017	Yaw Set Point:	2.168	X_WP:	0.000	Y_WP:	0.000	Z_WP:	0.500	X:	0.015	Y:	0.010	Z:	0.049	yaw:	-124.218	yaw rate:	-0.921	Roll:	-0.191	Pitch:	0.072	Yaw:	-177.536	Thrust:	35.047
Time:	0.242	Roll Set Point:	0.002	Pitch Set Point:	-0.017	Yaw Set Point:	2.168	X_WP:	0.000	Y_WP:	0.000	Z_WP:	0.500	X:	0.015	Y:	0.010	Z:	0.049	yaw:	-124.235	yaw rate:	1.738	Roll:	-0.181	Pitch:	0.073	Yaw:	-177.514	Thrust:	35.081
Time:	0.259	Roll Set Point:	0.002	Pitch Set Point:	-0.017	Yaw Set Point:	2.167	X_WP:	0.000	Y_WP:	0.000	Z_WP:	0.500	X:	0.015	Y:	0.010	Z:	0.049	yaw:	-124.181	yaw rate:	-5.370	Roll:	-0.174	Pitch:	0.084	Yaw:	-176.132	Thrust:	35.605
Time:	0.279	Roll Set Point:	0.002	Pitch Set Point:	-0.017	Yaw Set Point:	2.168	X_WP:	0.000	Y_WP:	0.000	Z_WP:	0.500	X:	0.015	Y:	0.010	Z:	0.049	yaw:	-124.224	yaw rate:	4.259	Roll:	-0.184	Pitch:	0.034	Yaw:	-178.108	Thrust:	37.903
Time:	0.299	Roll Set Point:	0.002	Pitch Set Point:	-0.017	Yaw Set Point:	2.168	X_WP:	0.000	Y_WP:	0.000	Z_WP:	0.500	X:	0.015	Y:	0.010	Z:	0.049	yaw:	-124.216	yaw rate:	-0.777	Roll:	-0.188	Pitch:	0.094	Yaw:	-177.142	Thrust:	38.843
Time:	0.320	Roll Set Point:	0.002	Pitch Set Point:	-0.017	Yaw Set Point:	2.168	X_WP:	0.000	Y_WP:	0.000	Z_WP:	0.500	X:	0.015	Y:	0.010	Z:	0.049	yaw:	-124.233	yaw rate:	1.734	Roll:	-0.201	Pitch:	0.068	Yaw:	-177.705	Thrust:	40.046
Time:	0.340	Roll Set Point:	0.002	Pitch Set Point:	-0.017	Yaw Set Point:	2.168	X_WP:	0.000	Y_WP:	0.000	Z_WP:	0.500	X:	0.015	Y:	0.010	Z:	0.049	yaw:	-124.215	yaw rate:	-1.888	Roll:	-0.172	Pitch:	0.067	Yaw:	-177.412	Thrust:	41.109
Time:	0.360	Roll Set Point:	0.002	Pitch Set Point:	-0.017	Yaw Set Point:	2.168	X_WP:	0.000	Y_WP:	0.000	Z_WP:	0.500	X:	0.015	Y:	0.010	Z:	0.049	yaw:	-124.234	yaw rate:	1.936	Roll:	-0.188	Pitch:	0.072	Yaw:	-177.635	Thrust:	42.103
Time:	0.379	Roll Set Point:	0.002	Pitch Set Point:	-0.017	Yaw Set Point:	2.168	X_WP:	0.000	Y_WP:	0.000	Z_WP:	0.500	X:	0.015	Y:	0.010	Z:	0.049	yaw:	-124.229	yaw rate:	-0.450	Roll:	-0.179	Pitch:	0.076	Yaw:	-177.398	Thrust:	42.817
Time:	0.400	Roll Set Point:	0.002	Pitch Set Point:	-0.017	Yaw Set Point:	2.168	X_WP:	0.000	Y_WP:	0.000	Z_WP:	0.500	X:	0.015	Y:	0.010	Z:	0.049	yaw:	-124.220	yaw rate:	-0.921	Roll:	-0.189	Pitch:	0.077	Yaw:	-177.334	Thrust:	44.299
Time:	0.419	Roll Set Point:	0.002	Pitch Set Point:	-0.017	Yaw Set Point:	2.168	X_WP:	0.000	Y_WP:	0.000	Z_WP:	0.500	X:	0.015	Y:	0.010	Z:	0.049	yaw:	-124.203	yaw rate:	-1.702	Roll:	-0.192	Pitch:	0.080	Yaw:	-177.209	Thrust:	45.372
Time:	0.440	Roll Set Point:	0.002	Pitch Set Point:	-0.017	Yaw Set Point:	2.168	X_WP:	0.000	Y_WP:	0.000	Z_WP:	0.500	X:	0.015	Y:	0.010	Z:	0.049	yaw:	-124.242	yaw rate:	3.895	Roll:	-0.188	Pitch:	0.050	Yaw:	-177.994	Thrust:	47.591
Time:	0.460	Roll Set Point:	0.002	Pitch Set Point:	-0.017	Yaw Set Point:	2.168	X_WP:	0.000	Y_WP:	0.000	Z_WP:	0.500	X:	0.015	Y:	0.010	Z:	0.049	yaw:	-124.225	yaw rate:	-1.688	Roll:	-0.206	Pitch:	0.073	Yaw:	-177.258	Thrust:	47.165
Time:	0.480	Roll Set Point:	0.002	Pitch Set Point:	-0.017	Yaw Set Point:	2.168	X_WP:	0.000	Y_WP:	0.000	Z_WP:	0.500	X:	0.015	Y:	0.010	Z:	0.049	yaw:	-124.206	yaw rate:	-1.887	Roll:	-0.153	Pitch:	0.098	Yaw:	-177.110	Thrust:	48.770
Time:	0.509	Roll Set Point:	0.002	Pitch Set Point:	-0.017	Yaw Set Point:	2.169	X_WP:	0.000	Y_WP:	0.000	Z_WP:	0.500	X:	0.015	Y:	0.010	Z:	0.049	yaw:	-124.248	yaw rate:	4.163	Roll:	-0.217	Pitch:	0.064	Yaw:	-179.294	Thrust:	55.951
Time:	0.528	Roll Set Point:	0.002	Pitch Set Point:	-0.017	Yaw Set Point:	2.168	X_WP:	0.000	Y_WP:	0.000	Z_WP:	0.500	X:	0.015	Y:	0.010	Z:	0.049	yaw:	-124.216	yaw rate:	-3.157	Roll:	-0.211	Pitch:	0.077	Yaw:	-177.257	Thrust:	53.462
Time:	0.543	Roll Set Point:	0.002	Pitch Set Point:	-0.017	Yaw Set Point:	2.168	X_WP:	0.000	Y_WP:	0.000	Z_WP:	0.500	X:	0.015	Y:	0.010	Z:	0.049	yaw:	-124.210	yaw rate:	-0.603	Roll:	-0.166	Pitch:	0.073	Yaw:	-176.540	Thrust:	46.500
Time:	0.560	Roll Set Point:	0.002	Pitch Set Point:	-0.017	Yaw Set Point:	2.168	X_WP:	0.000	Y_WP:	0.000	Z_WP:	0.500	X:	0.015	Y:	0.010	Z:	0.049	yaw:	-124.212	yaw rate:	0.174	Roll:	-0.200	Pitch:	0.088	Yaw:	-176.670	Thrust:	48.059
Time:	0.578	Roll Set Point:	0.002	Pitch Set Point:	-0.017	Yaw Set Point:	2.168	X_WP:	0.000	Y_WP:	0.000	Z_WP:	0.500	X:	0.015	Y:	0.010	Z:	0.049	yaw:	-124.210	yaw rate:	-0.163	Roll:	-0.189	Pitch:	0.074	Yaw:	-177.125	Thrust:	52.692
Time:	0.599	Roll Set Point:	0.002	Pitch Set Point:	-0.017	Yaw Set Point:	2.168	X_WP:	0.000	Y_WP:	0.000	Z_WP:	0.500	X:	0.015	Y:	0.010	Z:	0.049	yaw:	-124.195	yaw rate:	-1.568	Roll:	-0.184	Pitch:	0.094	Yaw:	-177.208	Thrust:	55.103
Time:	0.618	Roll Set Point:	0.002	Pitch Set Point:	-0.017	Yaw Set Point:	2.168	X_WP:	0.000	Y_WP:	0.000	Z_WP:	0.500	X:	0.015	Y:	0.010	Z:	0.049	yaw:	-124.213	yaw rate:	1.858	Roll:	-0.213	Pitch:	0.050	Yaw:	-177.688	Thrust:	56.301
Time:	0.638	Roll Set Point:	0.002	Pitch Set Point:	-0.017	Yaw Set Point:	2.168	X_WP:	0.000	Y_WP:	0.000	Z_WP:	0.500	X:	0.015	Y:	0.010	Z:	0.049	yaw:	-124.203	yaw rate:	-0.997	Roll:	-0.200	Pitch:	0.076	Yaw:	-177.301	Thrust:	55.724
Time:	0.659	Roll Set Point:	0.002	Pitch Set Point:	-0.017	Yaw Set Point:	2.168	X_WP:	0.000	Y_WP:	0.000	Z_WP:	0.500	X:	0.015	Y:	0.010	Z:	0.049	yaw:	-124.236	yaw rate:	3.284	Roll:	-0.189	Pitch:	0.083	Yaw:	-177.907	Thrust:	60.109
Time:	0.678	Roll Set Point:	0.002	Pitch Set Point:	-0.017	Yaw Set Point:	2.168	X_WP:	0.000	Y_WP:	0.000	Z_WP:	0.500	X:	0.015	Y:	0.010	Z:	0.049	yaw:	-124.214	yaw rate:	-2.266	Roll:	-0.214	Pitch:	0.074	Yaw:	-177.216	Thrust:	59.252
Time:	0.699	Roll Set Point:	0.002	Pitch Set Point:	-0.017	Yaw Set Point:	2.168	X_WP:	0.000	Y_WP:	0.000	Z_WP:	0.500	X:	0.015	Y:	0.010	Z:	0.049	yaw:	-124.198	yaw rate:	-1.570	Roll:	-0.189	Pitch:	0.099	Yaw:	-177.418	Thrust:	63.122
Time:	0.719	Roll Set Point:	0.002	Pitch Set Point:	-0.017	Yaw Set Point:	2.168	X_WP:	0.000	Y_WP:	0.000	Z_WP:	0.500	X:	0.015	Y:	0.010	Z:	0.049	yaw:	-124.210	yaw rate:	1.175	Roll:	-0.196	Pitch:	0.071	Yaw:	-177.344	Thrust:	58.419
Time:	0.738	Roll Set Point:	0.002	Pitch Set Point:	-0.017	Yaw Set Point:	2.168	X_WP:	0.000	Y_WP:	0.000	Z_WP:	0.500	X:	0.015	Y:	0.011	Z:	0.049	yaw:	-124.222	yaw rate:	1.209	Roll:	-0.233	Pitch:	0.053	Yaw:	-177.537	Thrust:	62.990
Time:	0.758	Roll Set Point:	0.002	Pitch Set Point:	-0.017	Yaw Set Point:	2.168	X_WP:	0.000	Y_WP:	0.000	Z_WP:	0.500	X:	0.015	Y:	0.010	Z:	0.049	yaw:	-124.217	yaw rate:	-0.449	Roll:	-0.180	Pitch:	0.106	Yaw:	-177.468	Thrust:	63.586
Time:	0.778	Roll Set Point:	0.002	Pitch Set Point:	-0.017	Yaw Set Point:	2.167	X_WP:	0.000	Y_WP:	0.000	Z_WP:	0.500	X:	0.015	Y:	0.010	Z:	0.049	yaw:	-124.178	yaw rate:	-3.903	Roll:	-0.207	Pitch:	0.087	Yaw:	-176.800	Thrust:	65.200
Time:	0.799	Roll Set Point:	0.002	Pitch Set Point:	-0.017	Yaw Set Point:	2.168	X_WP:	0.000	Y_WP:	0.000	Z_WP:	0.500	X:	0.015	Y:	0.010	Z:	0.049	yaw:	-124.228	yaw rate:	5.028	Roll:	-0.215	Pitch:	0.060	Yaw:	-178.244	Thrust:	67.505
Time:	0.818	Roll Set Point:	0.002	Pitch Set Point:	-0.017	Yaw Set Point:	2.168	X_WP:	0.000	Y_WP:	0.000	Z_WP:	0.500	X:	0.015	Y:	0.010	Z:	0.049	yaw:	-124.202	yaw rate:	-2.677	Roll:	-0.202	Pitch:	0.083	Yaw:	-176.988	Thrust:	65.172
Time:	0.838	Roll Set Point:	0.002	Pitch Set Point:	-0.017	Yaw Set Point:	2.168	X_WP:	0.000	Y_WP:	0.000	Z_WP:	0.500	X:	0.015	Y:	0.010	Z:	0.049	yaw:	-124.190	yaw rate:	-1.213	Roll:	-0.204	Pitch:	0.076	Yaw:	-177.168	Thrust:	67.318
Time:	0.858	Roll Set Point:	0.002	Pitch Set Point:	-0.017	Yaw Set Point:	2.168	X_WP:	0.000	Y_WP:	0.000	Z_WP:	0.500	X:	0.015	Y:	0.010	Z:	0.049	yaw:	-124.234	yaw rate:	4.424	Roll:	-0.220	Pitch:	0.100	Yaw:	-178.009	Thrust:	69.811
Time:	0.881	Roll Set Point:	0.002	Pitch Set Point:	-0.017	Yaw Set Point:	2.169	X_WP:	0.000	Y_WP:	0.000	Z_WP:	0.500	X:	0.015	Y:	0.010	Z:	0.049	yaw:	-124.246	yaw rate:	1.215	Roll:	-0.209	Pitch:	0.061	Yaw:	-178.091	Thrust:	73.307
Time:	0.904	Roll Set Point:	0.002	Pitch Set Point:	-0.017	Yaw Set Point:	2.168	X_WP:	0.000	Y_WP:	0.000	Z_WP:	0.500	X:	0.015	Y:	0.010	Z:	0.049	yaw:	-124.192	yaw rate:	-5.373	Roll:	-0.211	Pitch:	0.092	Yaw:	-177.267	Thrust:	77.050
Time:	0.922	Roll Set Point:	0.002	Pitch Set Point:	-0.017	Yaw Set Point:	2.168	X_WP:	0.000	Y_WP:	0.000	Z_WP:	0.500	X:	0.015	Y:	0.010	Z:	0.049	yaw:	-124.195	yaw rate:	0.320	Roll:	-0.200	Pitch:	0.083	Yaw:	-177.182	Thrust:	69.060
Time:	0.943	Roll Set Point:	0.002	Pitch Set Point:	-0.017	Yaw Set Point:	2.169	X_WP:	0.000	Y_WP:	0.000	Z_WP:	0.500	X:	0.015	Y:	0.010	Z:	0.049	yaw:	-124.255	yaw rate:	5.965	Roll:	-0.216	Pitch:	0.095	Yaw:	-178.371	Thrust:	74.957
Time:	0.965	Roll Set Point:	0.002	Pitch Set Point:	-0.017	Yaw Set Point:	2.168	X_WP:	0.000	Y_WP:	0.000	Z_WP:	0.500	X:	0.015	Y:	0.010	Z:	0.049	yaw:	-124.212	yaw rate:	-4.331	Roll:	-0.207	Pitch:	0.048	Yaw:	-177.109	Thrust:	76.114
Time:	0.982	Roll Set Point:	0.002	Pitch Set Point:	-0.017	Yaw Set Point:	2.167	X_WP:	0.000	Y_WP:	0.000	Z_WP:	0.500	X:	0.015	Y:	0.010	Z:	0.049	yaw:	-124.187	yaw rate:	-2.469	Roll:	-0.209	Pitch:	0.108	Yaw:	-176.649	Thrust:	73.236
Time:	1.001	Roll Set Point:	0.002	Pitch Set Point:	-0.017	Yaw Set Point:	2.168	X_WP:	0.000	Y_WP:	0.000	Z_WP:	0.500	X:	0.015	Y:	0.010	Z:	0.049	yaw:	-124.213	yaw rate:	2.550	Roll:	-0.215	Pitch:	0.083	Yaw:	-177.825	Thrust:	76.187
Time:	1.020	Roll Set Point:	0.002	Pitch Set Point:	-0.017	Yaw Set Point:	2.168	X_WP:	0.000	Y_WP:	0.000	Z_WP:	0.500	X:	0.015	Y:	0.010	Z:	0.049	yaw:	-124.228	yaw rate:	1.508	Roll:	-0.224	Pitch:	0.067	Yaw:	-177.368	Thrust:	75.146
Time:	1.040	Roll Set Point:	0.002	Pitch Set Point:	-0.017	Yaw Set Point:	2.168	X_WP:	0.000	Y_WP:	0.000	Z_WP:	0.500	X:	0.015	Y:	0.010	Z:	0.049	yaw:	-124.197	yaw rate:	-3.063	Roll:	-0.195	Pitch:	0.118	Yaw:	-177.024	Thrust:	79.139
Time:	1.060	Roll Set Point:	0.002	Pitch Set Point:	-0.017	Yaw Set Point:	2.168	X_WP:	0.000	Y_WP:	0.000	Z_WP:	0.500	X:	0.015	Y:	0.010	Z:	0.049	yaw:	-124.201	yaw rate:	0.345	Roll:	-0.228	Pitch:	0.069	Yaw:	-177.440	Thrust:	78.302
Time:	1.080	Roll Set Point:	0.002	Pitch Set Point:	-0.017	Yaw Set Point:	2.168	X_WP:	0.000	Y_WP:	0.000	Z_WP:	0.500	X:	0.015	Y:	0.010	Z:	0.049	yaw:	-124.233	yaw rate:	3.268	Roll:	-0.215	Pitch:	0.062	Yaw:	-177.809	Thrust:	81.159
Time:	1.102	Roll Set Point:	0.002	Pitch Set Point:	-0.017	Yaw Set Point:	2.168	X_WP:	0.000	Y_WP:	0.000	Z_WP:	0.500	X:	0.015	Y:	0.010	Z:	0.049	yaw:	-124.226	yaw rate:	-0.728	Roll:	-0.224	Pitch:	0.089	Yaw:	-177.644	Thrust:	87.689
Time:	1.120	Roll Set Point:	0.002	Pitch Set Point:	-0.017	Yaw Set Point:	2.168	X_WP:	0.000	Y_WP:	0.000	Z_WP:	0.500	X:	0.015	Y:	0.010	Z:	0.049	yaw:	-124.208	yaw rate:	-1.758	Roll:	-0.201	Pitch:	0.127	Yaw:	-176.938	Thrust:	78.145
Time:	1.146	Roll Set Point:	0.002	Pitch Set Point:	-0.017	Yaw Set Point:	2.168	X_WP:	0.000	Y_WP:	0.000	Z_WP:	0.500	X:	0.015	Y:	0.010	Z:	0.049	yaw:	-124.242	yaw rate:	3.395	Roll:	-0.240	Pitch:	0.082	Yaw:	-179.037	Thrust:	100.000
Time:	1.161	Roll Set Point:	0.002	Pitch Set Point:	-0.017	Yaw Set Point:	2.168	X_WP:	0.000	Y_WP:	0.000	Z_WP:	0.500	X:	0.015	Y:	0.010	Z:	0.049	yaw:	-124.212	yaw rate:	-3.052	Roll:	-0.228	Pitch:	0.055	Yaw:	-176.001	Thrust:	70.002
Time:	1.181	Roll Set Point:	0.002	Pitch Set Point:	-0.017	Yaw Set Point:	2.168	X_WP:	0.000	Y_WP:	0.000	Z_WP:	0.500	X:	0.015	Y:	0.010	Z:	0.049	yaw:	-124.209	yaw rate:	-0.291	Roll:	-0.215	Pitch:	0.096	Yaw:	-177.117	Thrust:	83.898
Time:	1.201	Roll Set Point:	0.002	Pitch Set Point:	-0.017	Yaw Set Point:	2.168	X_WP:	0.000	Y_WP:	0.000	Z_WP:	0.500	X:	0.015	Y:	0.010	Z:	0.049	yaw:	-124.207	yaw rate:	-0.139	Roll:	-0.214	Pitch:	0.090	Yaw:	-177.553	Thrust:	91.397
Time:	1.221	Roll Set Point:	0.002	Pitch Set Point:	-0.017	Yaw Set Point:	2.168	X_WP:	0.000	Y_WP:	0.000	Z_WP:	0.500	X:	0.015	Y:	0.010	Z:	0.049	yaw:	-124.230	yaw rate:	2.291	Roll:	-0.235	Pitch:	0.089	Yaw:	-177.636	Thrust:	84.877
Time:	1.240	Roll Set Point:	0.002	Pitch Set Point:	-0.017	Yaw Set Point:	2.168	X_WP:	0.000	Y_WP:	0.000	Z_WP:	0.500	X:	0.015	Y:	0.010	Z:	0.049	yaw:	-124.244	yaw rate:	1.356	Roll:	-0.218	Pitch:	0.065	Yaw:	-177.717	Thrust:	89.250
Time:	1.261	Roll Set Point:	0.002	Pitch Set Point:	-0.017	Yaw Set Point:	2.168	X_WP:	0.000	Y_WP:	0.000	Z_WP:	0.500	X:	0.015	Y:	0.010	Z:	0.049	yaw:	-124.193	yaw rate:	-5.060	Roll:	-0.226	Pitch:	0.104	Yaw:	-176.752	Thrust:	90.841
Time:	1.281	Roll Set Point:	0.002	Pitch Set Point:	-0.017	Yaw Set Point:	2.168	X_WP:	0.000	Y_WP:	0.000	Z_WP:	0.500	X:	0.015	Y:	0.010	Z:	0.049	yaw:	-124.215	yaw rate:	2.122	Roll:	-0.203	Pitch:	0.095	Yaw:	-177.746	Thrust:	92.425
Time:	1.300	Roll Set Point:	0.002	Pitch Set Point:	-0.017	Yaw Set Point:	2.168	X_WP:	0.000	Y_WP:	0.000	Z_WP:	0.500	X:	0.015	Y:	0.011	Z:	0.049	yaw:	-124.235	yaw rate:	2.067	Roll:	-0.265	Pitch:	0.054	Yaw:	-177.563	Thrust:	93.385
Time:	1.320	Roll Set Point:	0.002	Pitch Set Point:	-0.017	Yaw Set Point:	2.168	X_WP:	0.000	Y_WP:	0.000	Z_WP:	0.500	X:	0.015	Y:	0.010	Z:	0.049	yaw:	-124.199	yaw rate:	-3.599	Roll:	-0.211	Pitch:	0.125	Yaw:	-176.949	Thrust:	90.571
Time:	1.339	Roll Set Point:	0.002	Pitch Set Point:	-0.017	Yaw Set Point:	2.168	X_WP:	0.000	Y_WP:	0.000	Z_WP:	0.500	X:	0.015	Y:	0.010	Z:	0.049	yaw:	-124.202	yaw rate:	0.280	Roll:	-0.209	Pitch:	0.086	Yaw:	-177.466	Thrust:	95.332
Time:	1.360	Roll Set Point:	0.002	Pitch Set Point:	-0.017	Yaw Set Point:	2.168	X_WP:	0.000	Y_WP:	0.000	Z_WP:	0.500	X:	0.015	Y:	0.010	Z:	0.049	yaw:	-124.216	yaw rate:	1.393	Roll:	-0.259	Pitch:	0.081	Yaw:	-177.734	Thrust:	100.000
Time:	1.380	Roll Set Point:	0.002	Pitch Set Point:	-0.017	Yaw Set Point:	2.168	X_WP:	0.000	Y_WP:	0.000	Z_WP:	0.500	X:	0.015	Y:	0.010	Z:	0.049	yaw:	-124.220	yaw rate:	0.435	Roll:	-0.211	Pitch:	0.088	Yaw:	-177.377	Thrust:	93.229
Time:	1.399	Roll Set Point:	0.002	Pitch Set Point:	-0.017	Yaw Set Point:	2.168	X_WP:	0.000	Y_WP:	0.000	Z_WP:	0.500	X:	0.015	Y:	0.010	Z:	0.049	yaw:	-124.230	yaw rate:	0.960	Roll:	-0.223	Pitch:	0.094	Yaw:	-177.594	Thrust:	98.628
Time:	1.419	Roll Set Point:	0.002	Pitch Set Point:	-0.017	Yaw Set Point:	2.168	X_WP:	0.000	Y_WP:	0.000	Z_WP:	0.500	X:	0.015	Y:	0.010	Z:	0.049	yaw:	-124.211	yaw rate:	-1.908	Roll:	-0.241	Pitch:	0.085	Yaw:	-177.192	Thrust:	99.642
Time:	1.439	Roll Set Point:	0.002	Pitch Set Point:	-0.017	Yaw Set Point:	2.169	X_WP:	0.000	Y_WP:	0.000	Z_WP:	0.500	X:	0.015	Y:	0.010	Z:	0.049	yaw:	-124.248	yaw rate:	3.752	Roll:	-0.244	Pitch:	0.077	Yaw:	-177.984	Thrust:	100.000
Time:	1.460	Roll Set Point:	0.002	Pitch Set Point:	-0.017	Yaw Set Point:	2.168	X_WP:	0.000	Y_WP:	0.000	Z_WP:	0.500	X:	0.015	Y:	0.010	Z:	0.049	yaw:	-124.193	yaw rate:	-5.560	Roll:	-0.233	Pitch:	0.112	Yaw:	-176.692	Thrust:	100.000
Time:	1.481	Roll Set Point:	0.002	Pitch Set Point:	-0.017	Yaw Set Point:	2.168	X_WP:	0.000	Y_WP:	0.000	Z_WP:	0.500	X:	0.015	Y:	0.010	Z:	0.049	yaw:	-124.235	yaw rate:	4.266	Roll:	-0.223	Pitch:	0.086	Yaw:	-178.046	Thrust:	100.000
Time:	1.500	Roll Set Point:	0.002	Pitch Set Point:	-0.017	Yaw Set Point:	2.168	X_WP:	0.000	Y_WP:	0.000	Z_WP:	0.500	X:	0.015	Y:	0.010	Z:	0.049	yaw:	-124.197	yaw rate:	-3.821	Roll:	-0.238	Pitch:	0.106	Yaw:	-176.923	Thrust:	100.000
Time:	1.520	Roll Set Point:	0.002	Pitch Set Point:	-0.017	Yaw Set Point:	2.168	X_WP:	0.000	Y_WP:	0.000	Z_WP:	0.500	X:	0.015	Y:	0.010	Z:	0.049	yaw:	-124.244	yaw rate:	4.661	Roll:	-0.244	Pitch:	0.076	Yaw:	-177.928	Thrust:	100.000
Time:	1.543	Roll Set Point:	0.002	Pitch Set Point:	-0.017	Yaw Set Point:	2.168	X_WP:	0.000	Y_WP:	0.000	Z_WP:	0.500	X:	0.015	Y:	0.010	Z:	0.049	yaw:	-124.221	yaw rate:	-2.236	Roll:	-0.235	Pitch:	0.090	Yaw:	-177.811	Thrust:	100.000
Time:	1.567	Roll Set Point:	0.002	Pitch Set Point:	-0.017	Yaw Set Point:	2.168	X_WP:	0.000	Y_WP:	0.000	Z_WP:	0.500	X:	0.015	Y:	0.010	Z:	0.049	yaw:	-124.224	yaw rate:	0.214	Roll:	-0.234	Pitch:	0.100	Yaw:	-178.282	Thrust:	100.000
Time:	1.588	Roll Set Point:	0.002	Pitch Set Point:	-0.017	Yaw Set Point:	2.168	X_WP:	0.000	Y_WP:	0.000	Z_WP:	0.500	X:	0.015	Y:	0.010	Z:	0.049	yaw:	-124.229	yaw rate:	0.537	Roll:	-0.265	Pitch:	0.085	Yaw:	-177.769	Thrust:	100.000
Time:	1.611	Roll Set Point:	0.002	Pitch Set Point:	-0.017	Yaw Set Point:	2.168	X_WP:	0.000	Y_WP:	0.000	Z_WP:	0.500	X:	0.015	Y:	0.010	Z:	0.049	yaw:	-124.229	yaw rate:	0.048	Roll:	-0.227	Pitch:	0.099	Yaw:	-177.867	Thrust:	100.000
Time:	1.632	Roll Set Point:	0.002	Pitch Set Point:	-0.017	Yaw Set Point:	2.168	X_WP:	0.000	Y_WP:	0.000	Z_WP:	0.500	X:	0.015	Y:	0.010	Z:	0.049	yaw:	-124.197	yaw rate:	-3.217	Roll:	-0.264	Pitch:	0.116	Yaw:	-177.451	Thrust:	100.000
Time:	1.648	Roll Set Point:	0.002	Pitch Set Point:	-0.017	Yaw Set Point:	2.168	X_WP:	0.000	Y_WP:	0.000	Z_WP:	0.500	X:	0.015	Y:	0.010	Z:	0.049	yaw:	-124.207	yaw rate:	0.976	Roll:	-0.240	Pitch:	0.070	Yaw:	-176.793	Thrust:	94.239
Time:	1.667	Roll Set Point:	0.002	Pitch Set Point:	-0.017	Yaw Set Point:	2.168	X_WP:	0.000	Y_WP:	0.000	Z_WP:	0.500	X:	0.015	Y:	0.010	Z:	0.049	yaw:	-124.211	yaw rate:	0.356	Roll:	-0.232	Pitch:	0.091	Yaw:	-177.056	Thrust:	98.556
Time:	1.684	Roll Set Point:	0.002	Pitch Set Point:	-0.017	Yaw Set Point:	2.168	X_WP:	0.000	Y_WP:	0.000	Z_WP:	0.500	X:	0.015	Y:	0.010	Z:	0.049	yaw:	-124.221	yaw rate:	1.050	Roll:	-0.204	Pitch:	0.087	Yaw:	-177.274	Thrust:	100.000
Time:	1.702	Roll Set Point:	0.002	Pitch Set Point:	-0.017	Yaw Set Point:	2.168	X_WP:	0.000	Y_WP:	0.000	Z_WP:	0.500	X:	0.015	Y:	0.010	Z:	0.049	yaw:	-124.224	yaw rate:	0.313	Roll:	-0.280	Pitch:	0.117	Yaw:	-176.899	Thrust:	100.000
Time:	1.723	Roll Set Point:	0.002	Pitch Set Point:	-0.017	Yaw Set Point:	2.168	X_WP:	0.000	Y_WP:	0.000	Z_WP:	0.500	X:	0.015	Y:	0.010	Z:	0.049	yaw:	-124.201	yaw rate:	-2.321	Roll:	-0.234	Pitch:	0.080	Yaw:	-177.340	Thrust:	100.000
Time:	1.742	Roll Set Point:	0.002	Pitch Set Point:	-0.017	Yaw Set Point:	2.168	X_WP:	0.000	Y_WP:	0.000	Z_WP:	0.500	X:	0.015	Y:	0.010	Z:	0.049	yaw:	-124.199	yaw rate:	-0.175	Roll:	-0.232	Pitch:	0.105	Yaw:	-177.201	Thrust:	100.000
Time:	1.759	Roll Set Point:	0.002	Pitch Set Point:	-0.017	Yaw Set Point:	2.168	X_WP:	0.000	Y_WP:	0.000	Z_WP:	0.500	X:	0.015	Y:	0.010	Z:	0.049	yaw:	-124.234	yaw rate:	3.478	Roll:	-0.243	Pitch:	0.098	Yaw:	-177.579	Thrust:	100.000
Time:	1.779	Roll Set Point:	0.002	Pitch Set Point:	-0.017	Yaw Set Point:	2.168	X_WP:	0.000	Y_WP:	0.000	Z_WP:	0.500	X:	0.015	Y:	0.010	Z:	0.049	yaw:	-124.205	yaw rate:	-2.860	Roll:	-0.268	Pitch:	0.091	Yaw:	-176.974	Thrust:	100.000
Time:	1.799	Roll Set Point:	0.002	Pitch Set Point:	-0.017	Yaw Set Point:	2.168	X_WP:	0.000	Y_WP:	0.000	Z_WP:	0.500	X:	0.015	Y:	0.010	Z:	0.049	yaw:	-124.211	yaw rate:	0.518	Roll:	-0.230	Pitch:	0.095	Yaw:	-177.707	Thrust:	100.000
Time:	1.822	Roll Set Point:	0.002	Pitch Set Point:	-0.017	Yaw Set Point:	2.168	X_WP:	0.000	Y_WP:	0.000	Z_WP:	0.500	X:	0.015	Y:	0.010	Z:	0.049	yaw:	-124.210	yaw rate:	-0.079	Roll:	-0.254	Pitch:	0.095	Yaw:	-177.633	Thrust:	100.000
Time:	1.842	Roll Set Point:	0.002	Pitch Set Point:	-0.017	Yaw Set Point:	2.168	X_WP:	0.000	Y_WP:	0.000	Z_WP:	0.500	X:	0.015	Y:	0.010	Z:	0.049	yaw:	-124.238	yaw rate:	2.832	Roll:	-0.268	Pitch:	0.089	Yaw:	-177.850	Thrust:	100.000
Time:	1.862	Roll Set Point:	0.002	Pitch Set Point:	-0.017	Yaw Set Point:	2.168	X_WP:	0.000	Y_WP:	0.000	Z_WP:	0.500	X:	0.015	Y:	0.010	Z:	0.049	yaw:	-124.207	yaw rate:	-3.097	Roll:	-0.226	Pitch:	0.122	Yaw:	-177.144	Thrust:	100.000
Time:	1.882	Roll Set Point:	0.002	Pitch Set Point:	-0.017	Yaw Set Point:	2.168	X_WP:	0.000	Y_WP:	0.000	Z_WP:	0.500	X:	0.015	Y:	0.010	Z:	0.049	yaw:	-124.198	yaw rate:	-0.937	Roll:	-0.269	Pitch:	0.083	Yaw:	-177.204	Thrust:	100.000
Time:	1.902	Roll Set Point:	0.002	Pitch Set Point:	-0.017	Yaw Set Point:	2.168	X_WP:	0.000	Y_WP:	0.000	Z_WP:	0.500	X:	0.015	Y:	0.010	Z:	0.049	yaw:	-124.222	yaw rate:	2.394	Roll:	-0.245	Pitch:	0.104	Yaw:	-177.769	Thrust:	100.000
Time:	1.921	Roll Set Point:	0.002	Pitch Set Point:	-0.017	Yaw Set Point:	2.168	X_WP:	0.000	Y_WP:	0.000	Z_WP:	0.500	X:	0.015	Y:	0.010	Z:	0.049	yaw:	-124.225	yaw rate:	0.341	Roll:	-0.245	Pitch:	0.081	Yaw:	-177.506	Thrust:	100.000
Time:	1.943	Roll Set Point:	0.002	Pitch Set Point:	-0.017	Yaw Set Point:	2.168	X_WP:	0.000	Y_WP:	0.000	Z_WP:	0.500	X:	0.015	Y:	0.010	Z:	0.049	yaw:	-124.236	yaw rate:	1.096	Roll:	-0.268	Pitch:	0.110	Yaw:	-177.806	Thrust:	100.000
Time:	1.960	Roll Set Point:	0.002	Pitch Set Point:	-0.017	Yaw Set Point:	2.168	X_WP:	0.000	Y_WP:	0.000	Z_WP:	0.500	X:	0.015	Y:	0.010	Z:	0.049	yaw:	-124.215	yaw rate:	-2.131	Roll:	-0.243	Pitch:	0.111	Yaw:	-176.629	Thrust:	100.000
Time:	1.980	Roll Set Point:	0.002	Pitch Set Point:	-0.017	Yaw Set Point:	2.168	X_WP:	0.000	Y_WP:	0.000	Z_WP:	0.500	X:	0.015	Y:	0.010	Z:	0.049	yaw:	-124.223	yaw rate:	0.821	Roll:	-0.272	Pitch:	0.084	Yaw:	-177.503	Thrust:	100.000
Time:	1.999	Roll Set Point:	0.002	Pitch Set Point:	-0.017	Yaw Set Point:	2.168	X_WP:	0.000	Y_WP:	0.000	Z_WP:	0.500	X:	0.015	Y:	0.010	Z:	0.049	yaw:	-124.237	yaw rate:	1.435	Roll:	-0.238	Pitch:	0.104	Yaw:	-177.666	Thrust:	100.000
Time:	2.022	Roll Set Point:	0.002	Pitch Set Point:	-0.017	Yaw Set Point:	2.168	X_WP:	0.000	Y_WP:	0.000	Z_WP:	0.500	X:	0.015	Y:	0.010	Z:	0.049	yaw:	-124.191	yaw rate:	-4.627	Roll:	-0.273	Pitch:	0.096	Yaw:	-177.266	Thrust:	100.000
Time:	2.045	Roll Set Point:	0.002	Pitch Set Point:	-0.017	Yaw Set Point:	2.168	X_WP:	0.000	Y_WP:	0.000	Z_WP:	0.500	X:	0.015	Y:	0.010	Z:	0.049	yaw:	-124.202	yaw rate:	1.115	Roll:	-0.256	Pitch:	0.108	Yaw:	-177.963	Thrust:	100.000
Time:	2.061	Roll Set Point:	0.002	Pitch Set Point:	-0.017	Yaw Set Point:	2.167	X_WP:	0.000	Y_WP:	0.000	Z_WP:	0.500	X:	0.015	Y:	0.010	Z:	0.049	yaw:	-124.188	yaw rate:	-1.442	Roll:	-0.247	Pitch:	0.107	Yaw:	-176.587	Thrust:	100.000
Time:	2.080	Roll Set Point:	0.002	Pitch Set Point:	-0.017	Yaw Set Point:	2.168	X_WP:	0.000	Y_WP:	0.000	Z_WP:	0.500	X:	0.015	Y:	0.010	Z:	0.049	yaw:	-124.208	yaw rate:	2.001	Roll:	-0.278	Pitch:	0.097	Yaw:	-177.475	Thrust:	100.000
Time:	2.102	Roll Set Point:	0.002	Pitch Set Point:	-0.017	Yaw Set Point:	2.168	X_WP:	0.000	Y_WP:	0.000	Z_WP:	0.500	X:	0.015	Y:	0.010	Z:	0.049	yaw:	-124.228	yaw rate:	2.041	Roll:	-0.254	Pitch:	0.103	Yaw:	-178.109	Thrust:	100.000
Time:	2.120	Roll Set Point:	0.002	Pitch Set Point:	-0.017	Yaw Set Point:	2.168	X_WP:	0.000	Y_WP:	0.000	Z_WP:	0.500	X:	0.015	Y:	0.010	Z:	0.049	yaw:	-124.202	yaw rate:	-2.653	Roll:	-0.262	Pitch:	0.101	Yaw:	-176.643	Thrust:	100.000
Time:	2.141	Roll Set Point:	0.002	Pitch Set Point:	-0.017	Yaw Set Point:	2.168	X_WP:	0.000	Y_WP:	0.000	Z_WP:	0.500	X:	0.015	Y:	0.010	Z:	0.049	yaw:	-124.220	yaw rate:	1.853	Roll:	-0.260	Pitch:	0.102	Yaw:	-177.886	Thrust:	100.000
Time:	2.161	Roll Set Point:	0.002	Pitch Set Point:	-0.017	Yaw Set Point:	2.168	X_WP:	0.000	Y_WP:	0.000	Z_WP:	0.500	X:	0.015	Y:	0.010	Z:	0.049	yaw:	-124.229	yaw rate:	0.864	Roll:	-0.272	Pitch:	0.094	Yaw:	-177.482	Thrust:	100.000
Time:	2.181	Roll Set Point:	0.002	Pitch Set Point:	-0.017	Yaw Set Point:	2.168	X_WP:	0.000	Y_WP:	0.000	Z_WP:	0.500	X:	0.015	Y:	0.010	Z:	0.049	yaw:	-124.222	yaw rate:	-0.685	Roll:	-0.259	Pitch:	0.116	Yaw:	-177.461	Thrust:	100.000
Time:	2.204	Roll Set Point:	0.002	Pitch Set Point:	-0.017	Yaw Set Point:	2.168	X_WP:	0.000	Y_WP:	0.000	Z_WP:	0.500	X:	0.015	Y:	0.010	Z:	0.049	yaw:	-124.226	yaw rate:	0.382	Roll:	-0.275	Pitch:	0.095	Yaw:	-177.910	Thrust:	100.000
Time:	2.224	Roll Set Point:	0.002	Pitch Set Point:	-0.017	Yaw Set Point:	2.168	X_WP:	0.000	Y_WP:	0.000	Z_WP:	0.500	X:	0.015	Y:	0.010	Z:	0.049	yaw:	-124.194	yaw rate:	-3.175	Roll:	-0.283	Pitch:	0.120	Yaw:	-177.217	Thrust:	100.000
Time:	2.241	Roll Set Point:	0.002	Pitch Set Point:	-0.017	Yaw Set Point:	2.168	X_WP:	0.000	Y_WP:	0.000	Z_WP:	0.500	X:	0.015	Y:	0.010	Z:	0.049	yaw:	-124.230	yaw rate:	3.626	Roll:	-0.239	Pitch:	0.080	Yaw:	-177.264	Thrust:	100.000
Time:	2.261	Roll Set Point:	0.002	Pitch Set Point:	-0.017	Yaw Set Point:	2.168	X_WP:	0.000	Y_WP:	0.000	Z_WP:	0.500	X:	0.015	Y:	0.010	Z:	0.049	yaw:	-124.191	yaw rate:	-3.966	Roll:	-0.277	Pitch:	0.116	Yaw:	-177.000	Thrust:	100.000
Time:	2.281	Roll Set Point:	0.002	Pitch Set Point:	-0.017	Yaw Set Point:	2.168	X_WP:	0.000	Y_WP:	0.000	Z_WP:	0.500	X:	0.015	Y:	0.010	Z:	0.049	yaw:	-124.232	yaw rate:	4.102	Roll:	-0.248	Pitch:	0.117	Yaw:	-178.106	Thrust:	100.000
Time:	2.302	Roll Set Point:	0.002	Pitch Set Point:	-0.017	Yaw Set Point:	2.168	X_WP:	0.000	Y_WP:	0.000	Z_WP:	0.500	X:	0.015	Y:	0.010	Z:	0.049	yaw:	-124.225	yaw rate:	-0.680	Roll:	-0.280	Pitch:	0.085	Yaw:	-177.372	Thrust:	100.000
Time:	2.323	Roll Set Point:	0.002	Pitch Set Point:	-0.017	Yaw Set Point:	2.168	X_WP:	0.000	Y_WP:	0.000	Z_WP:	0.500	X:	0.015	Y:	0.010	Z:	0.049	yaw:	-124.228	yaw rate:	0.308	Roll:	-0.276	Pitch:	0.104	Yaw:	-177.706	Thrust:	100.000
Time:	2.345	Roll Set Point:	0.002	Pitch Set Point:	-0.017	Yaw Set Point:	2.168	X_WP:	0.000	Y_WP:	0.000	Z_WP:	0.500	X:	0.015	Y:	0.010	Z:	0.049	yaw:	-124.226	yaw rate:	-0.176	Roll:	-0.281	Pitch:	0.111	Yaw:	-177.843	Thrust:	100.000
Time:	2.363	Roll Set Point:	0.002	Pitch Set Point:	-0.017	Yaw Set Point:	2.168	X_WP:	0.000	Y_WP:	0.000	Z_WP:	0.500	X:	0.015	Y:	0.010	Z:	0.049	yaw:	-124.194	yaw rate:	-3.241	Roll:	-0.273	Pitch:	0.110	Yaw:	-176.547	Thrust:	100.000
Time:	2.381	Roll Set Point:	0.002	Pitch Set Point:	-0.017	Yaw Set Point:	2.168	X_WP:	0.000	Y_WP:	0.000	Z_WP:	0.500	X:	0.015	Y:	0.010	Z:	0.049	yaw:	-124.211	yaw rate:	1.675	Roll:	-0.259	Pitch:	0.115	Yaw:	-177.403	Thrust:	100.000
Time:	2.401	Roll Set Point:	0.002	Pitch Set Point:	-0.017	Yaw Set Point:	2.168	X_WP:	0.000	Y_WP:	0.000	Z_WP:	0.500	X:	0.015	Y:	0.010	Z:	0.049	yaw:	-124.204	yaw rate:	-0.665	Roll:	-0.273	Pitch:	0.104	Yaw:	-177.340	Thrust:	100.000
Time:	2.421	Roll Set Point:	0.002	Pitch Set Point:	-0.017	Yaw Set Point:	2.168	X_WP:	0.000	Y_WP:	0.000	Z_WP:	0.500	X:	0.015	Y:	0.010	Z:	0.049	yaw:	-124.213	yaw rate:	0.863	Roll:	-0.271	Pitch:	0.088	Yaw:	-177.362	Thrust:	100.000
Time:	2.441	Roll Set Point:	0.002	Pitch Set Point:	-0.017	Yaw Set Point:	2.168	X_WP:	0.000	Y_WP:	0.000	Z_WP:	0.500	X:	0.015	Y:	0.011	Z:	0.049	yaw:	-124.230	yaw rate:	1.782	Roll:	-0.294	Pitch:	0.096	Yaw:	-177.702	Thrust:	100.000
Time:	2.461	Roll Set Point:	0.002	Pitch Set Point:	-0.017	Yaw Set Point:	2.168	X_WP:	0.000	Y_WP:	0.000	Z_WP:	0.500	X:	0.015	Y:	0.010	Z:	0.049	yaw:	-124.202	yaw rate:	-2.866	Roll:	-0.268	Pitch:	0.144	Yaw:	-177.166	Thrust:	100.000
Time:	2.481	Roll Set Point:	0.002	Pitch Set Point:	-0.017	Yaw Set Point:	2.168	X_WP:	0.000	Y_WP:	0.000	Z_WP:	0.500	X:	0.015	Y:	0.010	Z:	0.049	yaw:	-124.218	yaw rate:	1.580	Roll:	-0.275	Pitch:	0.112	Yaw:	-177.677	Thrust:	100.000
Time:	2.501	Roll Set Point:	0.002	Pitch Set Point:	-0.017	Yaw Set Point:	2.168	X_WP:	0.000	Y_WP:	0.000	Z_WP:	0.500	X:	0.015	Y:	0.010	Z:	0.049	yaw:	-124.243	yaw rate:	2.594	Roll:	-0.291	Pitch:	0.074	Yaw:	-177.643	Thrust:	100.000
Time:	2.521	Roll Set Point:	0.002	Pitch Set Point:	-0.017	Yaw Set Point:	2.168	X_WP:	0.000	Y_WP:	0.000	Z_WP:	0.500	X:	0.015	Y:	0.010	Z:	0.049	yaw:	-124.214	yaw rate:	-2.965	Roll:	-0.266	Pitch:	0.129	Yaw:	-177.065	Thrust:	100.000
Time:	2.541	Roll Set Point:	0.002	Pitch Set Point:	-0.017	Yaw Set Point:	2.168	X_WP:	0.000	Y_WP:	0.000	Z_WP:	0.500	X:	0.015	Y:	0.010	Z:	0.049	yaw:	-124.204	yaw rate:	-1.021	Roll:	-0.268	Pitch:	0.130	Yaw:	-177.293	Thrust:	100.000
Time:	2.566	Roll Set Point:	0.002	Pitch Set Point:	-0.017	Yaw Set Point:	2.168	X_WP:	0.000	Y_WP:	0.000	Z_WP:	0.500	X:	0.015	Y:	0.011	Z:	0.049	yaw:	-124.228	yaw rate:	2.484	Roll:	-0.316	Pitch:	0.079	Yaw:	-178.634	Thrust:	100.000
Time:	2.590	Roll Set Point:	0.002	Pitch Set Point:	-0.017	Yaw Set Point:	2.168	X_WP:	0.000	Y_WP:	0.000	Z_WP:	0.500	X:	0.015	Y:	0.010	Z:	0.049	yaw:	-124.214	yaw rate:	-1.404	Roll:	-0.304	Pitch:	0.134	Yaw:	-178.228	Thrust:	100.000
Time:	2.606	Roll Set Point:	0.002	Pitch Set Point:	-0.017	Yaw Set Point:	2.168	X_WP:	0.000	Y_WP:	0.000	Z_WP:	0.500	X:	0.015	Y:	0.010	Z:	0.049	yaw:	-124.230	yaw rate:	1.552	Roll:	-0.269	Pitch:	0.098	Yaw:	-176.920	Thrust:	100.000
Time:	2.623	Roll Set Point:	0.002	Pitch Set Point:	-0.017	Yaw Set Point:	2.168	X_WP:	0.000	Y_WP:	0.000	Z_WP:	0.500	X:	0.015	Y:	0.010	Z:	0.049	yaw:	-124.214	yaw rate:	-1.635	Roll:	-0.276	Pitch:	0.100	Yaw:	-176.592	Thrust:	100.000
Time:	2.641	Roll Set Point:	0.002	Pitch Set Point:	-0.017	Yaw Set Point:	2.168	X_WP:	0.000	Y_WP:	0.000	Z_WP:	0.500	X:	0.015	Y:	0.010	Z:	0.049	yaw:	-124.224	yaw rate:	1.067	Roll:	-0.279	Pitch:	0.129	Yaw:	-177.222	Thrust:	100.000
Time:	2.661	Roll Set Point:	0.002	Pitch Set Point:	-0.017	Yaw Set Point:	2.168	X_WP:	0.000	Y_WP:	0.000	Z_WP:	0.500	X:	0.015	Y:	0.010	Z:	0.049	yaw:	-124.214	yaw rate:	-1.016	Roll:	-0.279	Pitch:	0.100	Yaw:	-177.323	Thrust:	100.000
Time:	2.681	Roll Set Point:	0.002	Pitch Set Point:	-0.017	Yaw Set Point:	2.168	X_WP:	0.000	Y_WP:	0.000	Z_WP:	0.500	X:	0.015	Y:	0.010	Z:	0.049	yaw:	-124.211	yaw rate:	-0.285	Roll:	-0.272	Pitch:	0.115	Yaw:	-177.529	Thrust:	100.000
Time:	2.701	Roll Set Point:	0.002	Pitch Set Point:	-0.017	Yaw Set Point:	2.168	X_WP:	0.000	Y_WP:	0.000	Z_WP:	0.500	X:	0.015	Y:	0.010	Z:	0.049	yaw:	-124.206	yaw rate:	-0.529	Roll:	-0.288	Pitch:	0.101	Yaw:	-177.162	Thrust:	100.000
Time:	2.722	Roll Set Point:	0.002	Pitch Set Point:	-0.017	Yaw Set Point:	2.168	X_WP:	0.000	Y_WP:	0.000	Z_WP:	0.500	X:	0.015	Y:	0.010	Z:	0.049	yaw:	-124.228	yaw rate:	2.182	Roll:	-0.315	Pitch:	0.109	Yaw:	-177.937	Thrust:	100.000
Time:	2.741	Roll Set Point:	0.002	Pitch Set Point:	-0.017	Yaw Set Point:	2.168	X_WP:	0.000	Y_WP:	0.000	Z_WP:	0.500	X:	0.015	Y:	0.010	Z:	0.049	yaw:	-124.227	yaw rate:	-0.042	Roll:	-0.261	Pitch:	0.124	Yaw:	-177.259	Thrust:	100.000
Time:	2.762	Roll Set Point:	0.002	Pitch Set Point:	-0.017	Yaw Set Point:	2.168	X_WP:	0.000	Y_WP:	0.000	Z_WP:	0.500	X:	0.015	Y:	0.010	Z:	0.049	yaw:	-124.213	yaw rate:	-1.402	Roll:	-0.304	Pitch:	0.125	Yaw:	-177.376	Thrust:	100.000
Time:	2.781	Roll Set Point:	0.002	Pitch Set Point:	-0.017	Yaw Set Point:	2.168	X_WP:	0.000	Y_WP:	0.000	Z_WP:	0.500	X:	0.015	Y:	0.010	Z:	0.049	yaw:	-124.216	yaw rate:	0.295	Roll:	-0.298	Pitch:	0.102	Yaw:	-177.429	Thrust:	100.000
Time:	2.802	Roll Set Point:	0.002	Pitch Set Point:	-0.017	Yaw Set Point:	2.168	X_WP:	0.000	Y_WP:	0.000	Z_WP:	0.500	X:	0.015	Y:	0.010	Z:	0.049	yaw:	-124.245	yaw rate:	2.869	Roll:	-0.282	Pitch:	0.095	Yaw:	-178.047	Thrust:	100.000
Time:	2.822	Roll Set Point:	0.002	Pitch Set Point:	-0.017	Yaw Set Point:	2.168	X_WP:	0.000	Y_WP:	0.000	Z_WP:	0.500	X:	0.015	Y:	0.010	Z:	0.049	yaw:	-124.220	yaw rate:	-2.502	Roll:	-0.291	Pitch:	0.140	Yaw:	-177.136	Thrust:	100.000
Time:	2.842	Roll Set Point:	0.002	Pitch Set Point:	-0.017	Yaw Set Point:	2.168	X_WP:	0.000	Y_WP:	0.000	Z_WP:	0.500	X:	0.015	Y:	0.010	Z:	0.049	yaw:	-124.225	yaw rate:	0.529	Roll:	-0.288	Pitch:	0.097	Yaw:	-177.326	Thrust:	100.000
Time:	2.867	Roll Set Point:	0.002	Pitch Set Point:	-0.017	Yaw Set Point:	2.168	X_WP:	0.000	Y_WP:	0.000	Z_WP:	0.500	X:	0.015	Y:	0.010	Z:	0.049	yaw:	-124.235	yaw rate:	1.018	Roll:	-0.299	Pitch:	0.113	Yaw:	-178.603	Thrust:	100.000
Time:	2.891	Roll Set Point:	0.002	Pitch Set Point:	-0.017	Yaw Set Point:	2.168	X_WP:	0.000	Y_WP:	0.000	Z_WP:	0.500	X:	0.015	Y:	0.010	Z:	0.049	yaw:	-124.196	yaw rate:	-3.911	Roll:	-0.332	Pitch:	0.146	Yaw:	-177.853	Thrust:	100.000
Time:	2.909	Roll Set Point:	0.002	Pitch Set Point:	-0.017	Yaw Set Point:	2.168	X_WP:	0.000	Y_WP:	0.000	Z_WP:	0.500	X:	0.015	Y:	0.010	Z:	0.049	yaw:	-124.239	yaw rate:	4.234	Roll:	-0.292	Pitch:	0.114	Yaw:	-177.687	Thrust:	100.000
Time:	2.927	Roll Set Point:	0.002	Pitch Set Point:	-0.017	Yaw Set Point:	2.168	X_WP:	0.000	Y_WP:	0.000	Z_WP:	0.500	X:	0.015	Y:	0.010	Z:	0.049	yaw:	-124.234	yaw rate:	-0.513	Roll:	-0.298	Pitch:	0.074	Yaw:	-177.006	Thrust:	100.000
Time:	2.944	Roll Set Point:	0.002	Pitch Set Point:	-0.017	Yaw Set Point:	2.168	X_WP:	0.000	Y_WP:	0.000	Z_WP:	0.500	X:	0.015	Y:	0.010	Z:	0.049	yaw:	-124.223	yaw rate:	-1.028	Roll:	-0.281	Pitch:	0.124	Yaw:	-176.691	Thrust:	100.000
Time:	2.962	Roll Set Point:	0.002	Pitch Set Point:	-0.017	Yaw Set Point:	2.168	X_WP:	0.000	Y_WP:	0.000	Z_WP:	0.500	X:	0.015	Y:	0.010	Z:	0.049	yaw:	-124.192	yaw rate:	-3.151	Roll:	-0.260	Pitch:	0.147	Yaw:	-176.577	Thrust:	100.000
Time:	2.982	Roll Set Point:	0.002	Pitch Set Point:	-0.017	Yaw Set Point:	2.168	X_WP:	0.000	Y_WP:	0.000	Z_WP:	0.500	X:	0.015	Y:	0.010	Z:	0.049	yaw:	-124.213	yaw rate:	2.174	Roll:	-0.318	Pitch:	0.093	Yaw:	-177.638	Thrust:	100.000
Time:	3.002	Roll Set Point:	0.002	Pitch Set Point:	-0.017	Yaw Set Point:	2.168	X_WP:	0.000	Y_WP:	0.000	Z_WP:	0.500	X:	0.015	Y:	0.010	Z:	0.049	yaw:	-124.230	yaw rate:	1.621	Roll:	-0.304	Pitch:	0.103	Yaw:	-177.673	Thrust:	100.000
Time:	3.022	Roll Set Point:	0.002	Pitch Set Point:	-0.017	Yaw Set Point:	2.168	X_WP:	0.000	Y_WP:	0.000	Z_WP:	0.500	X:	0.015	Y:	0.010	Z:	0.049	yaw:	-124.220	yaw rate:	-0.961	Roll:	-0.293	Pitch:	0.138	Yaw:	-177.337	Thrust:	100.000
Time:	3.042	Roll Set Point:	0.002	Pitch Set Point:	-0.017	Yaw Set Point:	2.168	X_WP:	0.000	Y_WP:	0.000	Z_WP:	0.500	X:	0.015	Y:	0.010	Z:	0.049	yaw:	-124.196	yaw rate:	-2.453	Roll:	-0.298	Pitch:	0.117	Yaw:	-177.100	Thrust:	100.000
Time:	3.062	Roll Set Point:	0.002	Pitch Set Point:	-0.017	Yaw Set Point:	2.169	X_WP:	0.000	Y_WP:	0.000	Z_WP:	0.500	X:	0.015	Y:	0.010	Z:	0.049	yaw:	-124.254	yaw rate:	5.796	Roll:	-0.321	Pitch:	0.116	Yaw:	-178.333	Thrust:	100.000
Time:	3.083	Roll Set Point:	0.002	Pitch Set Point:	-0.017	Yaw Set Point:	2.168	X_WP:	0.000	Y_WP:	0.000	Z_WP:	0.500	X:	0.015	Y:	0.011	Z:	0.049	yaw:	-124.221	yaw rate:	-3.297	Roll:	-0.305	Pitch:	0.096	Yaw:	-177.104	Thrust:	100.000
Time:	3.103	Roll Set Point:	0.002	Pitch Set Point:	-0.017	Yaw Set Point:	2.168	X_WP:	0.000	Y_WP:	0.000	Z_WP:	0.500	X:	0.015	Y:	0.010	Z:	0.049	yaw:	-124.203	yaw rate:	-1.726	Roll:	-0.289	Pitch:	0.129	Yaw:	-177.198	Thrust:	100.000
Time:	3.122	Roll Set Point:	0.002	Pitch Set Point:	-0.017	Yaw Set Point:	2.168	X_WP:	0.000	Y_WP:	0.000	Z_WP:	0.500	X:	0.015	Y:	0.010	Z:	0.049	yaw:	-124.198	yaw rate:	-0.537	Roll:	-0.278	Pitch:	0.141	Yaw:	-177.157	Thrust:	100.000
Time:	3.142	Roll Set Point:	0.002	Pitch Set Point:	-0.017	Yaw Set Point:	2.168	X_WP:	0.000	Y_WP:	0.000	Z_WP:	0.500	X:	0.015	Y:	0.010	Z:	0.049	yaw:	-124.208	yaw rate:	0.977	Roll:	-0.348	Pitch:	0.113	Yaw:	-177.565	Thrust:	100.000
Time:	3.163	Roll Set Point:	0.002	Pitch Set Point:	-0.017	Yaw Set Point:	2.168	X_WP:	0.000	Y_WP:	0.000	Z_WP:	0.500	X:	0.015	Y:	0.010	Z:	0.049	yaw:	-124.200	yaw rate:	-0.745	Roll:	-0.280	Pitch:	0.113	Yaw:	-177.425	Thrust:	100.000
Time:	3.182	Roll Set Point:	0.002	Pitch Set Point:	-0.017	Yaw Set Point:	2.168	X_WP:	0.000	Y_WP:	0.000	Z_WP:	0.500	X:	0.015	Y:	0.010	Z:	0.049	yaw:	-124.214	yaw rate:	1.415	Roll:	-0.313	Pitch:	0.117	Yaw:	-177.539	Thrust:	100.000
Time:	3.202	Roll Set Point:	0.002	Pitch Set Point:	-0.017	Yaw Set Point:	2.168	X_WP:	0.000	Y_WP:	0.000	Z_WP:	0.500	X:	0.015	Y:	0.010	Z:	0.049	yaw:	-124.203	yaw rate:	-1.116	Roll:	-0.322	Pitch:	0.125	Yaw:	-177.285	Thrust:	100.000
Time:	3.222	Roll Set Point:	0.002	Pitch Set Point:	-0.017	Yaw Set Point:	2.168	X_WP:	0.000	Y_WP:	0.000	Z_WP:	0.500	X:	0.015	Y:	0.010	Z:	0.049	yaw:	-124.242	yaw rate:	3.892	Roll:	-0.310	Pitch:	0.109	Yaw:	-177.986	Thrust:	100.000
Time:	3.242	Roll Set Point:	0.002	Pitch Set Point:	-0.017	Yaw Set Point:	2.167	X_WP:	0.000	Y_WP:	0.000	Z_WP:	0.500	X:	0.015	Y:	0.010	Z:	0.049	yaw:	-124.184	yaw rate:	-5.840	Roll:	-0.287	Pitch:	0.149	Yaw:	-176.642	Thrust:	100.000
Time:	3.260	Roll Set Point:	0.002	Pitch Set Point:	-0.017	Yaw Set Point:	2.168	X_WP:	0.000	Y_WP:	0.000	Z_WP:	0.500	X:	0.015	Y:	0.011	Z:	0.049	yaw:	-124.208	yaw rate:	2.421	Roll:	-0.338	Pitch:	0.091	Yaw:	-177.398	Thrust:	100.000
Time:	3.285	Roll Set Point:	0.002	Pitch Set Point:	-0.017	Yaw Set Point:	2.168	X_WP:	0.000	Y_WP:	0.000	Z_WP:	0.500	X:	0.015	Y:	0.010	Z:	0.049	yaw:	-124.223	yaw rate:	1.549	Roll:	-0.289	Pitch:	0.134	Yaw:	-178.330	Thrust:	100.000
Time:	3.308	Roll Set Point:	0.002	Pitch Set Point:	-0.017	Yaw Set Point:	2.168	X_WP:	0.000	Y_WP:	0.000	Z_WP:	0.500	X:	0.015	Y:	0.010	Z:	0.049	yaw:	-124.237	yaw rate:	1.394	Roll:	-0.338	Pitch:	0.109	Yaw:	-178.237	Thrust:	100.000
Time:	3.324	Roll Set Point:	0.002	Pitch Set Point:	-0.017	Yaw Set Point:	2.168	X_WP:	0.000	Y_WP:	0.000	Z_WP:	0.500	X:	0.015	Y:	0.010	Z:	0.049	yaw:	-124.194	yaw rate:	-4.366	Roll:	-0.311	Pitch:	0.145	Yaw:	-176.145	Thrust:	100.000
Time:	3.340	Roll Set Point:	0.002	Pitch Set Point:	-0.017	Yaw Set Point:	2.168	X_WP:	0.000	Y_WP:	0.000	Z_WP:	0.500	X:	0.015	Y:	0.010	Z:	0.049	yaw:	-124.224	yaw rate:	3.026	Roll:	-0.285	Pitch:	0.121	Yaw:	-177.152	Thrust:	100.000
Time:	3.361	Roll Set Point:	0.002	Pitch Set Point:	-0.017	Yaw Set Point:	2.168	X_WP:	0.000	Y_WP:	0.000	Z_WP:	0.500	X:	0.015	Y:	0.010	Z:	0.049	yaw:	-124.205	yaw rate:	-1.922	Roll:	-0.327	Pitch:	0.104	Yaw:	-177.402	Thrust:	100.000
Time:	3.381	Roll Set Point:	0.002	Pitch Set Point:	-0.017	Yaw Set Point:	2.168	X_WP:	0.000	Y_WP:	0.000	Z_WP:	0.500	X:	0.015	Y:	0.011	Z:	0.049	yaw:	-124.198	yaw rate:	-0.699	Roll:	-0.325	Pitch:	0.115	Yaw:	-177.286	Thrust:	100.000
Time:	3.401	Roll Set Point:	0.002	Pitch Set Point:	-0.017	Yaw Set Point:	2.167	X_WP:	0.000	Y_WP:	0.000	Z_WP:	0.500	X:	0.015	Y:	0.010	Z:	0.049	yaw:	-124.184	yaw rate:	-1.374	Roll:	-0.304	Pitch:	0.168	Yaw:	-177.440	Thrust:	100.000
Time:	3.420	Roll Set Point:	0.002	Pitch Set Point:	-0.017	Yaw Set Point:	2.168	X_WP:	0.000	Y_WP:	0.000	Z_WP:	0.500	X:	0.015	Y:	0.010	Z:	0.049	yaw:	-124.215	yaw rate:	3.116	Roll:	-0.346	Pitch:	0.095	Yaw:	-177.670	Thrust:	100.000
Time:	3.441	Roll Set Point:	0.002	Pitch Set Point:	-0.017	Yaw Set Point:	2.168	X_WP:	0.000	Y_WP:	0.000	Z_WP:	0.500	X:	0.015	Y:	0.010	Z:	0.049	yaw:	-124.222	yaw rate:	0.665	Roll:	-0.299	Pitch:	0.103	Yaw:	-177.544	Thrust:	100.000
Time:	3.459	Roll Set Point:	0.002	Pitch Set Point:	-0.017	Yaw Set Point:	2.169	X_WP:	0.000	Y_WP:	0.000	Z_WP:	0.500	X:	0.015	Y:	0.010	Z:	0.049	yaw:	-124.251	yaw rate:	2.952	Roll:	-0.327	Pitch:	0.148	Yaw:	-177.621	Thrust:	100.000
Time:	3.478	Roll Set Point:	0.002	Pitch Set Point:	-0.017	Yaw Set Point:	2.168	X_WP:	0.000	Y_WP:	0.000	Z_WP:	0.500	X:	0.015	Y:	0.010	Z:	0.049	yaw:	-124.216	yaw rate:	-3.524	Roll:	-0.318	Pitch:	0.115	Yaw:	-176.832	Thrust:	100.000
Time:	3.499	Roll Set Point:	0.002	Pitch Set Point:	-0.017	Yaw Set Point:	2.167	X_WP:	0.000	Y_WP:	0.000	Z_WP:	0.500	X:	0.015	Y:	0.010	Z:	0.049	yaw:	-124.172	yaw rate:	-4.450	Roll:	-0.324	Pitch:	0.135	Yaw:	-176.813	Thrust:	100.000
Time:	3.518	Roll Set Point:	0.002	Pitch Set Point:	-0.017	Yaw Set Point:	2.168	X_WP:	0.000	Y_WP:	0.000	Z_WP:	0.500	X:	0.015	Y:	0.010	Z:	0.049	yaw:	-124.217	yaw rate:	4.542	Roll:	-0.311	Pitch:	0.117	Yaw:	-178.038	Thrust:	100.000
Time:	3.538	Roll Set Point:	0.002	Pitch Set Point:	-0.017	Yaw Set Point:	2.168	X_WP:	0.000	Y_WP:	0.000	Z_WP:	0.500	X:	0.015	Y:	0.010	Z:	0.049	yaw:	-124.203	yaw rate:	-1.394	Roll:	-0.318	Pitch:	0.133	Yaw:	-177.039	Thrust:	100.000
Time:	3.559	Roll Set Point:	0.002	Pitch Set Point:	-0.017	Yaw Set Point:	2.168	X_WP:	0.000	Y_WP:	0.000	Z_WP:	0.500	X:	0.015	Y:	0.011	Z:	0.049	yaw:	-124.233	yaw rate:	2.994	Roll:	-0.350	Pitch:	0.110	Yaw:	-178.045	Thrust:	100.000
Time:	3.579	Roll Set Point:	0.002	Pitch Set Point:	-0.017	Yaw Set Point:	2.168	X_WP:	0.000	Y_WP:	0.000	Z_WP:	0.500	X:	0.015	Y:	0.010	Z:	0.049	yaw:	-124.243	yaw rate:	1.008	Roll:	-0.296	Pitch:	0.134	Yaw:	-177.758	Thrust:	100.000
Time:	3.602	Roll Set Point:	0.002	Pitch Set Point:	-0.017	Yaw Set Point:	2.168	X_WP:	0.000	Y_WP:	0.000	Z_WP:	0.500	X:	0.015	Y:	0.010	Z:	0.049	yaw:	-124.197	yaw rate:	-4.618	Roll:	-0.341	Pitch:	0.148	Yaw:	-177.276	Thrust:	100.000
Time:	3.621	Roll Set Point:	0.002	Pitch Set Point:	-0.017	Yaw Set Point:	2.168	X_WP:	0.000	Y_WP:	0.000	Z_WP:	0.500	X:	0.015	Y:	0.010	Z:	0.049	yaw:	-124.209	yaw rate:	1.258	Roll:	-0.325	Pitch:	0.109	Yaw:	-177.419	Thrust:	100.000
Time:	3.642	Roll Set Point:	0.002	Pitch Set Point:	-0.017	Yaw Set Point:	2.168	X_WP:	0.000	Y_WP:	0.000	Z_WP:	0.500	X:	0.015	Y:	0.010	Z:	0.049	yaw:	-124.242	yaw rate:	3.291	Roll:	-0.345	Pitch:	0.122	Yaw:	-178.090	Thrust:	100.000
Time:	3.661	Roll Set Point:	0.002	Pitch Set Point:	-0.017	Yaw Set Point:	2.168	X_WP:	0.000	Y_WP:	0.000	Z_WP:	0.500	X:	0.015	Y:	0.010	Z:	0.049	yaw:	-124.234	yaw rate:	-0.802	Roll:	-0.318	Pitch:	0.110	Yaw:	-177.266	Thrust:	100.000
Time:	3.679	Roll Set Point:	0.002	Pitch Set Point:	-0.017	Yaw Set Point:	2.168	X_WP:	0.000	Y_WP:	0.000	Z_WP:	0.500	X:	0.015	Y:	0.010	Z:	0.049	yaw:	-124.201	yaw rate:	-3.319	Roll:	-0.314	Pitch:	0.170	Yaw:	-176.391	Thrust:	100.000
Time:	3.700	Roll Set Point:	0.002	Pitch Set Point:	-0.017	Yaw Set Point:	2.168	X_WP:	0.000	Y_WP:	0.000	Z_WP:	0.500	X:	0.015	Y:	0.010	Z:	0.049	yaw:	-124.225	yaw rate:	2.358	Roll:	-0.330	Pitch:	0.114	Yaw:	-178.142	Thrust:	100.000
Time:	3.721	Roll Set Point:	0.002	Pitch Set Point:	-0.017	Yaw Set Point:	2.169	X_WP:	0.000	Y_WP:	0.000	Z_WP:	0.500	X:	0.015	Y:	0.010	Z:	0.049	yaw:	-124.252	yaw rate:	2.728	Roll:	-0.355	Pitch:	0.115	Yaw:	-178.039	Thrust:	100.000
Time:	3.741	Roll Set Point:	0.002	Pitch Set Point:	-0.017	Yaw Set Point:	2.168	X_WP:	0.000	Y_WP:	0.000	Z_WP:	0.500	X:	0.015	Y:	0.010	Z:	0.049	yaw:	-124.207	yaw rate:	-4.542	Roll:	-0.327	Pitch:	0.152	Yaw:	-176.620	Thrust:	100.000
Time:	3.762	Roll Set Point:	0.002	Pitch Set Point:	-0.017	Yaw Set Point:	2.168	X_WP:	0.000	Y_WP:	0.000	Z_WP:	0.500	X:	0.015	Y:	0.010	Z:	0.049	yaw:	-124.222	yaw rate:	1.538	Roll:	-0.319	Pitch:	0.131	Yaw:	-177.762	Thrust:	100.000
Time:	3.782	Roll Set Point:	0.002	Pitch Set Point:	-0.017	Yaw Set Point:	2.168	X_WP:	0.000	Y_WP:	0.000	Z_WP:	0.500	X:	0.015	Y:	0.010	Z:	0.049	yaw:	-124.204	yaw rate:	-1.751	Roll:	-0.346	Pitch:	0.118	Yaw:	-177.230	Thrust:	100.000
Time:	3.802	Roll Set Point:	0.002	Pitch Set Point:	-0.017	Yaw Set Point:	2.168	X_WP:	0.000	Y_WP:	0.000	Z_WP:	0.500	X:	0.015	Y:	0.010	Z:	0.049	yaw:	-124.218	yaw rate:	1.346	Roll:	-0.322	Pitch:	0.144	Yaw:	-177.627	Thrust:	100.000
Time:	3.822	Roll Set Point:	0.002	Pitch Set Point:	-0.017	Yaw Set Point:	2.169	X_WP:	0.000	Y_WP:	0.000	Z_WP:	0.500	X:	0.015	Y:	0.010	Z:	0.049	yaw:	-124.248	yaw rate:	3.021	Roll:	-0.339	Pitch:	0.132	Yaw:	-177.880	Thrust:	100.000
Time:	3.841	Roll Set Point:	0.002	Pitch Set Point:	-0.017	Yaw Set Point:	2.168	X_WP:	0.000	Y_WP:	0.000	Z_WP:	0.500	X:	0.015	Y:	0.010	Z:	0.049	yaw:	-124.212	yaw rate:	-3.627	Roll:	-0.340	Pitch:	0.110	Yaw:	-176.753	Thrust:	100.000
Time:	3.862	Roll Set Point:	0.002	Pitch Set Point:	-0.017	Yaw Set Point:	2.168	X_WP:	0.000	Y_WP:	0.000	Z_WP:	0.500	X:	0.015	Y:	0.010	Z:	0.049	yaw:	-124.198	yaw rate:	-1.364	Roll:	-0.338	Pitch:	0.156	Yaw:	-177.352	Thrust:	100.000
Time:	3.882	Roll Set Point:	0.002	Pitch Set Point:	-0.017	Yaw Set Point:	2.168	X_WP:	0.000	Y_WP:	0.000	Z_WP:	0.500	X:	0.015	Y:	0.010	Z:	0.049	yaw:	-124.216	yaw rate:	1.744	Roll:	-0.327	Pitch:	0.133	Yaw:	-177.699	Thrust:	100.000
Time:	3.902	Roll Set Point:	0.002	Pitch Set Point:	-0.017	Yaw Set Point:	2.168	X_WP:	0.000	Y_WP:	0.000	Z_WP:	0.500	X:	0.015	Y:	0.010	Z:	0.049	yaw:	-124.228	yaw rate:	1.240	Roll:	-0.356	Pitch:	0.108	Yaw:	-177.636	Thrust:	100.000
Time:	3.921	Roll Set Point:	0.002	Pitch Set Point:	-0.017	Yaw Set Point:	2.168	X_WP:	0.000	Y_WP:	0.000	Z_WP:	0.500	X:	0.015	Y:	0.010	Z:	0.049	yaw:	-124.234	yaw rate:	0.597	Roll:	-0.337	Pitch:	0.144	Yaw:	-177.348	Thrust:	100.000
Time:	3.941	Roll Set Point:	0.002	Pitch Set Point:	-0.017	Yaw Set Point:	2.168	X_WP:	0.000	Y_WP:	0.000	Z_WP:	0.500	X:	0.015	Y:	0.010	Z:	0.049	yaw:	-124.235	yaw rate:	0.102	Roll:	-0.348	Pitch:	0.137	Yaw:	-177.688	Thrust:	100.000
Time:	3.962	Roll Set Point:	0.002	Pitch Set Point:	-0.017	Yaw Set Point:	2.168	X_WP:	0.000	Y_WP:	0.000	Z_WP:	0.500	X:	0.015	Y:	0.010	Z:	0.049	yaw:	-124.207	yaw rate:	-2.817	Roll:	-0.346	Pitch:	0.139	Yaw:	-177.087	Thrust:	100.000
Time:	3.982	Roll Set Point:	0.002	Pitch Set Point:	-0.017	Yaw Set Point:	2.168	X_WP:	0.000	Y_WP:	0.000	Z_WP:	0.500	X:	0.015	Y:	0.010	Z:	0.049	yaw:	-124.216	yaw rate:	0.945	Roll:	-0.322	Pitch:	0.144	Yaw:	-177.426	Thrust:	100.000
Time:	4.002	Roll Set Point:	0.002	Pitch Set Point:	-0.017	Yaw Set Point:	2.167	X_WP:	0.000	Y_WP:	0.000	Z_WP:	0.500	X:	0.015	Y:	0.010	Z:	0.049	yaw:	-124.188	yaw rate:	-2.846	Roll:	-0.365	Pitch:	0.123	Yaw:	-177.038	Thrust:	100.000
Time:	4.022	Roll Set Point:	0.002	Pitch Set Point:	-0.017	Yaw Set Point:	2.167	X_WP:	0.000	Y_WP:	0.000	Z_WP:	0.500	X:	0.015	Y:	0.010	Z:	0.049	yaw:	-124.180	yaw rate:	-0.776	Roll:	-0.315	Pitch:	0.131	Yaw:	-177.297	Thrust:	100.000
Time:	4.040	Roll Set Point:	0.002	Pitch Set Point:	-0.017	Yaw Set Point:	2.168	X_WP:	0.000	Y_WP:	0.000	Z_WP:	0.500	X:	0.015	Y:	0.010	Z:	0.049	yaw:	-124.224	yaw rate:	4.409	Roll:	-0.357	Pitch:	0.114	Yaw:	-177.692	Thrust:	100.000
Time:	4.060	Roll Set Point:	0.002	Pitch Set Point:	-0.017	Yaw Set Point:	2.168	X_WP:	0.000	Y_WP:	0.000	Z_WP:	0.500	X:	0.015	Y:	0.010	Z:	0.049	yaw:	-124.208	yaw rate:	-1.606	Roll:	-0.338	Pitch:	0.153	Yaw:	-177.228	Thrust:	100.000
Time:	4.080	Roll Set Point:	0.002	Pitch Set Point:	-0.017	Yaw Set Point:	2.168	X_WP:	0.000	Y_WP:	0.000	Z_WP:	0.500	X:	0.015	Y:	0.010	Z:	0.049	yaw:	-124.198	yaw rate:	-0.970	Roll:	-0.352	Pitch:	0.134	Yaw:	-177.334	Thrust:	100.000
Time:	4.099	Roll Set Point:	0.002	Pitch Set Point:	-0.017	Yaw Set Point:	2.168	X_WP:	0.000	Y_WP:	0.000	Z_WP:	0.500	X:	0.015	Y:	0.010	Z:	0.049	yaw:	-124.217	yaw rate:	1.893	Roll:	-0.333	Pitch:	0.151	Yaw:	-177.698	Thrust:	100.000
Time:	4.120	Roll Set Point:	0.002	Pitch Set Point:	-0.017	Yaw Set Point:	2.168	X_WP:	0.000	Y_WP:	0.000	Z_WP:	0.500	X:	0.015	Y:	0.010	Z:	0.049	yaw:	-124.203	yaw rate:	-1.414	Roll:	-0.366	Pitch:	0.117	Yaw:	-177.246	Thrust:	100.000
Time:	4.139	Roll Set Point:	0.002	Pitch Set Point:	-0.017	Yaw Set Point:	2.168	X_WP:	0.000	Y_WP:	0.000	Z_WP:	0.500	X:	0.015	Y:	0.010	Z:	0.049	yaw:	-124.211	yaw rate:	0.735	Roll:	-0.349	Pitch:	0.131	Yaw:	-177.543	Thrust:	100.000
Time:	4.159	Roll Set Point:	0.002	Pitch Set Point:	-0.017	Yaw Set Point:	2.168	X_WP:	0.000	Y_WP:	0.000	Z_WP:	0.500	X:	0.015	Y:	0.010	Z:	0.049	yaw:	-124.223	yaw rate:	1.274	Roll:	-0.332	Pitch:	0.145	Yaw:	-177.428	Thrust:	100.000
Time:	4.180	Roll Set Point:	0.002	Pitch Set Point:	-0.017	Yaw Set Point:	2.168	X_WP:	0.000	Y_WP:	0.000	Z_WP:	0.500	X:	0.015	Y:	0.010	Z:	0.049	yaw:	-124.216	yaw rate:	-0.751	Roll:	-0.349	Pitch:	0.132	Yaw:	-177.736	Thrust:	100.000
Time:	4.198	Roll Set Point:	0.002	Pitch Set Point:	-0.017	Yaw Set Point:	2.168	X_WP:	0.000	Y_WP:	0.000	Z_WP:	0.500	X:	0.015	Y:	0.010	Z:	0.049	yaw:	-124.241	yaw rate:	2.504	Roll:	-0.354	Pitch:	0.116	Yaw:	-177.267	Thrust:	100.000
Time:	4.218	Roll Set Point:	0.002	Pitch Set Point:	-0.017	Yaw Set Point:	2.168	X_WP:	0.000	Y_WP:	0.000	Z_WP:	0.500	X:	0.015	Y:	0.010	Z:	0.049	yaw:	-124.230	yaw rate:	-1.102	Roll:	-0.362	Pitch:	0.136	Yaw:	-177.538	Thrust:	100.000
Time:	4.238	Roll Set Point:	0.002	Pitch Set Point:	-0.017	Yaw Set Point:	2.168	X_WP:	0.000	Y_WP:	0.000	Z_WP:	0.500	X:	0.015	Y:	0.010	Z:	0.049	yaw:	-124.222	yaw rate:	-0.818	Roll:	-0.326	Pitch:	0.161	Yaw:	-177.344	Thrust:	100.000
Time:	4.258	Roll Set Point:	0.002	Pitch Set Point:	-0.017	Yaw Set Point:	2.168	X_WP:	0.000	Y_WP:	0.000	Z_WP:	0.500	X:	0.015	Y:	0.010	Z:	0.049	yaw:	-124.236	yaw rate:	1.449	Roll:	-0.370	Pitch:	0.130	Yaw:	-177.476	Thrust:	100.000
Time:	4.279	Roll Set Point:	0.002	Pitch Set Point:	-0.017	Yaw Set Point:	2.169	X_WP:	0.000	Y_WP:	0.000	Z_WP:	0.500	X:	0.015	Y:	0.010	Z:	0.049	yaw:	-124.247	yaw rate:	1.077	Roll:	-0.368	Pitch:	0.128	Yaw:	-177.873	Thrust:	100.000
Time:	4.298	Roll Set Point:	0.002	Pitch Set Point:	-0.017	Yaw Set Point:	2.168	X_WP:	0.000	Y_WP:	0.000	Z_WP:	0.500	X:	0.015	Y:	0.010	Z:	0.049	yaw:	-124.214	yaw rate:	-3.290	Roll:	-0.342	Pitch:	0.142	Yaw:	-176.799	Thrust:	100.000
Time:	4.319	Roll Set Point:	0.002	Pitch Set Point:	-0.017	Yaw Set Point:	2.167	X_WP:	0.000	Y_WP:	0.000	Z_WP:	0.500	X:	0.015	Y:	0.010	Z:	0.049	yaw:	-124.187	yaw rate:	-2.752	Roll:	-0.355	Pitch:	0.165	Yaw:	-177.049	Thrust:	100.000
Time:	4.338	Roll Set Point:	0.002	Pitch Set Point:	-0.017	Yaw Set Point:	2.168	X_WP:	0.000	Y_WP:	0.000	Z_WP:	0.500	X:	0.015	Y:	0.010	Z:	0.049	yaw:	-124.217	yaw rate:	3.036	Roll:	-0.376	Pitch:	0.123	Yaw:	-177.846	Thrust:	100.000
Time:	4.358	Roll Set Point:	0.002	Pitch Set Point:	-0.017	Yaw Set Point:	2.168	X_WP:	0.000	Y_WP:	0.000	Z_WP:	0.500	X:	0.015	Y:	0.010	Z:	0.049	yaw:	-124.219	yaw rate:	0.232	Roll:	-0.359	Pitch:	0.129	Yaw:	-177.484	Thrust:	100.000
Time:	4.379	Roll Set Point:	0.002	Pitch Set Point:	-0.017	Yaw Set Point:	2.167	X_WP:	0.000	Y_WP:	0.000	Z_WP:	0.500	X:	0.015	Y:	0.010	Z:	0.049	yaw:	-124.183	yaw rate:	-3.591	Roll:	-0.324	Pitch:	0.159	Yaw:	-176.874	Thrust:	100.000
Time:	4.399	Roll Set Point:	0.002	Pitch Set Point:	-0.017	Yaw Set Point:	2.168	X_WP:	0.000	Y_WP:	0.000	Z_WP:	0.500	X:	0.015	Y:	0.010	Z:	0.049	yaw:	-124.204	yaw rate:	2.038	Roll:	-0.396	Pitch:	0.125	Yaw:	-177.703	Thrust:	100.000
Time:	4.420	Roll Set Point:	0.002	Pitch Set Point:	-0.017	Yaw Set Point:	2.168	X_WP:	0.000	Y_WP:	0.000	Z_WP:	0.500	X:	0.015	Y:	0.010	Z:	0.049	yaw:	-124.230	yaw rate:	2.593	Roll:	-0.361	Pitch:	0.149	Yaw:	-177.994	Thrust:	100.000
Time:	4.444	Roll Set Point:	0.002	Pitch Set Point:	-0.017	Yaw Set Point:	2.168	X_WP:	0.000	Y_WP:	0.000	Z_WP:	0.500	X:	0.015	Y:	0.010	Z:	0.049	yaw:	-124.205	yaw rate:	-2.500	Roll:	-0.373	Pitch:	0.155	Yaw:	-177.954	Thrust:	100.000
Time:	4.464	Roll Set Point:	0.002	Pitch Set Point:	-0.017	Yaw Set Point:	2.168	X_WP:	0.000	Y_WP:	0.000	Z_WP:	0.500	X:	0.015	Y:	0.010	Z:	0.049	yaw:	-124.199	yaw rate:	-0.576	Roll:	-0.349	Pitch:	0.145	Yaw:	-177.352	Thrust:	100.000
Time:	4.483	Roll Set Point:	0.002	Pitch Set Point:	-0.017	Yaw Set Point:	2.168	X_WP:	0.000	Y_WP:	0.000	Z_WP:	0.500	X:	0.015	Y:	0.010	Z:	0.049	yaw:	-124.227	yaw rate:	2.822	Roll:	-0.400	Pitch:	0.134	Yaw:	-177.721	Thrust:	100.000
Time:	4.504	Roll Set Point:	0.002	Pitch Set Point:	-0.017	Yaw Set Point:	2.168	X_WP:	0.000	Y_WP:	0.000	Z_WP:	0.500	X:	0.015	Y:	0.010	Z:	0.049	yaw:	-124.199	yaw rate:	-2.808	Roll:	-0.341	Pitch:	0.136	Yaw:	-177.058	Thrust:	100.000
Time:	4.520	Roll Set Point:	0.002	Pitch Set Point:	-0.017	Yaw Set Point:	2.168	X_WP:	0.000	Y_WP:	0.000	Z_WP:	0.500	X:	0.015	Y:	0.010	Z:	0.049	yaw:	-124.224	yaw rate:	2.518	Roll:	-0.346	Pitch:	0.147	Yaw:	-177.245	Thrust:	100.000
Time:	4.540	Roll Set Point:	0.002	Pitch Set Point:	-0.017	Yaw Set Point:	2.168	X_WP:	0.000	Y_WP:	0.000	Z_WP:	0.500	X:	0.015	Y:	0.010	Z:	0.049	yaw:	-124.204	yaw rate:	-2.042	Roll:	-0.376	Pitch:	0.148	Yaw:	-177.170	Thrust:	100.000
Time:	4.561	Roll Set Point:	0.002	Pitch Set Point:	-0.017	Yaw Set Point:	2.168	X_WP:	0.000	Y_WP:	0.000	Z_WP:	0.500	X:	0.015	Y:	0.010	Z:	0.049	yaw:	-124.210	yaw rate:	0.578	Roll:	-0.361	Pitch:	0.145	Yaw:	-177.516	Thrust:	100.000
Time:	4.580	Roll Set Point:	0.002	Pitch Set Point:	-0.017	Yaw Set Point:	2.167	X_WP:	0.000	Y_WP:	0.000	Z_WP:	0.500	X:	0.015	Y:	0.010	Z:	0.049	yaw:	-124.180	yaw rate:	-2.938	Roll:	-0.372	Pitch:	0.122	Yaw:	-176.901	Thrust:	100.000
Time:	4.600	Roll Set Point:	0.002	Pitch Set Point:	-0.017	Yaw Set Point:	2.167	X_WP:	0.000	Y_WP:	0.000	Z_WP:	0.500	X:	0.015	Y:	0.010	Z:	0.049	yaw:	-124.179	yaw rate:	-0.075	Roll:	-0.355	Pitch:	0.177	Yaw:	-177.388	Thrust:	100.000
Time:	4.619	Roll Set Point:	0.002	Pitch Set Point:	-0.017	Yaw Set Point:	2.168	X_WP:	0.000	Y_WP:	0.000	Z_WP:	0.500	X:	0.015	Y:	0.010	Z:	0.049	yaw:	-124.238	yaw rate:	5.900	Roll:	-0.388	Pitch:	0.125	Yaw:	-178.251	Thrust:	100.000
Time:	4.639	Roll Set Point:	0.002	Pitch Set Point:	-0.017	Yaw Set Point:	2.168	X_WP:	0.000	Y_WP:	0.000	Z_WP:	0.500	X:	0.015	Y:	0.010	Z:	0.049	yaw:	-124.215	yaw rate:	-2.297	Roll:	-0.361	Pitch:	0.128	Yaw:	-177.148	Thrust:	100.000
Time:	4.662	Roll Set Point:	0.002	Pitch Set Point:	-0.017	Yaw Set Point:	2.167	X_WP:	0.000	Y_WP:	0.000	Z_WP:	0.500	X:	0.015	Y:	0.010	Z:	0.049	yaw:	-124.187	yaw rate:	-2.880	Roll:	-0.362	Pitch:	0.182	Yaw:	-177.360	Thrust:	100.000
Time:	4.683	Roll Set Point:	0.002	Pitch Set Point:	-0.017	Yaw Set Point:	2.168	X_WP:	0.000	Y_WP:	0.000	Z_WP:	0.500	X:	0.015	Y:	0.010	Z:	0.049	yaw:	-124.223	yaw rate:	3.631	Roll:	-0.410	Pitch:	0.135	Yaw:	-178.188	Thrust:	100.000
Time:	4.704	Roll Set Point:	0.002	Pitch Set Point:	-0.017	Yaw Set Point:	2.168	X_WP:	0.000	Y_WP:	0.000	Z_WP:	0.500	X:	0.015	Y:	0.010	Z:	0.049	yaw:	-124.237	yaw rate:	1.392	Roll:	-0.376	Pitch:	0.133	Yaw:	-177.851	Thrust:	100.000
Time:	4.720	Roll Set Point:	0.002	Pitch Set Point:	-0.017	Yaw Set Point:	2.168	X_WP:	0.000	Y_WP:	0.000	Z_WP:	0.500	X:	0.015	Y:	0.010	Z:	0.049	yaw:	-124.206	yaw rate:	-3.059	Roll:	-0.346	Pitch:	0.155	Yaw:	-176.365	Thrust:	100.000
Time:	4.740	Roll Set Point:	0.002	Pitch Set Point:	-0.017	Yaw Set Point:	2.168	X_WP:	0.000	Y_WP:	0.000	Z_WP:	0.500	X:	0.015	Y:	0.010	Z:	0.049	yaw:	-124.202	yaw rate:	-0.465	Roll:	-0.369	Pitch:	0.131	Yaw:	-177.164	Thrust:	100.000
Time:	4.760	Roll Set Point:	0.002	Pitch Set Point:	-0.017	Yaw Set Point:	2.168	X_WP:	0.000	Y_WP:	0.000	Z_WP:	0.500	X:	0.015	Y:	0.010	Z:	0.049	yaw:	-124.243	yaw rate:	4.137	Roll:	-0.391	Pitch:	0.145	Yaw:	-178.027	Thrust:	100.000
Time:	4.780	Roll Set Point:	0.002	Pitch Set Point:	-0.017	Yaw Set Point:	2.168	X_WP:	0.000	Y_WP:	0.000	Z_WP:	0.500	X:	0.015	Y:	0.010	Z:	0.049	yaw:	-124.226	yaw rate:	-1.728	Roll:	-0.372	Pitch:	0.142	Yaw:	-177.230	Thrust:	100.000
Time:	4.799	Roll Set Point:	0.002	Pitch Set Point:	-0.017	Yaw Set Point:	2.168	X_WP:	0.000	Y_WP:	0.000	Z_WP:	0.500	X:	0.015	Y:	0.010	Z:	0.049	yaw:	-124.219	yaw rate:	-0.679	Roll:	-0.357	Pitch:	0.174	Yaw:	-177.159	Thrust:	100.000
Time:	4.824	Roll Set Point:	0.002	Pitch Set Point:	-0.017	Yaw Set Point:	2.168	X_WP:	0.000	Y_WP:	0.000	Z_WP:	0.500	X:	0.015	Y:	0.010	Z:	0.049	yaw:	-124.230	yaw rate:	1.144	Roll:	-0.404	Pitch:	0.138	Yaw:	-178.397	Thrust:	100.000
Time:	4.844	Roll Set Point:	0.002	Pitch Set Point:	-0.017	Yaw Set Point:	2.168	X_WP:	0.000	Y_WP:	0.000	Z_WP:	0.500	X:	0.015	Y:	0.010	Z:	0.049	yaw:	-124.244	yaw rate:	1.332	Roll:	-0.390	Pitch:	0.135	Yaw:	-177.476	Thrust:	100.000
Time:	4.864	Roll Set Point:	0.002	Pitch Set Point:	-0.017	Yaw Set Point:	2.167	X_WP:	0.000	Y_WP:	0.000	Z_WP:	0.500	X:	0.015	Y:	0.010	Z:	0.049	yaw:	-124.187	yaw rate:	-5.631	Roll:	-0.381	Pitch:	0.157	Yaw:	-176.902	Thrust:	100.000
Time:	4.885	Roll Set Point:	0.002	Pitch Set Point:	-0.017	Yaw Set Point:	2.168	X_WP:	0.000	Y_WP:	0.000	Z_WP:	0.500	X:	0.015	Y:	0.010	Z:	0.049	yaw:	-124.218	yaw rate:	3.016	Roll:	-0.366	Pitch:	0.170	Yaw:	-177.974	Thrust:	100.000
Time:	4.904	Roll Set Point:	0.002	Pitch Set Point:	-0.017	Yaw Set Point:	2.168	X_WP:	0.000	Y_WP:	0.000	Z_WP:	0.500	X:	0.015	Y:	0.010	Z:	0.049	yaw:	-124.235	yaw rate:	1.732	Roll:	-0.399	Pitch:	0.123	Yaw:	-177.506	Thrust:	100.000
Time:	4.927	Roll Set Point:	0.002	Pitch Set Point:	-0.017	Yaw Set Point:	2.168	X_WP:	0.000	Y_WP:	0.000	Z_WP:	0.500	X:	0.015	Y:	0.010	Z:	0.049	yaw:	-124.224	yaw rate:	-1.135	Roll:	-0.395	Pitch:	0.156	Yaw:	-177.726	Thrust:	100.000
Time:	4.943	Roll Set Point:	0.002	Pitch Set Point:	-0.017	Yaw Set Point:	2.168	X_WP:	0.000	Y_WP:	0.000	Z_WP:	0.500	X:	0.015	Y:	0.010	Z:	0.049	yaw:	-124.221	yaw rate:	-0.209	Roll:	-0.364	Pitch:	0.154	Yaw:	-176.823	Thrust:	100.000
Time:	4.974	Roll Set Point:	0.002	Pitch Set Point:	-0.017	Yaw Set Point:	2.168	X_WP:	0.000	Y_WP:	0.000	Z_WP:	0.500	X:	0.015	Y:	0.010	Z:	0.049	yaw:	-124.217	yaw rate:	-0.483	Roll:	-0.388	Pitch:	0.190	Yaw:	-179.631	Thrust:	100.000
Time:	4.990	Roll Set Point:	0.002	Pitch Set Point:	-0.017	Yaw Set Point:	2.168	X_WP:	0.000	Y_WP:	0.000	Z_WP:	0.500	X:	0.015	Y:	0.010	Z:	0.049	yaw:	-124.217	yaw rate:	0.017	Roll:	-0.470	Pitch:	0.146	Yaw:	-176.651	Thrust:	100.000
Time:	5.005	Roll Set Point:	0.002	Pitch Set Point:	-0.017	Yaw Set Point:	2.168	X_WP:	0.000	Y_WP:	0.000	Z_WP:	0.500	X:	0.015	Y:	0.010	Z:	0.049	yaw:	-124.237	yaw rate:	2.030	Roll:	-0.343	Pitch:	0.134	Yaw:	-176.829	Thrust:	100.000
Time:	5.018	Roll Set Point:	0.002	Pitch Set Point:	-0.017	Yaw Set Point:	2.168	X_WP:	0.000	Y_WP:	0.000	Z_WP:	0.500	X:	0.015	Y:	0.010	Z:	0.049	yaw:	-124.215	yaw rate:	-2.191	Roll:	-0.353	Pitch:	0.122	Yaw:	-175.843	Thrust:	100.000
Time:	5.039	Roll Set Point:	0.002	Pitch Set Point:	-0.017	Yaw Set Point:	2.169	X_WP:	0.000	Y_WP:	0.000	Z_WP:	0.500	X:	0.015	Y:	0.010	Z:	0.049	yaw:	-124.252	yaw rate:	3.694	Roll:	-0.382	Pitch:	0.137	Yaw:	-177.976	Thrust:	100.000
Time:	5.059	Roll Set Point:	0.002	Pitch Set Point:	-0.017	Yaw Set Point:	2.168	X_WP:	0.000	Y_WP:	0.000	Z_WP:	0.500	X:	0.015	Y:	0.010	Z:	0.049	yaw:	-124.194	yaw rate:	-5.860	Roll:	-0.377	Pitch:	0.180	Yaw:	-176.652	Thrust:	100.000
Time:	5.079	Roll Set Point:	0.002	Pitch Set Point:	-0.017	Yaw Set Point:	2.168	X_WP:	0.000	Y_WP:	0.000	Z_WP:	0.500	X:	0.015	Y:	0.010	Z:	0.049	yaw:	-124.228	yaw rate:	3.469	Roll:	-0.382	Pitch:	0.134	Yaw:	-178.037	Thrust:	100.000
Time:	5.099	Roll Set Point:	0.002	Pitch Set Point:	-0.017	Yaw Set Point:	2.168	X_WP:	0.000	Y_WP:	0.000	Z_WP:	0.500	X:	0.015	Y:	0.010	Z:	0.049	yaw:	-124.217	yaw rate:	-1.144	Roll:	-0.399	Pitch:	0.159	Yaw:	-177.301	Thrust:	100.000
Time:	5.119	Roll Set Point:	0.002	Pitch Set Point:	-0.017	Yaw Set Point:	2.168	X_WP:	0.000	Y_WP:	0.000	Z_WP:	0.500	X:	0.015	Y:	0.010	Z:	0.049	yaw:	-124.196	yaw rate:	-2.036	Roll:	-0.396	Pitch:	0.149	Yaw:	-177.162	Thrust:	100.000
Time:	5.139	Roll Set Point:	0.002	Pitch Set Point:	-0.017	Yaw Set Point:	2.168	X_WP:	0.000	Y_WP:	0.000	Z_WP:	0.500	X:	0.015	Y:	0.010	Z:	0.049	yaw:	-124.198	yaw rate:	0.165	Roll:	-0.369	Pitch:	0.147	Yaw:	-177.240	Thrust:	100.000
Time:	5.159	Roll Set Point:	0.002	Pitch Set Point:	-0.017	Yaw Set Point:	2.168	X_WP:	0.000	Y_WP:	0.000	Z_WP:	0.500	X:	0.015	Y:	0.010	Z:	0.049	yaw:	-124.213	yaw rate:	1.503	Roll:	-0.394	Pitch:	0.170	Yaw:	-177.838	Thrust:	100.000
Time:	5.180	Roll Set Point:	0.002	Pitch Set Point:	-0.017	Yaw Set Point:	2.168	X_WP:	0.000	Y_WP:	0.000	Z_WP:	0.500	X:	0.015	Y:	0.010	Z:	0.049	yaw:	-124.224	yaw rate:	1.060	Roll:	-0.398	Pitch:	0.148	Yaw:	-177.563	Thrust:	100.000
Time:	5.199	Roll Set Point:	0.002	Pitch Set Point:	-0.017	Yaw Set Point:	2.168	X_WP:	0.000	Y_WP:	0.000	Z_WP:	0.500	X:	0.015	Y:	0.010	Z:	0.049	yaw:	-124.201	yaw rate:	-2.287	Roll:	-0.411	Pitch:	0.156	Yaw:	-177.122	Thrust:	100.000
Time:	5.219	Roll Set Point:	0.002	Pitch Set Point:	-0.017	Yaw Set Point:	2.168	X_WP:	0.000	Y_WP:	0.000	Z_WP:	0.500	X:	0.015	Y:	0.010	Z:	0.049	yaw:	-124.217	yaw rate:	1.622	Roll:	-0.398	Pitch:	0.145	Yaw:	-177.662	Thrust:	100.000
Time:	5.239	Roll Set Point:	0.002	Pitch Set Point:	-0.017	Yaw Set Point:	2.168	X_WP:	0.000	Y_WP:	0.000	Z_WP:	0.500	X:	0.015	Y:	0.010	Z:	0.049	yaw:	-124.194	yaw rate:	-2.350	Roll:	-0.379	Pitch:	0.150	Yaw:	-176.901	Thrust:	100.000
Time:	5.258	Roll Set Point:	0.002	Pitch Set Point:	-0.017	Yaw Set Point:	2.168	X_WP:	0.000	Y_WP:	0.000	Z_WP:	0.500	X:	0.015	Y:	0.010	Z:	0.049	yaw:	-124.214	yaw rate:	2.002	Roll:	-0.400	Pitch:	0.170	Yaw:	-177.707	Thrust:	100.000
