Time:	0.331	Roll Set Point:	-0.009	Pitch Set Point:	-0.009	Yaw Set Point:	2.681	X_WP:	0.000	Y_WP:	0.000	Y_WP:	0.500	X:	0.025	Y:	-0.015	Z:	0.403	yaw:	-153.625	yaw rate:	-3.410	Roll:	-0.449	Pitch:	0.715	Yaw:	-214.501	Thrust:	5.361
Time:	0.387	Roll Set Point:	-0.009	Pitch Set Point:	-0.009	Yaw Set Point:	2.682	X_WP:	0.000	Y_WP:	0.000	Y_WP:	0.500	X:	0.025	Y:	-0.015	Z:	0.403	yaw:	-153.649	yaw rate:	-2.671	Roll:	-0.453	Pitch:	0.727	Yaw:	-217.659	Thrust:	5.978
Time:	0.445	Roll Set Point:	-0.009	Pitch Set Point:	-0.009	Yaw Set Point:	2.681	X_WP:	0.000	Y_WP:	0.000	Y_WP:	0.500	X:	0.025	Y:	-0.015	Z:	0.403	yaw:	-153.635	yaw rate:	0.974	Roll:	-0.446	Pitch:	0.723	Yaw:	-220.634	Thrust:	6.725
Time:	0.505	Roll Set Point:	-0.009	Pitch Set Point:	-0.009	Yaw Set Point:	2.682	X_WP:	0.000	Y_WP:	0.000	Y_WP:	0.500	X:	0.025	Y:	-0.015	Z:	0.403	yaw:	-153.647	yaw rate:	5.614	Roll:	-0.458	Pitch:	0.720	Yaw:	-224.350	Thrust:	7.503
Time:	0.573	Roll Set Point:	-0.009	Pitch Set Point:	-0.009	Yaw Set Point:	2.681	X_WP:	0.000	Y_WP:	0.000	Y_WP:	0.500	X:	0.025	Y:	-0.015	Z:	0.403	yaw:	-153.631	yaw rate:	0.718	Roll:	-0.460	Pitch:	0.739	Yaw:	-227.985	Thrust:	8.513
Time:	0.639	Roll Set Point:	-0.009	Pitch Set Point:	-0.009	Yaw Set Point:	2.682	X_WP:	0.000	Y_WP:	0.000	Y_WP:	0.500	X:	0.025	Y:	-0.015	Z:	0.403	yaw:	-153.640	yaw rate:	-1.212	Roll:	-0.464	Pitch:	0.737	Yaw:	-227.803	Thrust:	9.231
Time:	0.705	Roll Set Point:	-0.009	Pitch Set Point:	-0.009	Yaw Set Point:	2.681	X_WP:	0.000	Y_WP:	0.000	Y_WP:	0.500	X:	0.025	Y:	-0.015	Z:	0.403	yaw:	-153.616	yaw rate:	-1.615	Roll:	-0.459	Pitch:	0.737	Yaw:	-227.478	Thrust:	9.913
Time:	0.772	Roll Set Point:	-0.009	Pitch Set Point:	-0.009	Yaw Set Point:	2.681	X_WP:	0.000	Y_WP:	0.000	Y_WP:	0.500	X:	0.025	Y:	-0.015	Z:	0.403	yaw:	-153.613	yaw rate:	-2.512	Roll:	-0.464	Pitch:	0.749	Yaw:	-227.845	Thrust:	10.886
Time:	0.833	Roll Set Point:	-0.009	Pitch Set Point:	-0.009	Yaw Set Point:	2.681	X_WP:	0.000	Y_WP:	0.000	Y_WP:	0.500	X:	0.025	Y:	-0.015	Z:	0.403	yaw:	-153.635	yaw rate:	-1.308	Roll:	-0.473	Pitch:	0.746	Yaw:	-226.867	Thrust:	11.053
Time:	0.895	Roll Set Point:	-0.009	Pitch Set Point:	-0.009	Yaw Set Point:	2.682	X_WP:	0.000	Y_WP:	0.000	Y_WP:	0.500	X:	0.025	Y:	-0.015	Z:	0.403	yaw:	-153.646	yaw rate:	-1.314	Roll:	-0.474	Pitch:	0.746	Yaw:	-227.074	Thrust:	11.922
Time:	0.962	Roll Set Point:	-0.009	Pitch Set Point:	-0.009	Yaw Set Point:	2.682	X_WP:	0.000	Y_WP:	0.000	Y_WP:	0.500	X:	0.025	Y:	-0.015	Z:	0.403	yaw:	-153.664	yaw rate:	-0.263	Roll:	-0.477	Pitch:	0.755	Yaw:	-228.045	Thrust:	13.215
Time:	1.027	Roll Set Point:	-0.009	Pitch Set Point:	-0.009	Yaw Set Point:	2.681	X_WP:	0.000	Y_WP:	0.000	Y_WP:	0.500	X:	0.025	Y:	-0.015	Z:	0.403	yaw:	-153.615	yaw rate:	-6.723	Roll:	-0.470	Pitch:	0.761	Yaw:	-227.095	Thrust:	13.661
Time:	1.094	Roll Set Point:	-0.009	Pitch Set Point:	-0.009	Yaw Set Point:	2.681	X_WP:	0.000	Y_WP:	0.000	Y_WP:	0.500	X:	0.025	Y:	-0.015	Z:	0.403	yaw:	-153.616	yaw rate:	2.694	Roll:	-0.481	Pitch:	0.768	Yaw:	-227.819	Thrust:	14.713
Time:	1.161	Roll Set Point:	-0.009	Pitch Set Point:	-0.009	Yaw Set Point:	2.682	X_WP:	0.000	Y_WP:	0.000	Y_WP:	0.500	X:	0.025	Y:	-0.015	Z:	0.403	yaw:	-153.651	yaw rate:	1.403	Roll:	-0.483	Pitch:	0.767	Yaw:	-228.262	Thrust:	15.690
Time:	1.231	Roll Set Point:	-0.009	Pitch Set Point:	-0.009	Yaw Set Point:	2.682	X_WP:	0.000	Y_WP:	0.000	Y_WP:	0.500	X:	0.025	Y:	-0.015	Z:	0.403	yaw:	-153.651	yaw rate:	2.332	Roll:	-0.483	Pitch:	0.778	Yaw:	-228.600	Thrust:	16.800
Time:	1.300	Roll Set Point:	-0.009	Pitch Set Point:	-0.009	Yaw Set Point:	2.682	X_WP:	0.000	Y_WP:	0.000	Y_WP:	0.500	X:	0.025	Y:	-0.015	Z:	0.403	yaw:	-153.641	yaw rate:	4.703	Roll:	-0.489	Pitch:	0.787	Yaw:	-228.132	Thrust:	17.407
Time:	1.370	Roll Set Point:	-0.009	Pitch Set Point:	-0.009	Yaw Set Point:	2.681	X_WP:	0.000	Y_WP:	0.000	Y_WP:	0.500	X:	0.025	Y:	-0.015	Z:	0.403	yaw:	-153.623	yaw rate:	-2.160	Roll:	-0.490	Pitch:	0.786	Yaw:	-228.508	Thrust:	18.529
Time:	1.443	Roll Set Point:	-0.009	Pitch Set Point:	-0.009	Yaw Set Point:	2.681	X_WP:	0.000	Y_WP:	0.000	Y_WP:	0.500	X:	0.025	Y:	-0.015	Z:	0.403	yaw:	-153.628	yaw rate:	0.963	Roll:	-0.497	Pitch:	0.789	Yaw:	-229.128	Thrust:	19.879
Time:	1.513	Roll Set Point:	-0.009	Pitch Set Point:	-0.009	Yaw Set Point:	2.681	X_WP:	0.000	Y_WP:	0.000	Y_WP:	0.500	X:	0.025	Y:	-0.015	Z:	0.403	yaw:	-153.628	yaw rate:	3.738	Roll:	-0.501	Pitch:	0.792	Yaw:	-228.451	Thrust:	19.933
Time:	1.585	Roll Set Point:	-0.009	Pitch Set Point:	-0.009	Yaw Set Point:	2.681	X_WP:	0.000	Y_WP:	0.000	Y_WP:	0.500	X:	0.025	Y:	-0.015	Z:	0.403	yaw:	-153.621	yaw rate:	-2.909	Roll:	-0.496	Pitch:	0.803	Yaw:	-228.969	Thrust:	21.583
Time:	1.662	Roll Set Point:	-0.009	Pitch Set Point:	-0.009	Yaw Set Point:	2.682	X_WP:	0.000	Y_WP:	0.000	Y_WP:	0.500	X:	0.025	Y:	-0.015	Z:	0.403	yaw:	-153.664	yaw rate:	-0.082	Roll:	-0.514	Pitch:	0.805	Yaw:	-229.980	Thrust:	23.228
Time:	1.734	Roll Set Point:	-0.009	Pitch Set Point:	-0.009	Yaw Set Point:	2.682	X_WP:	0.000	Y_WP:	0.000	Y_WP:	0.500	X:	0.025	Y:	-0.015	Z:	0.403	yaw:	-153.657	yaw rate:	1.199	Roll:	-0.511	Pitch:	0.808	Yaw:	-229.037	Thrust:	23.075
Time:	1.814	Roll Set Point:	-0.009	Pitch Set Point:	-0.009	Yaw Set Point:	2.681	X_WP:	0.000	Y_WP:	0.000	Y_WP:	0.500	X:	0.025	Y:	-0.015	Z:	0.403	yaw:	-153.609	yaw rate:	-69.776	Roll:	-0.510	Pitch:	0.828	Yaw:	-230.286	Thrust:	25.869
Time:	1.889	Roll Set Point:	-0.009	Pitch Set Point:	-0.009	Yaw Set Point:	2.682	X_WP:	0.000	Y_WP:	0.000	Y_WP:	0.500	X:	0.025	Y:	-0.015	Z:	0.403	yaw:	-153.666	yaw rate:	1.425	Roll:	-0.522	Pitch:	0.823	Yaw:	-229.797	Thrust:	25.727
Time:	1.968	Roll Set Point:	-0.009	Pitch Set Point:	-0.009	Yaw Set Point:	2.681	X_WP:	0.000	Y_WP:	0.000	Y_WP:	0.500	X:	0.025	Y:	-0.015	Z:	0.403	yaw:	-153.632	yaw rate:	1.827	Roll:	-0.517	Pitch:	0.829	Yaw:	-230.134	Thrust:	27.461
Time:	2.050	Roll Set Point:	-0.189	Pitch Set Point:	0.079	Yaw Set Point:	2.681	X_WP:	0.200	Y_WP:	0.000	Y_WP:	0.500	X:	0.025	Y:	-0.015	Z:	0.403	yaw:	-153.638	yaw rate:	-1.409	Roll:	30.000	Pitch:	-19.993	Yaw:	-230.988	Thrust:	29.404
Time:	2.128	Roll Set Point:	-0.189	Pitch Set Point:	0.080	Yaw Set Point:	2.681	X_WP:	0.200	Y_WP:	0.000	Y_WP:	0.500	X:	0.025	Y:	-0.015	Z:	0.403	yaw:	-153.588	yaw rate:	-8.721	Roll:	4.695	Pitch:	-1.782	Yaw:	-229.823	Thrust:	28.981
Time:	2.208	Roll Set Point:	-0.189	Pitch Set Point:	0.079	Yaw Set Point:	2.681	X_WP:	0.200	Y_WP:	0.000	Y_WP:	0.500	X:	0.025	Y:	-0.015	Z:	0.403	yaw:	-153.633	yaw rate:	2.231	Roll:	4.748	Pitch:	-1.740	Yaw:	-230.753	Thrust:	30.658
Time:	2.291	Roll Set Point:	-0.189	Pitch Set Point:	0.079	Yaw Set Point:	2.681	X_WP:	0.200	Y_WP:	0.000	Y_WP:	0.500	X:	0.025	Y:	-0.015	Z:	0.403	yaw:	-153.606	yaw rate:	-4.401	Roll:	4.761	Pitch:	-1.792	Yaw:	-230.829	Thrust:	32.415
Time:	2.376	Roll Set Point:	-0.189	Pitch Set Point:	0.079	Yaw Set Point:	2.682	X_WP:	0.200	Y_WP:	0.000	Y_WP:	0.500	X:	0.025	Y:	-0.015	Z:	0.403	yaw:	-153.645	yaw rate:	2.393	Roll:	4.812	Pitch:	-1.757	Yaw:	-231.671	Thrust:	34.081
Time:	2.459	Roll Set Point:	-0.189	Pitch Set Point:	0.079	Yaw Set Point:	2.681	X_WP:	0.200	Y_WP:	0.000	Y_WP:	0.500	X:	0.025	Y:	-0.015	Z:	0.403	yaw:	-153.637	yaw rate:	2.707	Roll:	4.837	Pitch:	-1.808	Yaw:	-231.241	Thrust:	34.893
Time:	2.551	Roll Set Point:	-0.189	Pitch Set Point:	0.079	Yaw Set Point:	2.681	X_WP:	0.200	Y_WP:	0.000	Y_WP:	0.500	X:	0.025	Y:	-0.015	Z:	0.403	yaw:	-153.622	yaw rate:	4.401	Roll:	4.880	Pitch:	-1.814	Yaw:	-232.716	Thrust:	38.466
Time:	2.637	Roll Set Point:	-0.189	Pitch Set Point:	0.079	Yaw Set Point:	2.681	X_WP:	0.200	Y_WP:	0.000	Y_WP:	0.500	X:	0.025	Y:	-0.015	Z:	0.403	yaw:	-153.615	yaw rate:	-4.954	Roll:	4.909	Pitch:	-1.827	Yaw:	-231.731	Thrust:	37.491
Time:	2.732	Roll Set Point:	-0.189	Pitch Set Point:	0.079	Yaw Set Point:	2.681	X_WP:	0.200	Y_WP:	0.000	Y_WP:	0.500	X:	0.025	Y:	-0.015	Z:	0.403	yaw:	-153.630	yaw rate:	-0.578	Roll:	4.968	Pitch:	-1.829	Yaw:	-233.459	Thrust:	41.833
Time:	2.828	Roll Set Point:	-0.189	Pitch Set Point:	0.079	Yaw Set Point:	2.682	X_WP:	0.200	Y_WP:	0.000	Y_WP:	0.500	X:	0.025	Y:	-0.015	Z:	0.403	yaw:	-153.641	yaw rate:	-3.130	Roll:	5.015	Pitch:	-1.844	Yaw:	-233.914	Thrust:	44.050
Time:	2.917	Roll Set Point:	-0.189	Pitch Set Point:	0.079	Yaw Set Point:	2.682	X_WP:	0.200	Y_WP:	0.000	Y_WP:	0.500	X:	0.025	Y:	-0.015	Z:	0.403	yaw:	-153.646	yaw rate:	0.183	Roll:	5.028	Pitch:	-1.856	Yaw:	-232.314	Thrust:	41.532
Time:	3.006	Roll Set Point:	-0.189	Pitch Set Point:	0.079	Yaw Set Point:	2.681	X_WP:	0.200	Y_WP:	0.000	Y_WP:	0.500	X:	0.025	Y:	-0.015	Z:	0.403	yaw:	-153.638	yaw rate:	1.741	Roll:	5.062	Pitch:	-1.889	Yaw:	-232.195	Thrust:	42.648
Time:	3.099	Roll Set Point:	-0.189	Pitch Set Point:	0.079	Yaw Set Point:	2.682	X_WP:	0.200	Y_WP:	0.000	Y_WP:	0.500	X:	0.025	Y:	-0.015	Z:	0.403	yaw:	-153.643	yaw rate:	-3.085	Roll:	5.108	Pitch:	-1.892	Yaw:	-233.158	Thrust:	45.821
Time:	3.194	Roll Set Point:	-0.189	Pitch Set Point:	0.079	Yaw Set Point:	2.682	X_WP:	0.200	Y_WP:	0.000	Y_WP:	0.500	X:	0.025	Y:	-0.015	Z:	0.403	yaw:	-153.640	yaw rate:	-68.325	Roll:	5.167	Pitch:	-1.911	Yaw:	-233.518	Thrust:	47.602
Time:	3.297	Roll Set Point:	-0.189	Pitch Set Point:	0.079	Yaw Set Point:	2.682	X_WP:	0.200	Y_WP:	0.000	Y_WP:	0.500	X:	0.025	Y:	-0.015	Z:	0.403	yaw:	-153.654	yaw rate:	6.953	Roll:	5.242	Pitch:	-1.928	Yaw:	-235.295	Thrust:	52.604
Time:	3.400	Roll Set Point:	-0.189	Pitch Set Point:	0.079	Yaw Set Point:	2.682	X_WP:	0.200	Y_WP:	0.000	Y_WP:	0.500	X:	0.025	Y:	-0.015	Z:	0.403	yaw:	-153.639	yaw rate:	0.193	Roll:	5.275	Pitch:	-1.953	Yaw:	-234.971	Thrust:	53.289
Time:	3.494	Roll Set Point:	-0.189	Pitch Set Point:	0.079	Yaw Set Point:	2.682	X_WP:	0.200	Y_WP:	0.000	Y_WP:	0.500	X:	0.025	Y:	-0.015	Z:	0.403	yaw:	-153.682	yaw rate:	5.339	Roll:	5.284	Pitch:	-1.928	Yaw:	-233.360	Thrust:	50.100
Time:	3.588	Roll Set Point:	-0.189	Pitch Set Point:	0.079	Yaw Set Point:	2.682	X_WP:	0.200	Y_WP:	0.000	Y_WP:	0.500	X:	0.025	Y:	-0.015	Z:	0.403	yaw:	-153.668	yaw rate:	6.344	Roll:	5.310	Pitch:	-1.977	Yaw:	-233.508	Thrust:	51.980
Time:	3.693	Roll Set Point:	-0.189	Pitch Set Point:	0.079	Yaw Set Point:	2.681	X_WP:	0.200	Y_WP:	0.000	Y_WP:	0.500	X:	0.025	Y:	-0.015	Z:	0.403	yaw:	-153.616	yaw rate:	-1.331	Roll:	5.414	Pitch:	-2.023	Yaw:	-235.316	Thrust:	58.055
Time:	3.789	Roll Set Point:	-0.189	Pitch Set Point:	0.079	Yaw Set Point:	2.682	X_WP:	0.200	Y_WP:	0.000	Y_WP:	0.500	X:	0.025	Y:	-0.015	Z:	0.403	yaw:	-153.639	yaw rate:	-1.244	Roll:	5.405	Pitch:	-1.995	Yaw:	-233.805	Thrust:	54.813
Time:	3.885	Roll Set Point:	-0.189	Pitch Set Point:	0.079	Yaw Set Point:	2.682	X_WP:	0.200	Y_WP:	0.000	Y_WP:	0.500	X:	0.025	Y:	-0.015	Z:	0.403	yaw:	-153.646	yaw rate:	-1.288	Roll:	5.440	Pitch:	-2.014	Yaw:	-233.698	Thrust:	55.754
Time:	3.987	Roll Set Point:	-0.189	Pitch Set Point:	0.079	Yaw Set Point:	2.681	X_WP:	0.200	Y_WP:	0.000	Y_WP:	0.500	X:	0.025	Y:	-0.015	Z:	0.403	yaw:	-153.632	yaw rate:	-0.087	Roll:	5.522	Pitch:	-2.048	Yaw:	-234.833	Thrust:	60.113
Time:	4.084	Roll Set Point:	-0.189	Pitch Set Point:	0.079	Yaw Set Point:	2.682	X_WP:	0.200	Y_WP:	0.000	Y_WP:	0.500	X:	0.025	Y:	-0.015	Z:	0.403	yaw:	-153.651	yaw rate:	-64.917	Roll:	5.541	Pitch:	-2.046	Yaw:	-234.180	Thrust:	59.209
Time:	4.182	Roll Set Point:	-0.189	Pitch Set Point:	0.079	Yaw Set Point:	2.681	X_WP:	0.200	Y_WP:	0.000	Y_WP:	0.500	X:	0.025	Y:	-0.015	Z:	0.403	yaw:	-153.629	yaw rate:	-2.591	Roll:	5.561	Pitch:	-2.080	Yaw:	-233.866	Thrust:	59.870
Time:	4.286	Roll Set Point:	-0.189	Pitch Set Point:	0.079	Yaw Set Point:	2.682	X_WP:	0.200	Y_WP:	0.000	Y_WP:	0.500	X:	0.025	Y:	-0.015	Z:	0.403	yaw:	-153.651	yaw rate:	6.595	Roll:	5.681	Pitch:	-2.090	Yaw:	-235.523	Thrust:	65.340
Time:	4.387	Roll Set Point:	-0.189	Pitch Set Point:	0.079	Yaw Set Point:	2.681	X_WP:	0.200	Y_WP:	0.000	Y_WP:	0.500	X:	0.025	Y:	-0.015	Z:	0.403	yaw:	-153.597	yaw rate:	0.245	Roll:	5.668	Pitch:	-2.138	Yaw:	-234.415	Thrust:	64.106
Time:	4.486	Roll Set Point:	-0.189	Pitch Set Point:	0.079	Yaw Set Point:	2.681	X_WP:	0.200	Y_WP:	0.000	Y_WP:	0.500	X:	0.025	Y:	-0.015	Z:	0.403	yaw:	-153.637	yaw rate:	0.622	Roll:	5.711	Pitch:	-2.099	Yaw:	-234.413	Thrust:	64.387
Time:	4.594	Roll Set Point:	-0.189	Pitch Set Point:	0.079	Yaw Set Point:	2.681	X_WP:	0.200	Y_WP:	0.000	Y_WP:	0.500	X:	0.025	Y:	-0.015	Z:	0.403	yaw:	-153.621	yaw rate:	-3.630	Roll:	5.833	Pitch:	-2.170	Yaw:	-235.973	Thrust:	70.775
Time:	4.699	Roll Set Point:	-0.189	Pitch Set Point:	0.079	Yaw Set Point:	2.682	X_WP:	0.200	Y_WP:	0.000	Y_WP:	0.500	X:	0.025	Y:	-0.015	Z:	0.403	yaw:	-153.650	yaw rate:	-1.507	Roll:	5.858	Pitch:	-2.152	Yaw:	-235.691	Thrust:	71.013
Time:	4.805	Roll Set Point:	-0.189	Pitch Set Point:	0.077	Yaw Set Point:	2.694	X_WP:	0.200	Y_WP:	0.000	Y_WP:	0.500	X:	0.025	Y:	-0.015	Z:	0.402	yaw:	-154.367	yaw rate:	75.991	Roll:	6.048	Pitch:	-1.830	Yaw:	-238.453	Thrust:	72.229
Time:	4.914	Roll Set Point:	-0.189	Pitch Set Point:	0.079	Yaw Set Point:	2.682	X_WP:	0.200	Y_WP:	0.000	Y_WP:	0.500	X:	0.025	Y:	-0.015	Z:	0.403	yaw:	-153.652	yaw rate:	3.765	Roll:	5.854	Pitch:	-2.508	Yaw:	-234.712	Thrust:	75.654
Time:	5.020	Roll Set Point:	-0.189	Pitch Set Point:	0.079	Yaw Set Point:	2.681	X_WP:	0.200	Y_WP:	0.000	Y_WP:	0.500	X:	0.025	Y:	-0.015	Z:	0.403	yaw:	-153.637	yaw rate:	2.066	Roll:	6.005	Pitch:	-2.231	Yaw:	-235.699	Thrust:	74.844
Time:	5.130	Roll Set Point:	-0.189	Pitch Set Point:	0.079	Yaw Set Point:	2.681	X_WP:	0.200	Y_WP:	0.000	Y_WP:	0.500	X:	0.025	Y:	-0.015	Z:	0.403	yaw:	-153.614	yaw rate:	-1.877	Roll:	6.072	Pitch:	-2.265	Yaw:	-236.413	Thrust:	78.636
Time:	5.243	Roll Set Point:	-0.189	Pitch Set Point:	0.077	Yaw Set Point:	2.693	X_WP:	0.200	Y_WP:	0.000	Y_WP:	0.500	X:	0.025	Y:	-0.015	Z:	0.402	yaw:	-154.324	yaw rate:	71.068	Roll:	6.304	Pitch:	-1.957	Yaw:	-239.750	Thrust:	82.224
Time:	5.353	Roll Set Point:	-0.189	Pitch Set Point:	0.079	Yaw Set Point:	2.681	X_WP:	0.200	Y_WP:	0.000	Y_WP:	0.500	X:	0.025	Y:	-0.015	Z:	0.403	yaw:	-153.638	yaw rate:	-2.328	Roll:	6.054	Pitch:	-2.561	Yaw:	-234.760	Thrust:	80.767
Time:	5.465	Roll Set Point:	-0.189	Pitch Set Point:	0.079	Yaw Set Point:	2.681	X_WP:	0.200	Y_WP:	0.000	Y_WP:	0.500	X:	0.025	Y:	-0.015	Z:	0.403	yaw:	-153.625	yaw rate:	0.066	Roll:	6.239	Pitch:	-2.323	Yaw:	-236.919	Thrust:	84.122
Time:	5.582	Roll Set Point:	-0.189	Pitch Set Point:	0.079	Yaw Set Point:	2.681	X_WP:	0.200	Y_WP:	0.000	Y_WP:	0.500	X:	0.025	Y:	-0.015	Z:	0.403	yaw:	-153.634	yaw rate:	2.556	Roll:	6.358	Pitch:	-2.347	Yaw:	-237.815	Thrust:	88.415
Time:	5.697	Roll Set Point:	-0.189	Pitch Set Point:	0.079	Yaw Set Point:	2.682	X_WP:	0.200	Y_WP:	0.000	Y_WP:	0.500	X:	0.025	Y:	-0.015	Z:	0.403	yaw:	-153.646	yaw rate:	2.535	Roll:	6.388	Pitch:	-2.356	Yaw:	-237.706	Thrust:	89.294
Time:	5.814	Roll Set Point:	-0.189	Pitch Set Point:	0.079	Yaw Set Point:	2.682	X_WP:	0.200	Y_WP:	0.000	Y_WP:	0.500	X:	0.025	Y:	-0.015	Z:	0.403	yaw:	-153.643	yaw rate:	7.057	Roll:	6.442	Pitch:	-2.396	Yaw:	-237.939	Thrust:	91.260
Time:	5.932	Roll Set Point:	-0.189	Pitch Set Point:	0.079	Yaw Set Point:	2.681	X_WP:	0.200	Y_WP:	0.000	Y_WP:	0.500	X:	0.025	Y:	-0.015	Z:	0.403	yaw:	-153.631	yaw rate:	1.474	Roll:	6.525	Pitch:	-2.417	Yaw:	-238.028	Thrust:	93.872
Time:	6.051	Roll Set Point:	-0.189	Pitch Set Point:	0.079	Yaw Set Point:	2.681	X_WP:	0.073	Y_WP:	-0.004	Y_WP:	0.500	X:	0.025	Y:	-0.015	Z:	0.403	yaw:	-153.637	yaw rate:	2.404	Roll:	6.595	Pitch:	-2.442	Yaw:	-238.400	Thrust:	96.180
Time:	6.167	Roll Set Point:	-0.189	Pitch Set Point:	0.079	Yaw Set Point:	2.681	X_WP:	0.073	Y_WP:	-0.004	Y_WP:	0.500	X:	0.025	Y:	-0.015	Z:	0.403	yaw:	-153.666	yaw rate:	2.412	Roll:	6.574	Pitch:	-2.442	Yaw:	-237.564	Thrust:	94.348
Time:	6.287	Roll Set Point:	-0.189	Pitch Set Point:	0.079	Yaw Set Point:	2.681	X_WP:	0.073	Y_WP:	-0.004	Y_WP:	0.500	X:	0.025	Y:	-0.015	Z:	0.403	yaw:	-153.610	yaw rate:	-52.458	Roll:	6.702	Pitch:	-2.481	Yaw:	-238.620	Thrust:	99.832
Time:	6.404	Roll Set Point:	-0.189	Pitch Set Point:	0.079	Yaw Set Point:	2.681	X_WP:	0.073	Y_WP:	-0.004	Y_WP:	0.500	X:	0.025	Y:	-0.015	Z:	0.403	yaw:	-153.619	yaw rate:	-5.044	Roll:	6.677	Pitch:	-2.478	Yaw:	-237.788	Thrust:	97.932
Time:	6.525	Roll Set Point:	-0.189	Pitch Set Point:	0.079	Yaw Set Point:	2.681	X_WP:	0.073	Y_WP:	-0.004	Y_WP:	0.500	X:	0.025	Y:	-0.015	Z:	0.403	yaw:	-153.684	yaw rate:	4.523	Roll:	6.822	Pitch:	-2.530	Yaw:	-238.781	Thrust:	100.000
Time:	6.664	Roll Set Point:	-0.189	Pitch Set Point:	0.079	Yaw Set Point:	2.681	X_WP:	0.073	Y_WP:	-0.003	Y_WP:	0.500	X:	0.025	Y:	-0.015	Z:	0.402	yaw:	-154.314	yaw rate:	65.682	Roll:	7.180	Pitch:	-2.674	Yaw:	-242.343	Thrust:	100.000
Time:	6.786	Roll Set Point:	-0.189	Pitch Set Point:	0.079	Yaw Set Point:	2.681	X_WP:	0.073	Y_WP:	-0.004	Y_WP:	0.500	X:	0.025	Y:	-0.015	Z:	0.403	yaw:	-153.647	yaw rate:	3.107	Roll:	6.927	Pitch:	-2.547	Yaw:	-238.885	Thrust:	100.000
Time:	6.908	Roll Set Point:	-0.189	Pitch Set Point:	0.079	Yaw Set Point:	2.681	X_WP:	0.073	Y_WP:	-0.004	Y_WP:	0.500	X:	0.025	Y:	-0.015	Z:	0.403	yaw:	-153.661	yaw rate:	3.986	Roll:	6.971	Pitch:	-2.588	Yaw:	-238.931	Thrust:	100.000
Time:	7.033	Roll Set Point:	-0.189	Pitch Set Point:	0.079	Yaw Set Point:	2.681	X_WP:	0.073	Y_WP:	-0.004	Y_WP:	0.500	X:	0.025	Y:	-0.015	Z:	0.403	yaw:	-153.648	yaw rate:	-0.056	Roll:	7.077	Pitch:	-2.627	Yaw:	-239.447	Thrust:	100.000
Time:	7.162	Roll Set Point:	-0.189	Pitch Set Point:	0.079	Yaw Set Point:	2.681	X_WP:	0.073	Y_WP:	-0.004	Y_WP:	0.500	X:	0.025	Y:	-0.015	Z:	0.403	yaw:	-153.657	yaw rate:	0.590	Roll:	7.202	Pitch:	-2.671	Yaw:	-240.244	Thrust:	100.000
Time:	7.287	Roll Set Point:	-0.189	Pitch Set Point:	0.079	Yaw Set Point:	2.681	X_WP:	0.073	Y_WP:	-0.004	Y_WP:	0.500	X:	0.025	Y:	-0.015	Z:	0.403	yaw:	-153.650	yaw rate:	2.482	Roll:	7.201	Pitch:	-2.671	Yaw:	-239.549	Thrust:	100.000
Time:	7.416	Roll Set Point:	-0.189	Pitch Set Point:	0.079	Yaw Set Point:	2.681	X_WP:	0.073	Y_WP:	-0.003	Y_WP:	0.500	X:	0.025	Y:	-0.015	Z:	0.402	yaw:	-154.385	yaw rate:	77.135	Roll:	7.313	Pitch:	-2.739	Yaw:	-240.299	Thrust:	100.000
Time:	7.544	Roll Set Point:	-0.189	Pitch Set Point:	0.079	Yaw Set Point:	2.681	X_WP:	0.073	Y_WP:	-0.004	Y_WP:	0.500	X:	0.025	Y:	-0.015	Z:	0.403	yaw:	-153.636	yaw rate:	-0.009	Roll:	7.363	Pitch:	-2.712	Yaw:	-240.197	Thrust:	100.000
Time:	7.679	Roll Set Point:	-0.189	Pitch Set Point:	0.079	Yaw Set Point:	2.681	X_WP:	0.073	Y_WP:	-0.004	Y_WP:	0.500	X:	0.025	Y:	-0.015	Z:	0.403	yaw:	-153.587	yaw rate:	-4.880	Roll:	7.549	Pitch:	-2.800	Yaw:	-241.525	Thrust:	100.000
Time:	7.809	Roll Set Point:	-0.189	Pitch Set Point:	0.079	Yaw Set Point:	2.681	X_WP:	0.073	Y_WP:	-0.004	Y_WP:	0.500	X:	0.025	Y:	-0.015	Z:	0.403	yaw:	-153.618	yaw rate:	-3.588	Roll:	7.474	Pitch:	-2.776	Yaw:	-240.376	Thrust:	100.000
Time:	7.942	Roll Set Point:	-0.189	Pitch Set Point:	0.079	Yaw Set Point:	2.681	X_WP:	0.073	Y_WP:	-0.004	Y_WP:	0.500	X:	0.025	Y:	-0.015	Z:	0.403	yaw:	-153.628	yaw rate:	-5.038	Roll:	7.628	Pitch:	-2.834	Yaw:	-241.254	Thrust:	100.000
Time:	8.072	Roll Set Point:	-0.189	Pitch Set Point:	0.079	Yaw Set Point:	2.681	X_WP:	0.073	Y_WP:	-0.004	Y_WP:	0.500	X:	0.025	Y:	-0.015	Z:	0.403	yaw:	-153.686	yaw rate:	7.347	Roll:	7.590	Pitch:	-2.821	Yaw:	-240.421	Thrust:	100.000
Time:	8.206	Roll Set Point:	-0.189	Pitch Set Point:	0.079	Yaw Set Point:	2.681	X_WP:	0.073	Y_WP:	-0.004	Y_WP:	0.500	X:	0.025	Y:	-0.015	Z:	0.403	yaw:	-153.619	yaw rate:	-1.557	Roll:	7.743	Pitch:	-2.873	Yaw:	-241.170	Thrust:	100.000
Time:	8.336	Roll Set Point:	-0.189	Pitch Set Point:	0.079	Yaw Set Point:	2.681	X_WP:	0.073	Y_WP:	-0.004	Y_WP:	0.500	X:	0.025	Y:	-0.015	Z:	0.403	yaw:	-153.607	yaw rate:	-0.614	Roll:	7.729	Pitch:	-2.873	Yaw:	-240.763	Thrust:	100.000
Time:	8.477	Roll Set Point:	-0.189	Pitch Set Point:	0.079	Yaw Set Point:	2.681	X_WP:	0.073	Y_WP:	-0.004	Y_WP:	0.500	X:	0.025	Y:	-0.015	Z:	0.403	yaw:	-153.629	yaw rate:	-2.963	Roll:	8.007	Pitch:	-2.971	Yaw:	-242.531	Thrust:	100.000
Time:	8.612	Roll Set Point:	-0.189	Pitch Set Point:	0.079	Yaw Set Point:	2.681	X_WP:	0.073	Y_WP:	-0.004	Y_WP:	0.500	X:	0.025	Y:	-0.015	Z:	0.403	yaw:	-153.625	yaw rate:	-1.743	Roll:	7.942	Pitch:	-2.952	Yaw:	-241.595	Thrust:	100.000
Time:	8.751	Roll Set Point:	-0.189	Pitch Set Point:	0.079	Yaw Set Point:	2.681	X_WP:	0.073	Y_WP:	-0.004	Y_WP:	0.500	X:	0.025	Y:	-0.015	Z:	0.403	yaw:	-153.593	yaw rate:	-4.574	Roll:	8.087	Pitch:	-3.005	Yaw:	-242.327	Thrust:	100.000
Time:	8.885	Roll Set Point:	-0.189	Pitch Set Point:	0.079	Yaw Set Point:	2.681	X_WP:	0.073	Y_WP:	-0.004	Y_WP:	0.500	X:	0.025	Y:	-0.015	Z:	0.403	yaw:	-153.623	yaw rate:	0.076	Roll:	8.011	Pitch:	-2.981	Yaw:	-241.260	Thrust:	100.000
Time:	9.021	Roll Set Point:	-0.189	Pitch Set Point:	0.079	Yaw Set Point:	2.681	X_WP:	0.073	Y_WP:	-0.004	Y_WP:	0.500	X:	0.025	Y:	-0.015	Z:	0.403	yaw:	-153.613	yaw rate:	-5.744	Roll:	8.119	Pitch:	-3.019	Yaw:	-241.766	Thrust:	100.000
Time:	9.152	Roll Set Point:	-0.189	Pitch Set Point:	0.079	Yaw Set Point:	2.681	X_WP:	0.073	Y_WP:	-0.004	Y_WP:	0.500	X:	0.025	Y:	-0.015	Z:	0.403	yaw:	-153.620	yaw rate:	-2.509	Roll:	8.072	Pitch:	-3.011	Yaw:	-240.764	Thrust:	100.000
Time:	9.292	Roll Set Point:	-0.189	Pitch Set Point:	0.079	Yaw Set Point:	2.681	X_WP:	0.073	Y_WP:	-0.004	Y_WP:	0.500	X:	0.025	Y:	-0.015	Z:	0.403	yaw:	-153.622	yaw rate:	-1.800	Roll:	8.328	Pitch:	-3.101	Yaw:	-242.409	Thrust:	100.000
Time:	9.433	Roll Set Point:	-0.189	Pitch Set Point:	0.079	Yaw Set Point:	2.681	X_WP:	0.073	Y_WP:	-0.004	Y_WP:	0.500	X:	0.025	Y:	-0.015	Z:	0.403	yaw:	-153.659	yaw rate:	4.546	Roll:	8.413	Pitch:	-3.131	Yaw:	-242.763	Thrust:	100.000
Time:	9.580	Roll Set Point:	-0.189	Pitch Set Point:	0.079	Yaw Set Point:	2.681	X_WP:	0.073	Y_WP:	-0.004	Y_WP:	0.500	X:	0.025	Y:	-0.015	Z:	0.403	yaw:	-153.584	yaw rate:	-1.454	Roll:	8.630	Pitch:	-3.207	Yaw:	-243.941	Thrust:	100.000
Time:	9.718	Roll Set Point:	-0.189	Pitch Set Point:	0.079	Yaw Set Point:	2.681	X_WP:	0.073	Y_WP:	-0.004	Y_WP:	0.500	X:	0.025	Y:	-0.015	Z:	0.403	yaw:	-153.659	yaw rate:	-0.319	Roll:	8.469	Pitch:	-3.152	Yaw:	-242.016	Thrust:	100.000
Time:	9.865	Roll Set Point:	-0.189	Pitch Set Point:	0.079	Yaw Set Point:	2.681	X_WP:	0.073	Y_WP:	-0.004	Y_WP:	0.500	X:	0.025	Y:	-0.015	Z:	0.403	yaw:	-153.645	yaw rate:	-2.694	Roll:	8.746	Pitch:	-3.257	Yaw:	-243.896	Thrust:	100.000
Time:	10.011	Roll Set Point:	-0.189	Pitch Set Point:	0.079	Yaw Set Point:	2.681	X_WP:	0.073	Y_WP:	-0.004	Y_WP:	0.500	X:	0.025	Y:	-0.015	Z:	0.403	yaw:	-153.657	yaw rate:	-0.664	Roll:	8.780	Pitch:	-3.264	Yaw:	-243.662	Thrust:	100.000
Time:	10.158	Roll Set Point:	-0.189	Pitch Set Point:	0.079	Yaw Set Point:	2.681	X_WP:	0.073	Y_WP:	-0.004	Y_WP:	0.500	X:	0.025	Y:	-0.015	Z:	0.403	yaw:	-153.627	yaw rate:	-2.854	Roll:	8.893	Pitch:	-3.315	Yaw:	-243.928	Thrust:	100.000
Time:	10.302	Roll Set Point:	-0.189	Pitch Set Point:	0.079	Yaw Set Point:	2.681	X_WP:	0.073	Y_WP:	-0.004	Y_WP:	0.500	X:	0.025	Y:	-0.015	Z:	0.403	yaw:	-153.660	yaw rate:	1.358	Roll:	8.870	Pitch:	-3.304	Yaw:	-243.394	Thrust:	100.000
Time:	10.453	Roll Set Point:	-0.189	Pitch Set Point:	0.079	Yaw Set Point:	2.681	X_WP:	0.073	Y_WP:	-0.004	Y_WP:	0.500	X:	0.025	Y:	-0.015	Z:	0.403	yaw:	-153.672	yaw rate:	1.457	Roll:	9.123	Pitch:	-3.392	Yaw:	-244.777	Thrust:	100.000
Time:	10.601	Roll Set Point:	-0.189	Pitch Set Point:	0.079	Yaw Set Point:	2.681	X_WP:	0.073	Y_WP:	-0.004	Y_WP:	0.500	X:	0.025	Y:	-0.015	Z:	0.403	yaw:	-153.641	yaw rate:	3.593	Roll:	9.057	Pitch:	-3.372	Yaw:	-243.973	Thrust:	100.000
Time:	10.754	Roll Set Point:	-0.189	Pitch Set Point:	0.079	Yaw Set Point:	2.681	X_WP:	0.073	Y_WP:	-0.004	Y_WP:	0.500	X:	0.025	Y:	-0.015	Z:	0.403	yaw:	-153.657	yaw rate:	3.842	Roll:	9.306	Pitch:	-3.469	Yaw:	-245.078	Thrust:	100.000
Time:	10.901	Roll Set Point:	-0.189	Pitch Set Point:	0.079	Yaw Set Point:	2.681	X_WP:	0.073	Y_WP:	-0.004	Y_WP:	0.500	X:	0.025	Y:	-0.015	Z:	0.403	yaw:	-153.639	yaw rate:	-66.850	Roll:	9.187	Pitch:	-3.431	Yaw:	-244.063	Thrust:	100.000
Time:	11.058	Roll Set Point:	-0.189	Pitch Set Point:	0.079	Yaw Set Point:	2.681	X_WP:	0.073	Y_WP:	-0.004	Y_WP:	0.500	X:	0.025	Y:	-0.015	Z:	0.403	yaw:	-153.604	yaw rate:	-0.618	Roll:	9.539	Pitch:	-3.547	Yaw:	-245.766	Thrust:	100.000
Time:	11.207	Roll Set Point:	-0.189	Pitch Set Point:	0.079	Yaw Set Point:	2.681	X_WP:	0.073	Y_WP:	-0.004	Y_WP:	0.500	X:	0.025	Y:	-0.015	Z:	0.403	yaw:	-153.643	yaw rate:	2.752	Roll:	9.368	Pitch:	-3.497	Yaw:	-244.451	Thrust:	100.000
Time:	11.362	Roll Set Point:	-0.189	Pitch Set Point:	0.079	Yaw Set Point:	2.681	X_WP:	0.073	Y_WP:	-0.004	Y_WP:	0.500	X:	0.025	Y:	-0.015	Z:	0.403	yaw:	-153.619	yaw rate:	-0.820	Roll:	9.621	Pitch:	-3.588	Yaw:	-245.545	Thrust:	100.000
Time:	11.516	Roll Set Point:	-0.189	Pitch Set Point:	0.079	Yaw Set Point:	2.681	X_WP:	0.073	Y_WP:	-0.004	Y_WP:	0.500	X:	0.025	Y:	-0.015	Z:	0.403	yaw:	-153.665	yaw rate:	0.309	Roll:	9.633	Pitch:	-3.590	Yaw:	-245.198	Thrust:	100.000
Time:	11.672	Roll Set Point:	-0.189	Pitch Set Point:	0.079	Yaw Set Point:	2.681	X_WP:	0.073	Y_WP:	-0.003	Y_WP:	0.500	X:	0.025	Y:	-0.015	Z:	0.402	yaw:	-154.327	yaw rate:	69.054	Roll:	9.771	Pitch:	-3.667	Yaw:	-245.758	Thrust:	100.000
Time:	11.828	Roll Set Point:	-0.189	Pitch Set Point:	0.079	Yaw Set Point:	2.681	X_WP:	0.073	Y_WP:	-0.003	Y_WP:	0.500	X:	0.025	Y:	-0.015	Z:	0.402	yaw:	-154.300	yaw rate:	70.555	Roll:	9.825	Pitch:	-3.672	Yaw:	-245.661	Thrust:	100.000
Time:	11.986	Roll Set Point:	-0.189	Pitch Set Point:	0.079	Yaw Set Point:	2.681	X_WP:	0.073	Y_WP:	-0.004	Y_WP:	0.500	X:	0.025	Y:	-0.015	Z:	0.403	yaw:	-153.626	yaw rate:	0.570	Roll:	9.973	Pitch:	-3.703	Yaw:	-246.087	Thrust:	100.000
Time:	12.139	Roll Set Point:	-0.189	Pitch Set Point:	0.079	Yaw Set Point:	2.681	X_WP:	0.073	Y_WP:	-0.004	Y_WP:	0.500	X:	0.025	Y:	-0.015	Z:	0.403	yaw:	-153.642	yaw rate:	1.566	Roll:	9.837	Pitch:	-3.678	Yaw:	-245.065	Thrust:	100.000
Time:	12.297	Roll Set Point:	-0.189	Pitch Set Point:	0.079	Yaw Set Point:	2.681	X_WP:	0.073	Y_WP:	-0.004	Y_WP:	0.500	X:	0.025	Y:	-0.015	Z:	0.403	yaw:	-153.587	yaw rate:	-7.123	Roll:	10.120	Pitch:	-3.777	Yaw:	-246.255	Thrust:	100.000
Time:	12.455	Roll Set Point:	-0.189	Pitch Set Point:	0.079	Yaw Set Point:	2.681	X_WP:	0.073	Y_WP:	-0.004	Y_WP:	0.500	X:	0.025	Y:	-0.015	Z:	0.403	yaw:	-153.613	yaw rate:	-4.059	Roll:	10.146	Pitch:	-3.790	Yaw:	-245.950	Thrust:	100.000
Time:	12.618	Roll Set Point:	-0.189	Pitch Set Point:	0.079	Yaw Set Point:	2.681	X_WP:	0.073	Y_WP:	-0.004	Y_WP:	0.500	X:	0.025	Y:	-0.015	Z:	0.403	yaw:	-153.670	yaw rate:	4.570	Roll:	10.419	Pitch:	-3.886	Yaw:	-247.241	Thrust:	100.000
Time:	12.777	Roll Set Point:	-0.189	Pitch Set Point:	0.079	Yaw Set Point:	2.681	X_WP:	0.073	Y_WP:	-0.004	Y_WP:	0.500	X:	0.025	Y:	-0.015	Z:	0.403	yaw:	-153.652	yaw rate:	1.657	Roll:	10.331	Pitch:	-3.865	Yaw:	-246.363	Thrust:	100.000
Time:	12.943	Roll Set Point:	-0.189	Pitch Set Point:	0.079	Yaw Set Point:	2.681	X_WP:	0.073	Y_WP:	-0.004	Y_WP:	0.500	X:	0.025	Y:	-0.015	Z:	0.403	yaw:	-153.609	yaw rate:	-5.287	Roll:	10.621	Pitch:	-3.961	Yaw:	-247.640	Thrust:	100.000
Time:	13.104	Roll Set Point:	-0.189	Pitch Set Point:	0.079	Yaw Set Point:	2.681	X_WP:	0.073	Y_WP:	-0.004	Y_WP:	0.500	X:	0.025	Y:	-0.015	Z:	0.403	yaw:	-153.611	yaw rate:	-5.824	Roll:	10.509	Pitch:	-3.930	Yaw:	-246.706	Thrust:	100.000
Time:	13.272	Roll Set Point:	-0.189	Pitch Set Point:	0.079	Yaw Set Point:	2.681	X_WP:	0.073	Y_WP:	-0.003	Y_WP:	0.500	X:	0.025	Y:	-0.015	Z:	0.402	yaw:	-154.353	yaw rate:	70.530	Roll:	10.845	Pitch:	-4.075	Yaw:	-248.074	Thrust:	100.000
Time:	13.436	Roll Set Point:	-0.189	Pitch Set Point:	0.079	Yaw Set Point:	2.681	X_WP:	0.073	Y_WP:	-0.004	Y_WP:	0.500	X:	0.025	Y:	-0.015	Z:	0.403	yaw:	-153.634	yaw rate:	-2.567	Roll:	10.762	Pitch:	-4.003	Yaw:	-247.229	Thrust:	100.000
Time:	13.606	Roll Set Point:	-0.189	Pitch Set Point:	0.079	Yaw Set Point:	2.681	X_WP:	0.073	Y_WP:	-0.004	Y_WP:	0.500	X:	0.025	Y:	-0.015	Z:	0.403	yaw:	-153.638	yaw rate:	0.961	Roll:	11.074	Pitch:	-4.140	Yaw:	-248.698	Thrust:	100.000
Time:	13.771	Roll Set Point:	-0.189	Pitch Set Point:	0.079	Yaw Set Point:	2.681	X_WP:	0.073	Y_WP:	-0.003	Y_WP:	0.500	X:	0.025	Y:	-0.015	Z:	0.403	yaw:	-153.593	yaw rate:	-0.446	Roll:	10.921	Pitch:	-4.092	Yaw:	-247.332	Thrust:	100.000
Time:	13.941	Roll Set Point:	-0.189	Pitch Set Point:	0.079	Yaw Set Point:	2.681	X_WP:	0.073	Y_WP:	-0.003	Y_WP:	0.500	X:	0.025	Y:	-0.015	Z:	0.403	yaw:	-153.520	yaw rate:	-4.677	Roll:	11.148	Pitch:	-4.196	Yaw:	-248.701	Thrust:	100.000
Time:	14.111	Roll Set Point:	-0.189	Pitch Set Point:	0.079	Yaw Set Point:	2.681	X_WP:	0.073	Y_WP:	-0.004	Y_WP:	0.500	X:	0.025	Y:	-0.015	Z:	0.403	yaw:	-153.639	yaw rate:	6.193	Roll:	11.107	Pitch:	-4.208	Yaw:	-248.350	Thrust:	100.000
Time:	14.283	Roll Set Point:	-0.189	Pitch Set Point:	0.079	Yaw Set Point:	2.681	X_WP:	0.073	Y_WP:	-0.004	Y_WP:	0.500	X:	0.025	Y:	-0.015	Z:	0.403	yaw:	-153.520	yaw rate:	-6.579	Roll:	11.199	Pitch:	-4.267	Yaw:	-248.894	Thrust:	100.000
Time:	14.451	Roll Set Point:	-0.189	Pitch Set Point:	0.079	Yaw Set Point:	2.681	X_WP:	0.073	Y_WP:	-0.003	Y_WP:	0.500	X:	0.025	Y:	-0.015	Z:	0.403	yaw:	-153.582	yaw rate:	2.119	Roll:	11.061	Pitch:	-4.250	Yaw:	-248.213	Thrust:	100.000
Time:	14.626	Roll Set Point:	-0.189	Pitch Set Point:	0.079	Yaw Set Point:	2.681	X_WP:	0.073	Y_WP:	-0.003	Y_WP:	0.500	X:	0.025	Y:	-0.015	Z:	0.403	yaw:	-153.640	yaw rate:	-81.824	Roll:	11.293	Pitch:	-4.366	Yaw:	-249.444	Thrust:	100.000
Time:	14.796	Roll Set Point:	-0.189	Pitch Set Point:	0.079	Yaw Set Point:	2.681	X_WP:	0.074	Y_WP:	-0.003	Y_WP:	0.500	X:	0.025	Y:	-0.015	Z:	0.402	yaw:	-153.564	yaw rate:	-6.750	Roll:	11.111	Pitch:	-4.322	Yaw:	-248.633	Thrust:	100.000
Time:	14.965	Roll Set Point:	-0.189	Pitch Set Point:	0.079	Yaw Set Point:	2.681	X_WP:	0.073	Y_WP:	-0.004	Y_WP:	0.500	X:	0.025	Y:	-0.015	Z:	0.403	yaw:	-151.653	yaw rate:	81.903	Roll:	11.108	Pitch:	-4.322	Yaw:	-248.233	Thrust:	100.000
Time:	15.136	Roll Set Point:	-0.189	Pitch Set Point:	0.079	Yaw Set Point:	2.681	X_WP:	0.073	Y_WP:	-0.003	Y_WP:	0.500	X:	0.024	Y:	-0.015	Z:	0.403	yaw:	-151.980	yaw rate:	-17.562	Roll:	11.216	Pitch:	-4.445	Yaw:	-248.759	Thrust:	100.000
Time:	15.312	Roll Set Point:	-0.189	Pitch Set Point:	0.079	Yaw Set Point:	2.681	X_WP:	0.073	Y_WP:	-0.004	Y_WP:	0.500	X:	0.024	Y:	-0.015	Z:	0.403	yaw:	-152.390	yaw rate:	25.218	Roll:	11.362	Pitch:	-4.485	Yaw:	-249.551	Thrust:	100.000
Time:	15.485	Roll Set Point:	-0.189	Pitch Set Point:	0.079	Yaw Set Point:	2.681	X_WP:	0.073	Y_WP:	-0.003	Y_WP:	0.500	X:	0.025	Y:	-0.015	Z:	0.403	yaw:	-151.719	yaw rate:	0.710	Roll:	11.246	Pitch:	-4.509	Yaw:	-249.299	Thrust:	100.000
Time:	15.665	Roll Set Point:	-0.189	Pitch Set Point:	0.079	Yaw Set Point:	2.681	X_WP:	0.069	Y_WP:	-0.007	Y_WP:	0.500	X:	0.019	Y:	-0.014	Z:	0.401	yaw:	-156.708	yaw rate:	36.503	Roll:	12.095	Pitch:	-4.663	Yaw:	-250.266	Thrust:	100.000
Time:	15.844	Roll Set Point:	-0.189	Pitch Set Point:	0.079	Yaw Set Point:	2.681	X_WP:	0.067	Y_WP:	-0.027	Y_WP:	0.500	X:	0.017	Y:	-0.022	Z:	0.422	yaw:	-149.509	yaw rate:	-68.357	Roll:	11.908	Pitch:	-3.760	Yaw:	-250.447	Thrust:	100.000
Time:	16.021	Roll Set Point:	-0.017	Pitch Set Point:	0.001	Yaw Set Point:	2.522	X_WP:	0.000	Y_WP:	0.000	Y_WP:	-0.100	X:	0.006	Y:	-0.027	Z:	0.557	yaw:	-144.523	yaw rate:	10.222	Roll:	-8.440	Pitch:	5.993	Yaw:	-223.875	Thrust:	51.469
Time:	16.200	Roll Set Point:	-0.027	Pitch Set Point:	-0.000	Yaw Set Point:	2.474	X_WP:	0.000	Y_WP:	0.000	Y_WP:	-0.100	X:	0.014	Y:	-0.039	Z:	0.746	yaw:	-141.723	yaw rate:	-3.724	Roll:	7.340	Pitch:	-0.372	Yaw:	-229.408	Thrust:	100.000
Time:	16.384	Roll Set Point:	-0.078	Pitch Set Point:	-0.055	Yaw Set Point:	2.431	X_WP:	0.000	Y_WP:	0.000	Y_WP:	-0.100	X:	0.113	Y:	-0.078	Z:	0.880	yaw:	-139.264	yaw rate:	-95.175	Roll:	1.442	Pitch:	9.669	Yaw:	-227.772	Thrust:	100.000
Time:	16.563	Roll Set Point:	-0.188	Pitch Set Point:	-0.193	Yaw Set Point:	2.282	X_WP:	0.000	Y_WP:	0.000	Y_WP:	-0.100	X:	0.305	Y:	-0.109	Z:	0.959	yaw:	-130.756	yaw rate:	-104.069	Roll:	-4.472	Pitch:	22.143	Yaw:	-205.898	Thrust:	100.000
Time:	16.748	Roll Set Point:	-0.271	Pitch Set Point:	-0.370	Yaw Set Point:	2.236	X_WP:	0.000	Y_WP:	0.000	Y_WP:	-0.100	X:	0.516	Y:	-0.094	Z:	0.964	yaw:	-128.103	yaw rate:	-68.305	Roll:	-12.015	Pitch:	25.725	Yaw:	-212.165	Thrust:	100.000
Time:	16.932	Roll Set Point:	-0.242	Pitch Set Point:	-0.424	Yaw Set Point:	2.323	X_WP:	0.000	Y_WP:	0.000	Y_WP:	-0.100	X:	0.610	Y:	-0.067	Z:	0.964	yaw:	-133.122	yaw rate:	97.777	Roll:	-15.318	Pitch:	14.338	Yaw:	-229.795	Thrust:	100.000
Time:	17.123	Roll Set Point:	-0.238	Pitch Set Point:	-0.422	Yaw Set Point:	2.354	X_WP:	0.000	Y_WP:	0.000	Y_WP:	-0.100	X:	0.626	Y:	-0.075	Z:	0.963	yaw:	-134.876	yaw rate:	-16.994	Roll:	-6.327	Pitch:	12.610	Yaw:	-228.881	Thrust:	100.000
Time:	17.307	Roll Set Point:	-0.263	Pitch Set Point:	-0.429	Yaw Set Point:	2.321	X_WP:	0.000	Y_WP:	0.000	Y_WP:	-0.100	X:	0.624	Y:	-0.088	Z:	0.964	yaw:	-132.961	yaw rate:	-39.020	Roll:	-1.536	Pitch:	14.838	Yaw:	-219.765	Thrust:	75.980
Time:	17.495	Roll Set Point:	-0.281	Pitch Set Point:	-0.433	Yaw Set Point:	2.295	X_WP:	0.000	Y_WP:	0.000	Y_WP:	-0.100	X:	0.621	Y:	-0.095	Z:	0.966	yaw:	-131.509	yaw rate:	-58.704	Roll:	-1.660	Pitch:	14.629	Yaw:	-219.159	Thrust:	54.611
Time:	17.680	Roll Set Point:	-0.299	Pitch Set Point:	-0.436	Yaw Set Point:	2.267	X_WP:	0.000	Y_WP:	0.000	Y_WP:	-0.100	X:	0.616	Y:	-0.102	Z:	0.969	yaw:	-129.874	yaw rate:	-49.724	Roll:	-0.930	Pitch:	14.924	Yaw:	-216.150	Thrust:	29.347
Time:	17.871	Roll Set Point:	-0.303	Pitch Set Point:	-0.435	Yaw Set Point:	2.262	X_WP:	0.000	Y_WP:	0.000	Y_WP:	-0.100	X:	0.614	Y:	-0.105	Z:	0.970	yaw:	-129.627	yaw rate:	44.565	Roll:	-2.370	Pitch:	14.533	Yaw:	-218.738	Thrust:	7.548
Time:	18.058	Roll Set Point:	-0.308	Pitch Set Point:	-0.436	Yaw Set Point:	2.257	X_WP:	0.000	Y_WP:	0.000	Y_WP:	-0.100	X:	0.614	Y:	-0.107	Z:	0.969	yaw:	-129.325	yaw rate:	-4.595	Roll:	-2.641	Pitch:	15.046	Yaw:	-217.576	Thrust:	0.000
Time:	18.245	Roll Set Point:	-0.308	Pitch Set Point:	-0.435	Yaw Set Point:	2.259	X_WP:	0.000	Y_WP:	0.000	Y_WP:	-0.100	X:	0.614	Y:	-0.109	Z:	0.968	yaw:	-129.434	yaw rate:	-25.830	Roll:	-3.128	Pitch:	15.044	Yaw:	-218.390	Thrust:	0.000
Time:	18.428	Roll Set Point:	-0.319	Pitch Set Point:	-0.439	Yaw Set Point:	2.243	X_WP:	0.000	Y_WP:	0.000	Y_WP:	-0.100	X:	0.615	Y:	-0.111	Z:	0.968	yaw:	-128.533	yaw rate:	-5.957	Roll:	-2.239	Pitch:	16.070	Yaw:	-214.621	Thrust:	0.000
Time:	18.620	Roll Set Point:	-0.322	Pitch Set Point:	-0.439	Yaw Set Point:	2.238	X_WP:	0.000	Y_WP:	0.000	Y_WP:	-0.100	X:	0.613	Y:	-0.112	Z:	0.971	yaw:	-128.247	yaw rate:	-2.072	Roll:	-2.466	Pitch:	15.814	Yaw:	-217.200	Thrust:	0.000
Time:	18.810	Roll Set Point:	-0.327	Pitch Set Point:	-0.438	Yaw Set Point:	2.227	X_WP:	0.000	Y_WP:	0.000	Y_WP:	-0.100	X:	0.609	Y:	-0.113	Z:	0.971	yaw:	-127.609	yaw rate:	-22.784	Roll:	-1.937	Pitch:	16.021	Yaw:	-215.255	Thrust:	0.000
Time:	19.005	Roll Set Point:	-0.338	Pitch Set Point:	-0.428	Yaw Set Point:	2.202	X_WP:	0.000	Y_WP:	0.000	Y_WP:	-0.100	X:	0.590	Y:	-0.119	Z:	0.973	yaw:	-126.165	yaw rate:	-6.252	Roll:	0.652	Pitch:	15.691	Yaw:	-213.241	Thrust:	0.000
Time:	19.193	Roll Set Point:	-0.357	Pitch Set Point:	-0.412	Yaw Set Point:	2.158	X_WP:	0.000	Y_WP:	0.000	Y_WP:	-0.100	X:	0.564	Y:	-0.128	Z:	0.974	yaw:	-123.664	yaw rate:	0.356	Roll:	3.264	Pitch:	15.602	Yaw:	-206.766	Thrust:	0.000
Time:	19.389	Roll Set Point:	-0.349	Pitch Set Point:	-0.367	Yaw Set Point:	2.138	X_WP:	0.000	Y_WP:	0.000	Y_WP:	-0.100	X:	0.509	Y:	-0.135	Z:	0.978	yaw:	-122.487	yaw rate:	-18.251	Roll:	4.534	Pitch:	12.079	Yaw:	-208.660	Thrust:	0.000
Time:	19.584	Roll Set Point:	-0.311	Pitch Set Point:	-0.279	Yaw Set Point:	2.083	X_WP:	0.000	Y_WP:	0.000	Y_WP:	-0.100	X:	0.395	Y:	-0.127	Z:	0.958	yaw:	-119.371	yaw rate:	-91.680	Roll:	9.362	Pitch:	4.449	Yaw:	-201.459	Thrust:	0.000
Time:	19.779	Roll Set Point:	-0.222	Pitch Set Point:	-0.195	Yaw Set Point:	2.080	X_WP:	0.000	Y_WP:	0.000	Y_WP:	-0.100	X:	0.277	Y:	-0.092	Z:	0.878	yaw:	-119.151	yaw rate:	12.968	Roll:	5.951	Pitch:	-0.792	Yaw:	-205.157	Thrust:	0.000
Time:	19.974	Roll Set Point:	-0.132	Pitch Set Point:	-0.109	Yaw Set Point:	2.045	X_WP:	0.000	Y_WP:	0.000	Y_WP:	-0.100	X:	0.155	Y:	-0.053	Z:	0.739	yaw:	-117.170	yaw rate:	-88.400	Roll:	7.042	Pitch:	-4.764	Yaw:	-199.979	Thrust:	0.000
Time:	20.173	Roll Set Point:	-0.055	Pitch Set Point:	-0.034	Yaw Set Point:	1.947	X_WP:	0.000	Y_WP:	0.000	Y_WP:	-0.100	X:	0.052	Y:	-0.023	Z:	0.550	yaw:	-111.580	yaw rate:	-80.227	Roll:	7.396	Pitch:	-5.854	Yaw:	-188.167	Thrust:	0.222
Time:	20.370	Roll Set Point:	-0.025	Pitch Set Point:	-0.009	Yaw Set Point:	1.882	X_WP:	0.000	Y_WP:	0.000	Y_WP:	-0.100	X:	0.018	Y:	-0.013	Z:	0.419	yaw:	-107.857	yaw rate:	-39.412	Roll:	5.586	Pitch:	-0.927	Yaw:	-184.931	Thrust:	0.000
Time:	20.574	Roll Set Point:	-0.034	Pitch Set Point:	-0.013	Yaw Set Point:	1.689	X_WP:	0.000	Y_WP:	0.000	Y_WP:	-0.100	X:	0.024	Y:	-0.013	Z:	0.402	yaw:	-96.781	yaw rate:	-758.258	Roll:	5.791	Pitch:	2.633	Yaw:	-161.738	Thrust:	0.000
Time:	20.774	Roll Set Point:	-0.033	Pitch Set Point:	-0.016	Yaw Set Point:	1.800	X_WP:	0.000	Y_WP:	0.000	Y_WP:	-0.100	X:	0.026	Y:	-0.013	Z:	0.402	yaw:	-103.137	yaw rate:	-0.543	Roll:	5.009	Pitch:	2.669	Yaw:	-192.332	Thrust:	0.000
Time:	20.975	Roll Set Point:	-0.033	Pitch Set Point:	-0.016	Yaw Set Point:	1.800	X_WP:	0.000	Y_WP:	0.000	Y_WP:	-0.100	X:	0.026	Y:	-0.013	Z:	0.402	yaw:	-103.160	yaw rate:	1.346	Roll:	5.362	Pitch:	2.417	Yaw:	-184.398	Thrust:	0.000
Time:	21.177	Roll Set Point:	-0.033	Pitch Set Point:	-0.016	Yaw Set Point:	1.799	X_WP:	0.000	Y_WP:	0.000	Y_WP:	-0.100	X:	0.026	Y:	-0.013	Z:	0.402	yaw:	-103.095	yaw rate:	-3.030	Roll:	5.381	Pitch:	2.435	Yaw:	-184.209	Thrust:	0.000
Time:	21.380	Roll Set Point:	-0.033	Pitch Set Point:	-0.016	Yaw Set Point:	1.800	X_WP:	0.000	Y_WP:	0.000	Y_WP:	-0.100	X:	0.026	Y:	-0.013	Z:	0.402	yaw:	-103.126	yaw rate:	-0.253	Roll:	5.409	Pitch:	2.460	Yaw:	-184.680	Thrust:	0.000
Time:	21.586	Roll Set Point:	-0.032	Pitch Set Point:	-0.017	Yaw Set Point:	1.803	X_WP:	0.000	Y_WP:	0.000	Y_WP:	-0.100	X:	0.027	Y:	-0.012	Z:	0.402	yaw:	-103.287	yaw rate:	-24.804	Roll:	5.412	Pitch:	2.491	Yaw:	-185.538	Thrust:	0.000
Time:	21.792	Roll Set Point:	-0.032	Pitch Set Point:	-0.017	Yaw Set Point:	1.803	X_WP:	0.000	Y_WP:	0.000	Y_WP:	-0.100	X:	0.027	Y:	-0.012	Z:	0.402	yaw:	-103.328	yaw rate:	2.637	Roll:	5.433	Pitch:	2.501	Yaw:	-185.468	Thrust:	0.000
Time:	21.998	Roll Set Point:	-0.032	Pitch Set Point:	-0.017	Yaw Set Point:	1.802	X_WP:	0.000	Y_WP:	0.000	Y_WP:	-0.100	X:	0.027	Y:	-0.012	Z:	0.402	yaw:	-103.264	yaw rate:	-3.668	Roll:	5.495	Pitch:	2.535	Yaw:	-185.336	Thrust:	0.000
Time:	22.205	Roll Set Point:	-0.032	Pitch Set Point:	-0.017	Yaw Set Point:	1.803	X_WP:	0.000	Y_WP:	0.000	Y_WP:	-0.100	X:	0.027	Y:	-0.012	Z:	0.402	yaw:	-103.282	yaw rate:	-0.943	Roll:	5.511	Pitch:	2.549	Yaw:	-185.680	Thrust:	0.000
Time:	22.414	Roll Set Point:	-0.032	Pitch Set Point:	-0.016	Yaw Set Point:	1.803	X_WP:	0.000	Y_WP:	0.000	Y_WP:	-0.100	X:	0.026	Y:	-0.012	Z:	0.402	yaw:	-103.316	yaw rate:	9.293	Roll:	5.557	Pitch:	2.568	Yaw:	-186.085	Thrust:	0.000
Time:	22.626	Roll Set Point:	-0.032	Pitch Set Point:	-0.017	Yaw Set Point:	1.797	X_WP:	0.000	Y_WP:	0.000	Y_WP:	-0.100	X:	0.027	Y:	-0.012	Z:	0.402	yaw:	-102.973	yaw rate:	-3.582	Roll:	5.642	Pitch:	2.622	Yaw:	-185.743	Thrust:	0.000
Time:	22.836	Roll Set Point:	-0.032	Pitch Set Point:	-0.016	Yaw Set Point:	1.801	X_WP:	0.000	Y_WP:	0.000	Y_WP:	-0.100	X:	0.026	Y:	-0.012	Z:	0.402	yaw:	-103.218	yaw rate:	-5.328	Roll:	5.566	Pitch:	2.602	Yaw:	-186.369	Thrust:	0.000
Time:	23.048	Roll Set Point:	-0.032	Pitch Set Point:	-0.016	Yaw Set Point:	1.802	X_WP:	0.000	Y_WP:	0.000	Y_WP:	-0.100	X:	0.026	Y:	-0.012	Z:	0.402	yaw:	-103.247	yaw rate:	1.061	Roll:	5.668	Pitch:	2.655	Yaw:	-186.711	Thrust:	0.000
Time:	23.260	Roll Set Point:	-0.032	Pitch Set Point:	-0.017	Yaw Set Point:	1.802	X_WP:	0.000	Y_WP:	0.000	Y_WP:	-0.100	X:	0.026	Y:	-0.012	Z:	0.402	yaw:	-103.263	yaw rate:	1.398	Roll:	5.625	Pitch:	2.658	Yaw:	-186.572	Thrust:	0.000
Time:	23.473	Roll Set Point:	-0.032	Pitch Set Point:	-0.016	Yaw Set Point:	1.803	X_WP:	0.000	Y_WP:	0.000	Y_WP:	-0.100	X:	0.026	Y:	-0.012	Z:	0.402	yaw:	-103.279	yaw rate:	3.668	Roll:	5.677	Pitch:	2.687	Yaw:	-186.726	Thrust:	0.000
Time:	23.686	Roll Set Point:	-0.032	Pitch Set Point:	-0.016	Yaw Set Point:	1.802	X_WP:	0.000	Y_WP:	0.000	Y_WP:	-0.100	X:	0.026	Y:	-0.012	Z:	0.402	yaw:	-103.235	yaw rate:	-0.490	Roll:	5.696	Pitch:	2.707	Yaw:	-186.818	Thrust:	0.000
Time:	23.902	Roll Set Point:	-0.032	Pitch Set Point:	-0.017	Yaw Set Point:	1.802	X_WP:	0.000	Y_WP:	0.000	Y_WP:	-0.100	X:	0.026	Y:	-0.012	Z:	0.402	yaw:	-103.233	yaw rate:	-1.856	Roll:	5.752	Pitch:	2.740	Yaw:	-187.386	Thrust:	0.000
Time:	24.119	Roll Set Point:	-0.032	Pitch Set Point:	-0.016	Yaw Set Point:	1.801	X_WP:	0.000	Y_WP:	0.000	Y_WP:	-0.100	X:	0.026	Y:	-0.012	Z:	0.402	yaw:	-103.195	yaw rate:	-4.298	Roll:	5.784	Pitch:	2.762	Yaw:	-187.341	Thrust:	0.000
Time:	24.337	Roll Set Point:	-0.032	Pitch Set Point:	-0.016	Yaw Set Point:	1.802	X_WP:	0.000	Y_WP:	0.000	Y_WP:	-0.100	X:	0.026	Y:	-0.012	Z:	0.402	yaw:	-103.241	yaw rate:	-0.827	Roll:	5.802	Pitch:	2.789	Yaw:	-187.693	Thrust:	0.000
Time:	24.552	Roll Set Point:	-0.032	Pitch Set Point:	-0.016	Yaw Set Point:	1.802	X_WP:	0.000	Y_WP:	0.000	Y_WP:	-0.100	X:	0.026	Y:	-0.012	Z:	0.402	yaw:	-103.256	yaw rate:	1.022	Roll:	5.766	Pitch:	2.788	Yaw:	-187.393	Thrust:	0.000
Time:	24.773	Roll Set Point:	-0.032	Pitch Set Point:	-0.016	Yaw Set Point:	1.802	X_WP:	0.000	Y_WP:	0.000	Y_WP:	-0.100	X:	0.026	Y:	-0.012	Z:	0.402	yaw:	-103.226	yaw rate:	-3.448	Roll:	5.892	Pitch:	2.845	Yaw:	-188.308	Thrust:	0.000
Time:	24.996	Roll Set Point:	-0.032	Pitch Set Point:	-0.016	Yaw Set Point:	1.802	X_WP:	0.000	Y_WP:	0.000	Y_WP:	-0.100	X:	0.026	Y:	-0.012	Z:	0.402	yaw:	-103.234	yaw rate:	-3.167	Roll:	5.953	Pitch:	2.885	Yaw:	-188.733	Thrust:	0.000
Time:	25.218	Roll Set Point:	-0.032	Pitch Set Point:	-0.016	Yaw Set Point:	1.802	X_WP:	0.000	Y_WP:	0.000	Y_WP:	-0.100	X:	0.026	Y:	-0.012	Z:	0.402	yaw:	-103.258	yaw rate:	2.436	Roll:	5.937	Pitch:	2.892	Yaw:	-188.576	Thrust:	0.000
Time:	25.441	Roll Set Point:	-0.032	Pitch Set Point:	-0.017	Yaw Set Point:	1.802	X_WP:	0.000	Y_WP:	0.000	Y_WP:	-0.100	X:	0.026	Y:	-0.012	Z:	0.402	yaw:	-103.262	yaw rate:	1.752	Roll:	5.931	Pitch:	2.908	Yaw:	-188.563	Thrust:	0.000
Time:	25.668	Roll Set Point:	-0.032	Pitch Set Point:	-0.017	Yaw Set Point:	1.802	X_WP:	0.000	Y_WP:	0.000	Y_WP:	-0.100	X:	0.026	Y:	-0.012	Z:	0.402	yaw:	-103.259	yaw rate:	2.052	Roll:	6.084	Pitch:	2.973	Yaw:	-189.810	Thrust:	0.000
Time:	25.894	Roll Set Point:	-0.032	Pitch Set Point:	-0.017	Yaw Set Point:	1.802	X_WP:	0.000	Y_WP:	0.000	Y_WP:	-0.100	X:	0.026	Y:	-0.012	Z:	0.402	yaw:	-103.251	yaw rate:	-0.216	Roll:	6.027	Pitch:	2.971	Yaw:	-189.105	Thrust:	0.000
Time:	26.137	Roll Set Point:	-0.032	Pitch Set Point:	-0.016	Yaw Set Point:	1.802	X_WP:	0.000	Y_WP:	0.000	Y_WP:	-0.100	X:	0.026	Y:	-0.012	Z:	0.402	yaw:	-103.258	yaw rate:	6.115	Roll:	6.496	Pitch:	3.157	Yaw:	-192.806	Thrust:	0.000
Time:	26.361	Roll Set Point:	-0.032	Pitch Set Point:	-0.017	Yaw Set Point:	1.801	X_WP:	0.000	Y_WP:	0.000	Y_WP:	-0.100	X:	0.026	Y:	-0.012	Z:	0.402	yaw:	-103.216	yaw rate:	-1.641	Roll:	6.011	Pitch:	2.992	Yaw:	-189.067	Thrust:	0.000
Time:	26.586	Roll Set Point:	-0.032	Pitch Set Point:	-0.016	Yaw Set Point:	1.801	X_WP:	0.000	Y_WP:	0.000	Y_WP:	-0.100	X:	0.026	Y:	-0.012	Z:	0.402	yaw:	-103.211	yaw rate:	-0.213	Roll:	6.032	Pitch:	3.015	Yaw:	-189.035	Thrust:	0.000
Time:	26.813	Roll Set Point:	-0.032	Pitch Set Point:	-0.016	Yaw Set Point:	1.802	X_WP:	0.000	Y_WP:	0.000	Y_WP:	-0.100	X:	0.026	Y:	-0.012	Z:	0.402	yaw:	-103.247	yaw rate:	0.022	Roll:	6.057	Pitch:	3.040	Yaw:	-189.397	Thrust:	0.000
Time:	27.042	Roll Set Point:	-0.032	Pitch Set Point:	-0.016	Yaw Set Point:	1.801	X_WP:	0.000	Y_WP:	0.000	Y_WP:	-0.100	X:	0.026	Y:	-0.012	Z:	0.402	yaw:	-103.217	yaw rate:	-2.991	Roll:	6.160	Pitch:	3.094	Yaw:	-190.120	Thrust:	0.000
Time:	27.269	Roll Set Point:	-0.032	Pitch Set Point:	-0.016	Yaw Set Point:	1.802	X_WP:	0.000	Y_WP:	0.000	Y_WP:	-0.100	X:	0.026	Y:	-0.012	Z:	0.402	yaw:	-103.272	yaw rate:	2.672	Roll:	6.087	Pitch:	3.084	Yaw:	-189.633	Thrust:	0.000
Time:	27.501	Roll Set Point:	-0.032	Pitch Set Point:	-0.016	Yaw Set Point:	1.802	X_WP:	0.000	Y_WP:	0.000	Y_WP:	-0.100	X:	0.026	Y:	-0.012	Z:	0.402	yaw:	-103.246	yaw rate:	-1.373	Roll:	6.215	Pitch:	3.144	Yaw:	-190.487	Thrust:	0.000
Time:	27.734	Roll Set Point:	-0.032	Pitch Set Point:	-0.016	Yaw Set Point:	1.802	X_WP:	0.000	Y_WP:	0.000	Y_WP:	-0.100	X:	0.026	Y:	-0.012	Z:	0.402	yaw:	-103.236	yaw rate:	-1.070	Roll:	6.270	Pitch:	3.181	Yaw:	-190.823	Thrust:	0.000
Time:	27.972	Roll Set Point:	-0.032	Pitch Set Point:	-0.016	Yaw Set Point:	1.802	X_WP:	0.000	Y_WP:	0.000	Y_WP:	-0.100	X:	0.026	Y:	-0.012	Z:	0.402	yaw:	-103.237	yaw rate:	-0.721	Roll:	6.373	Pitch:	3.237	Yaw:	-191.639	Thrust:	0.000
Time:	28.202	Roll Set Point:	-0.032	Pitch Set Point:	-0.016	Yaw Set Point:	1.802	X_WP:	0.000	Y_WP:	0.000	Y_WP:	-0.100	X:	0.026	Y:	-0.012	Z:	0.402	yaw:	-103.260	yaw rate:	-0.587	Roll:	6.199	Pitch:	3.185	Yaw:	-190.353	Thrust:	0.000
Time:	28.441	Roll Set Point:	-0.032	Pitch Set Point:	-0.016	Yaw Set Point:	1.801	X_WP:	0.000	Y_WP:	0.000	Y_WP:	-0.100	X:	0.026	Y:	-0.012	Z:	0.402	yaw:	-103.217	yaw rate:	-0.430	Roll:	6.406	Pitch:	3.279	Yaw:	-191.729	Thrust:	0.000
Time:	28.675	Roll Set Point:	-0.032	Pitch Set Point:	-0.016	Yaw Set Point:	1.802	X_WP:	0.000	Y_WP:	0.000	Y_WP:	-0.100	X:	0.026	Y:	-0.012	Z:	0.402	yaw:	-103.238	yaw rate:	-2.231	Roll:	6.307	Pitch:	3.258	Yaw:	-191.009	Thrust:	0.000
Time:	28.913	Roll Set Point:	-0.032	Pitch Set Point:	-0.016	Yaw Set Point:	1.802	X_WP:	0.000	Y_WP:	0.000	Y_WP:	-0.100	X:	0.026	Y:	-0.012	Z:	0.402	yaw:	-103.233	yaw rate:	-0.887	Roll:	6.397	Pitch:	3.310	Yaw:	-191.707	Thrust:	0.000
Time:	29.150	Roll Set Point:	-0.032	Pitch Set Point:	-0.016	Yaw Set Point:	1.802	X_WP:	0.000	Y_WP:	0.000	Y_WP:	-0.100	X:	0.026	Y:	-0.012	Z:	0.402	yaw:	-103.224	yaw rate:	-1.660	Roll:	6.372	Pitch:	3.313	Yaw:	-191.471	Thrust:	0.000
Time:	29.387	Roll Set Point:	-0.032	Pitch Set Point:	-0.016	Yaw Set Point:	1.802	X_WP:	0.000	Y_WP:	0.000	Y_WP:	-0.100	X:	0.026	Y:	-0.012	Z:	0.402	yaw:	-103.238	yaw rate:	1.403	Roll:	6.400	Pitch:	3.342	Yaw:	-191.686	Thrust:	0.000
Time:	29.629	Roll Set Point:	-0.032	Pitch Set Point:	-0.016	Yaw Set Point:	1.802	X_WP:	0.000	Y_WP:	0.000	Y_WP:	-0.100	X:	0.026	Y:	-0.012	Z:	0.402	yaw:	-103.233	yaw rate:	1.490	Roll:	6.499	Pitch:	3.401	Yaw:	-192.509	Thrust:	0.000
Time:	29.874	Roll Set Point:	-0.032	Pitch Set Point:	-0.016	Yaw Set Point:	1.802	X_WP:	0.000	Y_WP:	0.000	Y_WP:	-0.100	X:	0.026	Y:	-0.012	Z:	0.402	yaw:	-103.258	yaw rate:	-0.238	Roll:	6.592	Pitch:	3.446	Yaw:	-193.170	Thrust:	0.000
Time:	30.116	Roll Set Point:	-0.032	Pitch Set Point:	-0.016	Yaw Set Point:	1.802	X_WP:	0.000	Y_WP:	0.000	Y_WP:	-0.100	X:	0.026	Y:	-0.012	Z:	0.402	yaw:	-103.226	yaw rate:	-0.582	Roll:	6.536	Pitch:	3.442	Yaw:	-192.506	Thrust:	0.000
Time:	30.361	Roll Set Point:	-0.032	Pitch Set Point:	-0.017	Yaw Set Point:	1.802	X_WP:	0.000	Y_WP:	0.000	Y_WP:	-0.100	X:	0.026	Y:	-0.012	Z:	0.402	yaw:	-103.275	yaw rate:	6.004	Roll:	6.577	Pitch:	3.480	Yaw:	-193.242	Thrust:	0.000
Time:	30.604	Roll Set Point:	-0.032	Pitch Set Point:	-0.016	Yaw Set Point:	1.802	X_WP:	0.000	Y_WP:	0.000	Y_WP:	-0.100	X:	0.026	Y:	-0.012	Z:	0.402	yaw:	-103.223	yaw rate:	-3.968	Roll:	6.587	Pitch:	3.496	Yaw:	-192.770	Thrust:	0.000
Time:	30.846	Roll Set Point:	-0.032	Pitch Set Point:	-0.016	Yaw Set Point:	1.802	X_WP:	0.000	Y_WP:	0.000	Y_WP:	-0.100	X:	0.026	Y:	-0.012	Z:	0.402	yaw:	-103.240	yaw rate:	-0.880	Roll:	6.531	Pitch:	3.490	Yaw:	-192.471	Thrust:	0.000
Time:	31.094	Roll Set Point:	-0.032	Pitch Set Point:	-0.017	Yaw Set Point:	1.802	X_WP:	0.000	Y_WP:	0.000	Y_WP:	-0.100	X:	0.026	Y:	-0.012	Z:	0.402	yaw:	-103.242	yaw rate:	1.263	Roll:	6.666	Pitch:	3.561	Yaw:	-193.560	Thrust:	0.000
Time:	31.341	Roll Set Point:	-0.032	Pitch Set Point:	-0.016	Yaw Set Point:	1.801	X_WP:	0.000	Y_WP:	0.000	Y_WP:	-0.100	X:	0.026	Y:	-0.012	Z:	0.402	yaw:	-103.215	yaw rate:	-1.613	Roll:	6.680	Pitch:	3.581	Yaw:	-193.547	Thrust:	0.000
Time:	31.586	Roll Set Point:	-0.032	Pitch Set Point:	-0.016	Yaw Set Point:	1.802	X_WP:	0.000	Y_WP:	0.000	Y_WP:	-0.100	X:	0.026	Y:	-0.012	Z:	0.402	yaw:	-103.236	yaw rate:	0.804	Roll:	6.646	Pitch:	3.587	Yaw:	-193.338	Thrust:	0.000
Time:	31.833	Roll Set Point:	-0.032	Pitch Set Point:	-0.016	Yaw Set Point:	1.802	X_WP:	0.000	Y_WP:	0.000	Y_WP:	-0.100	X:	0.026	Y:	-0.012	Z:	0.402	yaw:	-103.249	yaw rate:	0.972	Roll:	6.693	Pitch:	3.623	Yaw:	-193.693	Thrust:	0.000
Time:	32.087	Roll Set Point:	-0.032	Pitch Set Point:	-0.016	Yaw Set Point:	1.801	X_WP:	0.000	Y_WP:	0.000	Y_WP:	-0.100	X:	0.026	Y:	-0.012	Z:	0.402	yaw:	-103.198	yaw rate:	-2.416	Roll:	6.850	Pitch:	3.703	Yaw:	-194.701	Thrust:	0.000
Time:	32.343	Roll Set Point:	-0.032	Pitch Set Point:	-0.016	Yaw Set Point:	1.802	X_WP:	0.000	Y_WP:	0.000	Y_WP:	-0.100	X:	0.026	Y:	-0.012	Z:	0.402	yaw:	-103.223	yaw rate:	1.718	Roll:	6.908	Pitch:	3.747	Yaw:	-195.335	Thrust:	0.000
Time:	32.595	Roll Set Point:	-0.032	Pitch Set Point:	-0.016	Yaw Set Point:	1.802	X_WP:	0.000	Y_WP:	0.000	Y_WP:	-0.100	X:	0.026	Y:	-0.012	Z:	0.402	yaw:	-103.228	yaw rate:	-3.052	Roll:	6.832	Pitch:	3.731	Yaw:	-194.535	Thrust:	0.000
Time:	32.848	Roll Set Point:	-0.032	Pitch Set Point:	-0.016	Yaw Set Point:	1.802	X_WP:	0.000	Y_WP:	0.000	Y_WP:	-0.100	X:	0.026	Y:	-0.012	Z:	0.402	yaw:	-103.225	yaw rate:	0.562	Roll:	6.854	Pitch:	3.758	Yaw:	-194.737	Thrust:	0.000
Time:	33.098	Roll Set Point:	-0.032	Pitch Set Point:	-0.016	Yaw Set Point:	1.802	X_WP:	0.000	Y_WP:	0.000	Y_WP:	-0.100	X:	0.026	Y:	-0.012	Z:	0.402	yaw:	-103.244	yaw rate:	1.703	Roll:	6.759	Pitch:	3.731	Yaw:	-194.073	Thrust:	0.000
Time:	33.351	Roll Set Point:	-0.032	Pitch Set Point:	-0.016	Yaw Set Point:	1.802	X_WP:	0.000	Y_WP:	0.000	Y_WP:	-0.100	X:	0.026	Y:	-0.012	Z:	0.402	yaw:	-103.223	yaw rate:	-0.343	Roll:	6.868	Pitch:	3.794	Yaw:	-194.775	Thrust:	0.000
Time:	33.603	Roll Set Point:	-0.032	Pitch Set Point:	-0.016	Yaw Set Point:	1.802	X_WP:	0.000	Y_WP:	0.000	Y_WP:	-0.100	X:	0.026	Y:	-0.012	Z:	0.402	yaw:	-103.240	yaw rate:	1.949	Roll:	6.845	Pitch:	3.802	Yaw:	-194.732	Thrust:	0.000
Time:	33.857	Roll Set Point:	-0.032	Pitch Set Point:	-0.017	Yaw Set Point:	1.802	X_WP:	0.000	Y_WP:	0.000	Y_WP:	-0.100	X:	0.026	Y:	-0.012	Z:	0.402	yaw:	-103.242	yaw rate:	0.536	Roll:	6.882	Pitch:	3.836	Yaw:	-194.804	Thrust:	0.000
Time:	34.114	Roll Set Point:	-0.032	Pitch Set Point:	-0.016	Yaw Set Point:	1.801	X_WP:	0.000	Y_WP:	0.000	Y_WP:	-0.100	X:	0.026	Y:	-0.012	Z:	0.402	yaw:	-103.210	yaw rate:	-5.143	Roll:	6.982	Pitch:	3.894	Yaw:	-195.522	Thrust:	0.000
Time:	34.373	Roll Set Point:	-0.032	Pitch Set Point:	-0.016	Yaw Set Point:	1.801	X_WP:	0.000	Y_WP:	0.000	Y_WP:	-0.100	X:	0.026	Y:	-0.012	Z:	0.402	yaw:	-103.199	yaw rate:	-5.004	Roll:	7.001	Pitch:	3.920	Yaw:	-195.835	Thrust:	0.000
Time:	34.631	Roll Set Point:	-0.032	Pitch Set Point:	-0.016	Yaw Set Point:	1.802	X_WP:	0.000	Y_WP:	0.000	Y_WP:	-0.100	X:	0.026	Y:	-0.012	Z:	0.402	yaw:	-103.226	yaw rate:	-1.590	Roll:	7.045	Pitch:	3.958	Yaw:	-195.927	Thrust:	0.000
Time:	34.891	Roll Set Point:	-0.032	Pitch Set Point:	-0.016	Yaw Set Point:	1.802	X_WP:	0.000	Y_WP:	0.000	Y_WP:	-0.100	X:	0.026	Y:	-0.012	Z:	0.402	yaw:	-103.227	yaw rate:	1.567	Roll:	7.065	Pitch:	3.984	Yaw:	-196.035	Thrust:	0.000
Time:	35.147	Roll Set Point:	-0.032	Pitch Set Point:	-0.017	Yaw Set Point:	1.802	X_WP:	0.000	Y_WP:	0.000	Y_WP:	-0.100	X:	0.026	Y:	-0.012	Z:	0.402	yaw:	-103.235	yaw rate:	1.312	Roll:	6.969	Pitch:	3.957	Yaw:	-195.423	Thrust:	0.000
Time:	35.407	Roll Set Point:	-0.032	Pitch Set Point:	-0.016	Yaw Set Point:	1.802	X_WP:	0.000	Y_WP:	0.000	Y_WP:	-0.100	X:	0.026	Y:	-0.012	Z:	0.402	yaw:	-103.238	yaw rate:	-0.385	Roll:	7.058	Pitch:	4.013	Yaw:	-196.029	Thrust:	0.000
Time:	35.670	Roll Set Point:	-0.032	Pitch Set Point:	-0.016	Yaw Set Point:	1.801	X_WP:	0.000	Y_WP:	0.000	Y_WP:	-0.100	X:	0.026	Y:	-0.012	Z:	0.402	yaw:	-103.200	yaw rate:	-2.775	Roll:	7.146	Pitch:	4.079	Yaw:	-196.668	Thrust:	0.000
Time:	35.931	Roll Set Point:	-0.032	Pitch Set Point:	-0.016	Yaw Set Point:	1.801	X_WP:	0.000	Y_WP:	0.000	Y_WP:	-0.100	X:	0.026	Y:	-0.012	Z:	0.402	yaw:	-103.183	yaw rate:	-1.387	Roll:	7.108	Pitch:	4.063	Yaw:	-196.246	Thrust:	0.000
Time:	36.195	Roll Set Point:	-0.032	Pitch Set Point:	-0.016	Yaw Set Point:	1.802	X_WP:	0.000	Y_WP:	0.000	Y_WP:	-0.100	X:	0.026	Y:	-0.012	Z:	0.402	yaw:	-103.236	yaw rate:	-1.161	Roll:	7.218	Pitch:	4.140	Yaw:	-197.121	Thrust:	0.000
Time:	36.463	Roll Set Point:	-0.032	Pitch Set Point:	-0.016	Yaw Set Point:	1.802	X_WP:	0.000	Y_WP:	0.000	Y_WP:	-0.100	X:	0.026	Y:	-0.012	Z:	0.402	yaw:	-103.234	yaw rate:	1.116	Roll:	7.283	Pitch:	4.188	Yaw:	-197.706	Thrust:	0.000
Time:	36.719	Roll Set Point:	-0.032	Pitch Set Point:	-0.016	Yaw Set Point:	1.801	X_WP:	0.000	Y_WP:	0.000	Y_WP:	-0.100	X:	0.026	Y:	-0.012	Z:	0.402	yaw:	-103.216	yaw rate:	-2.912	Roll:	6.987	Pitch:	4.063	Yaw:	-195.240	Thrust:	0.000
Time:	36.976	Roll Set Point:	-0.032	Pitch Set Point:	-0.016	Yaw Set Point:	1.802	X_WP:	0.000	Y_WP:	0.000	Y_WP:	-0.100	X:	0.026	Y:	-0.012	Z:	0.402	yaw:	-103.224	yaw rate:	-0.867	Roll:	7.028	Pitch:	4.102	Yaw:	-195.626	Thrust:	0.000
Time:	37.236	Roll Set Point:	-0.032	Pitch Set Point:	-0.016	Yaw Set Point:	1.802	X_WP:	0.000	Y_WP:	0.000	Y_WP:	-0.100	X:	0.026	Y:	-0.012	Z:	0.402	yaw:	-103.225	yaw rate:	-1.724	Roll:	7.068	Pitch:	4.135	Yaw:	-195.987	Thrust:	0.000
Time:	37.504	Roll Set Point:	-0.032	Pitch Set Point:	-0.016	Yaw Set Point:	1.802	X_WP:	0.000	Y_WP:	0.000	Y_WP:	-0.100	X:	0.026	Y:	-0.012	Z:	0.402	yaw:	-103.227	yaw rate:	1.231	Roll:	7.320	Pitch:	4.274	Yaw:	-197.803	Thrust:	0.000
Time:	37.760	Roll Set Point:	-0.032	Pitch Set Point:	-0.016	Yaw Set Point:	1.802	X_WP:	0.000	Y_WP:	0.000	Y_WP:	-0.100	X:	0.026	Y:	-0.012	Z:	0.402	yaw:	-103.227	yaw rate:	-2.670	Roll:	7.006	Pitch:	4.140	Yaw:	-195.292	Thrust:	0.000
Time:	38.030	Roll Set Point:	-0.032	Pitch Set Point:	-0.016	Yaw Set Point:	1.802	X_WP:	0.000	Y_WP:	0.000	Y_WP:	-0.100	X:	0.026	Y:	-0.012	Z:	0.402	yaw:	-103.242	yaw rate:	-0.019	Roll:	7.366	Pitch:	4.331	Yaw:	-198.197	Thrust:	0.000
Time:	38.306	Roll Set Point:	-0.032	Pitch Set Point:	-0.016	Yaw Set Point:	1.801	X_WP:	0.000	Y_WP:	0.000	Y_WP:	-0.100	X:	0.026	Y:	-0.012	Z:	0.402	yaw:	-103.208	yaw rate:	-3.427	Roll:	7.548	Pitch:	4.435	Yaw:	-199.200	Thrust:	0.000
Time:	38.586	Roll Set Point:	-0.032	Pitch Set Point:	-0.016	Yaw Set Point:	1.802	X_WP:	0.000	Y_WP:	0.000	Y_WP:	-0.100	X:	0.026	Y:	-0.012	Z:	0.402	yaw:	-103.222	yaw rate:	2.496	Roll:	7.656	Pitch:	4.509	Yaw:	-200.188	Thrust:	0.000
Time:	38.869	Roll Set Point:	-0.032	Pitch Set Point:	-0.016	Yaw Set Point:	1.802	X_WP:	0.000	Y_WP:	0.000	Y_WP:	-0.100	X:	0.026	Y:	-0.012	Z:	0.402	yaw:	-103.233	yaw rate:	-0.224	Roll:	7.737	Pitch:	4.567	Yaw:	-200.855	Thrust:	0.000
Time:	39.150	Roll Set Point:	-0.032	Pitch Set Point:	-0.017	Yaw Set Point:	1.802	X_WP:	0.000	Y_WP:	0.000	Y_WP:	-0.100	X:	0.026	Y:	-0.012	Z:	0.402	yaw:	-103.267	yaw rate:	2.564	Roll:	7.687	Pitch:	4.561	Yaw:	-200.357	Thrust:	0.000
Time:	39.429	Roll Set Point:	-0.032	Pitch Set Point:	-0.016	Yaw Set Point:	1.802	X_WP:	0.000	Y_WP:	0.000	Y_WP:	-0.100	X:	0.026	Y:	-0.012	Z:	0.402	yaw:	-103.246	yaw rate:	2.802	Roll:	7.616	Pitch:	4.541	Yaw:	-199.893	Thrust:	0.000
Time:	39.715	Roll Set Point:	-0.032	Pitch Set Point:	-0.016	Yaw Set Point:	1.802	X_WP:	0.000	Y_WP:	0.000	Y_WP:	-0.100	X:	0.026	Y:	-0.012	Z:	0.402	yaw:	-103.238	yaw rate:	2.327	Roll:	7.851	Pitch:	4.677	Yaw:	-201.411	Thrust:	0.000
Time:	39.997	Roll Set Point:	-0.032	Pitch Set Point:	-0.016	Yaw Set Point:	1.802	X_WP:	0.000	Y_WP:	0.000	Y_WP:	-0.100	X:	0.026	Y:	-0.012	Z:	0.402	yaw:	-103.223	yaw rate:	1.587	Roll:	7.719	Pitch:	4.630	Yaw:	-200.551	Thrust:	0.000
Time:	40.334	Roll Set Point:	-0.032	Pitch Set Point:	-0.016	Yaw Set Point:	1.801	X_WP:	0.000	Y_WP:	0.000	Y_WP:	-0.100	X:	0.026	Y:	-0.012	Z:	0.402	yaw:	-103.202	yaw rate:	-2.035	Roll:	9.182	Pitch:	5.386	Yaw:	-211.233	Thrust:	0.000
Time:	40.647	Roll Set Point:	-0.032	Pitch Set Point:	-0.016	Yaw Set Point:	1.801	X_WP:	0.000	Y_WP:	0.000	Y_WP:	-0.100	X:	0.026	Y:	-0.012	Z:	0.402	yaw:	-103.193	yaw rate:	-5.243	Roll:	8.585	Pitch:	5.106	Yaw:	-206.835	Thrust:	0.000
Time:	40.959	Roll Set Point:	-0.032	Pitch Set Point:	-0.016	Yaw Set Point:	1.802	X_WP:	0.000	Y_WP:	0.000	Y_WP:	-0.100	X:	0.026	Y:	-0.012	Z:	0.402	yaw:	-103.218	yaw rate:	-0.734	Roll:	8.537	Pitch:	5.102	Yaw:	-206.502	Thrust:	0.000
Time:	41.315	Roll Set Point:	-0.032	Pitch Set Point:	-0.016	Yaw Set Point:	1.802	X_WP:	0.000	Y_WP:	0.000	Y_WP:	-0.100	X:	0.026	Y:	-0.012	Z:	0.402	yaw:	-103.243	yaw rate:	2.780	Roll:	9.736	Pitch:	5.737	Yaw:	-215.444	Thrust:	0.000
Time:	41.725	Roll Set Point:	-0.032	Pitch Set Point:	-0.017	Yaw Set Point:	1.802	X_WP:	0.000	Y_WP:	0.000	Y_WP:	-0.100	X:	0.026	Y:	-0.012	Z:	0.402	yaw:	-103.264	yaw rate:	4.927	Roll:	11.187	Pitch:	6.508	Yaw:	-226.219	Thrust:	0.000
Time:	42.242	Roll Set Point:	-0.032	Pitch Set Point:	-0.017	Yaw Set Point:	1.802	X_WP:	0.000	Y_WP:	0.000	Y_WP:	-0.100	X:	0.026	Y:	-0.012	Z:	0.402	yaw:	-103.261	yaw rate:	2.154	Roll:	14.042	Pitch:	8.012	Yaw:	-247.584	Thrust:	0.000
Time:	42.593	Roll Set Point:	-0.032	Pitch Set Point:	-0.016	Yaw Set Point:	1.802	X_WP:	0.000	Y_WP:	0.000	Y_WP:	-0.100	X:	0.026	Y:	-0.012	Z:	0.402	yaw:	-103.241	yaw rate:	0.361	Roll:	9.623	Pitch:	5.745	Yaw:	-214.246	Thrust:	0.000
Time:	42.903	Roll Set Point:	-0.032	Pitch Set Point:	-0.016	Yaw Set Point:	1.801	X_WP:	0.000	Y_WP:	0.000	Y_WP:	-0.100	X:	0.026	Y:	-0.012	Z:	0.402	yaw:	-103.206	yaw rate:	0.497	Roll:	8.497	Pitch:	5.178	Yaw:	-206.042	Thrust:	0.000
Time:	43.235	Roll Set Point:	-0.032	Pitch Set Point:	-0.016	Yaw Set Point:	1.802	X_WP:	0.000	Y_WP:	0.000	Y_WP:	-0.100	X:	0.026	Y:	-0.012	Z:	0.402	yaw:	-103.229	yaw rate:	-0.700	Roll:	9.114	Pitch:	5.525	Yaw:	-210.609	Thrust:	0.000
Time:	43.541	Roll Set Point:	-0.032	Pitch Set Point:	-0.016	Yaw Set Point:	1.802	X_WP:	0.000	Y_WP:	0.000	Y_WP:	-0.100	X:	0.026	Y:	-0.012	Z:	0.402	yaw:	-103.254	yaw rate:	1.704	Roll:	8.425	Pitch:	5.190	Yaw:	-205.515	Thrust:	0.000
Time:	43.854	Roll Set Point:	-0.032	Pitch Set Point:	-0.016	Yaw Set Point:	1.802	X_WP:	0.000	Y_WP:	0.000	Y_WP:	-0.100	X:	0.026	Y:	-0.012	Z:	0.402	yaw:	-103.258	yaw rate:	4.833	Roll:	8.570	Pitch:	5.270	Yaw:	-206.433	Thrust:	0.000
Time:	44.154	Roll Set Point:	-0.032	Pitch Set Point:	-0.016	Yaw Set Point:	1.801	X_WP:	0.000	Y_WP:	0.000	Y_WP:	-0.100	X:	0.026	Y:	-0.012	Z:	0.402	yaw:	-103.218	yaw rate:	0.521	Roll:	8.303	Pitch:	5.155	Yaw:	-204.417	Thrust:	0.000
Time:	44.499	Roll Set Point:	-0.032	Pitch Set Point:	-0.016	Yaw Set Point:	1.801	X_WP:	0.000	Y_WP:	0.000	Y_WP:	-0.100	X:	0.026	Y:	-0.012	Z:	0.402	yaw:	-103.199	yaw rate:	-2.642	Roll:	9.440	Pitch:	5.787	Yaw:	-212.906	Thrust:	0.000
Time:	44.795	Roll Set Point:	-0.032	Pitch Set Point:	-0.016	Yaw Set Point:	1.801	X_WP:	0.000	Y_WP:	0.000	Y_WP:	-0.100	X:	0.026	Y:	-0.012	Z:	0.402	yaw:	-103.218	yaw rate:	-1.657	Roll:	8.162	Pitch:	5.120	Yaw:	-203.471	Thrust:	0.000
Time:	45.120	Roll Set Point:	-0.032	Pitch Set Point:	-0.016	Yaw Set Point:	1.801	X_WP:	0.000	Y_WP:	0.000	Y_WP:	-0.100	X:	0.026	Y:	-0.012	Z:	0.402	yaw:	-103.201	yaw rate:	-2.137	Roll:	8.929	Pitch:	5.542	Yaw:	-208.748	Thrust:	0.000
Time:	45.461	Roll Set Point:	-0.032	Pitch Set Point:	-0.017	Yaw Set Point:	1.802	X_WP:	0.000	Y_WP:	0.000	Y_WP:	-0.100	X:	0.026	Y:	-0.012	Z:	0.402	yaw:	-103.237	yaw rate:	1.988	Roll:	9.381	Pitch:	5.818	Yaw:	-212.478	Thrust:	0.000
Time:	45.787	Roll Set Point:	-0.032	Pitch Set Point:	-0.016	Yaw Set Point:	1.802	X_WP:	0.000	Y_WP:	0.000	Y_WP:	-0.100	X:	0.026	Y:	-0.012	Z:	0.402	yaw:	-103.250	yaw rate:	5.296	Roll:	8.987	Pitch:	5.622	Yaw:	-209.314	Thrust:	0.000
Time:	46.087	Roll Set Point:	-0.032	Pitch Set Point:	-0.016	Yaw Set Point:	1.802	X_WP:	0.000	Y_WP:	0.000	Y_WP:	-0.100	X:	0.026	Y:	-0.012	Z:	0.402	yaw:	-103.259	yaw rate:	2.123	Roll:	8.293	Pitch:	5.266	Yaw:	-204.470	Thrust:	0.000
Time:	46.373	Roll Set Point:	-0.032	Pitch Set Point:	-0.016	Yaw Set Point:	1.802	X_WP:	0.000	Y_WP:	0.000	Y_WP:	-0.100	X:	0.026	Y:	-0.012	Z:	0.402	yaw:	-103.248	yaw rate:	1.997	Roll:	7.901	Pitch:	5.075	Yaw:	-201.270	Thrust:	0.000
Time:	46.681	Roll Set Point:	-0.032	Pitch Set Point:	-0.016	Yaw Set Point:	1.802	X_WP:	0.000	Y_WP:	0.000	Y_WP:	-0.100	X:	0.026	Y:	-0.012	Z:	0.402	yaw:	-103.258	yaw rate:	2.326	Roll:	8.512	Pitch:	5.426	Yaw:	-205.850	Thrust:	0.000
Time:	46.988	Roll Set Point:	-0.032	Pitch Set Point:	-0.016	Yaw Set Point:	1.802	X_WP:	0.000	Y_WP:	0.000	Y_WP:	-0.100	X:	0.026	Y:	-0.012	Z:	0.402	yaw:	-103.221	yaw rate:	-0.185	Roll:	8.477	Pitch:	5.415	Yaw:	-205.429	Thrust:	0.000
Time:	47.309	Roll Set Point:	-0.032	Pitch Set Point:	-0.016	Yaw Set Point:	1.802	X_WP:	0.000	Y_WP:	0.000	Y_WP:	-0.100	X:	0.026	Y:	-0.012	Z:	0.402	yaw:	-103.245	yaw rate:	0.652	Roll:	8.862	Pitch:	5.665	Yaw:	-208.434	Thrust:	0.000
