Time:	0.045	Roll Set Point:	-0.027	Pitch Set Point:	-0.026	Yaw Set Point:	0.055	X_WP:	0.000	Y_WP:	0.000	Y_WP:	0.000	X:	0.014	Y:	0.013	Z:	0.057	yaw:	-3.163	yaw rate:	-0.099	Roll:	0.376	Pitch:	0.387	Yaw:	-4.416	Thrust:	0.000
Time:	0.066	Roll Set Point:	-0.027	Pitch Set Point:	-0.026	Yaw Set Point:	0.055	X_WP:	0.000	Y_WP:	0.000	Y_WP:	0.000	X:	0.014	Y:	0.013	Z:	0.057	yaw:	-3.162	yaw rate:	-0.108	Roll:	0.377	Pitch:	0.370	Yaw:	-4.425	Thrust:	0.000
Time:	0.093	Roll Set Point:	-0.027	Pitch Set Point:	-0.026	Yaw Set Point:	0.055	X_WP:	0.000	Y_WP:	0.000	Y_WP:	0.000	X:	0.014	Y:	0.013	Z:	0.057	yaw:	-3.158	yaw rate:	-0.428	Roll:	0.377	Pitch:	0.399	Yaw:	-4.421	Thrust:	0.000
Time:	0.106	Roll Set Point:	-0.027	Pitch Set Point:	-0.026	Yaw Set Point:	0.055	X_WP:	0.000	Y_WP:	0.000	Y_WP:	0.000	X:	0.014	Y:	0.013	Z:	0.057	yaw:	-3.166	yaw rate:	0.827	Roll:	0.393	Pitch:	0.389	Yaw:	-4.620	Thrust:	0.000
Time:	0.125	Roll Set Point:	-0.027	Pitch Set Point:	-0.026	Yaw Set Point:	0.055	X_WP:	0.000	Y_WP:	0.000	Y_WP:	0.000	X:	0.014	Y:	0.013	Z:	0.057	yaw:	-3.164	yaw rate:	-0.228	Roll:	0.359	Pitch:	0.381	Yaw:	-4.473	Thrust:	0.000
Time:	0.147	Roll Set Point:	-0.027	Pitch Set Point:	-0.026	Yaw Set Point:	0.055	X_WP:	0.000	Y_WP:	0.000	Y_WP:	0.000	X:	0.014	Y:	0.013	Z:	0.057	yaw:	-3.152	yaw rate:	-1.120	Roll:	0.378	Pitch:	0.392	Yaw:	-4.385	Thrust:	0.000
Time:	0.165	Roll Set Point:	-0.027	Pitch Set Point:	-0.026	Yaw Set Point:	0.055	X_WP:	0.000	Y_WP:	0.000	Y_WP:	0.000	X:	0.014	Y:	0.013	Z:	0.057	yaw:	-3.165	yaw rate:	1.242	Roll:	0.399	Pitch:	0.393	Yaw:	-4.718	Thrust:	0.000
Time:	0.184	Roll Set Point:	-0.027	Pitch Set Point:	-0.026	Yaw Set Point:	0.055	X_WP:	0.000	Y_WP:	0.000	Y_WP:	0.000	X:	0.014	Y:	0.013	Z:	0.057	yaw:	-3.170	yaw rate:	0.534	Roll:	0.365	Pitch:	0.394	Yaw:	-4.646	Thrust:	0.000
Time:	0.205	Roll Set Point:	-0.027	Pitch Set Point:	-0.026	Yaw Set Point:	0.055	X_WP:	0.000	Y_WP:	0.000	Y_WP:	0.000	X:	0.014	Y:	0.013	Z:	0.057	yaw:	-3.163	yaw rate:	-0.671	Roll:	0.387	Pitch:	0.385	Yaw:	-4.512	Thrust:	0.000
Time:	0.227	Roll Set Point:	-0.027	Pitch Set Point:	-0.026	Yaw Set Point:	0.055	X_WP:	0.000	Y_WP:	0.000	Y_WP:	0.000	X:	0.014	Y:	0.013	Z:	0.057	yaw:	-3.166	yaw rate:	0.239	Roll:	0.386	Pitch:	0.398	Yaw:	-4.668	Thrust:	0.000
Time:	0.245	Roll Set Point:	-0.027	Pitch Set Point:	-0.026	Yaw Set Point:	0.055	X_WP:	0.000	Y_WP:	0.000	Y_WP:	0.000	X:	0.014	Y:	0.013	Z:	0.057	yaw:	-3.155	yaw rate:	-1.098	Roll:	0.381	Pitch:	0.393	Yaw:	-4.455	Thrust:	0.000
Time:	0.265	Roll Set Point:	-0.027	Pitch Set Point:	-0.026	Yaw Set Point:	0.055	X_WP:	0.000	Y_WP:	0.000	Y_WP:	0.000	X:	0.014	Y:	0.013	Z:	0.057	yaw:	-3.156	yaw rate:	0.078	Roll:	0.376	Pitch:	0.393	Yaw:	-4.647	Thrust:	0.000
Time:	0.289	Roll Set Point:	-0.027	Pitch Set Point:	-0.026	Yaw Set Point:	0.055	X_WP:	0.000	Y_WP:	0.000	Y_WP:	0.000	X:	0.014	Y:	0.013	Z:	0.057	yaw:	-3.164	yaw rate:	0.842	Roll:	0.389	Pitch:	0.394	Yaw:	-4.835	Thrust:	0.000
Time:	0.305	Roll Set Point:	-0.027	Pitch Set Point:	-0.026	Yaw Set Point:	0.055	X_WP:	0.000	Y_WP:	0.000	Y_WP:	0.000	X:	0.014	Y:	0.013	Z:	0.057	yaw:	-3.162	yaw rate:	-0.181	Roll:	0.381	Pitch:	0.395	Yaw:	-4.612	Thrust:	0.000
Time:	0.325	Roll Set Point:	-0.027	Pitch Set Point:	-0.026	Yaw Set Point:	0.055	X_WP:	0.000	Y_WP:	0.000	Y_WP:	0.000	X:	0.014	Y:	0.013	Z:	0.057	yaw:	-3.160	yaw rate:	-0.177	Roll:	0.392	Pitch:	0.396	Yaw:	-4.708	Thrust:	0.000
Time:	0.348	Roll Set Point:	-0.027	Pitch Set Point:	-0.026	Yaw Set Point:	0.055	X_WP:	0.000	Y_WP:	0.000	Y_WP:	0.000	X:	0.014	Y:	0.013	Z:	0.057	yaw:	-3.157	yaw rate:	-0.306	Roll:	0.381	Pitch:	0.390	Yaw:	-4.728	Thrust:	0.000
Time:	0.365	Roll Set Point:	-0.027	Pitch Set Point:	-0.026	Yaw Set Point:	0.055	X_WP:	0.000	Y_WP:	0.000	Y_WP:	0.000	X:	0.014	Y:	0.013	Z:	0.057	yaw:	-3.155	yaw rate:	-0.273	Roll:	0.387	Pitch:	0.403	Yaw:	-4.694	Thrust:	0.000
Time:	0.384	Roll Set Point:	-0.027	Pitch Set Point:	-0.026	Yaw Set Point:	0.055	X_WP:	0.000	Y_WP:	0.000	Y_WP:	0.000	X:	0.014	Y:	0.013	Z:	0.057	yaw:	-3.158	yaw rate:	0.297	Roll:	0.388	Pitch:	0.391	Yaw:	-4.803	Thrust:	0.000
Time:	0.405	Roll Set Point:	-0.027	Pitch Set Point:	-0.026	Yaw Set Point:	0.055	X_WP:	0.000	Y_WP:	0.000	Y_WP:	0.000	X:	0.014	Y:	0.013	Z:	0.057	yaw:	-3.159	yaw rate:	0.149	Roll:	0.385	Pitch:	0.407	Yaw:	-4.845	Thrust:	0.000
Time:	0.427	Roll Set Point:	-0.027	Pitch Set Point:	-0.026	Yaw Set Point:	0.055	X_WP:	0.000	Y_WP:	0.000	Y_WP:	0.000	X:	0.014	Y:	0.013	Z:	0.057	yaw:	-3.163	yaw rate:	0.401	Roll:	0.392	Pitch:	0.388	Yaw:	-4.919	Thrust:	0.000
Time:	0.445	Roll Set Point:	-0.027	Pitch Set Point:	-0.026	Yaw Set Point:	0.055	X_WP:	0.000	Y_WP:	0.000	Y_WP:	0.000	X:	0.014	Y:	0.013	Z:	0.057	yaw:	-3.159	yaw rate:	-0.450	Roll:	0.381	Pitch:	0.406	Yaw:	-4.756	Thrust:	0.000
Time:	0.465	Roll Set Point:	-0.027	Pitch Set Point:	-0.026	Yaw Set Point:	0.055	X_WP:	0.000	Y_WP:	0.000	Y_WP:	0.000	X:	0.014	Y:	0.013	Z:	0.057	yaw:	-3.158	yaw rate:	-0.036	Roll:	0.395	Pitch:	0.408	Yaw:	-4.859	Thrust:	0.000
Time:	0.494	Roll Set Point:	-0.027	Pitch Set Point:	-0.026	Yaw Set Point:	0.055	X_WP:	0.000	Y_WP:	0.000	Y_WP:	0.000	X:	0.014	Y:	0.013	Z:	0.057	yaw:	-3.165	yaw rate:	0.710	Roll:	0.396	Pitch:	0.394	Yaw:	-5.096	Thrust:	0.000
Time:	0.506	Roll Set Point:	-0.027	Pitch Set Point:	-0.026	Yaw Set Point:	0.055	X_WP:	0.000	Y_WP:	0.000	Y_WP:	0.000	X:	0.014	Y:	0.013	Z:	0.057	yaw:	-3.174	yaw rate:	0.889	Roll:	0.386	Pitch:	0.411	Yaw:	-4.985	Thrust:	0.000
Time:	0.525	Roll Set Point:	-0.027	Pitch Set Point:	-0.026	Yaw Set Point:	0.055	X_WP:	0.000	Y_WP:	0.000	Y_WP:	0.000	X:	0.014	Y:	0.013	Z:	0.057	yaw:	-3.155	yaw rate:	-1.953	Roll:	0.400	Pitch:	0.389	Yaw:	-4.668	Thrust:	0.000
Time:	0.549	Roll Set Point:	-0.027	Pitch Set Point:	-0.026	Yaw Set Point:	0.055	X_WP:	0.000	Y_WP:	0.000	Y_WP:	0.000	X:	0.014	Y:	0.013	Z:	0.057	yaw:	-3.159	yaw rate:	0.450	Roll:	0.384	Pitch:	0.416	Yaw:	-5.079	Thrust:	0.000
Time:	0.566	Roll Set Point:	-0.027	Pitch Set Point:	-0.026	Yaw Set Point:	0.055	X_WP:	0.000	Y_WP:	0.000	Y_WP:	0.000	X:	0.014	Y:	0.013	Z:	0.057	yaw:	-3.152	yaw rate:	-0.691	Roll:	0.377	Pitch:	0.386	Yaw:	-4.802	Thrust:	0.000
Time:	0.585	Roll Set Point:	-0.027	Pitch Set Point:	-0.026	Yaw Set Point:	0.055	X_WP:	0.000	Y_WP:	0.000	Y_WP:	0.000	X:	0.014	Y:	0.013	Z:	0.057	yaw:	-3.159	yaw rate:	0.682	Roll:	0.417	Pitch:	0.417	Yaw:	-5.094	Thrust:	0.000
Time:	0.606	Roll Set Point:	-0.027	Pitch Set Point:	-0.026	Yaw Set Point:	0.055	X_WP:	0.000	Y_WP:	0.000	Y_WP:	0.000	X:	0.014	Y:	0.013	Z:	0.057	yaw:	-3.156	yaw rate:	-0.298	Roll:	0.383	Pitch:	0.403	Yaw:	-4.967	Thrust:	0.000
Time:	0.628	Roll Set Point:	-0.027	Pitch Set Point:	-0.026	Yaw Set Point:	0.055	X_WP:	0.000	Y_WP:	0.000	Y_WP:	0.000	X:	0.014	Y:	0.013	Z:	0.057	yaw:	-3.163	yaw rate:	0.709	Roll:	0.387	Pitch:	0.410	Yaw:	-5.237	Thrust:	0.000
Time:	0.645	Roll Set Point:	-0.027	Pitch Set Point:	-0.026	Yaw Set Point:	0.055	X_WP:	0.000	Y_WP:	0.000	Y_WP:	0.000	X:	0.014	Y:	0.013	Z:	0.057	yaw:	-3.162	yaw rate:	-0.154	Roll:	0.415	Pitch:	0.403	Yaw:	-4.973	Thrust:	0.000
Time:	0.665	Roll Set Point:	-0.027	Pitch Set Point:	-0.026	Yaw Set Point:	0.055	X_WP:	0.000	Y_WP:	0.000	Y_WP:	0.000	X:	0.014	Y:	0.013	Z:	0.057	yaw:	-3.163	yaw rate:	0.143	Roll:	0.396	Pitch:	0.402	Yaw:	-5.105	Thrust:	0.000
Time:	0.691	Roll Set Point:	-0.027	Pitch Set Point:	-0.026	Yaw Set Point:	0.055	X_WP:	0.000	Y_WP:	0.000	Y_WP:	0.000	X:	0.014	Y:	0.013	Z:	0.057	yaw:	-3.161	yaw rate:	-0.219	Roll:	0.392	Pitch:	0.415	Yaw:	-5.298	Thrust:	0.000
Time:	0.705	Roll Set Point:	-0.027	Pitch Set Point:	-0.026	Yaw Set Point:	0.055	X_WP:	0.000	Y_WP:	0.000	Y_WP:	0.000	X:	0.014	Y:	0.013	Z:	0.057	yaw:	-3.169	yaw rate:	0.806	Roll:	0.396	Pitch:	0.397	Yaw:	-5.091	Thrust:	0.000
Time:	0.726	Roll Set Point:	-0.027	Pitch Set Point:	-0.026	Yaw Set Point:	0.055	X_WP:	0.000	Y_WP:	0.000	Y_WP:	0.000	X:	0.014	Y:	0.013	Z:	0.057	yaw:	-3.169	yaw rate:	0.038	Roll:	0.403	Pitch:	0.416	Yaw:	-5.215	Thrust:	0.000
Time:	0.748	Roll Set Point:	-0.027	Pitch Set Point:	-0.026	Yaw Set Point:	0.055	X_WP:	0.000	Y_WP:	0.000	Y_WP:	0.000	X:	0.014	Y:	0.013	Z:	0.057	yaw:	-3.163	yaw rate:	-0.625	Roll:	0.367	Pitch:	0.401	Yaw:	-5.193	Thrust:	0.000
Time:	0.765	Roll Set Point:	-0.027	Pitch Set Point:	-0.026	Yaw Set Point:	0.055	X_WP:	0.000	Y_WP:	0.000	Y_WP:	0.000	X:	0.014	Y:	0.013	Z:	0.057	yaw:	-3.156	yaw rate:	-0.709	Roll:	0.437	Pitch:	0.419	Yaw:	-4.998	Thrust:	0.000
Time:	0.785	Roll Set Point:	-0.027	Pitch Set Point:	-0.026	Yaw Set Point:	0.055	X_WP:	0.000	Y_WP:	0.000	Y_WP:	0.000	X:	0.014	Y:	0.013	Z:	0.057	yaw:	-3.160	yaw rate:	0.357	Roll:	0.402	Pitch:	0.407	Yaw:	-5.269	Thrust:	0.000
Time:	0.805	Roll Set Point:	-0.027	Pitch Set Point:	-0.026	Yaw Set Point:	0.055	X_WP:	0.000	Y_WP:	0.000	Y_WP:	0.000	X:	0.014	Y:	0.013	Z:	0.057	yaw:	-3.153	yaw rate:	-0.638	Roll:	0.356	Pitch:	0.403	Yaw:	-5.145	Thrust:	0.000
Time:	0.827	Roll Set Point:	-0.027	Pitch Set Point:	-0.026	Yaw Set Point:	0.055	X_WP:	0.000	Y_WP:	0.000	Y_WP:	0.000	X:	0.014	Y:	0.013	Z:	0.057	yaw:	-3.163	yaw rate:	0.999	Roll:	0.429	Pitch:	0.426	Yaw:	-5.487	Thrust:	0.000
Time:	0.845	Roll Set Point:	-0.027	Pitch Set Point:	-0.026	Yaw Set Point:	0.055	X_WP:	0.000	Y_WP:	0.000	Y_WP:	0.000	X:	0.014	Y:	0.013	Z:	0.057	yaw:	-3.166	yaw rate:	0.252	Roll:	0.414	Pitch:	0.409	Yaw:	-5.223	Thrust:	0.000
Time:	0.866	Roll Set Point:	-0.027	Pitch Set Point:	-0.026	Yaw Set Point:	0.055	X_WP:	0.000	Y_WP:	0.000	Y_WP:	0.000	X:	0.014	Y:	0.013	Z:	0.057	yaw:	-3.164	yaw rate:	-0.169	Roll:	0.395	Pitch:	0.413	Yaw:	-5.348	Thrust:	0.000
Time:	0.891	Roll Set Point:	-0.027	Pitch Set Point:	-0.026	Yaw Set Point:	0.055	X_WP:	0.000	Y_WP:	0.000	Y_WP:	0.000	X:	0.014	Y:	0.013	Z:	0.057	yaw:	-3.163	yaw rate:	-0.104	Roll:	0.404	Pitch:	0.419	Yaw:	-5.531	Thrust:	0.000
Time:	0.905	Roll Set Point:	-0.027	Pitch Set Point:	-0.026	Yaw Set Point:	0.055	X_WP:	0.000	Y_WP:	0.000	Y_WP:	0.000	X:	0.014	Y:	0.013	Z:	0.057	yaw:	-3.160	yaw rate:	-0.338	Roll:	0.409	Pitch:	0.417	Yaw:	-5.088	Thrust:	0.000
Time:	0.926	Roll Set Point:	-0.027	Pitch Set Point:	-0.026	Yaw Set Point:	0.055	X_WP:	0.000	Y_WP:	0.000	Y_WP:	0.000	X:	0.014	Y:	0.013	Z:	0.057	yaw:	-3.155	yaw rate:	-0.469	Roll:	0.405	Pitch:	0.401	Yaw:	-5.311	Thrust:	0.000
Time:	0.947	Roll Set Point:	-0.027	Pitch Set Point:	-0.026	Yaw Set Point:	0.055	X_WP:	0.000	Y_WP:	0.000	Y_WP:	0.000	X:	0.014	Y:	0.013	Z:	0.057	yaw:	-3.163	yaw rate:	0.824	Roll:	0.409	Pitch:	0.432	Yaw:	-5.613	Thrust:	0.000
Time:	0.965	Roll Set Point:	-0.027	Pitch Set Point:	-0.026	Yaw Set Point:	0.055	X_WP:	0.000	Y_WP:	0.000	Y_WP:	0.000	X:	0.014	Y:	0.013	Z:	0.057	yaw:	-3.165	yaw rate:	0.180	Roll:	0.394	Pitch:	0.421	Yaw:	-5.340	Thrust:	0.000
Time:	0.986	Roll Set Point:	-0.027	Pitch Set Point:	-0.026	Yaw Set Point:	0.055	X_WP:	0.000	Y_WP:	0.000	Y_WP:	0.000	X:	0.014	Y:	0.013	Z:	0.057	yaw:	-3.158	yaw rate:	-0.652	Roll:	0.407	Pitch:	0.408	Yaw:	-5.397	Thrust:	0.000
Time:	1.005	Roll Set Point:	-0.027	Pitch Set Point:	-0.026	Yaw Set Point:	0.055	X_WP:	0.000	Y_WP:	0.000	Y_WP:	0.000	X:	0.014	Y:	0.013	Z:	0.057	yaw:	-3.164	yaw rate:	0.587	Roll:	0.411	Pitch:	0.413	Yaw:	-5.512	Thrust:	0.000
Time:	1.027	Roll Set Point:	-0.027	Pitch Set Point:	-0.026	Yaw Set Point:	0.055	X_WP:	0.000	Y_WP:	0.000	Y_WP:	0.000	X:	0.014	Y:	0.013	Z:	0.057	yaw:	-3.163	yaw rate:	-0.141	Roll:	0.412	Pitch:	0.426	Yaw:	-5.621	Thrust:	0.000
Time:	1.045	Roll Set Point:	-0.027	Pitch Set Point:	-0.026	Yaw Set Point:	0.055	X_WP:	0.000	Y_WP:	0.000	Y_WP:	0.000	X:	0.014	Y:	0.013	Z:	0.057	yaw:	-3.168	yaw rate:	0.468	Roll:	0.405	Pitch:	0.420	Yaw:	-5.437	Thrust:	0.000
Time:	1.065	Roll Set Point:	-0.027	Pitch Set Point:	-0.026	Yaw Set Point:	0.055	X_WP:	0.000	Y_WP:	0.000	Y_WP:	0.000	X:	0.014	Y:	0.013	Z:	0.057	yaw:	-3.165	yaw rate:	-0.272	Roll:	0.406	Pitch:	0.416	Yaw:	-5.543	Thrust:	0.000
Time:	1.090	Roll Set Point:	-0.027	Pitch Set Point:	-0.026	Yaw Set Point:	0.055	X_WP:	0.000	Y_WP:	0.000	Y_WP:	0.000	X:	0.014	Y:	0.013	Z:	0.057	yaw:	-3.162	yaw rate:	-0.319	Roll:	0.419	Pitch:	0.428	Yaw:	-5.779	Thrust:	0.000
Time:	1.106	Roll Set Point:	-0.027	Pitch Set Point:	-0.026	Yaw Set Point:	0.055	X_WP:	0.000	Y_WP:	0.000	Y_WP:	0.000	X:	0.014	Y:	0.013	Z:	0.057	yaw:	-3.162	yaw rate:	0.052	Roll:	0.401	Pitch:	0.421	Yaw:	-5.408	Thrust:	0.000
Time:	1.125	Roll Set Point:	-0.027	Pitch Set Point:	-0.026	Yaw Set Point:	0.055	X_WP:	0.000	Y_WP:	0.000	Y_WP:	0.000	X:	0.014	Y:	0.013	Z:	0.057	yaw:	-3.165	yaw rate:	0.314	Roll:	0.410	Pitch:	0.423	Yaw:	-5.602	Thrust:	0.000
Time:	1.147	Roll Set Point:	-0.027	Pitch Set Point:	-0.026	Yaw Set Point:	0.055	X_WP:	0.000	Y_WP:	0.000	Y_WP:	0.000	X:	0.014	Y:	0.013	Z:	0.057	yaw:	-3.165	yaw rate:	0.013	Roll:	0.406	Pitch:	0.419	Yaw:	-5.736	Thrust:	0.000
Time:	1.166	Roll Set Point:	-0.027	Pitch Set Point:	-0.026	Yaw Set Point:	0.055	X_WP:	0.000	Y_WP:	0.000	Y_WP:	0.000	X:	0.014	Y:	0.013	Z:	0.057	yaw:	-3.162	yaw rate:	-0.306	Roll:	0.430	Pitch:	0.425	Yaw:	-5.501	Thrust:	0.000
Time:	1.192	Roll Set Point:	-0.027	Pitch Set Point:	-0.026	Yaw Set Point:	0.055	X_WP:	0.000	Y_WP:	0.000	Y_WP:	0.000	X:	0.014	Y:	0.013	Z:	0.057	yaw:	-3.168	yaw rate:	0.611	Roll:	0.416	Pitch:	0.444	Yaw:	-6.163	Thrust:	0.000
Time:	1.205	Roll Set Point:	-0.027	Pitch Set Point:	-0.026	Yaw Set Point:	0.055	X_WP:	0.000	Y_WP:	0.000	Y_WP:	0.000	X:	0.014	Y:	0.013	Z:	0.057	yaw:	-3.156	yaw rate:	-1.246	Roll:	0.398	Pitch:	0.383	Yaw:	-5.000	Thrust:	0.000
Time:	1.227	Roll Set Point:	-0.027	Pitch Set Point:	-0.026	Yaw Set Point:	0.055	X_WP:	0.000	Y_WP:	0.000	Y_WP:	0.000	X:	0.014	Y:	0.013	Z:	0.057	yaw:	-3.157	yaw rate:	0.145	Roll:	0.421	Pitch:	0.439	Yaw:	-5.832	Thrust:	0.000
Time:	1.245	Roll Set Point:	-0.027	Pitch Set Point:	-0.026	Yaw Set Point:	0.055	X_WP:	0.000	Y_WP:	0.000	Y_WP:	0.000	X:	0.014	Y:	0.013	Z:	0.057	yaw:	-3.158	yaw rate:	0.029	Roll:	0.417	Pitch:	0.429	Yaw:	-5.628	Thrust:	0.000
Time:	1.265	Roll Set Point:	-0.027	Pitch Set Point:	-0.026	Yaw Set Point:	0.055	X_WP:	0.000	Y_WP:	0.000	Y_WP:	0.000	X:	0.014	Y:	0.013	Z:	0.057	yaw:	-3.164	yaw rate:	0.580	Roll:	0.402	Pitch:	0.421	Yaw:	-5.845	Thrust:	0.000
Time:	1.289	Roll Set Point:	-0.027	Pitch Set Point:	-0.026	Yaw Set Point:	0.055	X_WP:	0.000	Y_WP:	0.000	Y_WP:	0.000	X:	0.014	Y:	0.013	Z:	0.057	yaw:	-3.164	yaw rate:	0.091	Roll:	0.431	Pitch:	0.432	Yaw:	-6.048	Thrust:	0.000
Time:	1.306	Roll Set Point:	-0.027	Pitch Set Point:	-0.026	Yaw Set Point:	0.055	X_WP:	0.000	Y_WP:	0.000	Y_WP:	0.000	X:	0.014	Y:	0.013	Z:	0.057	yaw:	-3.155	yaw rate:	-0.939	Roll:	0.416	Pitch:	0.420	Yaw:	-5.375	Thrust:	0.000
Time:	1.326	Roll Set Point:	-0.027	Pitch Set Point:	-0.026	Yaw Set Point:	0.055	X_WP:	0.000	Y_WP:	0.000	Y_WP:	0.000	X:	0.014	Y:	0.013	Z:	0.057	yaw:	-3.169	yaw rate:	1.399	Roll:	0.403	Pitch:	0.431	Yaw:	-6.063	Thrust:	0.000
Time:	1.347	Roll Set Point:	-0.027	Pitch Set Point:	-0.026	Yaw Set Point:	0.055	X_WP:	0.000	Y_WP:	0.000	Y_WP:	0.000	X:	0.014	Y:	0.013	Z:	0.057	yaw:	-3.160	yaw rate:	-0.877	Roll:	0.424	Pitch:	0.434	Yaw:	-5.856	Thrust:	0.000
Time:	1.365	Roll Set Point:	-0.027	Pitch Set Point:	-0.026	Yaw Set Point:	0.055	X_WP:	0.000	Y_WP:	0.000	Y_WP:	0.000	X:	0.014	Y:	0.013	Z:	0.057	yaw:	-3.165	yaw rate:	0.499	Roll:	0.426	Pitch:	0.429	Yaw:	-5.811	Thrust:	0.000
Time:	1.385	Roll Set Point:	-0.027	Pitch Set Point:	-0.026	Yaw Set Point:	0.055	X_WP:	0.000	Y_WP:	0.000	Y_WP:	0.000	X:	0.014	Y:	0.013	Z:	0.057	yaw:	-3.161	yaw rate:	-0.470	Roll:	0.416	Pitch:	0.421	Yaw:	-5.802	Thrust:	0.000
Time:	1.406	Roll Set Point:	-0.027	Pitch Set Point:	-0.026	Yaw Set Point:	0.055	X_WP:	0.000	Y_WP:	0.000	Y_WP:	0.000	X:	0.014	Y:	0.013	Z:	0.057	yaw:	-3.147	yaw rate:	-1.331	Roll:	0.412	Pitch:	0.433	Yaw:	-5.689	Thrust:	0.000
Time:	1.428	Roll Set Point:	-0.027	Pitch Set Point:	-0.026	Yaw Set Point:	0.055	X_WP:	0.000	Y_WP:	0.000	Y_WP:	0.000	X:	0.014	Y:	0.013	Z:	0.057	yaw:	-3.158	yaw rate:	1.113	Roll:	0.427	Pitch:	0.441	Yaw:	-6.226	Thrust:	0.000
Time:	1.445	Roll Set Point:	-0.027	Pitch Set Point:	-0.026	Yaw Set Point:	0.055	X_WP:	0.000	Y_WP:	0.000	Y_WP:	0.000	X:	0.014	Y:	0.013	Z:	0.057	yaw:	-3.157	yaw rate:	-0.110	Roll:	0.432	Pitch:	0.425	Yaw:	-5.832	Thrust:	0.000
Time:	1.465	Roll Set Point:	-0.027	Pitch Set Point:	-0.026	Yaw Set Point:	0.055	X_WP:	0.000	Y_WP:	0.000	Y_WP:	0.000	X:	0.014	Y:	0.013	Z:	0.057	yaw:	-3.166	yaw rate:	0.872	Roll:	0.405	Pitch:	0.442	Yaw:	-6.086	Thrust:	0.000
Time:	1.498	Roll Set Point:	-0.027	Pitch Set Point:	-0.026	Yaw Set Point:	0.055	X_WP:	0.000	Y_WP:	0.000	Y_WP:	0.000	X:	0.014	Y:	0.013	Z:	0.057	yaw:	-3.165	yaw rate:	-0.070	Roll:	0.456	Pitch:	0.466	Yaw:	-7.004	Thrust:	0.000
Time:	1.515	Roll Set Point:	-0.027	Pitch Set Point:	-0.026	Yaw Set Point:	0.055	X_WP:	0.000	Y_WP:	0.000	Y_WP:	0.000	X:	0.014	Y:	0.013	Z:	0.057	yaw:	-3.163	yaw rate:	-0.257	Roll:	0.415	Pitch:	0.413	Yaw:	-5.756	Thrust:	0.000
Time:	1.535	Roll Set Point:	-0.027	Pitch Set Point:	-0.026	Yaw Set Point:	0.055	X_WP:	0.000	Y_WP:	0.000	Y_WP:	0.000	X:	0.014	Y:	0.013	Z:	0.057	yaw:	-3.157	yaw rate:	-0.531	Roll:	0.424	Pitch:	0.446	Yaw:	-5.982	Thrust:	0.000
Time:	1.558	Roll Set Point:	-0.027	Pitch Set Point:	-0.026	Yaw Set Point:	0.055	X_WP:	0.000	Y_WP:	0.000	Y_WP:	0.000	X:	0.014	Y:	0.013	Z:	0.057	yaw:	-3.167	yaw rate:	0.994	Roll:	0.422	Pitch:	0.440	Yaw:	-6.410	Thrust:	0.000
Time:	1.575	Roll Set Point:	-0.027	Pitch Set Point:	-0.026	Yaw Set Point:	0.055	X_WP:	0.000	Y_WP:	0.000	Y_WP:	0.000	X:	0.014	Y:	0.013	Z:	0.057	yaw:	-3.157	yaw rate:	-1.003	Roll:	0.425	Pitch:	0.432	Yaw:	-5.683	Thrust:	0.000
Time:	1.596	Roll Set Point:	-0.027	Pitch Set Point:	-0.026	Yaw Set Point:	0.055	X_WP:	0.000	Y_WP:	0.000	Y_WP:	0.000	X:	0.014	Y:	0.013	Z:	0.057	yaw:	-3.165	yaw rate:	0.808	Roll:	0.433	Pitch:	0.436	Yaw:	-6.266	Thrust:	0.000
Time:	1.617	Roll Set Point:	-0.027	Pitch Set Point:	-0.026	Yaw Set Point:	0.055	X_WP:	0.000	Y_WP:	0.000	Y_WP:	0.000	X:	0.014	Y:	0.013	Z:	0.057	yaw:	-3.155	yaw rate:	-1.081	Roll:	0.415	Pitch:	0.441	Yaw:	-6.141	Thrust:	0.000
Time:	1.635	Roll Set Point:	-0.027	Pitch Set Point:	-0.026	Yaw Set Point:	0.055	X_WP:	0.000	Y_WP:	0.000	Y_WP:	0.000	X:	0.014	Y:	0.013	Z:	0.057	yaw:	-3.159	yaw rate:	0.487	Roll:	0.429	Pitch:	0.430	Yaw:	-6.101	Thrust:	0.000
Time:	1.656	Roll Set Point:	-0.027	Pitch Set Point:	-0.026	Yaw Set Point:	0.055	X_WP:	0.000	Y_WP:	0.000	Y_WP:	0.000	X:	0.014	Y:	0.013	Z:	0.057	yaw:	-3.156	yaw rate:	-0.345	Roll:	0.433	Pitch:	0.445	Yaw:	-6.098	Thrust:	0.000
Time:	1.675	Roll Set Point:	-0.027	Pitch Set Point:	-0.026	Yaw Set Point:	0.055	X_WP:	0.000	Y_WP:	0.000	Y_WP:	0.000	X:	0.014	Y:	0.013	Z:	0.057	yaw:	-3.160	yaw rate:	0.423	Roll:	0.431	Pitch:	0.439	Yaw:	-6.286	Thrust:	0.000
Time:	1.696	Roll Set Point:	-0.027	Pitch Set Point:	-0.026	Yaw Set Point:	0.055	X_WP:	0.000	Y_WP:	0.000	Y_WP:	0.000	X:	0.014	Y:	0.013	Z:	0.057	yaw:	-3.166	yaw rate:	0.555	Roll:	0.427	Pitch:	0.440	Yaw:	-6.325	Thrust:	0.000
Time:	1.715	Roll Set Point:	-0.027	Pitch Set Point:	-0.026	Yaw Set Point:	0.055	X_WP:	0.000	Y_WP:	0.000	Y_WP:	0.000	X:	0.014	Y:	0.013	Z:	0.057	yaw:	-3.163	yaw rate:	-0.303	Roll:	0.428	Pitch:	0.439	Yaw:	-6.128	Thrust:	0.000
Time:	1.735	Roll Set Point:	-0.027	Pitch Set Point:	-0.026	Yaw Set Point:	0.055	X_WP:	0.000	Y_WP:	0.000	Y_WP:	0.000	X:	0.014	Y:	0.013	Z:	0.057	yaw:	-3.153	yaw rate:	-1.017	Roll:	0.435	Pitch:	0.440	Yaw:	-6.153	Thrust:	0.000
Time:	1.759	Roll Set Point:	-0.027	Pitch Set Point:	-0.026	Yaw Set Point:	0.055	X_WP:	0.000	Y_WP:	0.000	Y_WP:	0.000	X:	0.014	Y:	0.013	Z:	0.057	yaw:	-3.152	yaw rate:	-0.018	Roll:	0.425	Pitch:	0.453	Yaw:	-6.578	Thrust:	0.000
Time:	1.775	Roll Set Point:	-0.027	Pitch Set Point:	-0.026	Yaw Set Point:	0.055	X_WP:	0.000	Y_WP:	0.000	Y_WP:	0.000	X:	0.014	Y:	0.013	Z:	0.057	yaw:	-3.152	yaw rate:	-0.052	Roll:	0.401	Pitch:	0.418	Yaw:	-5.941	Thrust:	0.000
Time:	1.795	Roll Set Point:	-0.027	Pitch Set Point:	-0.026	Yaw Set Point:	0.055	X_WP:	0.000	Y_WP:	0.000	Y_WP:	0.000	X:	0.014	Y:	0.013	Z:	0.057	yaw:	-3.168	yaw rate:	1.618	Roll:	0.467	Pitch:	0.462	Yaw:	-6.572	Thrust:	0.000
Time:	1.816	Roll Set Point:	-0.027	Pitch Set Point:	-0.026	Yaw Set Point:	0.055	X_WP:	0.000	Y_WP:	0.000	Y_WP:	0.000	X:	0.014	Y:	0.013	Z:	0.057	yaw:	-3.157	yaw rate:	-1.144	Roll:	0.426	Pitch:	0.448	Yaw:	-6.215	Thrust:	0.000
Time:	1.836	Roll Set Point:	-0.027	Pitch Set Point:	-0.026	Yaw Set Point:	0.055	X_WP:	0.000	Y_WP:	0.000	Y_WP:	0.000	X:	0.014	Y:	0.013	Z:	0.057	yaw:	-3.161	yaw rate:	0.401	Roll:	0.437	Pitch:	0.450	Yaw:	-6.490	Thrust:	0.000
Time:	1.856	Roll Set Point:	-0.027	Pitch Set Point:	-0.026	Yaw Set Point:	0.055	X_WP:	0.000	Y_WP:	0.000	Y_WP:	0.000	X:	0.014	Y:	0.013	Z:	0.057	yaw:	-3.161	yaw rate:	-0.011	Roll:	0.435	Pitch:	0.440	Yaw:	-6.365	Thrust:	0.000
Time:	1.877	Roll Set Point:	-0.027	Pitch Set Point:	-0.026	Yaw Set Point:	0.055	X_WP:	0.000	Y_WP:	0.000	Y_WP:	0.000	X:	0.014	Y:	0.013	Z:	0.057	yaw:	-3.164	yaw rate:	0.362	Roll:	0.437	Pitch:	0.449	Yaw:	-6.531	Thrust:	0.000
Time:	1.896	Roll Set Point:	-0.027	Pitch Set Point:	-0.026	Yaw Set Point:	0.055	X_WP:	0.000	Y_WP:	0.000	Y_WP:	0.000	X:	0.014	Y:	0.013	Z:	0.057	yaw:	-3.158	yaw rate:	-0.595	Roll:	0.431	Pitch:	0.447	Yaw:	-6.339	Thrust:	0.000
Time:	1.915	Roll Set Point:	-0.027	Pitch Set Point:	-0.026	Yaw Set Point:	0.055	X_WP:	0.000	Y_WP:	0.000	Y_WP:	0.000	X:	0.014	Y:	0.013	Z:	0.057	yaw:	-3.159	yaw rate:	0.039	Roll:	0.443	Pitch:	0.449	Yaw:	-6.395	Thrust:	0.000
Time:	1.935	Roll Set Point:	-0.027	Pitch Set Point:	-0.026	Yaw Set Point:	0.055	X_WP:	0.000	Y_WP:	0.000	Y_WP:	0.000	X:	0.014	Y:	0.013	Z:	0.057	yaw:	-3.162	yaw rate:	0.303	Roll:	0.436	Pitch:	0.446	Yaw:	-6.534	Thrust:	0.000
Time:	1.958	Roll Set Point:	-0.027	Pitch Set Point:	-0.026	Yaw Set Point:	0.055	X_WP:	0.000	Y_WP:	0.000	Y_WP:	0.000	X:	0.014	Y:	0.013	Z:	0.057	yaw:	-3.156	yaw rate:	-0.608	Roll:	0.436	Pitch:	0.452	Yaw:	-6.651	Thrust:	0.000
Time:	1.976	Roll Set Point:	-0.027	Pitch Set Point:	-0.026	Yaw Set Point:	0.055	X_WP:	0.000	Y_WP:	0.000	Y_WP:	0.000	X:	0.014	Y:	0.013	Z:	0.057	yaw:	-3.163	yaw rate:	0.792	Roll:	0.429	Pitch:	0.450	Yaw:	-6.486	Thrust:	0.000
Time:	1.996	Roll Set Point:	-0.027	Pitch Set Point:	-0.026	Yaw Set Point:	0.055	X_WP:	0.000	Y_WP:	0.000	Y_WP:	0.000	X:	0.014	Y:	0.013	Z:	0.057	yaw:	-3.162	yaw rate:	-0.173	Roll:	0.447	Pitch:	0.449	Yaw:	-6.579	Thrust:	0.000
Time:	2.021	Roll Set Point:	-0.027	Pitch Set Point:	-0.026	Yaw Set Point:	0.055	X_WP:	0.000	Y_WP:	0.000	Y_WP:	0.000	X:	0.014	Y:	0.013	Z:	0.057	yaw:	-3.153	yaw rate:	-0.905	Roll:	0.449	Pitch:	0.459	Yaw:	-6.852	Thrust:	0.000
Time:	2.035	Roll Set Point:	-0.027	Pitch Set Point:	-0.026	Yaw Set Point:	0.055	X_WP:	0.000	Y_WP:	0.000	Y_WP:	0.000	X:	0.014	Y:	0.013	Z:	0.057	yaw:	-3.158	yaw rate:	0.485	Roll:	0.426	Pitch:	0.449	Yaw:	-6.218	Thrust:	0.000
Time:	2.056	Roll Set Point:	-0.027	Pitch Set Point:	-0.026	Yaw Set Point:	0.055	X_WP:	0.000	Y_WP:	0.000	Y_WP:	0.000	X:	0.014	Y:	0.013	Z:	0.057	yaw:	-3.165	yaw rate:	0.769	Roll:	0.443	Pitch:	0.440	Yaw:	-6.680	Thrust:	0.000
Time:	2.076	Roll Set Point:	-0.027	Pitch Set Point:	-0.026	Yaw Set Point:	0.055	X_WP:	0.000	Y_WP:	0.000	Y_WP:	0.000	X:	0.014	Y:	0.013	Z:	0.057	yaw:	-3.157	yaw rate:	-0.835	Roll:	0.440	Pitch:	0.457	Yaw:	-6.610	Thrust:	0.000
Time:	2.096	Roll Set Point:	-0.027	Pitch Set Point:	-0.026	Yaw Set Point:	0.055	X_WP:	0.000	Y_WP:	0.000	Y_WP:	0.000	X:	0.014	Y:	0.013	Z:	0.057	yaw:	-3.160	yaw rate:	0.321	Roll:	0.455	Pitch:	0.464	Yaw:	-6.665	Thrust:	0.000
Time:	2.115	Roll Set Point:	-0.027	Pitch Set Point:	-0.026	Yaw Set Point:	0.055	X_WP:	0.000	Y_WP:	0.000	Y_WP:	0.000	X:	0.014	Y:	0.013	Z:	0.057	yaw:	-3.155	yaw rate:	-0.538	Roll:	0.427	Pitch:	0.449	Yaw:	-6.580	Thrust:	0.000
Time:	2.135	Roll Set Point:	-0.027	Pitch Set Point:	-0.026	Yaw Set Point:	0.055	X_WP:	0.000	Y_WP:	0.000	Y_WP:	0.000	X:	0.014	Y:	0.013	Z:	0.057	yaw:	-3.154	yaw rate:	-0.107	Roll:	0.454	Pitch:	0.451	Yaw:	-6.687	Thrust:	0.000
Time:	2.158	Roll Set Point:	-0.027	Pitch Set Point:	-0.026	Yaw Set Point:	0.055	X_WP:	0.000	Y_WP:	0.000	Y_WP:	0.000	X:	0.014	Y:	0.013	Z:	0.057	yaw:	-3.153	yaw rate:	-0.022	Roll:	0.448	Pitch:	0.462	Yaw:	-7.056	Thrust:	0.000
Time:	2.175	Roll Set Point:	-0.027	Pitch Set Point:	-0.026	Yaw Set Point:	0.055	X_WP:	0.000	Y_WP:	0.000	Y_WP:	0.000	X:	0.014	Y:	0.013	Z:	0.057	yaw:	-3.151	yaw rate:	-0.260	Roll:	0.433	Pitch:	0.453	Yaw:	-6.332	Thrust:	0.000
Time:	2.196	Roll Set Point:	-0.027	Pitch Set Point:	-0.026	Yaw Set Point:	0.055	X_WP:	0.000	Y_WP:	0.000	Y_WP:	0.000	X:	0.014	Y:	0.013	Z:	0.057	yaw:	-3.152	yaw rate:	0.114	Roll:	0.447	Pitch:	0.458	Yaw:	-6.905	Thrust:	0.000
Time:	2.216	Roll Set Point:	-0.027	Pitch Set Point:	-0.026	Yaw Set Point:	0.055	X_WP:	0.000	Y_WP:	0.000	Y_WP:	0.000	X:	0.014	Y:	0.013	Z:	0.057	yaw:	-3.160	yaw rate:	0.814	Roll:	0.439	Pitch:	0.473	Yaw:	-6.746	Thrust:	0.000
Time:	2.235	Roll Set Point:	-0.027	Pitch Set Point:	-0.026	Yaw Set Point:	0.055	X_WP:	0.000	Y_WP:	0.000	Y_WP:	0.000	X:	0.014	Y:	0.013	Z:	0.057	yaw:	-3.158	yaw rate:	-0.177	Roll:	0.455	Pitch:	0.442	Yaw:	-6.804	Thrust:	0.000
Time:	2.255	Roll Set Point:	-0.027	Pitch Set Point:	-0.026	Yaw Set Point:	0.055	X_WP:	0.000	Y_WP:	0.000	Y_WP:	0.000	X:	0.014	Y:	0.013	Z:	0.057	yaw:	-3.160	yaw rate:	0.195	Roll:	0.438	Pitch:	0.462	Yaw:	-6.875	Thrust:	0.000
Time:	2.277	Roll Set Point:	-0.027	Pitch Set Point:	-0.026	Yaw Set Point:	0.055	X_WP:	0.000	Y_WP:	0.000	Y_WP:	0.000	X:	0.014	Y:	0.013	Z:	0.057	yaw:	-3.163	yaw rate:	0.225	Roll:	0.463	Pitch:	0.474	Yaw:	-7.104	Thrust:	0.000
Time:	2.296	Roll Set Point:	-0.027	Pitch Set Point:	-0.026	Yaw Set Point:	0.055	X_WP:	0.000	Y_WP:	0.000	Y_WP:	0.000	X:	0.014	Y:	0.013	Z:	0.057	yaw:	-3.153	yaw rate:	-0.931	Roll:	0.411	Pitch:	0.432	Yaw:	-6.567	Thrust:	0.000
Time:	2.314	Roll Set Point:	-0.027	Pitch Set Point:	-0.026	Yaw Set Point:	0.055	X_WP:	0.000	Y_WP:	0.000	Y_WP:	0.000	X:	0.014	Y:	0.013	Z:	0.057	yaw:	-3.162	yaw rate:	0.847	Roll:	0.480	Pitch:	0.475	Yaw:	-6.914	Thrust:	0.000
Time:	2.335	Roll Set Point:	-0.027	Pitch Set Point:	-0.026	Yaw Set Point:	0.055	X_WP:	0.000	Y_WP:	0.000	Y_WP:	0.000	X:	0.014	Y:	0.013	Z:	0.057	yaw:	-3.163	yaw rate:	0.117	Roll:	0.446	Pitch:	0.460	Yaw:	-7.036	Thrust:	0.000
Time:	2.356	Roll Set Point:	-0.027	Pitch Set Point:	-0.026	Yaw Set Point:	0.055	X_WP:	0.000	Y_WP:	0.000	Y_WP:	0.000	X:	0.014	Y:	0.013	Z:	0.057	yaw:	-3.166	yaw rate:	0.279	Roll:	0.444	Pitch:	0.467	Yaw:	-7.058	Thrust:	0.000
Time:	2.375	Roll Set Point:	-0.027	Pitch Set Point:	-0.026	Yaw Set Point:	0.055	X_WP:	0.000	Y_WP:	0.000	Y_WP:	0.000	X:	0.014	Y:	0.013	Z:	0.057	yaw:	-3.154	yaw rate:	-1.161	Roll:	0.462	Pitch:	0.464	Yaw:	-6.790	Thrust:	0.000
Time:	2.395	Roll Set Point:	-0.027	Pitch Set Point:	-0.026	Yaw Set Point:	0.055	X_WP:	0.000	Y_WP:	0.000	Y_WP:	0.000	X:	0.014	Y:	0.013	Z:	0.057	yaw:	-3.160	yaw rate:	0.621	Roll:	0.452	Pitch:	0.475	Yaw:	-7.082	Thrust:	0.000
Time:	2.416	Roll Set Point:	-0.027	Pitch Set Point:	-0.026	Yaw Set Point:	0.055	X_WP:	0.000	Y_WP:	0.000	Y_WP:	0.000	X:	0.014	Y:	0.013	Z:	0.057	yaw:	-3.163	yaw rate:	0.250	Roll:	0.442	Pitch:	0.455	Yaw:	-7.134	Thrust:	0.000
Time:	2.435	Roll Set Point:	-0.027	Pitch Set Point:	-0.026	Yaw Set Point:	0.055	X_WP:	0.000	Y_WP:	0.000	Y_WP:	0.000	X:	0.014	Y:	0.013	Z:	0.057	yaw:	-3.155	yaw rate:	-0.773	Roll:	0.457	Pitch:	0.461	Yaw:	-6.824	Thrust:	0.000
Time:	2.455	Roll Set Point:	-0.027	Pitch Set Point:	-0.026	Yaw Set Point:	0.055	X_WP:	0.000	Y_WP:	0.000	Y_WP:	0.000	X:	0.014	Y:	0.013	Z:	0.057	yaw:	-3.160	yaw rate:	0.491	Roll:	0.471	Pitch:	0.472	Yaw:	-7.070	Thrust:	0.000
Time:	2.477	Roll Set Point:	-0.027	Pitch Set Point:	-0.026	Yaw Set Point:	0.055	X_WP:	0.000	Y_WP:	0.000	Y_WP:	0.000	X:	0.014	Y:	0.013	Z:	0.057	yaw:	-3.160	yaw rate:	0.015	Roll:	0.447	Pitch:	0.467	Yaw:	-7.325	Thrust:	0.000
Time:	2.496	Roll Set Point:	-0.027	Pitch Set Point:	-0.026	Yaw Set Point:	0.055	X_WP:	0.000	Y_WP:	0.000	Y_WP:	0.000	X:	0.014	Y:	0.013	Z:	0.057	yaw:	-3.153	yaw rate:	-0.689	Roll:	0.446	Pitch:	0.463	Yaw:	-6.880	Thrust:	0.000
Time:	2.515	Roll Set Point:	-0.027	Pitch Set Point:	-0.026	Yaw Set Point:	0.055	X_WP:	0.000	Y_WP:	0.000	Y_WP:	0.000	X:	0.014	Y:	0.013	Z:	0.057	yaw:	-3.169	yaw rate:	1.540	Roll:	0.467	Pitch:	0.462	Yaw:	-7.269	Thrust:	0.000
Time:	2.535	Roll Set Point:	-0.027	Pitch Set Point:	-0.026	Yaw Set Point:	0.055	X_WP:	0.000	Y_WP:	0.000	Y_WP:	0.000	X:	0.014	Y:	0.013	Z:	0.057	yaw:	-3.162	yaw rate:	-0.687	Roll:	0.456	Pitch:	0.475	Yaw:	-7.032	Thrust:	0.000
Time:	2.559	Roll Set Point:	-0.027	Pitch Set Point:	-0.026	Yaw Set Point:	0.055	X_WP:	0.000	Y_WP:	0.000	Y_WP:	0.000	X:	0.014	Y:	0.013	Z:	0.057	yaw:	-3.164	yaw rate:	0.244	Roll:	0.449	Pitch:	0.479	Yaw:	-7.705	Thrust:	0.000
Time:	2.576	Roll Set Point:	-0.027	Pitch Set Point:	-0.026	Yaw Set Point:	0.055	X_WP:	0.000	Y_WP:	0.000	Y_WP:	0.000	X:	0.014	Y:	0.013	Z:	0.057	yaw:	-3.161	yaw rate:	-0.305	Roll:	0.471	Pitch:	0.455	Yaw:	-6.573	Thrust:	0.000
Time:	2.596	Roll Set Point:	-0.027	Pitch Set Point:	-0.026	Yaw Set Point:	0.055	X_WP:	0.000	Y_WP:	0.000	Y_WP:	0.000	X:	0.014	Y:	0.013	Z:	0.057	yaw:	-3.160	yaw rate:	-0.064	Roll:	0.460	Pitch:	0.483	Yaw:	-7.434	Thrust:	0.000
Time:	2.616	Roll Set Point:	-0.027	Pitch Set Point:	-0.026	Yaw Set Point:	0.055	X_WP:	0.000	Y_WP:	0.000	Y_WP:	0.000	X:	0.014	Y:	0.013	Z:	0.057	yaw:	-3.160	yaw rate:	-0.085	Roll:	0.448	Pitch:	0.463	Yaw:	-7.029	Thrust:	0.000
Time:	2.635	Roll Set Point:	-0.027	Pitch Set Point:	-0.026	Yaw Set Point:	0.055	X_WP:	0.000	Y_WP:	0.000	Y_WP:	0.000	X:	0.014	Y:	0.013	Z:	0.057	yaw:	-3.160	yaw rate:	0.009	Roll:	0.457	Pitch:	0.472	Yaw:	-7.285	Thrust:	0.000
Time:	2.655	Roll Set Point:	-0.027	Pitch Set Point:	-0.026	Yaw Set Point:	0.055	X_WP:	0.000	Y_WP:	0.000	Y_WP:	0.000	X:	0.014	Y:	0.013	Z:	0.057	yaw:	-3.159	yaw rate:	-0.024	Roll:	0.478	Pitch:	0.482	Yaw:	-7.281	Thrust:	0.000
Time:	2.676	Roll Set Point:	-0.027	Pitch Set Point:	-0.026	Yaw Set Point:	0.055	X_WP:	0.000	Y_WP:	0.000	Y_WP:	0.000	X:	0.014	Y:	0.013	Z:	0.057	yaw:	-3.154	yaw rate:	-0.515	Roll:	0.450	Pitch:	0.471	Yaw:	-7.323	Thrust:	0.000
Time:	2.696	Roll Set Point:	-0.027	Pitch Set Point:	-0.026	Yaw Set Point:	0.055	X_WP:	0.000	Y_WP:	0.000	Y_WP:	0.000	X:	0.014	Y:	0.013	Z:	0.057	yaw:	-3.163	yaw rate:	0.909	Roll:	0.451	Pitch:	0.465	Yaw:	-7.459	Thrust:	0.000
Time:	2.715	Roll Set Point:	-0.027	Pitch Set Point:	-0.026	Yaw Set Point:	0.055	X_WP:	0.000	Y_WP:	0.000	Y_WP:	0.000	X:	0.014	Y:	0.013	Z:	0.057	yaw:	-3.160	yaw rate:	-0.334	Roll:	0.447	Pitch:	0.476	Yaw:	-7.178	Thrust:	0.000
Time:	2.735	Roll Set Point:	-0.027	Pitch Set Point:	-0.026	Yaw Set Point:	0.055	X_WP:	0.000	Y_WP:	0.000	Y_WP:	0.000	X:	0.014	Y:	0.013	Z:	0.057	yaw:	-3.155	yaw rate:	-0.473	Roll:	0.487	Pitch:	0.480	Yaw:	-7.302	Thrust:	0.000
Time:	2.758	Roll Set Point:	-0.027	Pitch Set Point:	-0.026	Yaw Set Point:	0.055	X_WP:	0.000	Y_WP:	0.000	Y_WP:	0.000	X:	0.014	Y:	0.013	Z:	0.057	yaw:	-3.162	yaw rate:	0.688	Roll:	0.470	Pitch:	0.487	Yaw:	-7.843	Thrust:	0.000
Time:	2.775	Roll Set Point:	-0.027	Pitch Set Point:	-0.026	Yaw Set Point:	0.055	X_WP:	0.000	Y_WP:	0.000	Y_WP:	0.000	X:	0.014	Y:	0.013	Z:	0.057	yaw:	-3.168	yaw rate:	0.602	Roll:	0.455	Pitch:	0.463	Yaw:	-7.209	Thrust:	0.000
Time:	2.795	Roll Set Point:	-0.027	Pitch Set Point:	-0.026	Yaw Set Point:	0.055	X_WP:	0.000	Y_WP:	0.000	Y_WP:	0.000	X:	0.014	Y:	0.013	Z:	0.057	yaw:	-3.160	yaw rate:	-0.788	Roll:	0.466	Pitch:	0.484	Yaw:	-7.276	Thrust:	0.000
Time:	2.816	Roll Set Point:	-0.027	Pitch Set Point:	-0.026	Yaw Set Point:	0.055	X_WP:	0.000	Y_WP:	0.000	Y_WP:	0.000	X:	0.014	Y:	0.013	Z:	0.057	yaw:	-3.150	yaw rate:	-1.064	Roll:	0.472	Pitch:	0.471	Yaw:	-7.408	Thrust:	0.000
Time:	2.835	Roll Set Point:	-0.027	Pitch Set Point:	-0.026	Yaw Set Point:	0.055	X_WP:	0.000	Y_WP:	0.000	Y_WP:	0.000	X:	0.014	Y:	0.013	Z:	0.057	yaw:	-3.156	yaw rate:	0.610	Roll:	0.448	Pitch:	0.484	Yaw:	-7.418	Thrust:	0.000
Time:	2.855	Roll Set Point:	-0.027	Pitch Set Point:	-0.026	Yaw Set Point:	0.055	X_WP:	0.000	Y_WP:	0.000	Y_WP:	0.000	X:	0.014	Y:	0.013	Z:	0.057	yaw:	-3.163	yaw rate:	0.724	Roll:	0.476	Pitch:	0.473	Yaw:	-7.615	Thrust:	0.000
Time:	2.876	Roll Set Point:	-0.027	Pitch Set Point:	-0.026	Yaw Set Point:	0.055	X_WP:	0.000	Y_WP:	0.000	Y_WP:	0.000	X:	0.014	Y:	0.013	Z:	0.057	yaw:	-3.155	yaw rate:	-0.816	Roll:	0.462	Pitch:	0.479	Yaw:	-7.419	Thrust:	0.000
Time:	2.896	Roll Set Point:	-0.027	Pitch Set Point:	-0.026	Yaw Set Point:	0.055	X_WP:	0.000	Y_WP:	0.000	Y_WP:	0.000	X:	0.014	Y:	0.013	Z:	0.057	yaw:	-3.167	yaw rate:	1.208	Roll:	0.471	Pitch:	0.485	Yaw:	-7.810	Thrust:	0.000
Time:	2.915	Roll Set Point:	-0.027	Pitch Set Point:	-0.026	Yaw Set Point:	0.055	X_WP:	0.000	Y_WP:	0.000	Y_WP:	0.000	X:	0.014	Y:	0.013	Z:	0.057	yaw:	-3.165	yaw rate:	-0.193	Roll:	0.472	Pitch:	0.476	Yaw:	-7.408	Thrust:	0.000
Time:	2.935	Roll Set Point:	-0.027	Pitch Set Point:	-0.026	Yaw Set Point:	0.055	X_WP:	0.000	Y_WP:	0.000	Y_WP:	0.000	X:	0.014	Y:	0.013	Z:	0.057	yaw:	-3.157	yaw rate:	-0.821	Roll:	0.466	Pitch:	0.490	Yaw:	-7.512	Thrust:	0.000
Time:	2.955	Roll Set Point:	-0.027	Pitch Set Point:	-0.026	Yaw Set Point:	0.055	X_WP:	0.000	Y_WP:	0.000	Y_WP:	0.000	X:	0.014	Y:	0.013	Z:	0.057	yaw:	-3.165	yaw rate:	0.858	Roll:	0.478	Pitch:	0.474	Yaw:	-7.736	Thrust:	0.000
Time:	2.975	Roll Set Point:	-0.027	Pitch Set Point:	-0.026	Yaw Set Point:	0.055	X_WP:	0.000	Y_WP:	0.000	Y_WP:	0.000	X:	0.014	Y:	0.013	Z:	0.057	yaw:	-3.165	yaw rate:	-0.071	Roll:	0.463	Pitch:	0.489	Yaw:	-7.641	Thrust:	0.000
Time:	2.996	Roll Set Point:	-0.027	Pitch Set Point:	-0.026	Yaw Set Point:	0.055	X_WP:	0.000	Y_WP:	0.000	Y_WP:	0.000	X:	0.014	Y:	0.013	Z:	0.057	yaw:	-3.155	yaw rate:	-0.929	Roll:	0.476	Pitch:	0.481	Yaw:	-7.671	Thrust:	0.000
Time:	3.017	Roll Set Point:	-0.027	Pitch Set Point:	-0.026	Yaw Set Point:	0.055	X_WP:	0.000	Y_WP:	0.000	Y_WP:	0.000	X:	0.014	Y:	0.013	Z:	0.057	yaw:	-3.166	yaw rate:	1.019	Roll:	0.464	Pitch:	0.492	Yaw:	-7.696	Thrust:	0.000
Time:	3.036	Roll Set Point:	-0.027	Pitch Set Point:	-0.026	Yaw Set Point:	0.055	X_WP:	0.000	Y_WP:	0.000	Y_WP:	0.000	X:	0.014	Y:	0.013	Z:	0.057	yaw:	-3.159	yaw rate:	-0.633	Roll:	0.480	Pitch:	0.477	Yaw:	-7.721	Thrust:	0.000
Time:	3.055	Roll Set Point:	-0.027	Pitch Set Point:	-0.026	Yaw Set Point:	0.055	X_WP:	0.000	Y_WP:	0.000	Y_WP:	0.000	X:	0.014	Y:	0.013	Z:	0.057	yaw:	-3.164	yaw rate:	0.464	Roll:	0.472	Pitch:	0.490	Yaw:	-7.660	Thrust:	0.000
Time:	3.075	Roll Set Point:	-0.027	Pitch Set Point:	-0.026	Yaw Set Point:	0.055	X_WP:	0.000	Y_WP:	0.000	Y_WP:	0.000	X:	0.014	Y:	0.013	Z:	0.057	yaw:	-3.168	yaw rate:	0.441	Roll:	0.467	Pitch:	0.490	Yaw:	-7.915	Thrust:	0.000
Time:	3.096	Roll Set Point:	-0.027	Pitch Set Point:	-0.026	Yaw Set Point:	0.055	X_WP:	0.000	Y_WP:	0.000	Y_WP:	0.000	X:	0.014	Y:	0.013	Z:	0.057	yaw:	-3.158	yaw rate:	-1.031	Roll:	0.482	Pitch:	0.492	Yaw:	-7.648	Thrust:	0.000
Time:	3.115	Roll Set Point:	-0.027	Pitch Set Point:	-0.026	Yaw Set Point:	0.055	X_WP:	0.000	Y_WP:	0.000	Y_WP:	0.000	X:	0.014	Y:	0.013	Z:	0.057	yaw:	-3.161	yaw rate:	0.280	Roll:	0.475	Pitch:	0.491	Yaw:	-7.712	Thrust:	0.000
Time:	3.135	Roll Set Point:	-0.027	Pitch Set Point:	-0.026	Yaw Set Point:	0.055	X_WP:	0.000	Y_WP:	0.000	Y_WP:	0.000	X:	0.014	Y:	0.013	Z:	0.057	yaw:	-3.154	yaw rate:	-0.646	Roll:	0.469	Pitch:	0.472	Yaw:	-7.686	Thrust:	0.000
Time:	3.156	Roll Set Point:	-0.027	Pitch Set Point:	-0.026	Yaw Set Point:	0.055	X_WP:	0.000	Y_WP:	0.000	Y_WP:	0.000	X:	0.014	Y:	0.013	Z:	0.057	yaw:	-3.166	yaw rate:	1.166	Roll:	0.478	Pitch:	0.500	Yaw:	-8.146	Thrust:	0.000
Time:	3.175	Roll Set Point:	-0.027	Pitch Set Point:	-0.026	Yaw Set Point:	0.055	X_WP:	0.000	Y_WP:	0.000	Y_WP:	0.000	X:	0.014	Y:	0.013	Z:	0.057	yaw:	-3.156	yaw rate:	-0.988	Roll:	0.483	Pitch:	0.490	Yaw:	-7.555	Thrust:	0.000
Time:	3.195	Roll Set Point:	-0.027	Pitch Set Point:	-0.026	Yaw Set Point:	0.055	X_WP:	0.000	Y_WP:	0.000	Y_WP:	0.000	X:	0.014	Y:	0.013	Z:	0.057	yaw:	-3.160	yaw rate:	0.399	Roll:	0.473	Pitch:	0.486	Yaw:	-8.034	Thrust:	0.000
Time:	3.215	Roll Set Point:	-0.027	Pitch Set Point:	-0.026	Yaw Set Point:	0.055	X_WP:	0.000	Y_WP:	0.000	Y_WP:	0.000	X:	0.014	Y:	0.013	Z:	0.057	yaw:	-3.157	yaw rate:	-0.335	Roll:	0.445	Pitch:	0.479	Yaw:	-7.817	Thrust:	0.000
Time:	3.235	Roll Set Point:	-0.027	Pitch Set Point:	-0.026	Yaw Set Point:	0.055	X_WP:	0.000	Y_WP:	0.000	Y_WP:	0.000	X:	0.014	Y:	0.013	Z:	0.057	yaw:	-3.157	yaw rate:	0.021	Roll:	0.519	Pitch:	0.505	Yaw:	-7.947	Thrust:	0.000
Time:	3.255	Roll Set Point:	-0.027	Pitch Set Point:	-0.026	Yaw Set Point:	0.055	X_WP:	0.000	Y_WP:	0.000	Y_WP:	0.000	X:	0.014	Y:	0.013	Z:	0.057	yaw:	-3.159	yaw rate:	0.173	Roll:	0.481	Pitch:	0.500	Yaw:	-7.885	Thrust:	0.000
Time:	3.276	Roll Set Point:	-0.027	Pitch Set Point:	-0.026	Yaw Set Point:	0.055	X_WP:	0.000	Y_WP:	0.000	Y_WP:	0.000	X:	0.014	Y:	0.013	Z:	0.057	yaw:	-3.160	yaw rate:	0.154	Roll:	0.476	Pitch:	0.490	Yaw:	-8.127	Thrust:	0.000
Time:	3.296	Roll Set Point:	-0.027	Pitch Set Point:	-0.026	Yaw Set Point:	0.055	X_WP:	0.000	Y_WP:	0.000	Y_WP:	0.000	X:	0.014	Y:	0.013	Z:	0.057	yaw:	-3.159	yaw rate:	-0.160	Roll:	0.483	Pitch:	0.493	Yaw:	-7.888	Thrust:	0.000
Time:	3.315	Roll Set Point:	-0.027	Pitch Set Point:	-0.026	Yaw Set Point:	0.055	X_WP:	0.000	Y_WP:	0.000	Y_WP:	0.000	X:	0.014	Y:	0.013	Z:	0.057	yaw:	-3.157	yaw rate:	-0.185	Roll:	0.458	Pitch:	0.484	Yaw:	-7.820	Thrust:	0.000
Time:	3.335	Roll Set Point:	-0.027	Pitch Set Point:	-0.026	Yaw Set Point:	0.055	X_WP:	0.000	Y_WP:	0.000	Y_WP:	0.000	X:	0.014	Y:	0.013	Z:	0.057	yaw:	-3.167	yaw rate:	0.982	Roll:	0.484	Pitch:	0.498	Yaw:	-8.284	Thrust:	0.000
Time:	3.356	Roll Set Point:	-0.027	Pitch Set Point:	-0.026	Yaw Set Point:	0.055	X_WP:	0.000	Y_WP:	0.000	Y_WP:	0.000	X:	0.014	Y:	0.013	Z:	0.057	yaw:	-3.160	yaw rate:	-0.695	Roll:	0.499	Pitch:	0.499	Yaw:	-8.069	Thrust:	0.000
Time:	3.375	Roll Set Point:	-0.027	Pitch Set Point:	-0.026	Yaw Set Point:	0.055	X_WP:	0.000	Y_WP:	0.000	Y_WP:	0.000	X:	0.014	Y:	0.013	Z:	0.057	yaw:	-3.164	yaw rate:	0.457	Roll:	0.498	Pitch:	0.498	Yaw:	-7.967	Thrust:	0.000
Time:	3.396	Roll Set Point:	-0.027	Pitch Set Point:	-0.026	Yaw Set Point:	0.055	X_WP:	0.000	Y_WP:	0.000	Y_WP:	0.000	X:	0.014	Y:	0.013	Z:	0.057	yaw:	-3.159	yaw rate:	-0.563	Roll:	0.471	Pitch:	0.506	Yaw:	-8.130	Thrust:	0.000
Time:	3.419	Roll Set Point:	-0.027	Pitch Set Point:	-0.026	Yaw Set Point:	0.055	X_WP:	0.000	Y_WP:	0.000	Y_WP:	0.000	X:	0.014	Y:	0.013	Z:	0.057	yaw:	-3.161	yaw rate:	0.229	Roll:	0.483	Pitch:	0.498	Yaw:	-8.482	Thrust:	0.000
Time:	3.435	Roll Set Point:	-0.027	Pitch Set Point:	-0.026	Yaw Set Point:	0.055	X_WP:	0.000	Y_WP:	0.000	Y_WP:	0.000	X:	0.014	Y:	0.013	Z:	0.057	yaw:	-3.163	yaw rate:	0.187	Roll:	0.493	Pitch:	0.500	Yaw:	-7.812	Thrust:	0.000
Time:	3.455	Roll Set Point:	-0.027	Pitch Set Point:	-0.026	Yaw Set Point:	0.055	X_WP:	0.000	Y_WP:	0.000	Y_WP:	0.000	X:	0.014	Y:	0.013	Z:	0.057	yaw:	-3.163	yaw rate:	0.055	Roll:	0.482	Pitch:	0.493	Yaw:	-8.201	Thrust:	0.000
Time:	3.476	Roll Set Point:	-0.027	Pitch Set Point:	-0.026	Yaw Set Point:	0.055	X_WP:	0.000	Y_WP:	0.000	Y_WP:	0.000	X:	0.014	Y:	0.013	Z:	0.057	yaw:	-3.163	yaw rate:	-0.036	Roll:	0.487	Pitch:	0.505	Yaw:	-8.232	Thrust:	0.000
Time:	3.496	Roll Set Point:	-0.027	Pitch Set Point:	-0.026	Yaw Set Point:	0.055	X_WP:	0.000	Y_WP:	0.000	Y_WP:	0.000	X:	0.014	Y:	0.013	Z:	0.057	yaw:	-3.160	yaw rate:	-0.333	Roll:	0.459	Pitch:	0.491	Yaw:	-8.166	Thrust:	0.000
Time:	3.515	Roll Set Point:	-0.027	Pitch Set Point:	-0.026	Yaw Set Point:	0.055	X_WP:	0.000	Y_WP:	0.000	Y_WP:	0.000	X:	0.014	Y:	0.013	Z:	0.057	yaw:	-3.156	yaw rate:	-0.384	Roll:	0.515	Pitch:	0.511	Yaw:	-8.067	Thrust:	0.000
Time:	3.541	Roll Set Point:	-0.027	Pitch Set Point:	-0.026	Yaw Set Point:	0.055	X_WP:	0.000	Y_WP:	0.000	Y_WP:	0.000	X:	0.014	Y:	0.013	Z:	0.057	yaw:	-3.156	yaw rate:	0.027	Roll:	0.521	Pitch:	0.528	Yaw:	-9.229	Thrust:	0.000
Time:	3.559	Roll Set Point:	-0.027	Pitch Set Point:	-0.026	Yaw Set Point:	0.055	X_WP:	0.000	Y_WP:	0.000	Y_WP:	0.000	X:	0.014	Y:	0.013	Z:	0.057	yaw:	-3.154	yaw rate:	-0.165	Roll:	0.469	Pitch:	0.489	Yaw:	-7.970	Thrust:	0.000
Time:	3.575	Roll Set Point:	-0.027	Pitch Set Point:	-0.026	Yaw Set Point:	0.055	X_WP:	0.000	Y_WP:	0.000	Y_WP:	0.000	X:	0.014	Y:	0.013	Z:	0.057	yaw:	-3.173	yaw rate:	1.851	Roll:	0.485	Pitch:	0.492	Yaw:	-7.928	Thrust:	0.000
Time:	3.595	Roll Set Point:	-0.027	Pitch Set Point:	-0.026	Yaw Set Point:	0.055	X_WP:	0.000	Y_WP:	0.000	Y_WP:	0.000	X:	0.014	Y:	0.013	Z:	0.057	yaw:	-3.172	yaw rate:	-0.127	Roll:	0.490	Pitch:	0.504	Yaw:	-8.317	Thrust:	0.000
Time:	3.615	Roll Set Point:	-0.027	Pitch Set Point:	-0.026	Yaw Set Point:	0.055	X_WP:	0.000	Y_WP:	0.000	Y_WP:	0.000	X:	0.014	Y:	0.013	Z:	0.057	yaw:	-3.171	yaw rate:	-0.058	Roll:	0.480	Pitch:	0.508	Yaw:	-8.287	Thrust:	0.000
Time:	3.636	Roll Set Point:	-0.027	Pitch Set Point:	-0.026	Yaw Set Point:	0.055	X_WP:	0.000	Y_WP:	0.000	Y_WP:	0.000	X:	0.014	Y:	0.013	Z:	0.057	yaw:	-3.155	yaw rate:	-1.614	Roll:	0.501	Pitch:	0.494	Yaw:	-8.172	Thrust:	0.000
Time:	3.655	Roll Set Point:	-0.027	Pitch Set Point:	-0.026	Yaw Set Point:	0.055	X_WP:	0.000	Y_WP:	0.000	Y_WP:	0.000	X:	0.014	Y:	0.013	Z:	0.057	yaw:	-3.155	yaw rate:	-0.010	Roll:	0.500	Pitch:	0.508	Yaw:	-8.455	Thrust:	0.000
Time:	3.676	Roll Set Point:	-0.027	Pitch Set Point:	-0.026	Yaw Set Point:	0.055	X_WP:	0.000	Y_WP:	0.000	Y_WP:	0.000	X:	0.014	Y:	0.013	Z:	0.057	yaw:	-3.155	yaw rate:	0.022	Roll:	0.490	Pitch:	0.517	Yaw:	-8.420	Thrust:	0.000
Time:	3.696	Roll Set Point:	-0.027	Pitch Set Point:	-0.026	Yaw Set Point:	0.055	X_WP:	0.000	Y_WP:	0.000	Y_WP:	0.000	X:	0.014	Y:	0.013	Z:	0.057	yaw:	-3.160	yaw rate:	0.519	Roll:	0.490	Pitch:	0.505	Yaw:	-8.538	Thrust:	0.000
Time:	3.715	Roll Set Point:	-0.027	Pitch Set Point:	-0.026	Yaw Set Point:	0.055	X_WP:	0.000	Y_WP:	0.000	Y_WP:	0.000	X:	0.014	Y:	0.013	Z:	0.057	yaw:	-3.158	yaw rate:	-0.223	Roll:	0.488	Pitch:	0.496	Yaw:	-8.211	Thrust:	0.000
Time:	3.735	Roll Set Point:	-0.027	Pitch Set Point:	-0.026	Yaw Set Point:	0.055	X_WP:	0.000	Y_WP:	0.000	Y_WP:	0.000	X:	0.014	Y:	0.013	Z:	0.057	yaw:	-3.161	yaw rate:	0.292	Roll:	0.503	Pitch:	0.520	Yaw:	-8.452	Thrust:	0.000
Time:	3.756	Roll Set Point:	-0.027	Pitch Set Point:	-0.026	Yaw Set Point:	0.055	X_WP:	0.000	Y_WP:	0.000	Y_WP:	0.000	X:	0.014	Y:	0.013	Z:	0.057	yaw:	-3.165	yaw rate:	0.395	Roll:	0.492	Pitch:	0.508	Yaw:	-8.507	Thrust:	0.000
Time:	3.775	Roll Set Point:	-0.027	Pitch Set Point:	-0.026	Yaw Set Point:	0.055	X_WP:	0.000	Y_WP:	0.000	Y_WP:	0.000	X:	0.014	Y:	0.013	Z:	0.057	yaw:	-3.165	yaw rate:	0.034	Roll:	0.503	Pitch:	0.513	Yaw:	-8.427	Thrust:	0.000
Time:	3.795	Roll Set Point:	-0.027	Pitch Set Point:	-0.026	Yaw Set Point:	0.055	X_WP:	0.000	Y_WP:	0.000	Y_WP:	0.000	X:	0.014	Y:	0.013	Z:	0.057	yaw:	-3.158	yaw rate:	-0.676	Roll:	0.489	Pitch:	0.507	Yaw:	-8.370	Thrust:	0.000
Time:	3.818	Roll Set Point:	-0.027	Pitch Set Point:	-0.026	Yaw Set Point:	0.055	X_WP:	0.000	Y_WP:	0.000	Y_WP:	0.000	X:	0.014	Y:	0.013	Z:	0.057	yaw:	-3.162	yaw rate:	0.383	Roll:	0.513	Pitch:	0.522	Yaw:	-8.727	Thrust:	0.000
Time:	3.835	Roll Set Point:	-0.027	Pitch Set Point:	-0.026	Yaw Set Point:	0.055	X_WP:	0.000	Y_WP:	0.000	Y_WP:	0.000	X:	0.014	Y:	0.013	Z:	0.057	yaw:	-3.162	yaw rate:	-0.054	Roll:	0.493	Pitch:	0.499	Yaw:	-8.055	Thrust:	0.000
Time:	3.855	Roll Set Point:	-0.027	Pitch Set Point:	-0.026	Yaw Set Point:	0.055	X_WP:	0.000	Y_WP:	0.000	Y_WP:	0.000	X:	0.014	Y:	0.013	Z:	0.057	yaw:	-3.154	yaw rate:	-0.777	Roll:	0.494	Pitch:	0.513	Yaw:	-8.243	Thrust:	0.000
Time:	3.876	Roll Set Point:	-0.027	Pitch Set Point:	-0.026	Yaw Set Point:	0.055	X_WP:	0.000	Y_WP:	0.000	Y_WP:	0.000	X:	0.014	Y:	0.013	Z:	0.057	yaw:	-3.158	yaw rate:	0.426	Roll:	0.504	Pitch:	0.512	Yaw:	-8.647	Thrust:	0.000
Time:	3.897	Roll Set Point:	-0.027	Pitch Set Point:	-0.026	Yaw Set Point:	0.055	X_WP:	0.000	Y_WP:	0.000	Y_WP:	0.000	X:	0.014	Y:	0.013	Z:	0.057	yaw:	-3.160	yaw rate:	0.227	Roll:	0.505	Pitch:	0.533	Yaw:	-8.656	Thrust:	0.000
Time:	3.915	Roll Set Point:	-0.027	Pitch Set Point:	-0.026	Yaw Set Point:	0.055	X_WP:	0.000	Y_WP:	0.000	Y_WP:	0.000	X:	0.014	Y:	0.013	Z:	0.057	yaw:	-3.166	yaw rate:	0.558	Roll:	0.491	Pitch:	0.496	Yaw:	-8.121	Thrust:	0.000
Time:	3.935	Roll Set Point:	-0.027	Pitch Set Point:	-0.026	Yaw Set Point:	0.055	X_WP:	0.000	Y_WP:	0.000	Y_WP:	0.000	X:	0.014	Y:	0.013	Z:	0.057	yaw:	-3.160	yaw rate:	-0.597	Roll:	0.501	Pitch:	0.512	Yaw:	-8.331	Thrust:	0.000
Time:	3.960	Roll Set Point:	-0.027	Pitch Set Point:	-0.026	Yaw Set Point:	0.055	X_WP:	0.000	Y_WP:	0.000	Y_WP:	0.000	X:	0.014	Y:	0.013	Z:	0.057	yaw:	-3.156	yaw rate:	-0.461	Roll:	0.536	Pitch:	0.551	Yaw:	-9.502	Thrust:	0.000
Time:	3.975	Roll Set Point:	-0.027	Pitch Set Point:	-0.026	Yaw Set Point:	0.055	X_WP:	0.000	Y_WP:	0.000	Y_WP:	0.000	X:	0.014	Y:	0.013	Z:	0.057	yaw:	-3.158	yaw rate:	0.262	Roll:	0.467	Pitch:	0.484	Yaw:	-7.364	Thrust:	0.000
Time:	3.995	Roll Set Point:	-0.027	Pitch Set Point:	-0.026	Yaw Set Point:	0.055	X_WP:	0.000	Y_WP:	0.000	Y_WP:	0.000	X:	0.014	Y:	0.013	Z:	0.057	yaw:	-3.156	yaw rate:	-0.189	Roll:	0.512	Pitch:	0.520	Yaw:	-8.368	Thrust:	0.000
Time:	4.015	Roll Set Point:	-0.027	Pitch Set Point:	-0.026	Yaw Set Point:	0.055	X_WP:	0.000	Y_WP:	0.000	Y_WP:	0.000	X:	0.014	Y:	0.013	Z:	0.057	yaw:	-3.154	yaw rate:	-0.212	Roll:	0.498	Pitch:	0.516	Yaw:	-8.391	Thrust:	0.000
Time:	4.035	Roll Set Point:	-0.027	Pitch Set Point:	-0.026	Yaw Set Point:	0.055	X_WP:	0.000	Y_WP:	0.000	Y_WP:	0.000	X:	0.014	Y:	0.013	Z:	0.057	yaw:	-3.159	yaw rate:	0.522	Roll:	0.514	Pitch:	0.523	Yaw:	-8.430	Thrust:	0.000
Time:	4.055	Roll Set Point:	-0.027	Pitch Set Point:	-0.026	Yaw Set Point:	0.055	X_WP:	0.000	Y_WP:	0.000	Y_WP:	0.000	X:	0.014	Y:	0.013	Z:	0.057	yaw:	-3.162	yaw rate:	0.236	Roll:	0.490	Pitch:	0.515	Yaw:	-8.467	Thrust:	0.000
Time:	4.076	Roll Set Point:	-0.027	Pitch Set Point:	-0.026	Yaw Set Point:	0.055	X_WP:	0.000	Y_WP:	0.000	Y_WP:	0.000	X:	0.014	Y:	0.013	Z:	0.057	yaw:	-3.161	yaw rate:	-0.021	Roll:	0.530	Pitch:	0.523	Yaw:	-8.607	Thrust:	0.000
Time:	4.096	Roll Set Point:	-0.027	Pitch Set Point:	-0.026	Yaw Set Point:	0.055	X_WP:	0.000	Y_WP:	0.000	Y_WP:	0.000	X:	0.014	Y:	0.013	Z:	0.057	yaw:	-3.167	yaw rate:	0.597	Roll:	0.504	Pitch:	0.532	Yaw:	-8.615	Thrust:	0.000
Time:	4.115	Roll Set Point:	-0.027	Pitch Set Point:	-0.026	Yaw Set Point:	0.055	X_WP:	0.000	Y_WP:	0.000	Y_WP:	0.000	X:	0.014	Y:	0.013	Z:	0.057	yaw:	-3.163	yaw rate:	-0.410	Roll:	0.496	Pitch:	0.504	Yaw:	-7.959	Thrust:	0.000
Time:	4.135	Roll Set Point:	-0.027	Pitch Set Point:	-0.026	Yaw Set Point:	0.055	X_WP:	0.000	Y_WP:	0.000	Y_WP:	0.000	X:	0.014	Y:	0.013	Z:	0.057	yaw:	-3.160	yaw rate:	-0.300	Roll:	0.507	Pitch:	0.527	Yaw:	-8.485	Thrust:	0.000
Time:	4.156	Roll Set Point:	-0.027	Pitch Set Point:	-0.026	Yaw Set Point:	0.055	X_WP:	0.000	Y_WP:	0.000	Y_WP:	0.000	X:	0.014	Y:	0.013	Z:	0.057	yaw:	-3.163	yaw rate:	0.216	Roll:	0.508	Pitch:	0.519	Yaw:	-8.569	Thrust:	0.000
Time:	4.175	Roll Set Point:	-0.027	Pitch Set Point:	-0.026	Yaw Set Point:	0.055	X_WP:	0.000	Y_WP:	0.000	Y_WP:	0.000	X:	0.014	Y:	0.013	Z:	0.057	yaw:	-3.163	yaw rate:	0.071	Roll:	0.512	Pitch:	0.534	Yaw:	-8.302	Thrust:	0.000
Time:	4.196	Roll Set Point:	-0.027	Pitch Set Point:	-0.026	Yaw Set Point:	0.055	X_WP:	0.000	Y_WP:	0.000	Y_WP:	0.000	X:	0.014	Y:	0.013	Z:	0.057	yaw:	-3.150	yaw rate:	-1.310	Roll:	0.518	Pitch:	0.526	Yaw:	-8.377	Thrust:	0.000
Time:	4.219	Roll Set Point:	-0.027	Pitch Set Point:	-0.026	Yaw Set Point:	0.055	X_WP:	0.000	Y_WP:	0.000	Y_WP:	0.000	X:	0.014	Y:	0.013	Z:	0.057	yaw:	-3.167	yaw rate:	1.660	Roll:	0.537	Pitch:	0.540	Yaw:	-9.230	Thrust:	0.000
Time:	4.235	Roll Set Point:	-0.027	Pitch Set Point:	-0.026	Yaw Set Point:	0.055	X_WP:	0.000	Y_WP:	0.000	Y_WP:	0.000	X:	0.014	Y:	0.013	Z:	0.057	yaw:	-3.151	yaw rate:	-1.610	Roll:	0.458	Pitch:	0.496	Yaw:	-7.358	Thrust:	0.000
Time:	4.255	Roll Set Point:	-0.027	Pitch Set Point:	-0.026	Yaw Set Point:	0.055	X_WP:	0.000	Y_WP:	0.000	Y_WP:	0.000	X:	0.014	Y:	0.013	Z:	0.057	yaw:	-3.156	yaw rate:	0.547	Roll:	0.531	Pitch:	0.527	Yaw:	-8.510	Thrust:	0.000
Time:	4.276	Roll Set Point:	-0.027	Pitch Set Point:	-0.026	Yaw Set Point:	0.055	X_WP:	0.000	Y_WP:	0.000	Y_WP:	0.000	X:	0.014	Y:	0.013	Z:	0.057	yaw:	-3.161	yaw rate:	0.474	Roll:	0.509	Pitch:	0.538	Yaw:	-8.585	Thrust:	0.000
Time:	4.297	Roll Set Point:	-0.027	Pitch Set Point:	-0.026	Yaw Set Point:	0.055	X_WP:	0.000	Y_WP:	0.000	Y_WP:	0.000	X:	0.014	Y:	0.013	Z:	0.057	yaw:	-3.166	yaw rate:	0.544	Roll:	0.527	Pitch:	0.533	Yaw:	-8.751	Thrust:	0.000
Time:	4.315	Roll Set Point:	-0.027	Pitch Set Point:	-0.026	Yaw Set Point:	0.055	X_WP:	0.000	Y_WP:	0.000	Y_WP:	0.000	X:	0.014	Y:	0.013	Z:	0.057	yaw:	-3.157	yaw rate:	-0.890	Roll:	0.489	Pitch:	0.503	Yaw:	-7.895	Thrust:	0.000
Time:	4.344	Roll Set Point:	-0.027	Pitch Set Point:	-0.026	Yaw Set Point:	0.055	X_WP:	0.000	Y_WP:	0.000	Y_WP:	0.000	X:	0.014	Y:	0.013	Z:	0.057	yaw:	-3.161	yaw rate:	0.387	Roll:	0.574	Pitch:	0.591	Yaw:	-10.148	Thrust:	0.000
Time:	4.360	Roll Set Point:	-0.027	Pitch Set Point:	-0.026	Yaw Set Point:	0.055	X_WP:	0.000	Y_WP:	0.000	Y_WP:	0.000	X:	0.014	Y:	0.013	Z:	0.057	yaw:	-3.157	yaw rate:	-0.472	Roll:	0.485	Pitch:	0.503	Yaw:	-7.443	Thrust:	0.000
Time:	4.375	Roll Set Point:	-0.027	Pitch Set Point:	-0.026	Yaw Set Point:	0.055	X_WP:	0.000	Y_WP:	0.000	Y_WP:	0.000	X:	0.014	Y:	0.013	Z:	0.057	yaw:	-3.153	yaw rate:	-0.314	Roll:	0.451	Pitch:	0.488	Yaw:	-7.559	Thrust:	0.000
Time:	4.395	Roll Set Point:	-0.027	Pitch Set Point:	-0.026	Yaw Set Point:	0.055	X_WP:	0.000	Y_WP:	0.000	Y_WP:	0.000	X:	0.014	Y:	0.013	Z:	0.057	yaw:	-3.161	yaw rate:	0.726	Roll:	0.557	Pitch:	0.544	Yaw:	-8.450	Thrust:	0.000
Time:	4.416	Roll Set Point:	-0.027	Pitch Set Point:	-0.026	Yaw Set Point:	0.055	X_WP:	0.000	Y_WP:	0.000	Y_WP:	0.000	X:	0.014	Y:	0.013	Z:	0.057	yaw:	-3.158	yaw rate:	-0.239	Roll:	0.504	Pitch:	0.530	Yaw:	-8.370	Thrust:	0.000
Time:	4.435	Roll Set Point:	-0.027	Pitch Set Point:	-0.026	Yaw Set Point:	0.055	X_WP:	0.000	Y_WP:	0.000	Y_WP:	0.000	X:	0.014	Y:	0.013	Z:	0.057	yaw:	-3.165	yaw rate:	0.699	Roll:	0.529	Pitch:	0.537	Yaw:	-8.530	Thrust:	0.000
Time:	4.456	Roll Set Point:	-0.027	Pitch Set Point:	-0.026	Yaw Set Point:	0.055	X_WP:	0.000	Y_WP:	0.000	Y_WP:	0.000	X:	0.014	Y:	0.013	Z:	0.057	yaw:	-3.160	yaw rate:	-0.563	Roll:	0.515	Pitch:	0.530	Yaw:	-8.367	Thrust:	0.000
Time:	4.476	Roll Set Point:	-0.027	Pitch Set Point:	-0.026	Yaw Set Point:	0.055	X_WP:	0.000	Y_WP:	0.000	Y_WP:	0.000	X:	0.014	Y:	0.013	Z:	0.057	yaw:	-3.154	yaw rate:	-0.573	Roll:	0.523	Pitch:	0.536	Yaw:	-8.391	Thrust:	0.000
Time:	4.497	Roll Set Point:	-0.027	Pitch Set Point:	-0.026	Yaw Set Point:	0.055	X_WP:	0.000	Y_WP:	0.000	Y_WP:	0.000	X:	0.014	Y:	0.013	Z:	0.057	yaw:	-3.160	yaw rate:	0.642	Roll:	0.526	Pitch:	0.542	Yaw:	-8.721	Thrust:	0.000
Time:	4.517	Roll Set Point:	-0.027	Pitch Set Point:	-0.026	Yaw Set Point:	0.055	X_WP:	0.000	Y_WP:	0.000	Y_WP:	0.000	X:	0.014	Y:	0.013	Z:	0.057	yaw:	-3.156	yaw rate:	-0.449	Roll:	0.510	Pitch:	0.524	Yaw:	-8.155	Thrust:	0.000
Time:	4.535	Roll Set Point:	-0.027	Pitch Set Point:	-0.026	Yaw Set Point:	0.055	X_WP:	0.000	Y_WP:	0.000	Y_WP:	0.000	X:	0.014	Y:	0.013	Z:	0.057	yaw:	-3.160	yaw rate:	0.444	Roll:	0.528	Pitch:	0.537	Yaw:	-8.298	Thrust:	0.000
Time:	4.557	Roll Set Point:	-0.027	Pitch Set Point:	-0.026	Yaw Set Point:	0.055	X_WP:	0.000	Y_WP:	0.000	Y_WP:	0.000	X:	0.014	Y:	0.013	Z:	0.057	yaw:	-3.153	yaw rate:	-0.755	Roll:	0.522	Pitch:	0.536	Yaw:	-8.618	Thrust:	0.000
Time:	4.575	Roll Set Point:	-0.027	Pitch Set Point:	-0.026	Yaw Set Point:	0.055	X_WP:	0.000	Y_WP:	0.000	Y_WP:	0.000	X:	0.014	Y:	0.013	Z:	0.057	yaw:	-3.157	yaw rate:	0.441	Roll:	0.515	Pitch:	0.535	Yaw:	-8.244	Thrust:	0.000
Time:	4.596	Roll Set Point:	-0.027	Pitch Set Point:	-0.026	Yaw Set Point:	0.055	X_WP:	0.000	Y_WP:	0.000	Y_WP:	0.000	X:	0.014	Y:	0.013	Z:	0.057	yaw:	-3.157	yaw rate:	-0.030	Roll:	0.522	Pitch:	0.543	Yaw:	-8.532	Thrust:	0.000
Time:	4.618	Roll Set Point:	-0.027	Pitch Set Point:	-0.026	Yaw Set Point:	0.055	X_WP:	0.000	Y_WP:	0.000	Y_WP:	0.000	X:	0.014	Y:	0.013	Z:	0.057	yaw:	-3.169	yaw rate:	1.216	Roll:	0.537	Pitch:	0.545	Yaw:	-8.809	Thrust:	0.000
Time:	4.635	Roll Set Point:	-0.027	Pitch Set Point:	-0.026	Yaw Set Point:	0.055	X_WP:	0.000	Y_WP:	0.000	Y_WP:	0.000	X:	0.014	Y:	0.013	Z:	0.057	yaw:	-3.158	yaw rate:	-1.080	Roll:	0.517	Pitch:	0.530	Yaw:	-7.984	Thrust:	0.000
Time:	4.655	Roll Set Point:	-0.027	Pitch Set Point:	-0.026	Yaw Set Point:	0.055	X_WP:	0.000	Y_WP:	0.000	Y_WP:	0.000	X:	0.014	Y:	0.013	Z:	0.057	yaw:	-3.153	yaw rate:	-0.514	Roll:	0.486	Pitch:	0.526	Yaw:	-8.179	Thrust:	0.000
Time:	4.676	Roll Set Point:	-0.027	Pitch Set Point:	-0.026	Yaw Set Point:	0.055	X_WP:	0.000	Y_WP:	0.000	Y_WP:	0.000	X:	0.014	Y:	0.013	Z:	0.057	yaw:	-3.161	yaw rate:	0.816	Roll:	0.557	Pitch:	0.548	Yaw:	-8.742	Thrust:	0.000
Time:	4.697	Roll Set Point:	-0.027	Pitch Set Point:	-0.026	Yaw Set Point:	0.055	X_WP:	0.000	Y_WP:	0.000	Y_WP:	0.000	X:	0.014	Y:	0.013	Z:	0.057	yaw:	-3.157	yaw rate:	-0.451	Roll:	0.542	Pitch:	0.559	Yaw:	-8.513	Thrust:	0.000
Time:	4.716	Roll Set Point:	-0.027	Pitch Set Point:	-0.026	Yaw Set Point:	0.055	X_WP:	0.000	Y_WP:	0.000	Y_WP:	0.000	X:	0.014	Y:	0.013	Z:	0.057	yaw:	-3.162	yaw rate:	0.530	Roll:	0.507	Pitch:	0.525	Yaw:	-8.306	Thrust:	0.000
Time:	4.735	Roll Set Point:	-0.027	Pitch Set Point:	-0.026	Yaw Set Point:	0.055	X_WP:	0.000	Y_WP:	0.000	Y_WP:	0.000	X:	0.014	Y:	0.013	Z:	0.057	yaw:	-3.155	yaw rate:	-0.702	Roll:	0.529	Pitch:	0.537	Yaw:	-8.134	Thrust:	0.000
Time:	4.756	Roll Set Point:	-0.027	Pitch Set Point:	-0.026	Yaw Set Point:	0.055	X_WP:	0.000	Y_WP:	0.000	Y_WP:	0.000	X:	0.014	Y:	0.013	Z:	0.057	yaw:	-3.155	yaw rate:	-0.027	Roll:	0.531	Pitch:	0.546	Yaw:	-8.416	Thrust:	0.000
Time:	4.775	Roll Set Point:	-0.027	Pitch Set Point:	-0.026	Yaw Set Point:	0.055	X_WP:	0.000	Y_WP:	0.000	Y_WP:	0.000	X:	0.014	Y:	0.013	Z:	0.057	yaw:	-3.157	yaw rate:	0.220	Roll:	0.524	Pitch:	0.536	Yaw:	-8.453	Thrust:	0.000
Time:	4.798	Roll Set Point:	-0.027	Pitch Set Point:	-0.026	Yaw Set Point:	0.055	X_WP:	0.000	Y_WP:	0.000	Y_WP:	0.000	X:	0.014	Y:	0.013	Z:	0.057	yaw:	-3.153	yaw rate:	-0.366	Roll:	0.542	Pitch:	0.543	Yaw:	-8.894	Thrust:	0.000
Time:	4.816	Roll Set Point:	-0.027	Pitch Set Point:	-0.026	Yaw Set Point:	0.055	X_WP:	0.000	Y_WP:	0.000	Y_WP:	0.000	X:	0.014	Y:	0.013	Z:	0.057	yaw:	-3.167	yaw rate:	1.327	Roll:	0.521	Pitch:	0.559	Yaw:	-8.040	Thrust:	0.000
Time:	4.835	Roll Set Point:	-0.027	Pitch Set Point:	-0.026	Yaw Set Point:	0.055	X_WP:	0.000	Y_WP:	0.000	Y_WP:	0.000	X:	0.014	Y:	0.013	Z:	0.057	yaw:	-3.159	yaw rate:	-0.741	Roll:	0.534	Pitch:	0.533	Yaw:	-8.318	Thrust:	0.000
Time:	4.855	Roll Set Point:	-0.027	Pitch Set Point:	-0.026	Yaw Set Point:	0.055	X_WP:	0.000	Y_WP:	0.000	Y_WP:	0.000	X:	0.014	Y:	0.013	Z:	0.057	yaw:	-3.156	yaw rate:	-0.338	Roll:	0.525	Pitch:	0.534	Yaw:	-8.395	Thrust:	0.000
Time:	4.877	Roll Set Point:	-0.027	Pitch Set Point:	-0.026	Yaw Set Point:	0.055	X_WP:	0.000	Y_WP:	0.000	Y_WP:	0.000	X:	0.014	Y:	0.013	Z:	0.057	yaw:	-3.157	yaw rate:	0.148	Roll:	0.543	Pitch:	0.578	Yaw:	-8.742	Thrust:	0.000
Time:	4.897	Roll Set Point:	-0.027	Pitch Set Point:	-0.026	Yaw Set Point:	0.055	X_WP:	0.000	Y_WP:	0.000	Y_WP:	0.000	X:	0.014	Y:	0.013	Z:	0.057	yaw:	-3.158	yaw rate:	0.072	Roll:	0.527	Pitch:	0.536	Yaw:	-8.345	Thrust:	0.000
Time:	4.915	Roll Set Point:	-0.027	Pitch Set Point:	-0.026	Yaw Set Point:	0.055	X_WP:	0.000	Y_WP:	0.000	Y_WP:	0.000	X:	0.014	Y:	0.013	Z:	0.057	yaw:	-3.163	yaw rate:	0.550	Roll:	0.542	Pitch:	0.543	Yaw:	-8.290	Thrust:	0.000
Time:	4.935	Roll Set Point:	-0.027	Pitch Set Point:	-0.026	Yaw Set Point:	0.055	X_WP:	0.000	Y_WP:	0.000	Y_WP:	0.000	X:	0.014	Y:	0.013	Z:	0.057	yaw:	-3.158	yaw rate:	-0.516	Roll:	0.525	Pitch:	0.543	Yaw:	-8.270	Thrust:	0.000
Time:	4.957	Roll Set Point:	-0.027	Pitch Set Point:	-0.026	Yaw Set Point:	0.055	X_WP:	0.000	Y_WP:	0.000	Y_WP:	0.000	X:	0.014	Y:	0.013	Z:	0.057	yaw:	-3.164	yaw rate:	0.530	Roll:	0.539	Pitch:	0.565	Yaw:	-8.811	Thrust:	0.000
Time:	4.975	Roll Set Point:	-0.027	Pitch Set Point:	-0.026	Yaw Set Point:	0.055	X_WP:	0.000	Y_WP:	0.000	Y_WP:	0.000	X:	0.014	Y:	0.013	Z:	0.057	yaw:	-3.162	yaw rate:	-0.167	Roll:	0.527	Pitch:	0.533	Yaw:	-8.016	Thrust:	0.000
Time:	4.996	Roll Set Point:	-0.027	Pitch Set Point:	-0.026	Yaw Set Point:	0.055	X_WP:	0.000	Y_WP:	0.000	Y_WP:	0.000	X:	0.014	Y:	0.013	Z:	0.057	yaw:	-3.160	yaw rate:	-0.175	Roll:	0.545	Pitch:	0.559	Yaw:	-8.578	Thrust:	0.000
Time:	5.020	Roll Set Point:	-0.027	Pitch Set Point:	-0.026	Yaw Set Point:	0.055	X_WP:	0.000	Y_WP:	0.000	Y_WP:	0.000	X:	0.014	Y:	0.013	Z:	0.057	yaw:	-3.167	yaw rate:	0.732	Roll:	0.540	Pitch:	0.574	Yaw:	-9.039	Thrust:	0.000
Time:	5.035	Roll Set Point:	-0.027	Pitch Set Point:	-0.026	Yaw Set Point:	0.055	X_WP:	0.000	Y_WP:	0.000	Y_WP:	0.000	X:	0.014	Y:	0.013	Z:	0.057	yaw:	-3.155	yaw rate:	-1.268	Roll:	0.545	Pitch:	0.530	Yaw:	-7.625	Thrust:	0.000
Time:	5.056	Roll Set Point:	-0.027	Pitch Set Point:	-0.026	Yaw Set Point:	0.055	X_WP:	0.000	Y_WP:	0.000	Y_WP:	0.000	X:	0.014	Y:	0.013	Z:	0.057	yaw:	-3.156	yaw rate:	0.164	Roll:	0.534	Pitch:	0.556	Yaw:	-8.643	Thrust:	0.000
Time:	5.077	Roll Set Point:	-0.027	Pitch Set Point:	-0.026	Yaw Set Point:	0.055	X_WP:	0.000	Y_WP:	0.000	Y_WP:	0.000	X:	0.014	Y:	0.013	Z:	0.057	yaw:	-3.152	yaw rate:	-0.484	Roll:	0.534	Pitch:	0.558	Yaw:	-8.521	Thrust:	0.000
Time:	5.099	Roll Set Point:	-0.027	Pitch Set Point:	-0.026	Yaw Set Point:	0.055	X_WP:	0.000	Y_WP:	0.000	Y_WP:	0.000	X:	0.014	Y:	0.013	Z:	0.057	yaw:	-3.154	yaw rate:	0.231	Roll:	0.564	Pitch:	0.582	Yaw:	-8.830	Thrust:	0.000
Time:	5.115	Roll Set Point:	-0.027	Pitch Set Point:	-0.026	Yaw Set Point:	0.055	X_WP:	0.000	Y_WP:	0.000	Y_WP:	0.000	X:	0.014	Y:	0.013	Z:	0.057	yaw:	-3.156	yaw rate:	0.199	Roll:	0.516	Pitch:	0.521	Yaw:	-7.814	Thrust:	0.000
Time:	5.136	Roll Set Point:	-0.027	Pitch Set Point:	-0.026	Yaw Set Point:	0.055	X_WP:	0.000	Y_WP:	0.000	Y_WP:	0.000	X:	0.014	Y:	0.013	Z:	0.057	yaw:	-3.159	yaw rate:	0.358	Roll:	0.539	Pitch:	0.557	Yaw:	-8.426	Thrust:	0.000
Time:	5.161	Roll Set Point:	-0.027	Pitch Set Point:	-0.026	Yaw Set Point:	0.055	X_WP:	0.000	Y_WP:	0.000	Y_WP:	0.000	X:	0.014	Y:	0.013	Z:	0.057	yaw:	-3.166	yaw rate:	0.662	Roll:	0.551	Pitch:	0.568	Yaw:	-9.030	Thrust:	0.000
Time:	5.176	Roll Set Point:	-0.027	Pitch Set Point:	-0.026	Yaw Set Point:	0.055	X_WP:	0.000	Y_WP:	0.000	Y_WP:	0.000	X:	0.014	Y:	0.013	Z:	0.057	yaw:	-3.153	yaw rate:	-1.295	Roll:	0.537	Pitch:	0.538	Yaw:	-7.721	Thrust:	0.000
Time:	5.196	Roll Set Point:	-0.027	Pitch Set Point:	-0.026	Yaw Set Point:	0.055	X_WP:	0.000	Y_WP:	0.000	Y_WP:	0.000	X:	0.014	Y:	0.013	Z:	0.057	yaw:	-3.156	yaw rate:	0.320	Roll:	0.541	Pitch:	0.560	Yaw:	-8.486	Thrust:	0.000
Time:	5.221	Roll Set Point:	-0.027	Pitch Set Point:	-0.026	Yaw Set Point:	0.055	X_WP:	0.000	Y_WP:	0.000	Y_WP:	0.000	X:	0.014	Y:	0.013	Z:	0.057	yaw:	-3.155	yaw rate:	-0.170	Roll:	0.547	Pitch:	0.563	Yaw:	-9.272	Thrust:	0.000
Time:	5.236	Roll Set Point:	-0.027	Pitch Set Point:	-0.026	Yaw Set Point:	0.055	X_WP:	0.000	Y_WP:	0.000	Y_WP:	0.000	X:	0.014	Y:	0.013	Z:	0.057	yaw:	-3.160	yaw rate:	0.525	Roll:	0.540	Pitch:	0.559	Yaw:	-7.514	Thrust:	0.000
Time:	5.256	Roll Set Point:	-0.027	Pitch Set Point:	-0.026	Yaw Set Point:	0.055	X_WP:	0.000	Y_WP:	0.000	Y_WP:	0.000	X:	0.014	Y:	0.013	Z:	0.057	yaw:	-3.161	yaw rate:	0.082	Roll:	0.539	Pitch:	0.554	Yaw:	-8.442	Thrust:	0.000
Time:	5.277	Roll Set Point:	-0.027	Pitch Set Point:	-0.026	Yaw Set Point:	0.055	X_WP:	0.000	Y_WP:	0.000	Y_WP:	0.000	X:	0.014	Y:	0.013	Z:	0.057	yaw:	-3.154	yaw rate:	-0.677	Roll:	0.560	Pitch:	0.569	Yaw:	-8.607	Thrust:	0.000
Time:	5.298	Roll Set Point:	-0.027	Pitch Set Point:	-0.026	Yaw Set Point:	0.055	X_WP:	0.000	Y_WP:	0.000	Y_WP:	0.000	X:	0.014	Y:	0.013	Z:	0.057	yaw:	-3.149	yaw rate:	-0.542	Roll:	0.545	Pitch:	0.574	Yaw:	-8.531	Thrust:	0.000
Time:	5.315	Roll Set Point:	-0.027	Pitch Set Point:	-0.026	Yaw Set Point:	0.055	X_WP:	0.000	Y_WP:	0.000	Y_WP:	0.000	X:	0.014	Y:	0.013	Z:	0.057	yaw:	-3.160	yaw rate:	1.178	Roll:	0.525	Pitch:	0.532	Yaw:	-7.944	Thrust:	0.000
Time:	5.335	Roll Set Point:	-0.027	Pitch Set Point:	-0.026	Yaw Set Point:	0.055	X_WP:	0.000	Y_WP:	0.000	Y_WP:	0.000	X:	0.014	Y:	0.013	Z:	0.057	yaw:	-3.156	yaw rate:	-0.458	Roll:	0.547	Pitch:	0.556	Yaw:	-8.446	Thrust:	0.000
Time:	5.358	Roll Set Point:	-0.027	Pitch Set Point:	-0.026	Yaw Set Point:	0.055	X_WP:	0.000	Y_WP:	0.000	Y_WP:	0.000	X:	0.014	Y:	0.013	Z:	0.057	yaw:	-3.162	yaw rate:	0.606	Roll:	0.564	Pitch:	0.594	Yaw:	-9.023	Thrust:	0.000
Time:	5.375	Roll Set Point:	-0.027	Pitch Set Point:	-0.026	Yaw Set Point:	0.055	X_WP:	0.000	Y_WP:	0.000	Y_WP:	0.000	X:	0.014	Y:	0.013	Z:	0.057	yaw:	-3.160	yaw rate:	-0.135	Roll:	0.541	Pitch:	0.541	Yaw:	-7.758	Thrust:	0.000
Time:	5.395	Roll Set Point:	-0.027	Pitch Set Point:	-0.026	Yaw Set Point:	0.055	X_WP:	0.000	Y_WP:	0.000	Y_WP:	0.000	X:	0.014	Y:	0.013	Z:	0.057	yaw:	-3.157	yaw rate:	-0.313	Roll:	0.545	Pitch:	0.556	Yaw:	-8.444	Thrust:	0.000
Time:	5.421	Roll Set Point:	-0.027	Pitch Set Point:	-0.026	Yaw Set Point:	0.055	X_WP:	0.000	Y_WP:	0.000	Y_WP:	0.000	X:	0.014	Y:	0.013	Z:	0.057	yaw:	-3.151	yaw rate:	-0.606	Roll:	0.564	Pitch:	0.586	Yaw:	-9.574	Thrust:	0.000
