Time:	0.041	Roll Set Point:	0.002	Pitch Set Point:	-0.017	Yaw Set Point:	2.168	X_WP:	0.000	Y_WP:	0.000	Z_WP:	0.500	X:	0.015	Y:	0.010	Z:	0.049	yaw:	-124.202	yaw rate:	1.612	Roll:	-0.172	Pitch:	0.067	Yaw:	-173.419	Thrust:	24.798
Time:	0.060	Roll Set Point:	0.002	Pitch Set Point:	-0.017	Yaw Set Point:	2.168	X_WP:	0.000	Y_WP:	0.000	Z_WP:	0.500	X:	0.015	Y:	0.011	Z:	0.049	yaw:	-124.230	yaw rate:	2.790	Roll:	-0.211	Pitch:	0.028	Yaw:	-174.692	Thrust:	26.088
Time:	0.080	Roll Set Point:	0.002	Pitch Set Point:	-0.017	Yaw Set Point:	2.168	X_WP:	0.000	Y_WP:	0.000	Z_WP:	0.500	X:	0.015	Y:	0.010	Z:	0.049	yaw:	-124.210	yaw rate:	-1.977	Roll:	-0.152	Pitch:	0.112	Yaw:	-174.911	Thrust:	26.757
Time:	0.100	Roll Set Point:	0.002	Pitch Set Point:	-0.017	Yaw Set Point:	2.167	X_WP:	0.000	Y_WP:	0.000	Z_WP:	0.500	X:	0.015	Y:	0.011	Z:	0.049	yaw:	-124.184	yaw rate:	-2.599	Roll:	-0.176	Pitch:	0.040	Yaw:	-175.663	Thrust:	28.189
Time:	0.120	Roll Set Point:	0.002	Pitch Set Point:	-0.017	Yaw Set Point:	2.168	X_WP:	0.000	Y_WP:	0.000	Z_WP:	0.500	X:	0.015	Y:	0.010	Z:	0.049	yaw:	-124.214	yaw rate:	2.943	Roll:	-0.173	Pitch:	0.087	Yaw:	-177.246	Thrust:	29.047
Time:	0.140	Roll Set Point:	0.002	Pitch Set Point:	-0.017	Yaw Set Point:	2.167	X_WP:	0.000	Y_WP:	0.000	Z_WP:	0.500	X:	0.015	Y:	0.010	Z:	0.049	yaw:	-124.168	yaw rate:	-4.581	Roll:	-0.183	Pitch:	0.075	Yaw:	-176.795	Thrust:	30.195
Time:	0.160	Roll Set Point:	0.002	Pitch Set Point:	-0.017	Yaw Set Point:	2.167	X_WP:	0.000	Y_WP:	0.000	Z_WP:	0.500	X:	0.015	Y:	0.010	Z:	0.049	yaw:	-124.173	yaw rate:	0.534	Roll:	-0.175	Pitch:	0.060	Yaw:	-177.451	Thrust:	31.355
Time:	0.180	Roll Set Point:	0.002	Pitch Set Point:	-0.017	Yaw Set Point:	2.168	X_WP:	0.000	Y_WP:	0.000	Z_WP:	0.500	X:	0.015	Y:	0.010	Z:	0.049	yaw:	-124.193	yaw rate:	1.999	Roll:	-0.158	Pitch:	0.073	Yaw:	-177.678	Thrust:	32.323
Time:	0.200	Roll Set Point:	0.002	Pitch Set Point:	-0.017	Yaw Set Point:	2.168	X_WP:	0.000	Y_WP:	0.000	Z_WP:	0.500	X:	0.015	Y:	0.010	Z:	0.049	yaw:	-124.214	yaw rate:	2.099	Roll:	-0.198	Pitch:	0.060	Yaw:	-177.720	Thrust:	33.585
Time:	0.220	Roll Set Point:	0.002	Pitch Set Point:	-0.017	Yaw Set Point:	2.168	X_WP:	0.000	Y_WP:	0.000	Z_WP:	0.500	X:	0.015	Y:	0.010	Z:	0.049	yaw:	-124.215	yaw rate:	0.049	Roll:	-0.182	Pitch:	0.069	Yaw:	-177.444	Thrust:	34.401
Time:	0.241	Roll Set Point:	0.002	Pitch Set Point:	-0.017	Yaw Set Point:	2.167	X_WP:	0.000	Y_WP:	0.000	Z_WP:	0.500	X:	0.015	Y:	0.010	Z:	0.049	yaw:	-124.189	yaw rate:	-2.623	Roll:	-0.170	Pitch:	0.077	Yaw:	-177.286	Thrust:	35.743
Time:	0.260	Roll Set Point:	0.002	Pitch Set Point:	-0.017	Yaw Set Point:	2.168	X_WP:	0.000	Y_WP:	0.000	Z_WP:	0.500	X:	0.015	Y:	0.010	Z:	0.049	yaw:	-124.241	yaw rate:	5.247	Roll:	-0.195	Pitch:	0.056	Yaw:	-178.004	Thrust:	36.772
Time:	0.280	Roll Set Point:	0.002	Pitch Set Point:	-0.017	Yaw Set Point:	2.168	X_WP:	0.000	Y_WP:	0.000	Z_WP:	0.500	X:	0.015	Y:	0.010	Z:	0.049	yaw:	-124.196	yaw rate:	-4.498	Roll:	-0.170	Pitch:	0.083	Yaw:	-176.834	Thrust:	37.711
Time:	0.300	Roll Set Point:	0.002	Pitch Set Point:	-0.017	Yaw Set Point:	2.168	X_WP:	0.000	Y_WP:	0.000	Z_WP:	0.500	X:	0.015	Y:	0.010	Z:	0.049	yaw:	-124.198	yaw rate:	0.201	Roll:	-0.201	Pitch:	0.075	Yaw:	-177.459	Thrust:	39.042
Time:	0.320	Roll Set Point:	0.002	Pitch Set Point:	-0.017	Yaw Set Point:	2.168	X_WP:	0.000	Y_WP:	0.000	Z_WP:	0.500	X:	0.015	Y:	0.010	Z:	0.049	yaw:	-124.212	yaw rate:	1.370	Roll:	-0.171	Pitch:	0.066	Yaw:	-177.590	Thrust:	39.824
Time:	0.340	Roll Set Point:	0.002	Pitch Set Point:	-0.017	Yaw Set Point:	2.168	X_WP:	0.000	Y_WP:	0.000	Z_WP:	0.500	X:	0.015	Y:	0.010	Z:	0.049	yaw:	-124.200	yaw rate:	-1.146	Roll:	-0.199	Pitch:	0.070	Yaw:	-177.278	Thrust:	41.101
Time:	0.361	Roll Set Point:	0.002	Pitch Set Point:	-0.017	Yaw Set Point:	2.168	X_WP:	0.000	Y_WP:	0.000	Z_WP:	0.500	X:	0.015	Y:	0.010	Z:	0.049	yaw:	-124.203	yaw rate:	0.235	Roll:	-0.181	Pitch:	0.088	Yaw:	-177.660	Thrust:	42.087
Time:	0.381	Roll Set Point:	0.002	Pitch Set Point:	-0.017	Yaw Set Point:	2.167	X_WP:	0.000	Y_WP:	0.000	Z_WP:	0.500	X:	0.015	Y:	0.011	Z:	0.049	yaw:	-124.177	yaw rate:	-2.539	Roll:	-0.202	Pitch:	0.061	Yaw:	-176.845	Thrust:	43.304
Time:	0.401	Roll Set Point:	0.002	Pitch Set Point:	-0.017	Yaw Set Point:	2.168	X_WP:	0.000	Y_WP:	0.000	Z_WP:	0.500	X:	0.015	Y:	0.010	Z:	0.049	yaw:	-124.206	yaw rate:	2.862	Roll:	-0.166	Pitch:	0.068	Yaw:	-177.809	Thrust:	44.347
Time:	0.421	Roll Set Point:	0.002	Pitch Set Point:	-0.017	Yaw Set Point:	2.167	X_WP:	0.000	Y_WP:	0.000	Z_WP:	0.500	X:	0.015	Y:	0.010	Z:	0.049	yaw:	-124.184	yaw rate:	-2.175	Roll:	-0.183	Pitch:	0.100	Yaw:	-177.129	Thrust:	45.407
Time:	0.441	Roll Set Point:	0.002	Pitch Set Point:	-0.017	Yaw Set Point:	2.168	X_WP:	0.000	Y_WP:	0.000	Z_WP:	0.500	X:	0.015	Y:	0.011	Z:	0.049	yaw:	-124.219	yaw rate:	3.488	Roll:	-0.215	Pitch:	0.038	Yaw:	-177.908	Thrust:	46.557
Time:	0.461	Roll Set Point:	0.002	Pitch Set Point:	-0.017	Yaw Set Point:	2.168	X_WP:	0.000	Y_WP:	0.000	Z_WP:	0.500	X:	0.015	Y:	0.010	Z:	0.049	yaw:	-124.197	yaw rate:	-2.224	Roll:	-0.169	Pitch:	0.084	Yaw:	-177.132	Thrust:	47.587
Time:	0.481	Roll Set Point:	0.002	Pitch Set Point:	-0.017	Yaw Set Point:	2.167	X_WP:	0.000	Y_WP:	0.000	Z_WP:	0.500	X:	0.015	Y:	0.010	Z:	0.049	yaw:	-124.175	yaw rate:	-2.132	Roll:	-0.195	Pitch:	0.093	Yaw:	-176.899	Thrust:	47.425
Time:	0.501	Roll Set Point:	0.002	Pitch Set Point:	-0.017	Yaw Set Point:	2.168	X_WP:	0.000	Y_WP:	0.000	Z_WP:	0.500	X:	0.015	Y:	0.010	Z:	0.049	yaw:	-124.220	yaw rate:	4.457	Roll:	-0.190	Pitch:	0.073	Yaw:	-178.209	Thrust:	49.761
Time:	0.521	Roll Set Point:	0.002	Pitch Set Point:	-0.017	Yaw Set Point:	2.168	X_WP:	0.000	Y_WP:	0.000	Z_WP:	0.500	X:	0.015	Y:	0.011	Z:	0.049	yaw:	-124.213	yaw rate:	-0.702	Roll:	-0.224	Pitch:	0.041	Yaw:	-177.311	Thrust:	51.935
Time:	0.542	Roll Set Point:	0.002	Pitch Set Point:	-0.017	Yaw Set Point:	2.168	X_WP:	0.000	Y_WP:	0.000	Z_WP:	0.500	X:	0.015	Y:	0.010	Z:	0.049	yaw:	-124.228	yaw rate:	1.483	Roll:	-0.167	Pitch:	0.109	Yaw:	-177.850	Thrust:	53.267
Time:	0.560	Roll Set Point:	0.002	Pitch Set Point:	-0.017	Yaw Set Point:	2.168	X_WP:	0.000	Y_WP:	0.000	Z_WP:	0.500	X:	0.015	Y:	0.010	Z:	0.049	yaw:	-124.202	yaw rate:	-2.594	Roll:	-0.168	Pitch:	0.067	Yaw:	-176.652	Thrust:	50.134
Time:	0.579	Roll Set Point:	0.002	Pitch Set Point:	-0.017	Yaw Set Point:	2.168	X_WP:	0.000	Y_WP:	0.000	Z_WP:	0.500	X:	0.015	Y:	0.011	Z:	0.049	yaw:	-124.210	yaw rate:	0.849	Roll:	-0.245	Pitch:	0.059	Yaw:	-177.357	Thrust:	52.682
Time:	0.600	Roll Set Point:	0.002	Pitch Set Point:	-0.017	Yaw Set Point:	2.168	X_WP:	0.000	Y_WP:	0.000	Z_WP:	0.500	X:	0.015	Y:	0.010	Z:	0.049	yaw:	-124.227	yaw rate:	1.688	Roll:	-0.162	Pitch:	0.098	Yaw:	-177.882	Thrust:	56.759
Time:	0.620	Roll Set Point:	0.002	Pitch Set Point:	-0.017	Yaw Set Point:	2.168	X_WP:	0.000	Y_WP:	0.000	Z_WP:	0.500	X:	0.015	Y:	0.010	Z:	0.049	yaw:	-124.227	yaw rate:	0.007	Roll:	-0.187	Pitch:	0.085	Yaw:	-177.454	Thrust:	56.117
Time:	0.640	Roll Set Point:	0.002	Pitch Set Point:	-0.017	Yaw Set Point:	2.168	X_WP:	0.000	Y_WP:	0.000	Z_WP:	0.500	X:	0.015	Y:	0.011	Z:	0.049	yaw:	-124.222	yaw rate:	-0.578	Roll:	-0.224	Pitch:	0.036	Yaw:	-177.304	Thrust:	56.788
Time:	0.659	Roll Set Point:	0.002	Pitch Set Point:	-0.017	Yaw Set Point:	2.168	X_WP:	0.000	Y_WP:	0.000	Z_WP:	0.500	X:	0.015	Y:	0.010	Z:	0.049	yaw:	-124.214	yaw rate:	-0.752	Roll:	-0.190	Pitch:	0.104	Yaw:	-177.142	Thrust:	56.715
Time:	0.680	Roll Set Point:	0.002	Pitch Set Point:	-0.017	Yaw Set Point:	2.168	X_WP:	0.000	Y_WP:	0.000	Z_WP:	0.500	X:	0.015	Y:	0.010	Z:	0.049	yaw:	-124.223	yaw rate:	0.856	Roll:	-0.192	Pitch:	0.095	Yaw:	-177.766	Thrust:	61.304
Time:	0.700	Roll Set Point:	0.002	Pitch Set Point:	-0.017	Yaw Set Point:	2.168	X_WP:	0.000	Y_WP:	0.000	Z_WP:	0.500	X:	0.015	Y:	0.010	Z:	0.049	yaw:	-124.192	yaw rate:	-3.084	Roll:	-0.203	Pitch:	0.060	Yaw:	-176.993	Thrust:	60.454
Time:	0.720	Roll Set Point:	0.002	Pitch Set Point:	-0.017	Yaw Set Point:	2.168	X_WP:	0.000	Y_WP:	0.000	Z_WP:	0.500	X:	0.015	Y:	0.010	Z:	0.049	yaw:	-124.239	yaw rate:	4.739	Roll:	-0.208	Pitch:	0.074	Yaw:	-178.036	Thrust:	60.909
Time:	0.740	Roll Set Point:	0.002	Pitch Set Point:	-0.017	Yaw Set Point:	2.168	X_WP:	0.000	Y_WP:	0.000	Z_WP:	0.500	X:	0.015	Y:	0.010	Z:	0.049	yaw:	-124.203	yaw rate:	-3.575	Roll:	-0.197	Pitch:	0.096	Yaw:	-177.042	Thrust:	63.515
Time:	0.762	Roll Set Point:	0.002	Pitch Set Point:	-0.017	Yaw Set Point:	2.167	X_WP:	0.000	Y_WP:	0.000	Z_WP:	0.500	X:	0.015	Y:	0.010	Z:	0.049	yaw:	-124.184	yaw rate:	-1.964	Roll:	-0.202	Pitch:	0.083	Yaw:	-177.517	Thrust:	65.709
Time:	0.781	Roll Set Point:	0.002	Pitch Set Point:	-0.017	Yaw Set Point:	2.168	X_WP:	0.000	Y_WP:	0.000	Z_WP:	0.500	X:	0.015	Y:	0.010	Z:	0.049	yaw:	-124.220	yaw rate:	3.641	Roll:	-0.209	Pitch:	0.061	Yaw:	-177.771	Thrust:	64.668
Time:	0.801	Roll Set Point:	0.002	Pitch Set Point:	-0.017	Yaw Set Point:	2.168	X_WP:	0.000	Y_WP:	0.000	Z_WP:	0.500	X:	0.015	Y:	0.010	Z:	0.049	yaw:	-124.232	yaw rate:	1.216	Roll:	-0.222	Pitch:	0.084	Yaw:	-177.657	Thrust:	66.335
Time:	0.821	Roll Set Point:	0.002	Pitch Set Point:	-0.017	Yaw Set Point:	2.168	X_WP:	0.000	Y_WP:	0.000	Z_WP:	0.500	X:	0.015	Y:	0.010	Z:	0.049	yaw:	-124.193	yaw rate:	-3.884	Roll:	-0.188	Pitch:	0.095	Yaw:	-176.901	Thrust:	67.020
Time:	0.841	Roll Set Point:	0.002	Pitch Set Point:	-0.017	Yaw Set Point:	2.168	X_WP:	0.000	Y_WP:	0.000	Z_WP:	0.500	X:	0.015	Y:	0.010	Z:	0.049	yaw:	-124.210	yaw rate:	1.702	Roll:	-0.212	Pitch:	0.060	Yaw:	-177.597	Thrust:	67.501
Time:	0.862	Roll Set Point:	0.002	Pitch Set Point:	-0.017	Yaw Set Point:	2.168	X_WP:	0.000	Y_WP:	0.000	Z_WP:	0.500	X:	0.015	Y:	0.010	Z:	0.049	yaw:	-124.204	yaw rate:	-0.692	Roll:	-0.196	Pitch:	0.083	Yaw:	-177.455	Thrust:	69.346
Time:	0.880	Roll Set Point:	0.002	Pitch Set Point:	-0.017	Yaw Set Point:	2.168	X_WP:	0.000	Y_WP:	0.000	Z_WP:	0.500	X:	0.015	Y:	0.010	Z:	0.049	yaw:	-124.200	yaw rate:	-0.372	Roll:	-0.208	Pitch:	0.091	Yaw:	-177.182	Thrust:	69.333
Time:	0.900	Roll Set Point:	0.002	Pitch Set Point:	-0.017	Yaw Set Point:	2.168	X_WP:	0.000	Y_WP:	0.000	Z_WP:	0.500	X:	0.015	Y:	0.010	Z:	0.049	yaw:	-124.189	yaw rate:	-1.101	Roll:	-0.213	Pitch:	0.086	Yaw:	-177.235	Thrust:	69.985
Time:	0.921	Roll Set Point:	0.002	Pitch Set Point:	-0.017	Yaw Set Point:	2.168	X_WP:	0.000	Y_WP:	0.000	Z_WP:	0.500	X:	0.015	Y:	0.010	Z:	0.049	yaw:	-124.235	yaw rate:	4.647	Roll:	-0.224	Pitch:	0.073	Yaw:	-178.166	Thrust:	73.597
Time:	0.941	Roll Set Point:	0.002	Pitch Set Point:	-0.017	Yaw Set Point:	2.168	X_WP:	0.000	Y_WP:	0.000	Z_WP:	0.500	X:	0.015	Y:	0.010	Z:	0.049	yaw:	-124.200	yaw rate:	-3.545	Roll:	-0.206	Pitch:	0.071	Yaw:	-176.889	Thrust:	74.090
Time:	0.960	Roll Set Point:	0.002	Pitch Set Point:	-0.017	Yaw Set Point:	2.167	X_WP:	0.000	Y_WP:	0.000	Z_WP:	0.500	X:	0.015	Y:	0.010	Z:	0.049	yaw:	-124.181	yaw rate:	-1.902	Roll:	-0.204	Pitch:	0.111	Yaw:	-176.938	Thrust:	72.232
Time:	0.980	Roll Set Point:	0.002	Pitch Set Point:	-0.017	Yaw Set Point:	2.168	X_WP:	0.000	Y_WP:	0.000	Z_WP:	0.500	X:	0.015	Y:	0.010	Z:	0.049	yaw:	-124.212	yaw rate:	3.125	Roll:	-0.219	Pitch:	0.064	Yaw:	-177.839	Thrust:	75.613
Time:	1.001	Roll Set Point:	0.002	Pitch Set Point:	-0.017	Yaw Set Point:	2.168	X_WP:	0.000	Y_WP:	0.000	Z_WP:	0.500	X:	0.015	Y:	0.010	Z:	0.049	yaw:	-124.192	yaw rate:	-2.055	Roll:	-0.239	Pitch:	0.100	Yaw:	-177.347	Thrust:	79.349
Time:	1.021	Roll Set Point:	0.002	Pitch Set Point:	-0.017	Yaw Set Point:	2.168	X_WP:	0.000	Y_WP:	0.000	Z_WP:	0.500	X:	0.015	Y:	0.010	Z:	0.049	yaw:	-124.196	yaw rate:	0.424	Roll:	-0.187	Pitch:	0.057	Yaw:	-177.361	Thrust:	76.448
Time:	1.040	Roll Set Point:	0.002	Pitch Set Point:	-0.017	Yaw Set Point:	2.168	X_WP:	0.000	Y_WP:	0.000	Z_WP:	0.500	X:	0.015	Y:	0.010	Z:	0.049	yaw:	-124.217	yaw rate:	2.114	Roll:	-0.212	Pitch:	0.100	Yaw:	-177.607	Thrust:	77.296
Time:	1.060	Roll Set Point:	0.002	Pitch Set Point:	-0.017	Yaw Set Point:	2.168	X_WP:	0.000	Y_WP:	0.000	Z_WP:	0.500	X:	0.015	Y:	0.010	Z:	0.049	yaw:	-124.227	yaw rate:	1.048	Roll:	-0.232	Pitch:	0.074	Yaw:	-177.725	Thrust:	81.900
Time:	1.081	Roll Set Point:	0.002	Pitch Set Point:	-0.017	Yaw Set Point:	2.167	X_WP:	0.000	Y_WP:	0.000	Z_WP:	0.500	X:	0.015	Y:	0.010	Z:	0.049	yaw:	-124.169	yaw rate:	-5.850	Roll:	-0.201	Pitch:	0.104	Yaw:	-176.739	Thrust:	82.642
Time:	1.100	Roll Set Point:	0.002	Pitch Set Point:	-0.017	Yaw Set Point:	2.168	X_WP:	0.000	Y_WP:	0.000	Z_WP:	0.500	X:	0.015	Y:	0.010	Z:	0.049	yaw:	-124.202	yaw rate:	3.275	Roll:	-0.226	Pitch:	0.090	Yaw:	-177.768	Thrust:	80.910
Time:	1.121	Roll Set Point:	0.002	Pitch Set Point:	-0.017	Yaw Set Point:	2.168	X_WP:	0.000	Y_WP:	0.000	Z_WP:	0.500	X:	0.015	Y:	0.010	Z:	0.049	yaw:	-124.210	yaw rate:	0.800	Roll:	-0.219	Pitch:	0.071	Yaw:	-177.526	Thrust:	83.068
Time:	1.140	Roll Set Point:	0.002	Pitch Set Point:	-0.017	Yaw Set Point:	2.168	X_WP:	0.000	Y_WP:	0.000	Z_WP:	0.500	X:	0.015	Y:	0.010	Z:	0.049	yaw:	-124.235	yaw rate:	2.524	Roll:	-0.227	Pitch:	0.059	Yaw:	-177.723	Thrust:	83.176
Time:	1.165	Roll Set Point:	0.002	Pitch Set Point:	-0.017	Yaw Set Point:	2.168	X_WP:	0.000	Y_WP:	0.000	Z_WP:	0.500	X:	0.015	Y:	0.010	Z:	0.049	yaw:	-124.191	yaw rate:	-4.358	Roll:	-0.207	Pitch:	0.117	Yaw:	-177.780	Thrust:	95.138
Time:	1.183	Roll Set Point:	0.002	Pitch Set Point:	-0.017	Yaw Set Point:	2.168	X_WP:	0.000	Y_WP:	0.000	Z_WP:	0.500	X:	0.015	Y:	0.010	Z:	0.049	yaw:	-124.202	yaw rate:	1.072	Roll:	-0.235	Pitch:	0.090	Yaw:	-177.387	Thrust:	83.811
Time:	1.202	Roll Set Point:	0.002	Pitch Set Point:	-0.017	Yaw Set Point:	2.168	X_WP:	0.000	Y_WP:	0.000	Z_WP:	0.500	X:	0.015	Y:	0.010	Z:	0.049	yaw:	-124.220	yaw rate:	1.768	Roll:	-0.216	Pitch:	0.064	Yaw:	-177.523	Thrust:	86.582
Time:	1.221	Roll Set Point:	0.002	Pitch Set Point:	-0.017	Yaw Set Point:	2.168	X_WP:	0.000	Y_WP:	0.000	Z_WP:	0.500	X:	0.015	Y:	0.010	Z:	0.049	yaw:	-124.212	yaw rate:	-0.768	Roll:	-0.229	Pitch:	0.069	Yaw:	-177.113	Thrust:	86.826
Time:	1.242	Roll Set Point:	0.002	Pitch Set Point:	-0.017	Yaw Set Point:	2.168	X_WP:	0.000	Y_WP:	0.000	Z_WP:	0.500	X:	0.015	Y:	0.010	Z:	0.049	yaw:	-124.226	yaw rate:	1.380	Roll:	-0.210	Pitch:	0.108	Yaw:	-177.747	Thrust:	88.425
Time:	1.263	Roll Set Point:	0.002	Pitch Set Point:	-0.017	Yaw Set Point:	2.168	X_WP:	0.000	Y_WP:	0.000	Z_WP:	0.500	X:	0.015	Y:	0.010	Z:	0.049	yaw:	-124.210	yaw rate:	-1.579	Roll:	-0.228	Pitch:	0.108	Yaw:	-177.250	Thrust:	91.194
Time:	1.282	Roll Set Point:	0.002	Pitch Set Point:	-0.017	Yaw Set Point:	2.168	X_WP:	0.000	Y_WP:	0.000	Z_WP:	0.500	X:	0.015	Y:	0.011	Z:	0.049	yaw:	-124.221	yaw rate:	1.115	Roll:	-0.251	Pitch:	0.054	Yaw:	-177.554	Thrust:	89.764
Time:	1.302	Roll Set Point:	0.002	Pitch Set Point:	-0.017	Yaw Set Point:	2.168	X_WP:	0.000	Y_WP:	0.000	Z_WP:	0.500	X:	0.015	Y:	0.010	Z:	0.049	yaw:	-124.203	yaw rate:	-1.776	Roll:	-0.205	Pitch:	0.121	Yaw:	-176.993	Thrust:	93.080
Time:	1.324	Roll Set Point:	0.002	Pitch Set Point:	-0.017	Yaw Set Point:	2.168	X_WP:	0.000	Y_WP:	0.000	Z_WP:	0.500	X:	0.015	Y:	0.010	Z:	0.049	yaw:	-124.207	yaw rate:	0.382	Roll:	-0.234	Pitch:	0.074	Yaw:	-177.855	Thrust:	100.000
Time:	1.342	Roll Set Point:	0.002	Pitch Set Point:	-0.017	Yaw Set Point:	2.167	X_WP:	0.000	Y_WP:	0.000	Z_WP:	0.500	X:	0.015	Y:	0.011	Z:	0.049	yaw:	-124.182	yaw rate:	-2.531	Roll:	-0.251	Pitch:	0.081	Yaw:	-176.852	Thrust:	91.864
Time:	1.362	Roll Set Point:	0.002	Pitch Set Point:	-0.017	Yaw Set Point:	2.168	X_WP:	0.000	Y_WP:	0.000	Z_WP:	0.500	X:	0.015	Y:	0.010	Z:	0.049	yaw:	-124.220	yaw rate:	3.846	Roll:	-0.196	Pitch:	0.128	Yaw:	-177.783	Thrust:	92.714
Time:	1.382	Roll Set Point:	0.002	Pitch Set Point:	-0.017	Yaw Set Point:	2.168	X_WP:	0.000	Y_WP:	0.000	Z_WP:	0.500	X:	0.015	Y:	0.010	Z:	0.049	yaw:	-124.216	yaw rate:	-0.411	Roll:	-0.226	Pitch:	0.061	Yaw:	-177.397	Thrust:	97.593
Time:	1.401	Roll Set Point:	0.002	Pitch Set Point:	-0.017	Yaw Set Point:	2.168	X_WP:	0.000	Y_WP:	0.000	Z_WP:	0.500	X:	0.015	Y:	0.011	Z:	0.049	yaw:	-124.213	yaw rate:	-0.330	Roll:	-0.251	Pitch:	0.068	Yaw:	-177.198	Thrust:	94.903
Time:	1.421	Roll Set Point:	0.002	Pitch Set Point:	-0.017	Yaw Set Point:	2.168	X_WP:	0.000	Y_WP:	0.000	Z_WP:	0.500	X:	0.015	Y:	0.010	Z:	0.049	yaw:	-124.230	yaw rate:	1.662	Roll:	-0.227	Pitch:	0.105	Yaw:	-177.822	Thrust:	100.000
Time:	1.440	Roll Set Point:	0.002	Pitch Set Point:	-0.017	Yaw Set Point:	2.168	X_WP:	0.000	Y_WP:	0.000	Z_WP:	0.500	X:	0.015	Y:	0.010	Z:	0.049	yaw:	-124.213	yaw rate:	-1.686	Roll:	-0.232	Pitch:	0.105	Yaw:	-177.014	Thrust:	98.925
Time:	1.460	Roll Set Point:	0.002	Pitch Set Point:	-0.017	Yaw Set Point:	2.168	X_WP:	0.000	Y_WP:	0.000	Z_WP:	0.500	X:	0.015	Y:	0.010	Z:	0.049	yaw:	-124.192	yaw rate:	-2.044	Roll:	-0.226	Pitch:	0.092	Yaw:	-177.149	Thrust:	100.000
Time:	1.481	Roll Set Point:	0.002	Pitch Set Point:	-0.017	Yaw Set Point:	2.168	X_WP:	0.000	Y_WP:	0.000	Z_WP:	0.500	X:	0.015	Y:	0.010	Z:	0.049	yaw:	-124.202	yaw rate:	0.997	Roll:	-0.247	Pitch:	0.093	Yaw:	-177.753	Thrust:	100.000
Time:	1.501	Roll Set Point:	0.002	Pitch Set Point:	-0.017	Yaw Set Point:	2.167	X_WP:	0.000	Y_WP:	0.000	Z_WP:	0.500	X:	0.015	Y:	0.010	Z:	0.049	yaw:	-124.174	yaw rate:	-2.781	Roll:	-0.241	Pitch:	0.095	Yaw:	-176.809	Thrust:	100.000
Time:	1.521	Roll Set Point:	0.002	Pitch Set Point:	-0.017	Yaw Set Point:	2.168	X_WP:	0.000	Y_WP:	0.000	Z_WP:	0.500	X:	0.015	Y:	0.010	Z:	0.049	yaw:	-124.195	yaw rate:	2.102	Roll:	-0.228	Pitch:	0.082	Yaw:	-177.721	Thrust:	100.000
Time:	1.541	Roll Set Point:	0.002	Pitch Set Point:	-0.017	Yaw Set Point:	2.168	X_WP:	0.000	Y_WP:	0.000	Z_WP:	0.500	X:	0.015	Y:	0.010	Z:	0.049	yaw:	-124.221	yaw rate:	2.601	Roll:	-0.228	Pitch:	0.092	Yaw:	-177.706	Thrust:	100.000
Time:	1.561	Roll Set Point:	0.002	Pitch Set Point:	-0.017	Yaw Set Point:	2.168	X_WP:	0.000	Y_WP:	0.000	Z_WP:	0.500	X:	0.015	Y:	0.010	Z:	0.049	yaw:	-124.191	yaw rate:	-3.020	Roll:	-0.254	Pitch:	0.096	Yaw:	-177.021	Thrust:	100.000
Time:	1.580	Roll Set Point:	0.002	Pitch Set Point:	-0.017	Yaw Set Point:	2.168	X_WP:	0.000	Y_WP:	0.000	Z_WP:	0.500	X:	0.015	Y:	0.010	Z:	0.049	yaw:	-124.210	yaw rate:	1.874	Roll:	-0.220	Pitch:	0.080	Yaw:	-177.692	Thrust:	100.000
Time:	1.600	Roll Set Point:	0.002	Pitch Set Point:	-0.017	Yaw Set Point:	2.168	X_WP:	0.000	Y_WP:	0.000	Z_WP:	0.500	X:	0.015	Y:	0.010	Z:	0.049	yaw:	-124.205	yaw rate:	-0.507	Roll:	-0.252	Pitch:	0.119	Yaw:	-177.367	Thrust:	100.000
Time:	1.621	Roll Set Point:	0.002	Pitch Set Point:	-0.017	Yaw Set Point:	2.168	X_WP:	0.000	Y_WP:	0.000	Z_WP:	0.500	X:	0.015	Y:	0.010	Z:	0.049	yaw:	-124.211	yaw rate:	0.629	Roll:	-0.251	Pitch:	0.076	Yaw:	-177.655	Thrust:	100.000
Time:	1.642	Roll Set Point:	0.002	Pitch Set Point:	-0.017	Yaw Set Point:	2.168	X_WP:	0.000	Y_WP:	0.000	Z_WP:	0.500	X:	0.015	Y:	0.010	Z:	0.049	yaw:	-124.219	yaw rate:	0.803	Roll:	-0.231	Pitch:	0.107	Yaw:	-177.567	Thrust:	100.000
Time:	1.661	Roll Set Point:	0.002	Pitch Set Point:	-0.017	Yaw Set Point:	2.168	X_WP:	0.000	Y_WP:	0.000	Z_WP:	0.500	X:	0.015	Y:	0.010	Z:	0.049	yaw:	-124.210	yaw rate:	-0.901	Roll:	-0.248	Pitch:	0.076	Yaw:	-177.107	Thrust:	100.000
Time:	1.680	Roll Set Point:	0.002	Pitch Set Point:	-0.017	Yaw Set Point:	2.168	X_WP:	0.000	Y_WP:	0.000	Z_WP:	0.500	X:	0.015	Y:	0.010	Z:	0.049	yaw:	-124.227	yaw rate:	1.668	Roll:	-0.246	Pitch:	0.094	Yaw:	-177.690	Thrust:	100.000
Time:	1.700	Roll Set Point:	0.002	Pitch Set Point:	-0.017	Yaw Set Point:	2.168	X_WP:	0.000	Y_WP:	0.000	Z_WP:	0.500	X:	0.015	Y:	0.010	Z:	0.049	yaw:	-124.214	yaw rate:	-1.333	Roll:	-0.216	Pitch:	0.113	Yaw:	-177.272	Thrust:	100.000
Time:	1.721	Roll Set Point:	0.002	Pitch Set Point:	-0.017	Yaw Set Point:	2.168	X_WP:	0.000	Y_WP:	0.000	Z_WP:	0.500	X:	0.015	Y:	0.010	Z:	0.049	yaw:	-124.197	yaw rate:	-1.708	Roll:	-0.265	Pitch:	0.092	Yaw:	-177.222	Thrust:	100.000
Time:	1.742	Roll Set Point:	0.002	Pitch Set Point:	-0.017	Yaw Set Point:	2.168	X_WP:	0.000	Y_WP:	0.000	Z_WP:	0.500	X:	0.015	Y:	0.010	Z:	0.049	yaw:	-124.222	yaw rate:	2.551	Roll:	-0.244	Pitch:	0.085	Yaw:	-177.982	Thrust:	100.000
Time:	1.761	Roll Set Point:	0.002	Pitch Set Point:	-0.017	Yaw Set Point:	2.168	X_WP:	0.000	Y_WP:	0.000	Z_WP:	0.500	X:	0.015	Y:	0.010	Z:	0.049	yaw:	-124.216	yaw rate:	-0.630	Roll:	-0.236	Pitch:	0.096	Yaw:	-177.162	Thrust:	100.000
Time:	1.781	Roll Set Point:	0.002	Pitch Set Point:	-0.017	Yaw Set Point:	2.168	X_WP:	0.000	Y_WP:	0.000	Z_WP:	0.500	X:	0.015	Y:	0.010	Z:	0.049	yaw:	-124.211	yaw rate:	-0.461	Roll:	-0.253	Pitch:	0.113	Yaw:	-177.382	Thrust:	100.000
Time:	1.801	Roll Set Point:	0.002	Pitch Set Point:	-0.017	Yaw Set Point:	2.168	X_WP:	0.000	Y_WP:	0.000	Z_WP:	0.500	X:	0.015	Y:	0.010	Z:	0.049	yaw:	-124.215	yaw rate:	0.429	Roll:	-0.252	Pitch:	0.077	Yaw:	-177.504	Thrust:	100.000
Time:	1.821	Roll Set Point:	0.002	Pitch Set Point:	-0.017	Yaw Set Point:	2.168	X_WP:	0.000	Y_WP:	0.000	Z_WP:	0.500	X:	0.015	Y:	0.010	Z:	0.049	yaw:	-124.233	yaw rate:	1.723	Roll:	-0.247	Pitch:	0.102	Yaw:	-177.677	Thrust:	100.000
Time:	1.841	Roll Set Point:	0.002	Pitch Set Point:	-0.017	Yaw Set Point:	2.168	X_WP:	0.000	Y_WP:	0.000	Z_WP:	0.500	X:	0.015	Y:	0.010	Z:	0.049	yaw:	-124.200	yaw rate:	-3.285	Roll:	-0.239	Pitch:	0.104	Yaw:	-176.896	Thrust:	100.000
Time:	1.860	Roll Set Point:	0.002	Pitch Set Point:	-0.017	Yaw Set Point:	2.168	X_WP:	0.000	Y_WP:	0.000	Z_WP:	0.500	X:	0.015	Y:	0.010	Z:	0.049	yaw:	-124.212	yaw rate:	1.186	Roll:	-0.275	Pitch:	0.083	Yaw:	-177.590	Thrust:	100.000
Time:	1.880	Roll Set Point:	0.002	Pitch Set Point:	-0.017	Yaw Set Point:	2.168	X_WP:	0.000	Y_WP:	0.000	Z_WP:	0.500	X:	0.015	Y:	0.010	Z:	0.049	yaw:	-124.224	yaw rate:	1.198	Roll:	-0.240	Pitch:	0.104	Yaw:	-177.616	Thrust:	100.000
Time:	1.901	Roll Set Point:	0.002	Pitch Set Point:	-0.017	Yaw Set Point:	2.167	X_WP:	0.000	Y_WP:	0.000	Z_WP:	0.500	X:	0.015	Y:	0.010	Z:	0.049	yaw:	-124.184	yaw rate:	-3.936	Roll:	-0.227	Pitch:	0.117	Yaw:	-176.900	Thrust:	100.000
Time:	1.921	Roll Set Point:	0.002	Pitch Set Point:	-0.017	Yaw Set Point:	2.168	X_WP:	0.000	Y_WP:	0.000	Z_WP:	0.500	X:	0.015	Y:	0.011	Z:	0.049	yaw:	-124.211	yaw rate:	2.648	Roll:	-0.290	Pitch:	0.074	Yaw:	-177.764	Thrust:	100.000
Time:	1.941	Roll Set Point:	0.002	Pitch Set Point:	-0.017	Yaw Set Point:	2.168	X_WP:	0.000	Y_WP:	0.000	Z_WP:	0.500	X:	0.015	Y:	0.010	Z:	0.049	yaw:	-124.229	yaw rate:	1.804	Roll:	-0.252	Pitch:	0.101	Yaw:	-177.681	Thrust:	100.000
Time:	1.961	Roll Set Point:	0.002	Pitch Set Point:	-0.017	Yaw Set Point:	2.168	X_WP:	0.000	Y_WP:	0.000	Z_WP:	0.500	X:	0.015	Y:	0.010	Z:	0.049	yaw:	-124.208	yaw rate:	-2.118	Roll:	-0.254	Pitch:	0.106	Yaw:	-177.373	Thrust:	100.000
Time:	1.981	Roll Set Point:	0.002	Pitch Set Point:	-0.017	Yaw Set Point:	2.168	X_WP:	0.000	Y_WP:	0.000	Z_WP:	0.500	X:	0.015	Y:	0.010	Z:	0.049	yaw:	-124.212	yaw rate:	0.443	Roll:	-0.236	Pitch:	0.106	Yaw:	-177.313	Thrust:	100.000
Time:	2.001	Roll Set Point:	0.002	Pitch Set Point:	-0.017	Yaw Set Point:	2.168	X_WP:	0.000	Y_WP:	0.000	Z_WP:	0.500	X:	0.015	Y:	0.010	Z:	0.049	yaw:	-124.213	yaw rate:	0.087	Roll:	-0.276	Pitch:	0.091	Yaw:	-177.448	Thrust:	100.000
Time:	2.021	Roll Set Point:	0.002	Pitch Set Point:	-0.017	Yaw Set Point:	2.168	X_WP:	0.000	Y_WP:	0.000	Z_WP:	0.500	X:	0.015	Y:	0.010	Z:	0.049	yaw:	-124.196	yaw rate:	-1.654	Roll:	-0.262	Pitch:	0.100	Yaw:	-177.232	Thrust:	100.000
Time:	2.041	Roll Set Point:	0.002	Pitch Set Point:	-0.017	Yaw Set Point:	2.167	X_WP:	0.000	Y_WP:	0.000	Z_WP:	0.500	X:	0.015	Y:	0.010	Z:	0.049	yaw:	-124.178	yaw rate:	-1.879	Roll:	-0.242	Pitch:	0.120	Yaw:	-177.126	Thrust:	100.000
Time:	2.061	Roll Set Point:	0.002	Pitch Set Point:	-0.017	Yaw Set Point:	2.168	X_WP:	0.000	Y_WP:	0.000	Z_WP:	0.500	X:	0.015	Y:	0.011	Z:	0.049	yaw:	-124.239	yaw rate:	6.178	Roll:	-0.277	Pitch:	0.059	Yaw:	-178.288	Thrust:	100.000
Time:	2.081	Roll Set Point:	0.002	Pitch Set Point:	-0.017	Yaw Set Point:	2.168	X_WP:	0.000	Y_WP:	0.000	Z_WP:	0.500	X:	0.015	Y:	0.010	Z:	0.049	yaw:	-124.223	yaw rate:	-1.615	Roll:	-0.249	Pitch:	0.113	Yaw:	-177.248	Thrust:	100.000
Time:	2.101	Roll Set Point:	0.002	Pitch Set Point:	-0.017	Yaw Set Point:	2.167	X_WP:	0.000	Y_WP:	0.000	Z_WP:	0.500	X:	0.015	Y:	0.010	Z:	0.049	yaw:	-124.180	yaw rate:	-4.350	Roll:	-0.240	Pitch:	0.125	Yaw:	-176.830	Thrust:	100.000
Time:	2.121	Roll Set Point:	0.002	Pitch Set Point:	-0.017	Yaw Set Point:	2.168	X_WP:	0.000	Y_WP:	0.000	Z_WP:	0.500	X:	0.015	Y:	0.010	Z:	0.049	yaw:	-124.215	yaw rate:	3.539	Roll:	-0.287	Pitch:	0.091	Yaw:	-178.012	Thrust:	100.000
Time:	2.141	Roll Set Point:	0.002	Pitch Set Point:	-0.017	Yaw Set Point:	2.168	X_WP:	0.000	Y_WP:	0.000	Z_WP:	0.500	X:	0.015	Y:	0.010	Z:	0.049	yaw:	-124.224	yaw rate:	0.840	Roll:	-0.263	Pitch:	0.094	Yaw:	-177.399	Thrust:	100.000
Time:	2.162	Roll Set Point:	0.002	Pitch Set Point:	-0.017	Yaw Set Point:	2.168	X_WP:	0.000	Y_WP:	0.000	Z_WP:	0.500	X:	0.015	Y:	0.010	Z:	0.049	yaw:	-124.209	yaw rate:	-1.495	Roll:	-0.257	Pitch:	0.099	Yaw:	-177.243	Thrust:	100.000
Time:	2.181	Roll Set Point:	0.002	Pitch Set Point:	-0.017	Yaw Set Point:	2.168	X_WP:	0.000	Y_WP:	0.000	Z_WP:	0.500	X:	0.015	Y:	0.010	Z:	0.049	yaw:	-124.212	yaw rate:	0.338	Roll:	-0.262	Pitch:	0.138	Yaw:	-177.488	Thrust:	100.000
Time:	2.201	Roll Set Point:	0.002	Pitch Set Point:	-0.017	Yaw Set Point:	2.168	X_WP:	0.000	Y_WP:	0.000	Z_WP:	0.500	X:	0.015	Y:	0.010	Z:	0.049	yaw:	-124.220	yaw rate:	0.811	Roll:	-0.274	Pitch:	0.080	Yaw:	-177.560	Thrust:	100.000
Time:	2.221	Roll Set Point:	0.002	Pitch Set Point:	-0.017	Yaw Set Point:	2.168	X_WP:	0.000	Y_WP:	0.000	Z_WP:	0.500	X:	0.015	Y:	0.010	Z:	0.049	yaw:	-124.197	yaw rate:	-2.325	Roll:	-0.260	Pitch:	0.089	Yaw:	-177.135	Thrust:	100.000
Time:	2.241	Roll Set Point:	0.002	Pitch Set Point:	-0.017	Yaw Set Point:	2.168	X_WP:	0.000	Y_WP:	0.000	Z_WP:	0.500	X:	0.015	Y:	0.010	Z:	0.049	yaw:	-124.189	yaw rate:	-0.778	Roll:	-0.263	Pitch:	0.136	Yaw:	-177.287	Thrust:	100.000
Time:	2.261	Roll Set Point:	0.002	Pitch Set Point:	-0.017	Yaw Set Point:	2.168	X_WP:	0.000	Y_WP:	0.000	Z_WP:	0.500	X:	0.015	Y:	0.011	Z:	0.049	yaw:	-124.217	yaw rate:	2.795	Roll:	-0.276	Pitch:	0.060	Yaw:	-177.814	Thrust:	100.000
Time:	2.281	Roll Set Point:	0.002	Pitch Set Point:	-0.017	Yaw Set Point:	2.168	X_WP:	0.000	Y_WP:	0.000	Z_WP:	0.500	X:	0.015	Y:	0.010	Z:	0.049	yaw:	-124.213	yaw rate:	-0.398	Roll:	-0.250	Pitch:	0.141	Yaw:	-177.394	Thrust:	100.000
Time:	2.312	Roll Set Point:	0.002	Pitch Set Point:	-0.017	Yaw Set Point:	2.167	X_WP:	0.000	Y_WP:	0.000	Z_WP:	0.500	X:	0.015	Y:	0.010	Z:	0.049	yaw:	-124.185	yaw rate:	-2.818	Roll:	-0.326	Pitch:	0.119	Yaw:	-179.270	Thrust:	100.000
Time:	2.324	Roll Set Point:	0.002	Pitch Set Point:	-0.017	Yaw Set Point:	2.168	X_WP:	0.000	Y_WP:	0.000	Z_WP:	0.500	X:	0.015	Y:	0.010	Z:	0.049	yaw:	-124.199	yaw rate:	1.392	Roll:	-0.249	Pitch:	0.094	Yaw:	-176.220	Thrust:	100.000
Time:	2.341	Roll Set Point:	0.002	Pitch Set Point:	-0.017	Yaw Set Point:	2.168	X_WP:	0.000	Y_WP:	0.000	Z_WP:	0.500	X:	0.015	Y:	0.010	Z:	0.049	yaw:	-124.218	yaw rate:	1.973	Roll:	-0.239	Pitch:	0.101	Yaw:	-176.965	Thrust:	100.000
Time:	2.361	Roll Set Point:	0.002	Pitch Set Point:	-0.017	Yaw Set Point:	2.168	X_WP:	0.000	Y_WP:	0.000	Z_WP:	0.500	X:	0.015	Y:	0.011	Z:	0.049	yaw:	-124.241	yaw rate:	2.203	Roll:	-0.301	Pitch:	0.078	Yaw:	-177.771	Thrust:	100.000
Time:	2.381	Roll Set Point:	0.002	Pitch Set Point:	-0.017	Yaw Set Point:	2.168	X_WP:	0.000	Y_WP:	0.000	Z_WP:	0.500	X:	0.015	Y:	0.010	Z:	0.049	yaw:	-124.189	yaw rate:	-5.130	Roll:	-0.250	Pitch:	0.159	Yaw:	-176.974	Thrust:	100.000
Time:	2.400	Roll Set Point:	0.002	Pitch Set Point:	-0.017	Yaw Set Point:	2.168	X_WP:	0.000	Y_WP:	0.000	Z_WP:	0.500	X:	0.015	Y:	0.010	Z:	0.049	yaw:	-124.229	yaw rate:	3.949	Roll:	-0.276	Pitch:	0.091	Yaw:	-177.816	Thrust:	100.000
Time:	2.421	Roll Set Point:	0.002	Pitch Set Point:	-0.017	Yaw Set Point:	2.168	X_WP:	0.000	Y_WP:	0.000	Z_WP:	0.500	X:	0.015	Y:	0.011	Z:	0.049	yaw:	-124.231	yaw rate:	0.238	Roll:	-0.300	Pitch:	0.075	Yaw:	-177.615	Thrust:	100.000
Time:	2.443	Roll Set Point:	0.002	Pitch Set Point:	-0.017	Yaw Set Point:	2.167	X_WP:	0.000	Y_WP:	0.000	Z_WP:	0.500	X:	0.015	Y:	0.010	Z:	0.049	yaw:	-124.154	yaw rate:	-7.734	Roll:	-0.259	Pitch:	0.130	Yaw:	-176.534	Thrust:	100.000
Time:	2.461	Roll Set Point:	0.002	Pitch Set Point:	-0.017	Yaw Set Point:	2.168	X_WP:	0.000	Y_WP:	0.000	Z_WP:	0.500	X:	0.015	Y:	0.010	Z:	0.049	yaw:	-124.243	yaw rate:	8.956	Roll:	-0.257	Pitch:	0.130	Yaw:	-178.523	Thrust:	100.000
Time:	2.481	Roll Set Point:	0.002	Pitch Set Point:	-0.017	Yaw Set Point:	2.168	X_WP:	0.000	Y_WP:	0.000	Z_WP:	0.500	X:	0.015	Y:	0.010	Z:	0.049	yaw:	-124.213	yaw rate:	-2.984	Roll:	-0.291	Pitch:	0.083	Yaw:	-177.046	Thrust:	100.000
Time:	2.501	Roll Set Point:	0.002	Pitch Set Point:	-0.017	Yaw Set Point:	2.168	X_WP:	0.000	Y_WP:	0.000	Z_WP:	0.500	X:	0.015	Y:	0.011	Z:	0.049	yaw:	-124.198	yaw rate:	-1.579	Roll:	-0.317	Pitch:	0.100	Yaw:	-177.226	Thrust:	100.000
Time:	2.522	Roll Set Point:	0.002	Pitch Set Point:	-0.017	Yaw Set Point:	2.168	X_WP:	0.000	Y_WP:	0.000	Z_WP:	0.500	X:	0.015	Y:	0.010	Z:	0.049	yaw:	-124.199	yaw rate:	0.107	Roll:	-0.220	Pitch:	0.146	Yaw:	-177.484	Thrust:	100.000
Time:	2.541	Roll Set Point:	0.002	Pitch Set Point:	-0.017	Yaw Set Point:	2.167	X_WP:	0.000	Y_WP:	0.000	Z_WP:	0.500	X:	0.015	Y:	0.010	Z:	0.049	yaw:	-124.168	yaw rate:	-3.114	Roll:	-0.298	Pitch:	0.098	Yaw:	-176.764	Thrust:	100.000
Time:	2.560	Roll Set Point:	0.002	Pitch Set Point:	-0.017	Yaw Set Point:	2.169	X_WP:	0.000	Y_WP:	0.000	Z_WP:	0.500	X:	0.015	Y:	0.011	Z:	0.049	yaw:	-124.250	yaw rate:	8.281	Roll:	-0.313	Pitch:	0.068	Yaw:	-178.572	Thrust:	100.000
Time:	2.580	Roll Set Point:	0.002	Pitch Set Point:	-0.017	Yaw Set Point:	2.168	X_WP:	0.000	Y_WP:	0.000	Z_WP:	0.500	X:	0.015	Y:	0.010	Z:	0.049	yaw:	-124.228	yaw rate:	-2.243	Roll:	-0.239	Pitch:	0.151	Yaw:	-177.173	Thrust:	100.000
Time:	2.603	Roll Set Point:	0.002	Pitch Set Point:	-0.017	Yaw Set Point:	2.168	X_WP:	0.000	Y_WP:	0.000	Z_WP:	0.500	X:	0.015	Y:	0.010	Z:	0.049	yaw:	-124.201	yaw rate:	-2.712	Roll:	-0.306	Pitch:	0.090	Yaw:	-177.299	Thrust:	100.000
Time:	2.622	Roll Set Point:	0.002	Pitch Set Point:	-0.017	Yaw Set Point:	2.168	X_WP:	0.000	Y_WP:	0.000	Z_WP:	0.500	X:	0.015	Y:	0.010	Z:	0.049	yaw:	-124.224	yaw rate:	2.328	Roll:	-0.296	Pitch:	0.108	Yaw:	-177.821	Thrust:	100.000
Time:	2.643	Roll Set Point:	0.002	Pitch Set Point:	-0.017	Yaw Set Point:	2.168	X_WP:	0.000	Y_WP:	0.000	Z_WP:	0.500	X:	0.015	Y:	0.010	Z:	0.049	yaw:	-124.210	yaw rate:	-1.404	Roll:	-0.278	Pitch:	0.117	Yaw:	-177.571	Thrust:	100.000
Time:	2.665	Roll Set Point:	0.002	Pitch Set Point:	-0.017	Yaw Set Point:	2.167	X_WP:	0.000	Y_WP:	0.000	Z_WP:	0.500	X:	0.015	Y:	0.010	Z:	0.049	yaw:	-124.185	yaw rate:	-2.489	Roll:	-0.248	Pitch:	0.145	Yaw:	-177.081	Thrust:	100.000
Time:	2.683	Roll Set Point:	0.002	Pitch Set Point:	-0.017	Yaw Set Point:	2.168	X_WP:	0.000	Y_WP:	0.000	Z_WP:	0.500	X:	0.015	Y:	0.010	Z:	0.049	yaw:	-124.218	yaw rate:	3.302	Roll:	-0.333	Pitch:	0.068	Yaw:	-177.713	Thrust:	100.000
Time:	2.704	Roll Set Point:	0.002	Pitch Set Point:	-0.017	Yaw Set Point:	2.168	X_WP:	0.000	Y_WP:	0.000	Z_WP:	0.500	X:	0.015	Y:	0.010	Z:	0.049	yaw:	-124.226	yaw rate:	0.784	Roll:	-0.281	Pitch:	0.110	Yaw:	-177.557	Thrust:	100.000
Time:	2.722	Roll Set Point:	0.002	Pitch Set Point:	-0.017	Yaw Set Point:	2.168	X_WP:	0.000	Y_WP:	0.000	Z_WP:	0.500	X:	0.015	Y:	0.010	Z:	0.049	yaw:	-124.194	yaw rate:	-3.233	Roll:	-0.275	Pitch:	0.127	Yaw:	-176.923	Thrust:	100.000
Time:	2.743	Roll Set Point:	0.002	Pitch Set Point:	-0.017	Yaw Set Point:	2.168	X_WP:	0.000	Y_WP:	0.000	Z_WP:	0.500	X:	0.015	Y:	0.010	Z:	0.049	yaw:	-124.214	yaw rate:	2.007	Roll:	-0.279	Pitch:	0.130	Yaw:	-177.715	Thrust:	100.000
Time:	2.764	Roll Set Point:	0.002	Pitch Set Point:	-0.017	Yaw Set Point:	2.168	X_WP:	0.000	Y_WP:	0.000	Z_WP:	0.500	X:	0.015	Y:	0.010	Z:	0.049	yaw:	-124.228	yaw rate:	1.369	Roll:	-0.311	Pitch:	0.089	Yaw:	-178.030	Thrust:	100.000
Time:	2.782	Roll Set Point:	0.002	Pitch Set Point:	-0.017	Yaw Set Point:	2.168	X_WP:	0.000	Y_WP:	0.000	Z_WP:	0.500	X:	0.015	Y:	0.010	Z:	0.049	yaw:	-124.203	yaw rate:	-2.476	Roll:	-0.277	Pitch:	0.116	Yaw:	-176.662	Thrust:	100.000
Time:	2.803	Roll Set Point:	0.002	Pitch Set Point:	-0.017	Yaw Set Point:	2.167	X_WP:	0.000	Y_WP:	0.000	Z_WP:	0.500	X:	0.015	Y:	0.010	Z:	0.049	yaw:	-124.187	yaw rate:	-1.578	Roll:	-0.298	Pitch:	0.121	Yaw:	-177.201	Thrust:	100.000
Time:	2.823	Roll Set Point:	0.002	Pitch Set Point:	-0.017	Yaw Set Point:	2.167	X_WP:	0.000	Y_WP:	0.000	Z_WP:	0.500	X:	0.015	Y:	0.010	Z:	0.049	yaw:	-124.171	yaw rate:	-1.566	Roll:	-0.296	Pitch:	0.111	Yaw:	-177.063	Thrust:	100.000
Time:	2.843	Roll Set Point:	0.002	Pitch Set Point:	-0.017	Yaw Set Point:	2.168	X_WP:	0.000	Y_WP:	0.000	Z_WP:	0.500	X:	0.015	Y:	0.010	Z:	0.049	yaw:	-124.215	yaw rate:	4.342	Roll:	-0.275	Pitch:	0.133	Yaw:	-177.935	Thrust:	100.000
Time:	2.861	Roll Set Point:	0.002	Pitch Set Point:	-0.017	Yaw Set Point:	2.168	X_WP:	0.000	Y_WP:	0.000	Z_WP:	0.500	X:	0.015	Y:	0.010	Z:	0.049	yaw:	-124.224	yaw rate:	0.908	Roll:	-0.282	Pitch:	0.082	Yaw:	-177.377	Thrust:	100.000
Time:	2.881	Roll Set Point:	0.002	Pitch Set Point:	-0.017	Yaw Set Point:	2.167	X_WP:	0.000	Y_WP:	0.000	Z_WP:	0.500	X:	0.015	Y:	0.010	Z:	0.049	yaw:	-124.176	yaw rate:	-4.772	Roll:	-0.311	Pitch:	0.120	Yaw:	-176.778	Thrust:	100.000
Time:	2.901	Roll Set Point:	0.002	Pitch Set Point:	-0.017	Yaw Set Point:	2.168	X_WP:	0.000	Y_WP:	0.000	Z_WP:	0.500	X:	0.015	Y:	0.010	Z:	0.049	yaw:	-124.217	yaw rate:	4.130	Roll:	-0.294	Pitch:	0.115	Yaw:	-177.990	Thrust:	100.000
Time:	2.922	Roll Set Point:	0.002	Pitch Set Point:	-0.017	Yaw Set Point:	2.168	X_WP:	0.000	Y_WP:	0.000	Z_WP:	0.500	X:	0.015	Y:	0.010	Z:	0.049	yaw:	-124.213	yaw rate:	-0.412	Roll:	-0.294	Pitch:	0.141	Yaw:	-177.687	Thrust:	100.000
Time:	2.941	Roll Set Point:	0.002	Pitch Set Point:	-0.017	Yaw Set Point:	2.168	X_WP:	0.000	Y_WP:	0.000	Z_WP:	0.500	X:	0.015	Y:	0.010	Z:	0.049	yaw:	-124.234	yaw rate:	2.030	Roll:	-0.296	Pitch:	0.080	Yaw:	-177.460	Thrust:	100.000
Time:	2.962	Roll Set Point:	0.002	Pitch Set Point:	-0.017	Yaw Set Point:	2.168	X_WP:	0.000	Y_WP:	0.000	Z_WP:	0.500	X:	0.015	Y:	0.010	Z:	0.049	yaw:	-124.198	yaw rate:	-3.538	Roll:	-0.298	Pitch:	0.122	Yaw:	-176.962	Thrust:	100.000
Time:	2.981	Roll Set Point:	0.002	Pitch Set Point:	-0.017	Yaw Set Point:	2.168	X_WP:	0.000	Y_WP:	0.000	Z_WP:	0.500	X:	0.015	Y:	0.010	Z:	0.049	yaw:	-124.201	yaw rate:	0.321	Roll:	-0.307	Pitch:	0.129	Yaw:	-177.470	Thrust:	100.000
Time:	3.001	Roll Set Point:	0.002	Pitch Set Point:	-0.017	Yaw Set Point:	2.168	X_WP:	0.000	Y_WP:	0.000	Z_WP:	0.500	X:	0.015	Y:	0.010	Z:	0.049	yaw:	-124.233	yaw rate:	3.162	Roll:	-0.290	Pitch:	0.092	Yaw:	-177.886	Thrust:	100.000
Time:	3.022	Roll Set Point:	0.002	Pitch Set Point:	-0.017	Yaw Set Point:	2.168	X_WP:	0.000	Y_WP:	0.000	Z_WP:	0.500	X:	0.015	Y:	0.010	Z:	0.049	yaw:	-124.212	yaw rate:	-2.121	Roll:	-0.290	Pitch:	0.147	Yaw:	-177.261	Thrust:	100.000
Time:	3.041	Roll Set Point:	0.002	Pitch Set Point:	-0.017	Yaw Set Point:	2.168	X_WP:	0.000	Y_WP:	0.000	Z_WP:	0.500	X:	0.015	Y:	0.010	Z:	0.049	yaw:	-124.221	yaw rate:	0.923	Roll:	-0.334	Pitch:	0.109	Yaw:	-177.491	Thrust:	100.000
Time:	3.061	Roll Set Point:	0.002	Pitch Set Point:	-0.017	Yaw Set Point:	2.168	X_WP:	0.000	Y_WP:	0.000	Z_WP:	0.500	X:	0.015	Y:	0.010	Z:	0.049	yaw:	-124.233	yaw rate:	1.207	Roll:	-0.299	Pitch:	0.092	Yaw:	-177.630	Thrust:	100.000
Time:	3.081	Roll Set Point:	0.002	Pitch Set Point:	-0.017	Yaw Set Point:	2.168	X_WP:	0.000	Y_WP:	0.000	Z_WP:	0.500	X:	0.015	Y:	0.010	Z:	0.049	yaw:	-124.203	yaw rate:	-2.965	Roll:	-0.288	Pitch:	0.151	Yaw:	-177.044	Thrust:	100.000
Time:	3.101	Roll Set Point:	0.002	Pitch Set Point:	-0.017	Yaw Set Point:	2.168	X_WP:	0.000	Y_WP:	0.000	Z_WP:	0.500	X:	0.015	Y:	0.010	Z:	0.049	yaw:	-124.225	yaw rate:	2.167	Roll:	-0.306	Pitch:	0.098	Yaw:	-177.561	Thrust:	100.000
Time:	3.121	Roll Set Point:	0.002	Pitch Set Point:	-0.017	Yaw Set Point:	2.168	X_WP:	0.000	Y_WP:	0.000	Z_WP:	0.500	X:	0.015	Y:	0.010	Z:	0.049	yaw:	-124.223	yaw rate:	-0.236	Roll:	-0.313	Pitch:	0.136	Yaw:	-177.537	Thrust:	100.000
Time:	3.141	Roll Set Point:	0.002	Pitch Set Point:	-0.017	Yaw Set Point:	2.168	X_WP:	0.000	Y_WP:	0.000	Z_WP:	0.500	X:	0.015	Y:	0.010	Z:	0.049	yaw:	-124.203	yaw rate:	-1.945	Roll:	-0.303	Pitch:	0.101	Yaw:	-177.286	Thrust:	100.000
Time:	3.160	Roll Set Point:	0.002	Pitch Set Point:	-0.017	Yaw Set Point:	2.168	X_WP:	0.000	Y_WP:	0.000	Z_WP:	0.500	X:	0.015	Y:	0.010	Z:	0.049	yaw:	-124.191	yaw rate:	-1.202	Roll:	-0.296	Pitch:	0.141	Yaw:	-177.042	Thrust:	100.000
Time:	3.181	Roll Set Point:	0.002	Pitch Set Point:	-0.017	Yaw Set Point:	2.168	X_WP:	0.000	Y_WP:	0.000	Z_WP:	0.500	X:	0.015	Y:	0.010	Z:	0.049	yaw:	-124.229	yaw rate:	3.739	Roll:	-0.326	Pitch:	0.092	Yaw:	-177.961	Thrust:	100.000
Time:	3.201	Roll Set Point:	0.002	Pitch Set Point:	-0.017	Yaw Set Point:	2.168	X_WP:	0.000	Y_WP:	0.000	Z_WP:	0.500	X:	0.015	Y:	0.010	Z:	0.049	yaw:	-124.209	yaw rate:	-1.919	Roll:	-0.287	Pitch:	0.140	Yaw:	-177.189	Thrust:	100.000
Time:	3.221	Roll Set Point:	0.002	Pitch Set Point:	-0.017	Yaw Set Point:	2.168	X_WP:	0.000	Y_WP:	0.000	Z_WP:	0.500	X:	0.015	Y:	0.010	Z:	0.049	yaw:	-124.223	yaw rate:	1.326	Roll:	-0.321	Pitch:	0.131	Yaw:	-177.666	Thrust:	100.000
Time:	3.242	Roll Set Point:	0.002	Pitch Set Point:	-0.017	Yaw Set Point:	2.168	X_WP:	0.000	Y_WP:	0.000	Z_WP:	0.500	X:	0.015	Y:	0.010	Z:	0.049	yaw:	-124.219	yaw rate:	-0.374	Roll:	-0.322	Pitch:	0.093	Yaw:	-177.420	Thrust:	100.000
Time:	3.261	Roll Set Point:	0.002	Pitch Set Point:	-0.017	Yaw Set Point:	2.168	X_WP:	0.000	Y_WP:	0.000	Z_WP:	0.500	X:	0.015	Y:	0.010	Z:	0.049	yaw:	-124.196	yaw rate:	-2.304	Roll:	-0.295	Pitch:	0.141	Yaw:	-177.121	Thrust:	100.000
Time:	3.281	Roll Set Point:	0.002	Pitch Set Point:	-0.017	Yaw Set Point:	2.167	X_WP:	0.000	Y_WP:	0.000	Z_WP:	0.500	X:	0.015	Y:	0.010	Z:	0.049	yaw:	-124.187	yaw rate:	-0.882	Roll:	-0.314	Pitch:	0.114	Yaw:	-177.293	Thrust:	100.000
Time:	3.301	Roll Set Point:	0.002	Pitch Set Point:	-0.017	Yaw Set Point:	2.168	X_WP:	0.000	Y_WP:	0.000	Z_WP:	0.500	X:	0.015	Y:	0.010	Z:	0.049	yaw:	-124.206	yaw rate:	1.901	Roll:	-0.327	Pitch:	0.127	Yaw:	-177.497	Thrust:	100.000
Time:	3.325	Roll Set Point:	0.002	Pitch Set Point:	-0.017	Yaw Set Point:	2.168	X_WP:	0.000	Y_WP:	0.000	Z_WP:	0.500	X:	0.015	Y:	0.010	Z:	0.049	yaw:	-124.198	yaw rate:	-0.862	Roll:	-0.327	Pitch:	0.129	Yaw:	-178.186	Thrust:	100.000
Time:	3.341	Roll Set Point:	0.002	Pitch Set Point:	-0.017	Yaw Set Point:	2.168	X_WP:	0.000	Y_WP:	0.000	Z_WP:	0.500	X:	0.015	Y:	0.011	Z:	0.049	yaw:	-124.202	yaw rate:	0.397	Roll:	-0.309	Pitch:	0.097	Yaw:	-176.690	Thrust:	100.000
Time:	3.362	Roll Set Point:	0.002	Pitch Set Point:	-0.017	Yaw Set Point:	2.168	X_WP:	0.000	Y_WP:	0.000	Z_WP:	0.500	X:	0.015	Y:	0.010	Z:	0.049	yaw:	-124.215	yaw rate:	1.335	Roll:	-0.305	Pitch:	0.143	Yaw:	-177.814	Thrust:	100.000
Time:	3.382	Roll Set Point:	0.002	Pitch Set Point:	-0.017	Yaw Set Point:	2.168	X_WP:	0.000	Y_WP:	0.000	Z_WP:	0.500	X:	0.015	Y:	0.010	Z:	0.049	yaw:	-124.201	yaw rate:	-1.385	Roll:	-0.314	Pitch:	0.128	Yaw:	-177.247	Thrust:	100.000
Time:	3.402	Roll Set Point:	0.002	Pitch Set Point:	-0.017	Yaw Set Point:	2.167	X_WP:	0.000	Y_WP:	0.000	Z_WP:	0.500	X:	0.015	Y:	0.010	Z:	0.049	yaw:	-124.179	yaw rate:	-2.213	Roll:	-0.338	Pitch:	0.136	Yaw:	-177.109	Thrust:	100.000
Time:	3.422	Roll Set Point:	0.002	Pitch Set Point:	-0.017	Yaw Set Point:	2.168	X_WP:	0.000	Y_WP:	0.000	Z_WP:	0.500	X:	0.015	Y:	0.010	Z:	0.049	yaw:	-124.223	yaw rate:	4.452	Roll:	-0.306	Pitch:	0.100	Yaw:	-177.924	Thrust:	100.000
Time:	3.443	Roll Set Point:	0.002	Pitch Set Point:	-0.017	Yaw Set Point:	2.168	X_WP:	0.000	Y_WP:	0.000	Z_WP:	0.500	X:	0.015	Y:	0.010	Z:	0.049	yaw:	-124.229	yaw rate:	0.556	Roll:	-0.323	Pitch:	0.120	Yaw:	-177.752	Thrust:	100.000
Time:	3.463	Roll Set Point:	0.002	Pitch Set Point:	-0.017	Yaw Set Point:	2.167	X_WP:	0.000	Y_WP:	0.000	Z_WP:	0.500	X:	0.015	Y:	0.010	Z:	0.049	yaw:	-124.175	yaw rate:	-5.396	Roll:	-0.311	Pitch:	0.140	Yaw:	-176.921	Thrust:	100.000
Time:	3.482	Roll Set Point:	0.002	Pitch Set Point:	-0.017	Yaw Set Point:	2.168	X_WP:	0.000	Y_WP:	0.000	Z_WP:	0.500	X:	0.015	Y:	0.010	Z:	0.049	yaw:	-124.219	yaw rate:	4.382	Roll:	-0.337	Pitch:	0.125	Yaw:	-177.856	Thrust:	100.000
Time:	3.502	Roll Set Point:	0.002	Pitch Set Point:	-0.017	Yaw Set Point:	2.168	X_WP:	0.000	Y_WP:	0.000	Z_WP:	0.500	X:	0.015	Y:	0.010	Z:	0.049	yaw:	-124.206	yaw rate:	-1.249	Roll:	-0.311	Pitch:	0.111	Yaw:	-177.271	Thrust:	100.000
Time:	3.523	Roll Set Point:	0.002	Pitch Set Point:	-0.017	Yaw Set Point:	2.167	X_WP:	0.000	Y_WP:	0.000	Z_WP:	0.500	X:	0.015	Y:	0.010	Z:	0.049	yaw:	-124.172	yaw rate:	-3.436	Roll:	-0.331	Pitch:	0.158	Yaw:	-177.086	Thrust:	100.000
Time:	3.544	Roll Set Point:	0.002	Pitch Set Point:	-0.017	Yaw Set Point:	2.167	X_WP:	0.000	Y_WP:	0.000	Z_WP:	0.500	X:	0.015	Y:	0.010	Z:	0.049	yaw:	-124.170	yaw rate:	-0.218	Roll:	-0.316	Pitch:	0.133	Yaw:	-177.257	Thrust:	100.000
Time:	3.565	Roll Set Point:	0.002	Pitch Set Point:	-0.017	Yaw Set Point:	2.168	X_WP:	0.000	Y_WP:	0.000	Z_WP:	0.500	X:	0.015	Y:	0.010	Z:	0.049	yaw:	-124.204	yaw rate:	3.461	Roll:	-0.339	Pitch:	0.098	Yaw:	-178.244	Thrust:	100.000
Time:	3.583	Roll Set Point:	0.002	Pitch Set Point:	-0.017	Yaw Set Point:	2.168	X_WP:	0.000	Y_WP:	0.000	Z_WP:	0.500	X:	0.015	Y:	0.011	Z:	0.049	yaw:	-124.215	yaw rate:	1.043	Roll:	-0.327	Pitch:	0.109	Yaw:	-177.199	Thrust:	100.000
Time:	3.602	Roll Set Point:	0.002	Pitch Set Point:	-0.017	Yaw Set Point:	2.168	X_WP:	0.000	Y_WP:	0.000	Z_WP:	0.500	X:	0.015	Y:	0.010	Z:	0.049	yaw:	-124.212	yaw rate:	-0.269	Roll:	-0.291	Pitch:	0.168	Yaw:	-177.204	Thrust:	100.000
Time:	3.621	Roll Set Point:	0.002	Pitch Set Point:	-0.017	Yaw Set Point:	2.168	X_WP:	0.000	Y_WP:	0.000	Z_WP:	0.500	X:	0.015	Y:	0.010	Z:	0.049	yaw:	-124.195	yaw rate:	-1.744	Roll:	-0.348	Pitch:	0.091	Yaw:	-176.894	Thrust:	100.000
Time:	3.642	Roll Set Point:	0.002	Pitch Set Point:	-0.017	Yaw Set Point:	2.168	X_WP:	0.000	Y_WP:	0.000	Z_WP:	0.500	X:	0.015	Y:	0.010	Z:	0.049	yaw:	-124.208	yaw rate:	1.371	Roll:	-0.327	Pitch:	0.121	Yaw:	-177.821	Thrust:	100.000
Time:	3.661	Roll Set Point:	0.002	Pitch Set Point:	-0.017	Yaw Set Point:	2.167	X_WP:	0.000	Y_WP:	0.000	Z_WP:	0.500	X:	0.015	Y:	0.010	Z:	0.049	yaw:	-124.181	yaw rate:	-2.693	Roll:	-0.292	Pitch:	0.167	Yaw:	-176.830	Thrust:	100.000
Time:	3.681	Roll Set Point:	0.002	Pitch Set Point:	-0.017	Yaw Set Point:	2.168	X_WP:	0.000	Y_WP:	0.000	Z_WP:	0.500	X:	0.015	Y:	0.010	Z:	0.049	yaw:	-124.199	yaw rate:	1.714	Roll:	-0.337	Pitch:	0.099	Yaw:	-177.641	Thrust:	100.000
Time:	3.701	Roll Set Point:	0.002	Pitch Set Point:	-0.017	Yaw Set Point:	2.168	X_WP:	0.000	Y_WP:	0.000	Z_WP:	0.500	X:	0.015	Y:	0.010	Z:	0.049	yaw:	-124.211	yaw rate:	1.211	Roll:	-0.352	Pitch:	0.124	Yaw:	-177.607	Thrust:	100.000
Time:	3.721	Roll Set Point:	0.002	Pitch Set Point:	-0.017	Yaw Set Point:	2.168	X_WP:	0.000	Y_WP:	0.000	Z_WP:	0.500	X:	0.015	Y:	0.010	Z:	0.049	yaw:	-124.213	yaw rate:	0.238	Roll:	-0.332	Pitch:	0.125	Yaw:	-177.626	Thrust:	100.000
Time:	3.741	Roll Set Point:	0.002	Pitch Set Point:	-0.017	Yaw Set Point:	2.168	X_WP:	0.000	Y_WP:	0.000	Z_WP:	0.500	X:	0.015	Y:	0.010	Z:	0.049	yaw:	-124.205	yaw rate:	-0.827	Roll:	-0.316	Pitch:	0.136	Yaw:	-177.141	Thrust:	100.000
Time:	3.763	Roll Set Point:	0.002	Pitch Set Point:	-0.017	Yaw Set Point:	2.168	X_WP:	0.000	Y_WP:	0.000	Z_WP:	0.500	X:	0.015	Y:	0.010	Z:	0.049	yaw:	-124.208	yaw rate:	0.327	Roll:	-0.337	Pitch:	0.157	Yaw:	-177.870	Thrust:	100.000
Time:	3.785	Roll Set Point:	0.002	Pitch Set Point:	-0.017	Yaw Set Point:	2.168	X_WP:	0.000	Y_WP:	0.000	Z_WP:	0.500	X:	0.015	Y:	0.010	Z:	0.049	yaw:	-124.245	yaw rate:	3.738	Roll:	-0.364	Pitch:	0.107	Yaw:	-178.336	Thrust:	100.000
Time:	3.803	Roll Set Point:	0.002	Pitch Set Point:	-0.017	Yaw Set Point:	2.167	X_WP:	0.000	Y_WP:	0.000	Z_WP:	0.500	X:	0.015	Y:	0.010	Z:	0.049	yaw:	-124.186	yaw rate:	-5.991	Roll:	-0.316	Pitch:	0.126	Yaw:	-176.134	Thrust:	100.000
Time:	3.823	Roll Set Point:	0.002	Pitch Set Point:	-0.017	Yaw Set Point:	2.168	X_WP:	0.000	Y_WP:	0.000	Z_WP:	0.500	X:	0.015	Y:	0.010	Z:	0.049	yaw:	-124.210	yaw rate:	2.410	Roll:	-0.327	Pitch:	0.165	Yaw:	-177.666	Thrust:	100.000
Time:	3.844	Roll Set Point:	0.002	Pitch Set Point:	-0.017	Yaw Set Point:	2.168	X_WP:	0.000	Y_WP:	0.000	Z_WP:	0.500	X:	0.015	Y:	0.010	Z:	0.049	yaw:	-124.196	yaw rate:	-1.371	Roll:	-0.360	Pitch:	0.100	Yaw:	-177.309	Thrust:	100.000
Time:	3.863	Roll Set Point:	0.002	Pitch Set Point:	-0.017	Yaw Set Point:	2.168	X_WP:	0.000	Y_WP:	0.000	Z_WP:	0.500	X:	0.015	Y:	0.010	Z:	0.049	yaw:	-124.207	yaw rate:	1.137	Roll:	-0.336	Pitch:	0.128	Yaw:	-177.585	Thrust:	100.000
Time:	3.883	Roll Set Point:	0.002	Pitch Set Point:	-0.017	Yaw Set Point:	2.168	X_WP:	0.000	Y_WP:	0.000	Z_WP:	0.500	X:	0.015	Y:	0.010	Z:	0.049	yaw:	-124.219	yaw rate:	1.201	Roll:	-0.311	Pitch:	0.157	Yaw:	-177.411	Thrust:	100.000
Time:	3.903	Roll Set Point:	0.002	Pitch Set Point:	-0.017	Yaw Set Point:	2.168	X_WP:	0.000	Y_WP:	0.000	Z_WP:	0.500	X:	0.015	Y:	0.011	Z:	0.049	yaw:	-124.195	yaw rate:	-2.435	Roll:	-0.366	Pitch:	0.109	Yaw:	-177.317	Thrust:	100.000
Time:	3.924	Roll Set Point:	0.002	Pitch Set Point:	-0.017	Yaw Set Point:	2.168	X_WP:	0.000	Y_WP:	0.000	Z_WP:	0.500	X:	0.015	Y:	0.010	Z:	0.049	yaw:	-124.205	yaw rate:	0.981	Roll:	-0.360	Pitch:	0.150	Yaw:	-177.757	Thrust:	100.000
Time:	3.940	Roll Set Point:	0.002	Pitch Set Point:	-0.017	Yaw Set Point:	2.168	X_WP:	0.000	Y_WP:	0.000	Z_WP:	0.500	X:	0.015	Y:	0.010	Z:	0.049	yaw:	-124.222	yaw rate:	1.768	Roll:	-0.249	Pitch:	0.150	Yaw:	-176.764	Thrust:	100.000
Time:	3.960	Roll Set Point:	0.002	Pitch Set Point:	-0.017	Yaw Set Point:	2.168	X_WP:	0.000	Y_WP:	0.000	Z_WP:	0.500	X:	0.015	Y:	0.010	Z:	0.049	yaw:	-124.209	yaw rate:	-1.357	Roll:	-0.375	Pitch:	0.105	Yaw:	-177.478	Thrust:	100.000
Time:	3.980	Roll Set Point:	0.002	Pitch Set Point:	-0.017	Yaw Set Point:	2.168	X_WP:	0.000	Y_WP:	0.000	Z_WP:	0.500	X:	0.015	Y:	0.011	Z:	0.049	yaw:	-124.221	yaw rate:	1.183	Roll:	-0.359	Pitch:	0.134	Yaw:	-177.411	Thrust:	100.000
Time:	3.999	Roll Set Point:	0.002	Pitch Set Point:	-0.017	Yaw Set Point:	2.168	X_WP:	0.000	Y_WP:	0.000	Z_WP:	0.500	X:	0.015	Y:	0.010	Z:	0.049	yaw:	-124.211	yaw rate:	-0.983	Roll:	-0.301	Pitch:	0.141	Yaw:	-177.313	Thrust:	100.000
Time:	4.020	Roll Set Point:	0.002	Pitch Set Point:	-0.017	Yaw Set Point:	2.168	X_WP:	0.000	Y_WP:	0.000	Z_WP:	0.500	X:	0.015	Y:	0.010	Z:	0.049	yaw:	-124.211	yaw rate:	-0.005	Roll:	-0.366	Pitch:	0.132	Yaw:	-177.634	Thrust:	100.000
Time:	4.040	Roll Set Point:	0.002	Pitch Set Point:	-0.017	Yaw Set Point:	2.168	X_WP:	0.000	Y_WP:	0.000	Z_WP:	0.500	X:	0.015	Y:	0.010	Z:	0.049	yaw:	-124.215	yaw rate:	0.385	Roll:	-0.350	Pitch:	0.126	Yaw:	-177.435	Thrust:	100.000
Time:	4.060	Roll Set Point:	0.002	Pitch Set Point:	-0.017	Yaw Set Point:	2.168	X_WP:	0.000	Y_WP:	0.000	Z_WP:	0.500	X:	0.015	Y:	0.010	Z:	0.049	yaw:	-124.206	yaw rate:	-0.867	Roll:	-0.344	Pitch:	0.152	Yaw:	-177.327	Thrust:	100.000
Time:	4.079	Roll Set Point:	0.002	Pitch Set Point:	-0.017	Yaw Set Point:	2.167	X_WP:	0.000	Y_WP:	0.000	Z_WP:	0.500	X:	0.015	Y:	0.010	Z:	0.049	yaw:	-124.160	yaw rate:	-4.562	Roll:	-0.341	Pitch:	0.123	Yaw:	-176.543	Thrust:	100.000
Time:	4.101	Roll Set Point:	0.002	Pitch Set Point:	-0.017	Yaw Set Point:	2.168	X_WP:	0.000	Y_WP:	0.000	Z_WP:	0.500	X:	0.015	Y:	0.010	Z:	0.049	yaw:	-124.234	yaw rate:	7.346	Roll:	-0.353	Pitch:	0.141	Yaw:	-178.743	Thrust:	100.000
Time:	4.120	Roll Set Point:	0.002	Pitch Set Point:	-0.017	Yaw Set Point:	2.168	X_WP:	0.000	Y_WP:	0.000	Z_WP:	0.500	X:	0.015	Y:	0.010	Z:	0.049	yaw:	-124.216	yaw rate:	-1.827	Roll:	-0.352	Pitch:	0.139	Yaw:	-177.035	Thrust:	100.000
Time:	4.140	Roll Set Point:	0.002	Pitch Set Point:	-0.017	Yaw Set Point:	2.167	X_WP:	0.000	Y_WP:	0.000	Z_WP:	0.500	X:	0.015	Y:	0.010	Z:	0.049	yaw:	-124.183	yaw rate:	-3.269	Roll:	-0.336	Pitch:	0.136	Yaw:	-176.987	Thrust:	100.000
Time:	4.160	Roll Set Point:	0.002	Pitch Set Point:	-0.017	Yaw Set Point:	2.168	X_WP:	0.000	Y_WP:	0.000	Z_WP:	0.500	X:	0.015	Y:	0.010	Z:	0.049	yaw:	-124.233	yaw rate:	4.964	Roll:	-0.360	Pitch:	0.129	Yaw:	-178.120	Thrust:	100.000
Time:	4.180	Roll Set Point:	0.002	Pitch Set Point:	-0.017	Yaw Set Point:	2.168	X_WP:	0.000	Y_WP:	0.000	Z_WP:	0.500	X:	0.015	Y:	0.010	Z:	0.049	yaw:	-124.194	yaw rate:	-3.824	Roll:	-0.358	Pitch:	0.132	Yaw:	-176.693	Thrust:	100.000
Time:	4.202	Roll Set Point:	0.002	Pitch Set Point:	-0.017	Yaw Set Point:	2.168	X_WP:	0.000	Y_WP:	0.000	Z_WP:	0.500	X:	0.015	Y:	0.010	Z:	0.049	yaw:	-124.201	yaw rate:	0.708	Roll:	-0.357	Pitch:	0.151	Yaw:	-177.717	Thrust:	100.000
Time:	4.220	Roll Set Point:	0.002	Pitch Set Point:	-0.017	Yaw Set Point:	2.168	X_WP:	0.000	Y_WP:	0.000	Z_WP:	0.500	X:	0.015	Y:	0.010	Z:	0.049	yaw:	-124.210	yaw rate:	0.854	Roll:	-0.335	Pitch:	0.136	Yaw:	-177.515	Thrust:	100.000
Time:	4.242	Roll Set Point:	0.002	Pitch Set Point:	-0.017	Yaw Set Point:	2.168	X_WP:	0.000	Y_WP:	0.000	Z_WP:	0.500	X:	0.015	Y:	0.010	Z:	0.049	yaw:	-124.196	yaw rate:	-1.356	Roll:	-0.365	Pitch:	0.139	Yaw:	-177.668	Thrust:	100.000
Time:	4.263	Roll Set Point:	0.002	Pitch Set Point:	-0.017	Yaw Set Point:	2.168	X_WP:	0.000	Y_WP:	0.000	Z_WP:	0.500	X:	0.015	Y:	0.010	Z:	0.049	yaw:	-124.231	yaw rate:	3.507	Roll:	-0.370	Pitch:	0.117	Yaw:	-177.934	Thrust:	100.000
Time:	4.283	Roll Set Point:	0.002	Pitch Set Point:	-0.017	Yaw Set Point:	2.168	X_WP:	0.000	Y_WP:	0.000	Z_WP:	0.500	X:	0.015	Y:	0.010	Z:	0.049	yaw:	-124.231	yaw rate:	-0.007	Roll:	-0.358	Pitch:	0.155	Yaw:	-177.469	Thrust:	100.000
Time:	4.302	Roll Set Point:	0.002	Pitch Set Point:	-0.017	Yaw Set Point:	2.167	X_WP:	0.000	Y_WP:	0.000	Z_WP:	0.500	X:	0.015	Y:	0.010	Z:	0.049	yaw:	-124.167	yaw rate:	-6.474	Roll:	-0.331	Pitch:	0.162	Yaw:	-176.290	Thrust:	100.000
Time:	4.322	Roll Set Point:	0.002	Pitch Set Point:	-0.017	Yaw Set Point:	2.168	X_WP:	0.000	Y_WP:	0.000	Z_WP:	0.500	X:	0.015	Y:	0.010	Z:	0.049	yaw:	-124.196	yaw rate:	2.885	Roll:	-0.380	Pitch:	0.125	Yaw:	-177.793	Thrust:	100.000
Time:	4.342	Roll Set Point:	0.002	Pitch Set Point:	-0.017	Yaw Set Point:	2.167	X_WP:	0.000	Y_WP:	0.000	Z_WP:	0.500	X:	0.015	Y:	0.010	Z:	0.049	yaw:	-124.184	yaw rate:	-1.185	Roll:	-0.348	Pitch:	0.142	Yaw:	-177.151	Thrust:	100.000
Time:	4.362	Roll Set Point:	0.002	Pitch Set Point:	-0.017	Yaw Set Point:	2.168	X_WP:	0.000	Y_WP:	0.000	Z_WP:	0.500	X:	0.015	Y:	0.010	Z:	0.049	yaw:	-124.205	yaw rate:	2.104	Roll:	-0.360	Pitch:	0.118	Yaw:	-177.888	Thrust:	100.000
Time:	4.382	Roll Set Point:	0.002	Pitch Set Point:	-0.017	Yaw Set Point:	2.168	X_WP:	0.000	Y_WP:	0.000	Z_WP:	0.500	X:	0.015	Y:	0.010	Z:	0.049	yaw:	-124.221	yaw rate:	1.599	Roll:	-0.359	Pitch:	0.137	Yaw:	-177.672	Thrust:	100.000
Time:	4.402	Roll Set Point:	0.002	Pitch Set Point:	-0.017	Yaw Set Point:	2.168	X_WP:	0.000	Y_WP:	0.000	Z_WP:	0.500	X:	0.015	Y:	0.010	Z:	0.049	yaw:	-124.238	yaw rate:	1.699	Roll:	-0.349	Pitch:	0.157	Yaw:	-177.512	Thrust:	100.000
Time:	4.422	Roll Set Point:	0.002	Pitch Set Point:	-0.017	Yaw Set Point:	2.168	X_WP:	0.000	Y_WP:	0.000	Z_WP:	0.500	X:	0.015	Y:	0.010	Z:	0.049	yaw:	-124.230	yaw rate:	-0.733	Roll:	-0.385	Pitch:	0.130	Yaw:	-177.509	Thrust:	100.000
Time:	4.442	Roll Set Point:	0.002	Pitch Set Point:	-0.017	Yaw Set Point:	2.168	X_WP:	0.000	Y_WP:	0.000	Z_WP:	0.500	X:	0.015	Y:	0.010	Z:	0.049	yaw:	-124.189	yaw rate:	-4.099	Roll:	-0.341	Pitch:	0.161	Yaw:	-176.870	Thrust:	100.000
Time:	4.463	Roll Set Point:	0.002	Pitch Set Point:	-0.017	Yaw Set Point:	2.168	X_WP:	0.000	Y_WP:	0.000	Z_WP:	0.500	X:	0.015	Y:	0.010	Z:	0.049	yaw:	-124.228	yaw rate:	3.906	Roll:	-0.370	Pitch:	0.129	Yaw:	-178.152	Thrust:	100.000
Time:	4.482	Roll Set Point:	0.002	Pitch Set Point:	-0.017	Yaw Set Point:	2.168	X_WP:	0.000	Y_WP:	0.000	Z_WP:	0.500	X:	0.015	Y:	0.010	Z:	0.049	yaw:	-124.198	yaw rate:	-3.078	Roll:	-0.360	Pitch:	0.148	Yaw:	-176.809	Thrust:	100.000
Time:	4.501	Roll Set Point:	0.002	Pitch Set Point:	-0.017	Yaw Set Point:	2.168	X_WP:	0.000	Y_WP:	0.000	Z_WP:	0.500	X:	0.015	Y:	0.010	Z:	0.049	yaw:	-124.201	yaw rate:	0.330	Roll:	-0.358	Pitch:	0.154	Yaw:	-177.272	Thrust:	100.000
Time:	4.522	Roll Set Point:	0.002	Pitch Set Point:	-0.017	Yaw Set Point:	2.168	X_WP:	0.000	Y_WP:	0.000	Z_WP:	0.500	X:	0.015	Y:	0.010	Z:	0.049	yaw:	-124.245	yaw rate:	4.408	Roll:	-0.379	Pitch:	0.121	Yaw:	-178.115	Thrust:	100.000
Time:	4.548	Roll Set Point:	0.002	Pitch Set Point:	-0.017	Yaw Set Point:	2.168	X_WP:	0.000	Y_WP:	0.000	Z_WP:	0.500	X:	0.015	Y:	0.010	Z:	0.049	yaw:	-124.200	yaw rate:	-4.508	Roll:	-0.414	Pitch:	0.169	Yaw:	-178.240	Thrust:	100.000
Time:	4.562	Roll Set Point:	0.002	Pitch Set Point:	-0.017	Yaw Set Point:	2.168	X_WP:	0.000	Y_WP:	0.000	Z_WP:	0.500	X:	0.015	Y:	0.010	Z:	0.049	yaw:	-124.215	yaw rate:	1.532	Roll:	-0.321	Pitch:	0.114	Yaw:	-176.530	Thrust:	100.000
Time:	4.580	Roll Set Point:	0.002	Pitch Set Point:	-0.017	Yaw Set Point:	2.168	X_WP:	0.000	Y_WP:	0.000	Z_WP:	0.500	X:	0.015	Y:	0.010	Z:	0.049	yaw:	-124.236	yaw rate:	2.031	Roll:	-0.333	Pitch:	0.163	Yaw:	-177.370	Thrust:	100.000
Time:	4.601	Roll Set Point:	0.002	Pitch Set Point:	-0.017	Yaw Set Point:	2.168	X_WP:	0.000	Y_WP:	0.000	Z_WP:	0.500	X:	0.015	Y:	0.010	Z:	0.049	yaw:	-124.195	yaw rate:	-4.077	Roll:	-0.391	Pitch:	0.113	Yaw:	-177.113	Thrust:	100.000
Time:	4.621	Roll Set Point:	0.002	Pitch Set Point:	-0.017	Yaw Set Point:	2.168	X_WP:	0.000	Y_WP:	0.000	Z_WP:	0.500	X:	0.015	Y:	0.010	Z:	0.049	yaw:	-124.230	yaw rate:	3.473	Roll:	-0.370	Pitch:	0.162	Yaw:	-177.833	Thrust:	100.000
Time:	4.641	Roll Set Point:	0.002	Pitch Set Point:	-0.017	Yaw Set Point:	2.168	X_WP:	0.000	Y_WP:	0.000	Z_WP:	0.500	X:	0.015	Y:	0.010	Z:	0.049	yaw:	-124.205	yaw rate:	-2.502	Roll:	-0.369	Pitch:	0.137	Yaw:	-177.149	Thrust:	100.000
Time:	4.662	Roll Set Point:	0.002	Pitch Set Point:	-0.017	Yaw Set Point:	2.168	X_WP:	0.000	Y_WP:	0.000	Z_WP:	0.500	X:	0.015	Y:	0.010	Z:	0.049	yaw:	-124.208	yaw rate:	0.349	Roll:	-0.378	Pitch:	0.137	Yaw:	-177.683	Thrust:	100.000
Time:	4.681	Roll Set Point:	0.002	Pitch Set Point:	-0.017	Yaw Set Point:	2.168	X_WP:	0.000	Y_WP:	0.000	Z_WP:	0.500	X:	0.015	Y:	0.010	Z:	0.049	yaw:	-124.200	yaw rate:	-0.829	Roll:	-0.353	Pitch:	0.172	Yaw:	-177.112	Thrust:	100.000
Time:	4.701	Roll Set Point:	0.002	Pitch Set Point:	-0.017	Yaw Set Point:	2.168	X_WP:	0.000	Y_WP:	0.000	Z_WP:	0.500	X:	0.015	Y:	0.010	Z:	0.049	yaw:	-124.216	yaw rate:	1.641	Roll:	-0.396	Pitch:	0.125	Yaw:	-177.473	Thrust:	100.000
Time:	4.722	Roll Set Point:	0.002	Pitch Set Point:	-0.017	Yaw Set Point:	2.168	X_WP:	0.000	Y_WP:	0.000	Z_WP:	0.500	X:	0.015	Y:	0.010	Z:	0.049	yaw:	-124.222	yaw rate:	0.612	Roll:	-0.378	Pitch:	0.140	Yaw:	-177.873	Thrust:	100.000
Time:	4.742	Roll Set Point:	0.002	Pitch Set Point:	-0.017	Yaw Set Point:	2.168	X_WP:	0.000	Y_WP:	0.000	Z_WP:	0.500	X:	0.015	Y:	0.010	Z:	0.049	yaw:	-124.212	yaw rate:	-1.062	Roll:	-0.371	Pitch:	0.161	Yaw:	-177.369	Thrust:	100.000
Time:	4.763	Roll Set Point:	0.002	Pitch Set Point:	-0.017	Yaw Set Point:	2.168	X_WP:	0.000	Y_WP:	0.000	Z_WP:	0.500	X:	0.015	Y:	0.010	Z:	0.049	yaw:	-124.206	yaw rate:	-0.556	Roll:	-0.382	Pitch:	0.159	Yaw:	-177.576	Thrust:	100.000
Time:	4.783	Roll Set Point:	0.002	Pitch Set Point:	-0.017	Yaw Set Point:	2.168	X_WP:	0.000	Y_WP:	0.000	Z_WP:	0.500	X:	0.015	Y:	0.010	Z:	0.049	yaw:	-124.217	yaw rate:	1.098	Roll:	-0.389	Pitch:	0.125	Yaw:	-177.593	Thrust:	100.000
Time:	4.805	Roll Set Point:	0.002	Pitch Set Point:	-0.017	Yaw Set Point:	2.168	X_WP:	0.000	Y_WP:	0.000	Z_WP:	0.500	X:	0.015	Y:	0.010	Z:	0.049	yaw:	-124.197	yaw rate:	-1.968	Roll:	-0.375	Pitch:	0.169	Yaw:	-177.167	Thrust:	100.000
Time:	4.823	Roll Set Point:	0.002	Pitch Set Point:	-0.017	Yaw Set Point:	2.168	X_WP:	0.000	Y_WP:	0.000	Z_WP:	0.500	X:	0.015	Y:	0.010	Z:	0.049	yaw:	-124.215	yaw rate:	1.718	Roll:	-0.354	Pitch:	0.136	Yaw:	-177.581	Thrust:	100.000
Time:	4.843	Roll Set Point:	0.002	Pitch Set Point:	-0.017	Yaw Set Point:	2.168	X_WP:	0.000	Y_WP:	0.000	Z_WP:	0.500	X:	0.015	Y:	0.010	Z:	0.049	yaw:	-124.190	yaw rate:	-2.481	Roll:	-0.400	Pitch:	0.141	Yaw:	-176.892	Thrust:	100.000
Time:	4.865	Roll Set Point:	0.002	Pitch Set Point:	-0.017	Yaw Set Point:	2.168	X_WP:	0.000	Y_WP:	0.000	Z_WP:	0.500	X:	0.015	Y:	0.010	Z:	0.049	yaw:	-124.200	yaw rate:	0.993	Roll:	-0.378	Pitch:	0.168	Yaw:	-177.943	Thrust:	100.000
Time:	4.882	Roll Set Point:	0.002	Pitch Set Point:	-0.017	Yaw Set Point:	2.168	X_WP:	0.000	Y_WP:	0.000	Z_WP:	0.500	X:	0.015	Y:	0.010	Z:	0.049	yaw:	-124.215	yaw rate:	1.527	Roll:	-0.371	Pitch:	0.143	Yaw:	-177.276	Thrust:	100.000
Time:	4.900	Roll Set Point:	0.002	Pitch Set Point:	-0.017	Yaw Set Point:	2.168	X_WP:	0.000	Y_WP:	0.000	Z_WP:	0.500	X:	0.015	Y:	0.010	Z:	0.049	yaw:	-124.218	yaw rate:	0.260	Roll:	-0.361	Pitch:	0.127	Yaw:	-177.085	Thrust:	100.000
Time:	4.922	Roll Set Point:	0.002	Pitch Set Point:	-0.017	Yaw Set Point:	2.168	X_WP:	0.000	Y_WP:	0.000	Z_WP:	0.500	X:	0.015	Y:	0.010	Z:	0.049	yaw:	-124.238	yaw rate:	2.047	Roll:	-0.398	Pitch:	0.139	Yaw:	-177.936	Thrust:	100.000
Time:	4.941	Roll Set Point:	0.002	Pitch Set Point:	-0.017	Yaw Set Point:	2.168	X_WP:	0.000	Y_WP:	0.000	Z_WP:	0.500	X:	0.015	Y:	0.010	Z:	0.049	yaw:	-124.197	yaw rate:	-4.101	Roll:	-0.383	Pitch:	0.174	Yaw:	-176.789	Thrust:	100.000
Time:	4.961	Roll Set Point:	0.002	Pitch Set Point:	-0.017	Yaw Set Point:	2.168	X_WP:	0.000	Y_WP:	0.000	Z_WP:	0.500	X:	0.015	Y:	0.010	Z:	0.049	yaw:	-124.211	yaw rate:	1.356	Roll:	-0.380	Pitch:	0.146	Yaw:	-177.617	Thrust:	100.000
Time:	4.981	Roll Set Point:	0.002	Pitch Set Point:	-0.017	Yaw Set Point:	2.168	X_WP:	0.000	Y_WP:	0.000	Z_WP:	0.500	X:	0.015	Y:	0.010	Z:	0.049	yaw:	-124.204	yaw rate:	-0.633	Roll:	-0.393	Pitch:	0.128	Yaw:	-177.351	Thrust:	100.000
Time:	5.001	Roll Set Point:	0.002	Pitch Set Point:	-0.017	Yaw Set Point:	2.168	X_WP:	0.000	Y_WP:	0.000	Z_WP:	0.500	X:	0.015	Y:	0.010	Z:	0.049	yaw:	-124.208	yaw rate:	0.380	Roll:	-0.387	Pitch:	0.164	Yaw:	-177.487	Thrust:	100.000
Time:	5.019	Roll Set Point:	0.002	Pitch Set Point:	-0.017	Yaw Set Point:	2.168	X_WP:	0.000	Y_WP:	0.000	Z_WP:	0.500	X:	0.015	Y:	0.010	Z:	0.049	yaw:	-124.201	yaw rate:	-0.658	Roll:	-0.370	Pitch:	0.158	Yaw:	-176.932	Thrust:	100.000
Time:	5.041	Roll Set Point:	0.002	Pitch Set Point:	-0.017	Yaw Set Point:	2.168	X_WP:	0.000	Y_WP:	0.000	Z_WP:	0.500	X:	0.015	Y:	0.010	Z:	0.049	yaw:	-124.206	yaw rate:	0.501	Roll:	-0.371	Pitch:	0.168	Yaw:	-177.574	Thrust:	100.000
Time:	5.060	Roll Set Point:	0.002	Pitch Set Point:	-0.017	Yaw Set Point:	2.168	X_WP:	0.000	Y_WP:	0.000	Z_WP:	0.500	X:	0.015	Y:	0.011	Z:	0.049	yaw:	-124.233	yaw rate:	2.689	Roll:	-0.410	Pitch:	0.098	Yaw:	-177.824	Thrust:	100.000
Time:	5.080	Roll Set Point:	0.002	Pitch Set Point:	-0.017	Yaw Set Point:	2.168	X_WP:	0.000	Y_WP:	0.000	Z_WP:	0.500	X:	0.015	Y:	0.010	Z:	0.049	yaw:	-124.202	yaw rate:	-3.155	Roll:	-0.384	Pitch:	0.185	Yaw:	-177.017	Thrust:	100.000
Time:	5.101	Roll Set Point:	0.002	Pitch Set Point:	-0.017	Yaw Set Point:	2.168	X_WP:	0.000	Y_WP:	0.000	Z_WP:	0.500	X:	0.015	Y:	0.010	Z:	0.049	yaw:	-124.231	yaw rate:	2.931	Roll:	-0.393	Pitch:	0.173	Yaw:	-177.853	Thrust:	100.000
Time:	5.120	Roll Set Point:	0.002	Pitch Set Point:	-0.017	Yaw Set Point:	2.168	X_WP:	0.000	Y_WP:	0.000	Z_WP:	0.500	X:	0.015	Y:	0.010	Z:	0.049	yaw:	-124.200	yaw rate:	-3.121	Roll:	-0.396	Pitch:	0.115	Yaw:	-177.020	Thrust:	100.000
Time:	5.140	Roll Set Point:	0.002	Pitch Set Point:	-0.017	Yaw Set Point:	2.168	X_WP:	0.000	Y_WP:	0.000	Z_WP:	0.500	X:	0.015	Y:	0.010	Z:	0.049	yaw:	-124.223	yaw rate:	2.356	Roll:	-0.372	Pitch:	0.175	Yaw:	-177.724	Thrust:	100.000
Time:	5.161	Roll Set Point:	0.002	Pitch Set Point:	-0.017	Yaw Set Point:	2.168	X_WP:	0.000	Y_WP:	0.000	Z_WP:	0.500	X:	0.015	Y:	0.010	Z:	0.049	yaw:	-124.225	yaw rate:	0.140	Roll:	-0.405	Pitch:	0.150	Yaw:	-177.480	Thrust:	100.000
Time:	5.180	Roll Set Point:	0.002	Pitch Set Point:	-0.017	Yaw Set Point:	2.168	X_WP:	0.000	Y_WP:	0.000	Z_WP:	0.500	X:	0.015	Y:	0.010	Z:	0.049	yaw:	-124.215	yaw rate:	-0.949	Roll:	-0.393	Pitch:	0.147	Yaw:	-177.117	Thrust:	100.000
Time:	5.200	Roll Set Point:	0.002	Pitch Set Point:	-0.017	Yaw Set Point:	2.168	X_WP:	0.000	Y_WP:	0.000	Z_WP:	0.500	X:	0.015	Y:	0.010	Z:	0.049	yaw:	-124.227	yaw rate:	1.209	Roll:	-0.408	Pitch:	0.134	Yaw:	-177.623	Thrust:	100.000
Time:	5.220	Roll Set Point:	0.002	Pitch Set Point:	-0.017	Yaw Set Point:	2.167	X_WP:	0.000	Y_WP:	0.000	Z_WP:	0.500	X:	0.015	Y:	0.010	Z:	0.049	yaw:	-124.188	yaw rate:	-3.984	Roll:	-0.385	Pitch:	0.183	Yaw:	-177.116	Thrust:	100.000
Time:	5.241	Roll Set Point:	0.002	Pitch Set Point:	-0.017	Yaw Set Point:	2.168	X_WP:	0.000	Y_WP:	0.000	Z_WP:	0.500	X:	0.015	Y:	0.010	Z:	0.049	yaw:	-124.206	yaw rate:	1.792	Roll:	-0.385	Pitch:	0.160	Yaw:	-177.607	Thrust:	100.000
Time:	5.260	Roll Set Point:	0.002	Pitch Set Point:	-0.017	Yaw Set Point:	2.168	X_WP:	0.000	Y_WP:	0.000	Z_WP:	0.500	X:	0.015	Y:	0.010	Z:	0.049	yaw:	-124.221	yaw rate:	1.561	Roll:	-0.414	Pitch:	0.132	Yaw:	-177.660	Thrust:	100.000
