Time:	0.045	Roll Set Point:	0.868	Pitch Set Point:	0.958	Yaw Set Point:	-1.522	X_WP:	0.000	Y_WP:	0.000	Y_WP:	0.750	X:	0.022	Y:	-0.892	Z:	0.399	yaw:	87.220	yaw rate:	-0.885	Roll:	-25.820	Pitch:	-1.904	Yaw:	121.782	Thrust:	19.288
Time:	0.066	Roll Set Point:	0.868	Pitch Set Point:	0.959	Yaw Set Point:	-1.521	X_WP:	0.000	Y_WP:	0.000	Y_WP:	0.750	X:	0.022	Y:	-0.892	Z:	0.399	yaw:	87.165	yaw rate:	5.493	Roll:	-25.774	Pitch:	-2.630	Yaw:	121.614	Thrust:	20.329
Time:	0.086	Roll Set Point:	0.868	Pitch Set Point:	0.958	Yaw Set Point:	-1.522	X_WP:	0.000	Y_WP:	0.000	Y_WP:	0.750	X:	0.022	Y:	-0.892	Z:	0.399	yaw:	87.230	yaw rate:	-6.470	Roll:	-25.988	Pitch:	-1.078	Yaw:	123.869	Thrust:	21.021
Time:	0.106	Roll Set Point:	0.868	Pitch Set Point:	0.959	Yaw Set Point:	-1.521	X_WP:	0.000	Y_WP:	0.000	Y_WP:	0.750	X:	0.022	Y:	-0.892	Z:	0.399	yaw:	87.144	yaw rate:	8.569	Roll:	-25.835	Pitch:	-3.127	Yaw:	122.326	Thrust:	21.839
Time:	0.125	Roll Set Point:	0.868	Pitch Set Point:	0.956	Yaw Set Point:	-1.524	X_WP:	0.000	Y_WP:	0.000	Y_WP:	0.750	X:	0.022	Y:	-0.892	Z:	0.399	yaw:	87.337	yaw rate:	-19.242	Roll:	-26.232	Pitch:	0.672	Yaw:	126.471	Thrust:	22.661
Time:	0.146	Roll Set Point:	0.868	Pitch Set Point:	0.959	Yaw Set Point:	-1.521	X_WP:	0.000	Y_WP:	0.000	Y_WP:	0.750	X:	0.022	Y:	-0.892	Z:	0.399	yaw:	87.148	yaw rate:	18.888	Roll:	-25.794	Pitch:	-4.563	Yaw:	121.262	Thrust:	23.277
Time:	0.166	Roll Set Point:	0.868	Pitch Set Point:	0.959	Yaw Set Point:	-1.522	X_WP:	0.000	Y_WP:	0.000	Y_WP:	0.750	X:	0.022	Y:	-0.892	Z:	0.399	yaw:	87.183	yaw rate:	-3.540	Roll:	-26.150	Pitch:	-1.496	Yaw:	124.200	Thrust:	24.560
Time:	0.189	Roll Set Point:	0.868	Pitch Set Point:	0.957	Yaw Set Point:	-1.523	X_WP:	0.000	Y_WP:	0.000	Y_WP:	0.750	X:	0.022	Y:	-0.892	Z:	0.399	yaw:	87.259	yaw rate:	-7.552	Roll:	-26.230	Pitch:	-1.025	Yaw:	124.994	Thrust:	25.939
Time:	0.206	Roll Set Point:	0.868	Pitch Set Point:	0.958	Yaw Set Point:	-1.522	X_WP:	0.000	Y_WP:	0.000	Y_WP:	0.750	X:	0.022	Y:	-0.892	Z:	0.399	yaw:	87.197	yaw rate:	6.125	Roll:	-26.084	Pitch:	-2.850	Yaw:	122.599	Thrust:	25.304
Time:	0.227	Roll Set Point:	0.868	Pitch Set Point:	0.958	Yaw Set Point:	-1.523	X_WP:	0.000	Y_WP:	0.000	Y_WP:	0.750	X:	0.022	Y:	-0.892	Z:	0.399	yaw:	87.243	yaw rate:	-4.523	Roll:	-26.289	Pitch:	-1.324	Yaw:	124.424	Thrust:	27.039
Time:	0.246	Roll Set Point:	0.868	Pitch Set Point:	0.959	Yaw Set Point:	-1.521	X_WP:	0.000	Y_WP:	0.000	Y_WP:	0.750	X:	0.022	Y:	-0.892	Z:	0.399	yaw:	87.167	yaw rate:	7.525	Roll:	-26.156	Pitch:	-2.933	Yaw:	122.706	Thrust:	27.653
Time:	0.267	Roll Set Point:	0.868	Pitch Set Point:	0.959	Yaw Set Point:	-1.521	X_WP:	0.000	Y_WP:	0.000	Y_WP:	0.750	X:	0.022	Y:	-0.892	Z:	0.399	yaw:	87.159	yaw rate:	0.795	Roll:	-26.294	Pitch:	-2.058	Yaw:	123.599	Thrust:	28.563
Time:	0.288	Roll Set Point:	0.868	Pitch Set Point:	0.958	Yaw Set Point:	-1.522	X_WP:	0.000	Y_WP:	0.000	Y_WP:	0.750	X:	0.022	Y:	-0.892	Z:	0.399	yaw:	87.221	yaw rate:	-6.112	Roll:	-26.444	Pitch:	-1.148	Yaw:	124.662	Thrust:	29.861
Time:	0.307	Roll Set Point:	0.868	Pitch Set Point:	0.958	Yaw Set Point:	-1.522	X_WP:	0.000	Y_WP:	0.000	Y_WP:	0.750	X:	0.022	Y:	-0.892	Z:	0.399	yaw:	87.222	yaw rate:	-0.103	Roll:	-26.415	Pitch:	-2.025	Yaw:	123.714	Thrust:	29.574
Time:	0.326	Roll Set Point:	0.868	Pitch Set Point:	0.957	Yaw Set Point:	-1.523	X_WP:	0.000	Y_WP:	0.000	Y_WP:	0.750	X:	0.022	Y:	-0.892	Z:	0.399	yaw:	87.263	yaw rate:	-4.116	Roll:	-26.459	Pitch:	-1.325	Yaw:	124.349	Thrust:	30.914
Time:	0.347	Roll Set Point:	0.868	Pitch Set Point:	0.958	Yaw Set Point:	-1.523	X_WP:	0.000	Y_WP:	0.000	Y_WP:	0.750	X:	0.022	Y:	-0.892	Z:	0.399	yaw:	87.252	yaw rate:	1.035	Roll:	-26.471	Pitch:	-2.053	Yaw:	123.700	Thrust:	32.321
Time:	0.368	Roll Set Point:	0.867	Pitch Set Point:	0.970	Yaw Set Point:	-1.510	X_WP:	0.000	Y_WP:	0.000	Y_WP:	0.750	X:	0.023	Y:	-0.892	Z:	0.400	yaw:	86.493	yaw rate:	75.939	Roll:	-25.717	Pitch:	-12.327	Yaw:	113.463	Thrust:	32.144
Time:	0.389	Roll Set Point:	0.868	Pitch Set Point:	0.958	Yaw Set Point:	-1.522	X_WP:	0.000	Y_WP:	0.000	Y_WP:	0.750	X:	0.022	Y:	-0.892	Z:	0.399	yaw:	87.218	yaw rate:	-72.474	Roll:	-27.409	Pitch:	7.602	Yaw:	133.047	Thrust:	35.318
Time:	0.406	Roll Set Point:	0.868	Pitch Set Point:	0.958	Yaw Set Point:	-1.522	X_WP:	0.000	Y_WP:	0.000	Y_WP:	0.750	X:	0.022	Y:	-0.892	Z:	0.399	yaw:	87.220	yaw rate:	-0.215	Roll:	-26.492	Pitch:	-1.926	Yaw:	123.633	Thrust:	32.716
Time:	0.427	Roll Set Point:	0.868	Pitch Set Point:	0.957	Yaw Set Point:	-1.523	X_WP:	0.000	Y_WP:	0.000	Y_WP:	0.750	X:	0.022	Y:	-0.892	Z:	0.399	yaw:	87.264	yaw rate:	-4.384	Roll:	-26.609	Pitch:	-1.323	Yaw:	124.425	Thrust:	35.884
Time:	0.448	Roll Set Point:	0.868	Pitch Set Point:	0.958	Yaw Set Point:	-1.523	X_WP:	0.000	Y_WP:	0.000	Y_WP:	0.750	X:	0.022	Y:	-0.892	Z:	0.399	yaw:	87.245	yaw rate:	1.830	Roll:	-26.585	Pitch:	-2.224	Yaw:	123.642	Thrust:	36.563
Time:	0.466	Roll Set Point:	0.868	Pitch Set Point:	0.958	Yaw Set Point:	-1.522	X_WP:	0.000	Y_WP:	0.000	Y_WP:	0.750	X:	0.022	Y:	-0.892	Z:	0.399	yaw:	87.223	yaw rate:	2.221	Roll:	-26.490	Pitch:	-2.255	Yaw:	123.383	Thrust:	35.700
Time:	0.487	Roll Set Point:	0.868	Pitch Set Point:	0.958	Yaw Set Point:	-1.522	X_WP:	0.000	Y_WP:	0.000	Y_WP:	0.750	X:	0.022	Y:	-0.892	Z:	0.399	yaw:	87.197	yaw rate:	2.616	Roll:	-26.592	Pitch:	-2.315	Yaw:	123.531	Thrust:	39.228
Time:	0.506	Roll Set Point:	0.868	Pitch Set Point:	0.959	Yaw Set Point:	-1.522	X_WP:	0.000	Y_WP:	0.000	Y_WP:	0.750	X:	0.022	Y:	-0.892	Z:	0.399	yaw:	87.192	yaw rate:	0.531	Roll:	-26.518	Pitch:	-2.077	Yaw:	123.527	Thrust:	37.184
Time:	0.525	Roll Set Point:	0.868	Pitch Set Point:	0.959	Yaw Set Point:	-1.521	X_WP:	0.000	Y_WP:	0.000	Y_WP:	0.750	X:	0.022	Y:	-0.892	Z:	0.399	yaw:	87.171	yaw rate:	2.075	Roll:	-26.534	Pitch:	-2.297	Yaw:	123.396	Thrust:	39.182
Time:	0.546	Roll Set Point:	0.868	Pitch Set Point:	0.958	Yaw Set Point:	-1.523	X_WP:	0.000	Y_WP:	0.000	Y_WP:	0.750	X:	0.022	Y:	-0.892	Z:	0.399	yaw:	87.255	yaw rate:	-8.430	Roll:	-26.662	Pitch:	-0.851	Yaw:	124.912	Thrust:	39.767
Time:	0.566	Roll Set Point:	0.868	Pitch Set Point:	0.959	Yaw Set Point:	-1.521	X_WP:	0.000	Y_WP:	0.000	Y_WP:	0.750	X:	0.022	Y:	-0.892	Z:	0.399	yaw:	87.132	yaw rate:	12.335	Roll:	-26.431	Pitch:	-3.666	Yaw:	122.079	Thrust:	41.227
Time:	0.588	Roll Set Point:	0.868	Pitch Set Point:	0.957	Yaw Set Point:	-1.523	X_WP:	0.000	Y_WP:	0.000	Y_WP:	0.750	X:	0.022	Y:	-0.892	Z:	0.399	yaw:	87.260	yaw rate:	-12.828	Roll:	-26.802	Pitch:	-0.449	Yaw:	125.590	Thrust:	45.319
Time:	0.606	Roll Set Point:	0.868	Pitch Set Point:	0.960	Yaw Set Point:	-1.521	X_WP:	0.000	Y_WP:	0.000	Y_WP:	0.750	X:	0.022	Y:	-0.892	Z:	0.399	yaw:	87.129	yaw rate:	13.144	Roll:	-26.337	Pitch:	-3.979	Yaw:	121.470	Thrust:	39.975
Time:	0.625	Roll Set Point:	0.868	Pitch Set Point:	0.960	Yaw Set Point:	-1.520	X_WP:	0.000	Y_WP:	0.000	Y_WP:	0.750	X:	0.022	Y:	-0.892	Z:	0.399	yaw:	87.084	yaw rate:	4.503	Roll:	-26.448	Pitch:	-2.592	Yaw:	122.982	Thrust:	43.558
Time:	0.645	Roll Set Point:	0.868	Pitch Set Point:	0.958	Yaw Set Point:	-1.522	X_WP:	0.000	Y_WP:	0.000	Y_WP:	0.750	X:	0.022	Y:	-0.892	Z:	0.399	yaw:	87.232	yaw rate:	-14.818	Roll:	-26.774	Pitch:	-0.034	Yaw:	125.738	Thrust:	44.402
Time:	0.665	Roll Set Point:	0.868	Pitch Set Point:	0.958	Yaw Set Point:	-1.522	X_WP:	0.000	Y_WP:	0.000	Y_WP:	0.750	X:	0.022	Y:	-0.892	Z:	0.399	yaw:	87.225	yaw rate:	0.729	Roll:	-26.557	Pitch:	-2.123	Yaw:	123.721	Thrust:	45.164
Time:	0.688	Roll Set Point:	0.868	Pitch Set Point:	0.960	Yaw Set Point:	-1.521	X_WP:	0.000	Y_WP:	0.000	Y_WP:	0.750	X:	0.022	Y:	-0.892	Z:	0.399	yaw:	87.130	yaw rate:	9.491	Roll:	-26.505	Pitch:	-3.189	Yaw:	122.834	Thrust:	49.750
Time:	0.706	Roll Set Point:	0.868	Pitch Set Point:	0.958	Yaw Set Point:	-1.523	X_WP:	0.000	Y_WP:	0.000	Y_WP:	0.750	X:	0.022	Y:	-0.892	Z:	0.399	yaw:	87.237	yaw rate:	-10.760	Roll:	-26.648	Pitch:	-0.352	Yaw:	125.165	Thrust:	44.231
Time:	0.726	Roll Set Point:	0.868	Pitch Set Point:	0.959	Yaw Set Point:	-1.521	X_WP:	0.000	Y_WP:	0.000	Y_WP:	0.750	X:	0.022	Y:	-0.892	Z:	0.399	yaw:	87.163	yaw rate:	7.405	Roll:	-26.499	Pitch:	-3.022	Yaw:	122.750	Thrust:	48.117
Time:	0.745	Roll Set Point:	0.868	Pitch Set Point:	0.959	Yaw Set Point:	-1.521	X_WP:	0.000	Y_WP:	0.000	Y_WP:	0.750	X:	0.022	Y:	-0.892	Z:	0.399	yaw:	87.156	yaw rate:	0.719	Roll:	-26.520	Pitch:	-2.191	Yaw:	123.527	Thrust:	47.626
Time:	0.765	Roll Set Point:	0.868	Pitch Set Point:	0.958	Yaw Set Point:	-1.522	X_WP:	0.000	Y_WP:	0.000	Y_WP:	0.750	X:	0.022	Y:	-0.892	Z:	0.399	yaw:	87.201	yaw rate:	-4.440	Roll:	-26.631	Pitch:	-1.382	Yaw:	124.315	Thrust:	49.192
Time:	0.788	Roll Set Point:	0.868	Pitch Set Point:	0.958	Yaw Set Point:	-1.522	X_WP:	0.000	Y_WP:	0.000	Y_WP:	0.750	X:	0.022	Y:	-0.892	Z:	0.399	yaw:	87.214	yaw rate:	-1.348	Roll:	-26.690	Pitch:	-1.908	Yaw:	124.229	Thrust:	55.179
Time:	0.807	Roll Set Point:	0.868	Pitch Set Point:	0.958	Yaw Set Point:	-1.522	X_WP:	0.000	Y_WP:	0.000	Y_WP:	0.750	X:	0.022	Y:	-0.892	Z:	0.399	yaw:	87.225	yaw rate:	-1.090	Roll:	-26.511	Pitch:	-1.853	Yaw:	123.844	Thrust:	48.985
Time:	0.828	Roll Set Point:	0.868	Pitch Set Point:	0.959	Yaw Set Point:	-1.521	X_WP:	0.000	Y_WP:	0.000	Y_WP:	0.750	X:	0.022	Y:	-0.892	Z:	0.399	yaw:	87.152	yaw rate:	7.302	Roll:	-26.514	Pitch:	-2.974	Yaw:	122.887	Thrust:	53.859
Time:	0.846	Roll Set Point:	0.867	Pitch Set Point:	0.969	Yaw Set Point:	-1.510	X_WP:	0.000	Y_WP:	0.000	Y_WP:	0.750	X:	0.023	Y:	-0.892	Z:	0.400	yaw:	86.511	yaw rate:	64.130	Roll:	-25.650	Pitch:	-11.753	Yaw:	113.048	Thrust:	48.689
Time:	0.866	Roll Set Point:	0.868	Pitch Set Point:	0.959	Yaw Set Point:	-1.521	X_WP:	0.000	Y_WP:	0.000	Y_WP:	0.750	X:	0.022	Y:	-0.892	Z:	0.399	yaw:	87.174	yaw rate:	-66.355	Roll:	-27.351	Pitch:	7.182	Yaw:	132.374	Thrust:	54.975
Time:	0.888	Roll Set Point:	0.868	Pitch Set Point:	0.959	Yaw Set Point:	-1.521	X_WP:	0.000	Y_WP:	0.000	Y_WP:	0.750	X:	0.022	Y:	-0.892	Z:	0.399	yaw:	87.168	yaw rate:	0.572	Roll:	-26.628	Pitch:	-2.138	Yaw:	123.889	Thrust:	58.164
Time:	0.906	Roll Set Point:	0.868	Pitch Set Point:	0.960	Yaw Set Point:	-1.521	X_WP:	0.000	Y_WP:	0.000	Y_WP:	0.750	X:	0.022	Y:	-0.892	Z:	0.399	yaw:	87.126	yaw rate:	4.226	Roll:	-26.467	Pitch:	-2.732	Yaw:	122.859	Thrust:	52.918
Time:	0.926	Roll Set Point:	0.868	Pitch Set Point:	0.958	Yaw Set Point:	-1.522	X_WP:	0.000	Y_WP:	0.000	Y_WP:	0.750	X:	0.022	Y:	-0.892	Z:	0.399	yaw:	87.212	yaw rate:	-8.558	Roll:	-26.656	Pitch:	-0.853	Yaw:	124.871	Thrust:	54.590
Time:	0.946	Roll Set Point:	0.868	Pitch Set Point:	0.958	Yaw Set Point:	-1.523	X_WP:	0.000	Y_WP:	0.000	Y_WP:	0.750	X:	0.022	Y:	-0.892	Z:	0.399	yaw:	87.246	yaw rate:	-3.448	Roll:	-26.595	Pitch:	-1.622	Yaw:	124.253	Thrust:	57.721
Time:	0.969	Roll Set Point:	0.868	Pitch Set Point:	0.958	Yaw Set Point:	-1.522	X_WP:	0.000	Y_WP:	0.000	Y_WP:	0.750	X:	0.022	Y:	-0.892	Z:	0.399	yaw:	87.211	yaw rate:	3.496	Roll:	-26.612	Pitch:	-2.520	Yaw:	123.680	Thrust:	62.939
Time:	0.990	Roll Set Point:	0.868	Pitch Set Point:	0.960	Yaw Set Point:	-1.521	X_WP:	0.000	Y_WP:	0.000	Y_WP:	0.750	X:	0.022	Y:	-0.892	Z:	0.399	yaw:	87.126	yaw rate:	8.524	Roll:	-26.531	Pitch:	-3.112	Yaw:	122.743	Thrust:	61.444
Time:	1.007	Roll Set Point:	0.868	Pitch Set Point:	0.958	Yaw Set Point:	-1.522	X_WP:	0.000	Y_WP:	0.000	Y_WP:	0.750	X:	0.022	Y:	-0.892	Z:	0.399	yaw:	87.216	yaw rate:	-8.959	Roll:	-26.602	Pitch:	-0.720	Yaw:	124.860	Thrust:	55.300
Time:	1.029	Roll Set Point:	0.868	Pitch Set Point:	0.958	Yaw Set Point:	-1.523	X_WP:	0.000	Y_WP:	0.000	Y_WP:	0.750	X:	0.022	Y:	-0.892	Z:	0.399	yaw:	87.257	yaw rate:	-4.188	Roll:	-26.663	Pitch:	-1.534	Yaw:	124.499	Thrust:	62.716
Time:	1.052	Roll Set Point:	0.868	Pitch Set Point:	0.958	Yaw Set Point:	-1.522	X_WP:	0.000	Y_WP:	0.000	Y_WP:	0.750	X:	0.022	Y:	-0.892	Z:	0.399	yaw:	87.222	yaw rate:	3.530	Roll:	-26.505	Pitch:	-2.536	Yaw:	123.577	Thrust:	60.528
Time:	1.068	Roll Set Point:	0.868	Pitch Set Point:	0.959	Yaw Set Point:	-1.521	X_WP:	0.000	Y_WP:	0.000	Y_WP:	0.750	X:	0.022	Y:	-0.892	Z:	0.399	yaw:	87.158	yaw rate:	6.369	Roll:	-26.490	Pitch:	-2.952	Yaw:	122.437	Thrust:	61.376
Time:	1.089	Roll Set Point:	0.868	Pitch Set Point:	0.957	Yaw Set Point:	-1.523	X_WP:	0.000	Y_WP:	0.000	Y_WP:	0.750	X:	0.022	Y:	-0.892	Z:	0.399	yaw:	87.290	yaw rate:	-13.135	Roll:	-26.740	Pitch:	-0.345	Yaw:	125.609	Thrust:	65.562
Time:	1.107	Roll Set Point:	0.868	Pitch Set Point:	0.958	Yaw Set Point:	-1.522	X_WP:	0.000	Y_WP:	0.000	Y_WP:	0.750	X:	0.022	Y:	-0.892	Z:	0.399	yaw:	87.221	yaw rate:	6.832	Roll:	-26.422	Pitch:	-3.072	Yaw:	122.530	Thrust:	58.594
Time:	1.127	Roll Set Point:	0.868	Pitch Set Point:	0.959	Yaw Set Point:	-1.521	X_WP:	0.000	Y_WP:	0.000	Y_WP:	0.750	X:	0.022	Y:	-0.892	Z:	0.399	yaw:	87.144	yaw rate:	7.793	Roll:	-26.501	Pitch:	-3.177	Yaw:	122.800	Thrust:	65.653
Time:	1.148	Roll Set Point:	0.868	Pitch Set Point:	0.958	Yaw Set Point:	-1.523	X_WP:	0.000	Y_WP:	0.000	Y_WP:	0.750	X:	0.022	Y:	-0.892	Z:	0.399	yaw:	87.249	yaw rate:	-10.577	Roll:	-26.691	Pitch:	-0.602	Yaw:	125.220	Thrust:	65.428
Time:	1.167	Roll Set Point:	0.867	Pitch Set Point:	0.970	Yaw Set Point:	-1.510	X_WP:	0.000	Y_WP:	0.000	Y_WP:	0.750	X:	0.023	Y:	-0.892	Z:	0.400	yaw:	86.498	yaw rate:	75.175	Roll:	-25.674	Pitch:	-12.462	Yaw:	112.892	Thrust:	66.462
Time:	1.188	Roll Set Point:	0.868	Pitch Set Point:	0.959	Yaw Set Point:	-1.521	X_WP:	0.000	Y_WP:	0.000	Y_WP:	0.750	X:	0.022	Y:	-0.892	Z:	0.399	yaw:	87.158	yaw rate:	-66.085	Roll:	-27.356	Pitch:	6.896	Yaw:	132.355	Thrust:	69.250
Time:	1.207	Roll Set Point:	0.868	Pitch Set Point:	0.958	Yaw Set Point:	-1.522	X_WP:	0.000	Y_WP:	0.000	Y_WP:	0.750	X:	0.022	Y:	-0.892	Z:	0.399	yaw:	87.210	yaw rate:	-5.188	Roll:	-26.577	Pitch:	-1.312	Yaw:	124.388	Thrust:	66.047
Time:	1.228	Roll Set Point:	0.867	Pitch Set Point:	0.970	Yaw Set Point:	-1.510	X_WP:	0.000	Y_WP:	0.000	Y_WP:	0.750	X:	0.023	Y:	-0.892	Z:	0.400	yaw:	86.496	yaw rate:	71.434	Roll:	-25.791	Pitch:	-11.741	Yaw:	113.965	Thrust:	69.115
Time:	1.248	Roll Set Point:	0.868	Pitch Set Point:	0.959	Yaw Set Point:	-1.521	X_WP:	0.000	Y_WP:	0.000	Y_WP:	0.750	X:	0.022	Y:	-0.892	Z:	0.399	yaw:	87.168	yaw rate:	-67.203	Roll:	-27.371	Pitch:	7.180	Yaw:	132.810	Thrust:	69.876
Time:	1.267	Roll Set Point:	0.868	Pitch Set Point:	0.958	Yaw Set Point:	-1.522	X_WP:	0.000	Y_WP:	0.000	Y_WP:	0.750	X:	0.022	Y:	-0.892	Z:	0.399	yaw:	87.221	yaw rate:	-5.348	Roll:	-26.624	Pitch:	-1.360	Yaw:	124.521	Thrust:	70.922
Time:	1.287	Roll Set Point:	0.868	Pitch Set Point:	0.959	Yaw Set Point:	-1.521	X_WP:	0.000	Y_WP:	0.000	Y_WP:	0.750	X:	0.022	Y:	-0.892	Z:	0.399	yaw:	87.139	yaw rate:	8.291	Roll:	-26.455	Pitch:	-3.248	Yaw:	122.473	Thrust:	70.923
Time:	1.307	Roll Set Point:	0.868	Pitch Set Point:	0.958	Yaw Set Point:	-1.523	X_WP:	0.000	Y_WP:	0.000	Y_WP:	0.750	X:	0.022	Y:	-0.892	Z:	0.399	yaw:	87.251	yaw rate:	-11.273	Roll:	-26.707	Pitch:	-0.647	Yaw:	125.304	Thrust:	72.614
Time:	1.328	Roll Set Point:	0.868	Pitch Set Point:	0.959	Yaw Set Point:	-1.521	X_WP:	0.000	Y_WP:	0.000	Y_WP:	0.750	X:	0.022	Y:	-0.892	Z:	0.399	yaw:	87.157	yaw rate:	9.441	Roll:	-26.468	Pitch:	-3.338	Yaw:	122.549	Thrust:	74.658
Time:	1.348	Roll Set Point:	0.868	Pitch Set Point:	0.959	Yaw Set Point:	-1.521	X_WP:	0.000	Y_WP:	0.000	Y_WP:	0.750	X:	0.022	Y:	-0.892	Z:	0.399	yaw:	87.161	yaw rate:	-0.393	Roll:	-26.543	Pitch:	-2.124	Yaw:	123.783	Thrust:	72.065
Time:	1.367	Roll Set Point:	0.868	Pitch Set Point:	0.959	Yaw Set Point:	-1.521	X_WP:	0.000	Y_WP:	0.000	Y_WP:	0.750	X:	0.022	Y:	-0.892	Z:	0.399	yaw:	87.143	yaw rate:	1.772	Roll:	-26.559	Pitch:	-2.347	Yaw:	123.351	Thrust:	75.459
Time:	1.388	Roll Set Point:	0.868	Pitch Set Point:	0.958	Yaw Set Point:	-1.522	X_WP:	0.000	Y_WP:	0.000	Y_WP:	0.750	X:	0.022	Y:	-0.892	Z:	0.399	yaw:	87.215	yaw rate:	-7.167	Roll:	-26.703	Pitch:	-1.303	Yaw:	124.764	Thrust:	76.793
Time:	1.407	Roll Set Point:	0.868	Pitch Set Point:	0.959	Yaw Set Point:	-1.521	X_WP:	0.000	Y_WP:	0.000	Y_WP:	0.750	X:	0.022	Y:	-0.892	Z:	0.399	yaw:	87.168	yaw rate:	4.635	Roll:	-26.470	Pitch:	-2.786	Yaw:	123.015	Thrust:	74.551
Time:	1.427	Roll Set Point:	0.868	Pitch Set Point:	0.957	Yaw Set Point:	-1.523	X_WP:	0.000	Y_WP:	0.000	Y_WP:	0.750	X:	0.022	Y:	-0.892	Z:	0.399	yaw:	87.267	yaw rate:	-9.895	Roll:	-26.684	Pitch:	-0.780	Yaw:	125.118	Thrust:	76.660
Time:	1.447	Roll Set Point:	0.868	Pitch Set Point:	0.959	Yaw Set Point:	-1.522	X_WP:	0.000	Y_WP:	0.000	Y_WP:	0.750	X:	0.022	Y:	-0.892	Z:	0.399	yaw:	87.185	yaw rate:	8.193	Roll:	-26.458	Pitch:	-3.202	Yaw:	122.821	Thrust:	81.290
Time:	1.467	Roll Set Point:	0.868	Pitch Set Point:	0.955	Yaw Set Point:	-1.525	X_WP:	0.000	Y_WP:	0.000	Y_WP:	0.750	X:	0.022	Y:	-0.893	Z:	0.399	yaw:	87.404	yaw rate:	-21.826	Roll:	-26.838	Pitch:	0.864	Yaw:	126.917	Thrust:	77.880
Time:	1.489	Roll Set Point:	0.867	Pitch Set Point:	0.970	Yaw Set Point:	-1.509	X_WP:	0.000	Y_WP:	0.000	Y_WP:	0.750	X:	0.023	Y:	-0.892	Z:	0.400	yaw:	86.479	yaw rate:	92.446	Roll:	-25.676	Pitch:	-13.650	Yaw:	112.268	Thrust:	85.006
Time:	1.506	Roll Set Point:	0.868	Pitch Set Point:	0.958	Yaw Set Point:	-1.522	X_WP:	0.000	Y_WP:	0.000	Y_WP:	0.750	X:	0.022	Y:	-0.892	Z:	0.399	yaw:	87.221	yaw rate:	-74.134	Roll:	-27.471	Pitch:	9.703	Yaw:	134.842	Thrust:	74.542
Time:	1.527	Roll Set Point:	0.867	Pitch Set Point:	0.970	Yaw Set Point:	-1.509	X_WP:	0.000	Y_WP:	0.000	Y_WP:	0.750	X:	0.023	Y:	-0.892	Z:	0.400	yaw:	86.484	yaw rate:	73.663	Roll:	-25.705	Pitch:	-12.190	Yaw:	113.530	Thrust:	81.294
Time:	1.546	Roll Set Point:	0.868	Pitch Set Point:	0.957	Yaw Set Point:	-1.523	X_WP:	0.000	Y_WP:	0.000	Y_WP:	0.750	X:	0.022	Y:	-0.893	Z:	0.399	yaw:	87.287	yaw rate:	-80.350	Roll:	-27.523	Pitch:	9.099	Yaw:	134.908	Thrust:	81.352
Time:	1.567	Roll Set Point:	0.868	Pitch Set Point:	0.958	Yaw Set Point:	-1.522	X_WP:	0.000	Y_WP:	0.000	Y_WP:	0.750	X:	0.022	Y:	-0.892	Z:	0.399	yaw:	87.226	yaw rate:	6.180	Roll:	-26.474	Pitch:	-2.897	Yaw:	123.063	Thrust:	85.312
Time:	1.587	Roll Set Point:	0.868	Pitch Set Point:	0.959	Yaw Set Point:	-1.521	X_WP:	0.000	Y_WP:	0.000	Y_WP:	0.750	X:	0.022	Y:	-0.892	Z:	0.399	yaw:	87.142	yaw rate:	8.323	Roll:	-26.495	Pitch:	-3.347	Yaw:	122.663	Thrust:	83.947
Time:	1.607	Roll Set Point:	0.868	Pitch Set Point:	0.960	Yaw Set Point:	-1.520	X_WP:	0.000	Y_WP:	0.000	Y_WP:	0.750	X:	0.022	Y:	-0.892	Z:	0.399	yaw:	87.096	yaw rate:	4.611	Roll:	-26.461	Pitch:	-2.775	Yaw:	122.993	Thrust:	84.851
Time:	1.627	Roll Set Point:	0.868	Pitch Set Point:	0.960	Yaw Set Point:	-1.520	X_WP:	0.000	Y_WP:	0.000	Y_WP:	0.750	X:	0.022	Y:	-0.892	Z:	0.399	yaw:	87.098	yaw rate:	-0.212	Roll:	-26.567	Pitch:	-2.214	Yaw:	123.548	Thrust:	84.200
Time:	1.646	Roll Set Point:	0.868	Pitch Set Point:	0.959	Yaw Set Point:	-1.521	X_WP:	0.000	Y_WP:	0.000	Y_WP:	0.750	X:	0.022	Y:	-0.892	Z:	0.399	yaw:	87.175	yaw rate:	-7.686	Roll:	-26.664	Pitch:	-1.191	Yaw:	124.736	Thrust:	87.347
Time:	1.668	Roll Set Point:	0.868	Pitch Set Point:	0.957	Yaw Set Point:	-1.524	X_WP:	0.000	Y_WP:	0.000	Y_WP:	0.750	X:	0.022	Y:	-0.892	Z:	0.399	yaw:	87.303	yaw rate:	-12.753	Roll:	-26.728	Pitch:	-0.440	Yaw:	125.593	Thrust:	89.995
Time:	1.689	Roll Set Point:	0.868	Pitch Set Point:	0.959	Yaw Set Point:	-1.522	X_WP:	0.000	Y_WP:	0.000	Y_WP:	0.750	X:	0.022	Y:	-0.892	Z:	0.399	yaw:	87.182	yaw rate:	12.089	Roll:	-26.531	Pitch:	-3.688	Yaw:	122.342	Thrust:	93.844
Time:	1.706	Roll Set Point:	0.868	Pitch Set Point:	0.959	Yaw Set Point:	-1.521	X_WP:	0.000	Y_WP:	0.000	Y_WP:	0.750	X:	0.022	Y:	-0.892	Z:	0.399	yaw:	87.160	yaw rate:	2.151	Roll:	-26.446	Pitch:	-2.476	Yaw:	123.139	Thrust:	80.737
Time:	1.728	Roll Set Point:	0.868	Pitch Set Point:	0.959	Yaw Set Point:	-1.521	X_WP:	0.000	Y_WP:	0.000	Y_WP:	0.750	X:	0.022	Y:	-0.892	Z:	0.399	yaw:	87.143	yaw rate:	1.743	Roll:	-26.565	Pitch:	-2.485	Yaw:	123.538	Thrust:	91.077
Time:	1.747	Roll Set Point:	0.868	Pitch Set Point:	0.957	Yaw Set Point:	-1.524	X_WP:	0.000	Y_WP:	0.000	Y_WP:	0.750	X:	0.022	Y:	-0.892	Z:	0.399	yaw:	87.298	yaw rate:	-15.530	Roll:	-26.745	Pitch:	0.033	Yaw:	125.926	Thrust:	91.503
Time:	1.767	Roll Set Point:	0.868	Pitch Set Point:	0.955	Yaw Set Point:	-1.526	X_WP:	0.000	Y_WP:	0.000	Y_WP:	0.750	X:	0.022	Y:	-0.893	Z:	0.399	yaw:	87.432	yaw rate:	-13.354	Roll:	-26.736	Pitch:	-0.322	Yaw:	125.827	Thrust:	90.447
Time:	1.788	Roll Set Point:	0.868	Pitch Set Point:	0.959	Yaw Set Point:	-1.522	X_WP:	0.000	Y_WP:	0.000	Y_WP:	0.750	X:	0.022	Y:	-0.892	Z:	0.399	yaw:	87.176	yaw rate:	25.570	Roll:	-26.255	Pitch:	-5.586	Yaw:	120.476	Thrust:	93.748
Time:	1.807	Roll Set Point:	0.868	Pitch Set Point:	0.959	Yaw Set Point:	-1.521	X_WP:	0.000	Y_WP:	0.000	Y_WP:	0.750	X:	0.022	Y:	-0.892	Z:	0.399	yaw:	87.153	yaw rate:	2.287	Roll:	-26.560	Pitch:	-2.535	Yaw:	123.334	Thrust:	93.433
Time:	1.827	Roll Set Point:	0.868	Pitch Set Point:	0.958	Yaw Set Point:	-1.522	X_WP:	0.000	Y_WP:	0.000	Y_WP:	0.750	X:	0.022	Y:	-0.892	Z:	0.399	yaw:	87.195	yaw rate:	-4.221	Roll:	-26.603	Pitch:	-1.678	Yaw:	124.305	Thrust:	92.544
Time:	1.848	Roll Set Point:	0.868	Pitch Set Point:	0.958	Yaw Set Point:	-1.522	X_WP:	0.000	Y_WP:	0.000	Y_WP:	0.750	X:	0.022	Y:	-0.892	Z:	0.399	yaw:	87.230	yaw rate:	-3.432	Roll:	-26.612	Pitch:	-1.698	Yaw:	124.239	Thrust:	96.628
Time:	1.867	Roll Set Point:	0.868	Pitch Set Point:	0.958	Yaw Set Point:	-1.522	X_WP:	0.000	Y_WP:	0.000	Y_WP:	0.750	X:	0.022	Y:	-0.892	Z:	0.399	yaw:	87.201	yaw rate:	2.860	Roll:	-26.535	Pitch:	-2.569	Yaw:	123.424	Thrust:	95.602
Time:	1.889	Roll Set Point:	0.868	Pitch Set Point:	0.959	Yaw Set Point:	-1.521	X_WP:	0.000	Y_WP:	0.000	Y_WP:	0.750	X:	0.022	Y:	-0.892	Z:	0.399	yaw:	87.173	yaw rate:	2.772	Roll:	-26.623	Pitch:	-2.637	Yaw:	123.553	Thrust:	100.000
Time:	1.906	Roll Set Point:	0.868	Pitch Set Point:	0.959	Yaw Set Point:	-1.521	X_WP:	0.000	Y_WP:	0.000	Y_WP:	0.750	X:	0.022	Y:	-0.892	Z:	0.399	yaw:	87.154	yaw rate:	1.984	Roll:	-26.429	Pitch:	-2.482	Yaw:	123.089	Thrust:	86.109
Time:	1.926	Roll Set Point:	0.868	Pitch Set Point:	0.959	Yaw Set Point:	-1.521	X_WP:	0.000	Y_WP:	0.000	Y_WP:	0.750	X:	0.022	Y:	-0.892	Z:	0.399	yaw:	87.135	yaw rate:	1.813	Roll:	-26.540	Pitch:	-2.508	Yaw:	123.473	Thrust:	97.943
Time:	1.947	Roll Set Point:	0.868	Pitch Set Point:	0.958	Yaw Set Point:	-1.522	X_WP:	0.000	Y_WP:	0.000	Y_WP:	0.750	X:	0.022	Y:	-0.892	Z:	0.399	yaw:	87.221	yaw rate:	-8.503	Roll:	-26.687	Pitch:	-1.067	Yaw:	124.922	Thrust:	99.645
Time:	1.967	Roll Set Point:	0.868	Pitch Set Point:	0.959	Yaw Set Point:	-1.522	X_WP:	0.000	Y_WP:	0.000	Y_WP:	0.750	X:	0.022	Y:	-0.892	Z:	0.399	yaw:	87.182	yaw rate:	3.901	Roll:	-26.537	Pitch:	-2.787	Yaw:	123.205	Thrust:	100.000
Time:	1.987	Roll Set Point:	0.868	Pitch Set Point:	0.958	Yaw Set Point:	-1.523	X_WP:	0.000	Y_WP:	0.000	Y_WP:	0.750	X:	0.022	Y:	-0.892	Z:	0.399	yaw:	87.254	yaw rate:	-7.277	Roll:	-26.636	Pitch:	-1.227	Yaw:	124.794	Thrust:	100.000
Time:	2.007	Roll Set Point:	0.868	Pitch Set Point:	0.959	Yaw Set Point:	-1.522	X_WP:	0.000	Y_WP:	0.000	Y_WP:	0.750	X:	0.022	Y:	-0.892	Z:	0.399	yaw:	87.192	yaw rate:	6.226	Roll:	-26.509	Pitch:	-3.126	Yaw:	122.887	Thrust:	100.000
Time:	2.027	Roll Set Point:	0.868	Pitch Set Point:	0.959	Yaw Set Point:	-1.521	X_WP:	0.000	Y_WP:	0.000	Y_WP:	0.750	X:	0.022	Y:	-0.892	Z:	0.399	yaw:	87.167	yaw rate:	2.536	Roll:	-26.534	Pitch:	-2.562	Yaw:	123.319	Thrust:	100.000
Time:	2.047	Roll Set Point:	0.868	Pitch Set Point:	0.958	Yaw Set Point:	-1.522	X_WP:	0.000	Y_WP:	0.000	Y_WP:	0.750	X:	0.022	Y:	-0.892	Z:	0.399	yaw:	87.210	yaw rate:	-4.354	Roll:	-26.638	Pitch:	-1.659	Yaw:	124.409	Thrust:	100.000
Time:	2.067	Roll Set Point:	0.868	Pitch Set Point:	0.960	Yaw Set Point:	-1.520	X_WP:	0.000	Y_WP:	0.000	Y_WP:	0.750	X:	0.022	Y:	-0.892	Z:	0.399	yaw:	87.077	yaw rate:	13.319	Roll:	-26.376	Pitch:	-4.061	Yaw:	121.686	Thrust:	100.000
Time:	2.087	Roll Set Point:	0.868	Pitch Set Point:	0.959	Yaw Set Point:	-1.521	X_WP:	0.000	Y_WP:	0.000	Y_WP:	0.750	X:	0.022	Y:	-0.892	Z:	0.399	yaw:	87.170	yaw rate:	-9.340	Roll:	-26.714	Pitch:	-1.047	Yaw:	124.973	Thrust:	100.000
Time:	2.107	Roll Set Point:	0.868	Pitch Set Point:	0.958	Yaw Set Point:	-1.522	X_WP:	0.000	Y_WP:	0.000	Y_WP:	0.750	X:	0.022	Y:	-0.892	Z:	0.399	yaw:	87.207	yaw rate:	-3.617	Roll:	-26.604	Pitch:	-1.795	Yaw:	124.253	Thrust:	100.000
Time:	2.127	Roll Set Point:	0.868	Pitch Set Point:	0.958	Yaw Set Point:	-1.522	X_WP:	0.000	Y_WP:	0.000	Y_WP:	0.750	X:	0.022	Y:	-0.892	Z:	0.399	yaw:	87.211	yaw rate:	-0.461	Roll:	-26.559	Pitch:	-2.156	Yaw:	123.801	Thrust:	100.000
Time:	2.148	Roll Set Point:	0.868	Pitch Set Point:	0.960	Yaw Set Point:	-1.520	X_WP:	0.000	Y_WP:	0.000	Y_WP:	0.750	X:	0.022	Y:	-0.892	Z:	0.399	yaw:	87.118	yaw rate:	9.300	Roll:	-26.447	Pitch:	-3.546	Yaw:	122.538	Thrust:	100.000
Time:	2.167	Roll Set Point:	0.868	Pitch Set Point:	0.959	Yaw Set Point:	-1.521	X_WP:	0.000	Y_WP:	0.000	Y_WP:	0.750	X:	0.022	Y:	-0.892	Z:	0.399	yaw:	87.168	yaw rate:	-4.950	Roll:	-26.620	Pitch:	-1.565	Yaw:	124.294	Thrust:	100.000
Time:	2.188	Roll Set Point:	0.868	Pitch Set Point:	0.959	Yaw Set Point:	-1.521	X_WP:	0.000	Y_WP:	0.000	Y_WP:	0.750	X:	0.022	Y:	-0.892	Z:	0.399	yaw:	87.154	yaw rate:	1.387	Roll:	-26.633	Pitch:	-2.524	Yaw:	123.622	Thrust:	100.000
Time:	2.207	Roll Set Point:	0.868	Pitch Set Point:	0.959	Yaw Set Point:	-1.522	X_WP:	0.000	Y_WP:	0.000	Y_WP:	0.750	X:	0.022	Y:	-0.892	Z:	0.399	yaw:	87.179	yaw rate:	-2.500	Roll:	-26.527	Pitch:	-1.887	Yaw:	123.943	Thrust:	100.000
Time:	2.227	Roll Set Point:	0.868	Pitch Set Point:	0.958	Yaw Set Point:	-1.522	X_WP:	0.000	Y_WP:	0.000	Y_WP:	0.750	X:	0.022	Y:	-0.892	Z:	0.399	yaw:	87.206	yaw rate:	-2.710	Roll:	-26.588	Pitch:	-1.874	Yaw:	124.123	Thrust:	100.000
Time:	2.246	Roll Set Point:	0.868	Pitch Set Point:	0.958	Yaw Set Point:	-1.522	X_WP:	0.000	Y_WP:	0.000	Y_WP:	0.750	X:	0.022	Y:	-0.892	Z:	0.399	yaw:	87.201	yaw rate:	0.511	Roll:	-26.551	Pitch:	-2.365	Yaw:	123.644	Thrust:	100.000
Time:	2.267	Roll Set Point:	0.868	Pitch Set Point:	0.958	Yaw Set Point:	-1.522	X_WP:	0.000	Y_WP:	0.000	Y_WP:	0.750	X:	0.022	Y:	-0.892	Z:	0.399	yaw:	87.223	yaw rate:	-2.182	Roll:	-26.614	Pitch:	-1.995	Yaw:	124.090	Thrust:	100.000
Time:	2.287	Roll Set Point:	0.868	Pitch Set Point:	0.958	Yaw Set Point:	-1.522	X_WP:	0.000	Y_WP:	0.000	Y_WP:	0.750	X:	0.022	Y:	-0.892	Z:	0.399	yaw:	87.200	yaw rate:	2.269	Roll:	-26.562	Pitch:	-2.575	Yaw:	123.546	Thrust:	100.000
Time:	2.314	Roll Set Point:	0.868	Pitch Set Point:	0.959	Yaw Set Point:	-1.522	X_WP:	0.000	Y_WP:	0.000	Y_WP:	0.750	X:	0.022	Y:	-0.892	Z:	0.399	yaw:	87.176	yaw rate:	2.353	Roll:	-26.803	Pitch:	-2.678	Yaw:	124.030	Thrust:	100.000
Time:	2.329	Roll Set Point:	0.868	Pitch Set Point:	0.959	Yaw Set Point:	-1.522	X_WP:	0.000	Y_WP:	0.000	Y_WP:	0.750	X:	0.022	Y:	-0.892	Z:	0.399	yaw:	87.186	yaw rate:	-0.938	Roll:	-26.398	Pitch:	-2.015	Yaw:	123.450	Thrust:	94.202
Time:	2.347	Roll Set Point:	0.868	Pitch Set Point:	0.958	Yaw Set Point:	-1.523	X_WP:	0.000	Y_WP:	0.000	Y_WP:	0.750	X:	0.022	Y:	-0.892	Z:	0.399	yaw:	87.236	yaw rate:	-5.030	Roll:	-26.526	Pitch:	-1.454	Yaw:	124.367	Thrust:	100.000
Time:	2.368	Roll Set Point:	0.868	Pitch Set Point:	0.959	Yaw Set Point:	-1.522	X_WP:	0.000	Y_WP:	0.000	Y_WP:	0.750	X:	0.022	Y:	-0.892	Z:	0.399	yaw:	87.184	yaw rate:	5.180	Roll:	-26.536	Pitch:	-2.988	Yaw:	123.197	Thrust:	100.000
Time:	2.388	Roll Set Point:	0.867	Pitch Set Point:	0.970	Yaw Set Point:	-1.509	X_WP:	0.000	Y_WP:	0.000	Y_WP:	0.750	X:	0.023	Y:	-0.892	Z:	0.400	yaw:	86.486	yaw rate:	69.783	Roll:	-25.751	Pitch:	-12.364	Yaw:	113.398	Thrust:	100.000
Time:	2.406	Roll Set Point:	0.868	Pitch Set Point:	0.959	Yaw Set Point:	-1.522	X_WP:	0.000	Y_WP:	0.000	Y_WP:	0.750	X:	0.022	Y:	-0.892	Z:	0.399	yaw:	87.195	yaw rate:	-70.860	Roll:	-27.416	Pitch:	8.415	Yaw:	133.845	Thrust:	100.000
Time:	2.427	Roll Set Point:	0.868	Pitch Set Point:	0.960	Yaw Set Point:	-1.520	X_WP:	0.000	Y_WP:	0.000	Y_WP:	0.750	X:	0.022	Y:	-0.892	Z:	0.399	yaw:	87.097	yaw rate:	9.812	Roll:	-26.441	Pitch:	-3.535	Yaw:	122.427	Thrust:	100.000
Time:	2.446	Roll Set Point:	0.868	Pitch Set Point:	0.959	Yaw Set Point:	-1.521	X_WP:	0.000	Y_WP:	0.000	Y_WP:	0.750	X:	0.022	Y:	-0.892	Z:	0.399	yaw:	87.171	yaw rate:	-7.392	Roll:	-26.690	Pitch:	-1.389	Yaw:	124.648	Thrust:	100.000
Time:	2.466	Roll Set Point:	0.868	Pitch Set Point:	0.959	Yaw Set Point:	-1.522	X_WP:	0.000	Y_WP:	0.000	Y_WP:	0.750	X:	0.022	Y:	-0.892	Z:	0.399	yaw:	87.193	yaw rate:	-2.178	Roll:	-26.574	Pitch:	-1.973	Yaw:	124.059	Thrust:	100.000
Time:	2.488	Roll Set Point:	0.868	Pitch Set Point:	0.958	Yaw Set Point:	-1.523	X_WP:	0.000	Y_WP:	0.000	Y_WP:	0.750	X:	0.022	Y:	-0.892	Z:	0.399	yaw:	87.238	yaw rate:	-4.548	Roll:	-26.678	Pitch:	-1.837	Yaw:	124.488	Thrust:	100.000
Time:	2.506	Roll Set Point:	0.868	Pitch Set Point:	0.959	Yaw Set Point:	-1.521	X_WP:	0.000	Y_WP:	0.000	Y_WP:	0.750	X:	0.022	Y:	-0.892	Z:	0.399	yaw:	87.175	yaw rate:	6.297	Roll:	-26.424	Pitch:	-3.152	Yaw:	122.733	Thrust:	100.000
Time:	2.526	Roll Set Point:	0.868	Pitch Set Point:	0.959	Yaw Set Point:	-1.521	X_WP:	0.000	Y_WP:	0.000	Y_WP:	0.750	X:	0.022	Y:	-0.892	Z:	0.399	yaw:	87.153	yaw rate:	2.262	Roll:	-26.541	Pitch:	-2.615	Yaw:	123.340	Thrust:	100.000
Time:	2.546	Roll Set Point:	0.868	Pitch Set Point:	0.958	Yaw Set Point:	-1.523	X_WP:	0.000	Y_WP:	0.000	Y_WP:	0.750	X:	0.022	Y:	-0.892	Z:	0.399	yaw:	87.249	yaw rate:	-9.630	Roll:	-26.679	Pitch:	-1.005	Yaw:	125.061	Thrust:	100.000
Time:	2.566	Roll Set Point:	0.868	Pitch Set Point:	0.958	Yaw Set Point:	-1.523	X_WP:	0.000	Y_WP:	0.000	Y_WP:	0.750	X:	0.022	Y:	-0.892	Z:	0.399	yaw:	87.246	yaw rate:	0.274	Roll:	-26.574	Pitch:	-2.360	Yaw:	123.874	Thrust:	100.000
Time:	2.586	Roll Set Point:	0.868	Pitch Set Point:	0.959	Yaw Set Point:	-1.521	X_WP:	0.000	Y_WP:	0.000	Y_WP:	0.750	X:	0.022	Y:	-0.892	Z:	0.399	yaw:	87.162	yaw rate:	8.423	Roll:	-26.448	Pitch:	-3.467	Yaw:	122.629	Thrust:	100.000
Time:	2.606	Roll Set Point:	0.868	Pitch Set Point:	0.959	Yaw Set Point:	-1.522	X_WP:	0.000	Y_WP:	0.000	Y_WP:	0.750	X:	0.022	Y:	-0.892	Z:	0.399	yaw:	87.190	yaw rate:	-2.765	Roll:	-26.631	Pitch:	-1.988	Yaw:	124.110	Thrust:	100.000
Time:	2.626	Roll Set Point:	0.868	Pitch Set Point:	0.958	Yaw Set Point:	-1.523	X_WP:	0.000	Y_WP:	0.000	Y_WP:	0.750	X:	0.022	Y:	-0.892	Z:	0.399	yaw:	87.259	yaw rate:	-6.961	Roll:	-26.654	Pitch:	-1.433	Yaw:	124.730	Thrust:	100.000
Time:	2.646	Roll Set Point:	0.868	Pitch Set Point:	0.958	Yaw Set Point:	-1.523	X_WP:	0.000	Y_WP:	0.000	Y_WP:	0.750	X:	0.022	Y:	-0.892	Z:	0.399	yaw:	87.235	yaw rate:	2.461	Roll:	-26.498	Pitch:	-2.615	Yaw:	123.486	Thrust:	100.000
Time:	2.666	Roll Set Point:	0.868	Pitch Set Point:	0.958	Yaw Set Point:	-1.522	X_WP:	0.000	Y_WP:	0.000	Y_WP:	0.750	X:	0.022	Y:	-0.892	Z:	0.399	yaw:	87.229	yaw rate:	0.598	Roll:	-26.617	Pitch:	-2.484	Yaw:	123.727	Thrust:	100.000
Time:	2.686	Roll Set Point:	0.868	Pitch Set Point:	0.959	Yaw Set Point:	-1.521	X_WP:	0.000	Y_WP:	0.000	Y_WP:	0.750	X:	0.022	Y:	-0.892	Z:	0.399	yaw:	87.155	yaw rate:	7.335	Roll:	-26.464	Pitch:	-3.271	Yaw:	122.811	Thrust:	100.000
Time:	2.706	Roll Set Point:	0.868	Pitch Set Point:	0.959	Yaw Set Point:	-1.521	X_WP:	0.000	Y_WP:	0.000	Y_WP:	0.750	X:	0.022	Y:	-0.892	Z:	0.399	yaw:	87.146	yaw rate:	0.892	Roll:	-26.575	Pitch:	-2.566	Yaw:	123.552	Thrust:	100.000
Time:	2.726	Roll Set Point:	0.868	Pitch Set Point:	0.958	Yaw Set Point:	-1.522	X_WP:	0.000	Y_WP:	0.000	Y_WP:	0.750	X:	0.022	Y:	-0.892	Z:	0.399	yaw:	87.212	yaw rate:	-6.546	Roll:	-26.605	Pitch:	-1.403	Yaw:	124.589	Thrust:	100.000
Time:	2.746	Roll Set Point:	0.868	Pitch Set Point:	0.959	Yaw Set Point:	-1.521	X_WP:	0.000	Y_WP:	0.000	Y_WP:	0.750	X:	0.022	Y:	-0.892	Z:	0.399	yaw:	87.153	yaw rate:	5.868	Roll:	-26.532	Pitch:	-3.165	Yaw:	123.031	Thrust:	100.000
Time:	2.767	Roll Set Point:	0.868	Pitch Set Point:	0.958	Yaw Set Point:	-1.523	X_WP:	0.000	Y_WP:	0.000	Y_WP:	0.750	X:	0.022	Y:	-0.892	Z:	0.399	yaw:	87.235	yaw rate:	-8.169	Roll:	-26.652	Pitch:	-1.307	Yaw:	124.855	Thrust:	100.000
Time:	2.788	Roll Set Point:	0.868	Pitch Set Point:	0.959	Yaw Set Point:	-1.521	X_WP:	0.000	Y_WP:	0.000	Y_WP:	0.750	X:	0.022	Y:	-0.892	Z:	0.399	yaw:	87.134	yaw rate:	10.029	Roll:	-26.466	Pitch:	-3.659	Yaw:	122.646	Thrust:	100.000
Time:	2.805	Roll Set Point:	0.868	Pitch Set Point:	0.959	Yaw Set Point:	-1.521	X_WP:	0.000	Y_WP:	0.000	Y_WP:	0.750	X:	0.022	Y:	-0.892	Z:	0.399	yaw:	87.155	yaw rate:	-2.059	Roll:	-26.555	Pitch:	-2.044	Yaw:	123.750	Thrust:	100.000
Time:	2.826	Roll Set Point:	0.868	Pitch Set Point:	0.959	Yaw Set Point:	-1.521	X_WP:	0.000	Y_WP:	0.000	Y_WP:	0.750	X:	0.022	Y:	-0.892	Z:	0.399	yaw:	87.144	yaw rate:	1.104	Roll:	-26.578	Pitch:	-2.594	Yaw:	123.558	Thrust:	100.000
Time:	2.846	Roll Set Point:	0.868	Pitch Set Point:	0.958	Yaw Set Point:	-1.522	X_WP:	0.000	Y_WP:	0.000	Y_WP:	0.750	X:	0.022	Y:	-0.892	Z:	0.399	yaw:	87.201	yaw rate:	-5.659	Roll:	-26.648	Pitch:	-1.665	Yaw:	124.501	Thrust:	100.000
Time:	2.866	Roll Set Point:	0.868	Pitch Set Point:	0.959	Yaw Set Point:	-1.521	X_WP:	0.000	Y_WP:	0.000	Y_WP:	0.750	X:	0.022	Y:	-0.892	Z:	0.399	yaw:	87.171	yaw rate:	2.955	Roll:	-26.497	Pitch:	-2.741	Yaw:	123.381	Thrust:	100.000
Time:	2.887	Roll Set Point:	0.868	Pitch Set Point:	0.957	Yaw Set Point:	-1.523	X_WP:	0.000	Y_WP:	0.000	Y_WP:	0.750	X:	0.022	Y:	-0.892	Z:	0.399	yaw:	87.266	yaw rate:	-9.466	Roll:	-26.745	Pitch:	-1.174	Yaw:	125.107	Thrust:	100.000
Time:	2.906	Roll Set Point:	0.868	Pitch Set Point:	0.959	Yaw Set Point:	-1.521	X_WP:	0.000	Y_WP:	0.000	Y_WP:	0.750	X:	0.022	Y:	-0.892	Z:	0.399	yaw:	87.169	yaw rate:	9.633	Roll:	-26.411	Pitch:	-3.717	Yaw:	122.315	Thrust:	100.000
Time:	2.926	Roll Set Point:	0.868	Pitch Set Point:	0.959	Yaw Set Point:	-1.521	X_WP:	0.000	Y_WP:	0.000	Y_WP:	0.750	X:	0.022	Y:	-0.892	Z:	0.399	yaw:	87.150	yaw rate:	1.985	Roll:	-26.503	Pitch:	-2.675	Yaw:	123.378	Thrust:	100.000
Time:	2.945	Roll Set Point:	0.868	Pitch Set Point:	0.958	Yaw Set Point:	-1.522	X_WP:	0.000	Y_WP:	0.000	Y_WP:	0.750	X:	0.022	Y:	-0.892	Z:	0.399	yaw:	87.221	yaw rate:	-7.172	Roll:	-26.685	Pitch:	-1.393	Yaw:	124.708	Thrust:	100.000
Time:	2.966	Roll Set Point:	0.868	Pitch Set Point:	0.957	Yaw Set Point:	-1.523	X_WP:	0.000	Y_WP:	0.000	Y_WP:	0.750	X:	0.022	Y:	-0.892	Z:	0.399	yaw:	87.275	yaw rate:	-5.364	Roll:	-26.636	Pitch:	-1.703	Yaw:	124.595	Thrust:	100.000
Time:	2.988	Roll Set Point:	0.868	Pitch Set Point:	0.960	Yaw Set Point:	-1.520	X_WP:	0.000	Y_WP:	0.000	Y_WP:	0.750	X:	0.022	Y:	-0.892	Z:	0.399	yaw:	87.101	yaw rate:	17.386	Roll:	-26.437	Pitch:	-4.568	Yaw:	121.706	Thrust:	100.000
Time:	3.006	Roll Set Point:	0.868	Pitch Set Point:	0.958	Yaw Set Point:	-1.522	X_WP:	0.000	Y_WP:	0.000	Y_WP:	0.750	X:	0.022	Y:	-0.892	Z:	0.399	yaw:	87.216	yaw rate:	-11.453	Roll:	-26.671	Pitch:	-0.746	Yaw:	125.244	Thrust:	100.000
Time:	3.026	Roll Set Point:	0.867	Pitch Set Point:	0.970	Yaw Set Point:	-1.510	X_WP:	0.000	Y_WP:	0.000	Y_WP:	0.750	X:	0.023	Y:	-0.892	Z:	0.400	yaw:	86.494	yaw rate:	72.192	Roll:	-25.691	Pitch:	-12.485	Yaw:	113.368	Thrust:	100.000
Time:	3.046	Roll Set Point:	0.868	Pitch Set Point:	0.958	Yaw Set Point:	-1.522	X_WP:	0.000	Y_WP:	0.000	Y_WP:	0.750	X:	0.022	Y:	-0.892	Z:	0.399	yaw:	87.225	yaw rate:	-73.098	Roll:	-27.425	Pitch:	7.625	Yaw:	133.615	Thrust:	100.000
Time:	3.066	Roll Set Point:	0.868	Pitch Set Point:	0.958	Yaw Set Point:	-1.522	X_WP:	0.000	Y_WP:	0.000	Y_WP:	0.750	X:	0.022	Y:	-0.892	Z:	0.399	yaw:	87.205	yaw rate:	1.966	Roll:	-26.540	Pitch:	-2.643	Yaw:	123.572	Thrust:	100.000
Time:	3.088	Roll Set Point:	0.868	Pitch Set Point:	0.958	Yaw Set Point:	-1.522	X_WP:	0.000	Y_WP:	0.000	Y_WP:	0.750	X:	0.022	Y:	-0.892	Z:	0.399	yaw:	87.199	yaw rate:	0.635	Roll:	-26.632	Pitch:	-2.568	Yaw:	123.849	Thrust:	100.000
Time:	3.106	Roll Set Point:	0.868	Pitch Set Point:	0.958	Yaw Set Point:	-1.522	X_WP:	0.000	Y_WP:	0.000	Y_WP:	0.750	X:	0.022	Y:	-0.892	Z:	0.399	yaw:	87.222	yaw rate:	-2.307	Roll:	-26.521	Pitch:	-1.969	Yaw:	123.932	Thrust:	100.000
Time:	3.126	Roll Set Point:	0.868	Pitch Set Point:	0.959	Yaw Set Point:	-1.521	X_WP:	0.000	Y_WP:	0.000	Y_WP:	0.750	X:	0.022	Y:	-0.892	Z:	0.399	yaw:	87.162	yaw rate:	5.933	Roll:	-26.502	Pitch:	-3.243	Yaw:	122.933	Thrust:	100.000
Time:	3.146	Roll Set Point:	0.868	Pitch Set Point:	0.960	Yaw Set Point:	-1.520	X_WP:	0.000	Y_WP:	0.000	Y_WP:	0.750	X:	0.022	Y:	-0.892	Z:	0.399	yaw:	87.109	yaw rate:	5.356	Roll:	-26.503	Pitch:	-3.196	Yaw:	122.978	Thrust:	100.000
Time:	3.166	Roll Set Point:	0.868	Pitch Set Point:	0.958	Yaw Set Point:	-1.523	X_WP:	0.000	Y_WP:	0.000	Y_WP:	0.750	X:	0.022	Y:	-0.892	Z:	0.399	yaw:	87.239	yaw rate:	-12.984	Roll:	-26.727	Pitch:	-0.761	Yaw:	125.503	Thrust:	100.000
Time:	3.188	Roll Set Point:	0.868	Pitch Set Point:	0.958	Yaw Set Point:	-1.522	X_WP:	0.000	Y_WP:	0.000	Y_WP:	0.750	X:	0.022	Y:	-0.892	Z:	0.399	yaw:	87.223	yaw rate:	1.552	Roll:	-26.602	Pitch:	-2.646	Yaw:	123.770	Thrust:	100.000
Time:	3.207	Roll Set Point:	0.868	Pitch Set Point:	0.958	Yaw Set Point:	-1.522	X_WP:	0.000	Y_WP:	0.000	Y_WP:	0.750	X:	0.022	Y:	-0.892	Z:	0.399	yaw:	87.208	yaw rate:	1.497	Roll:	-26.516	Pitch:	-2.660	Yaw:	123.389	Thrust:	100.000
Time:	3.226	Roll Set Point:	0.868	Pitch Set Point:	0.958	Yaw Set Point:	-1.522	X_WP:	0.000	Y_WP:	0.000	Y_WP:	0.750	X:	0.022	Y:	-0.892	Z:	0.399	yaw:	87.233	yaw rate:	-2.439	Roll:	-26.593	Pitch:	-2.078	Yaw:	124.126	Thrust:	100.000
Time:	3.247	Roll Set Point:	0.868	Pitch Set Point:	0.959	Yaw Set Point:	-1.521	X_WP:	0.000	Y_WP:	0.000	Y_WP:	0.750	X:	0.022	Y:	-0.892	Z:	0.399	yaw:	87.163	yaw rate:	6.993	Roll:	-26.472	Pitch:	-3.348	Yaw:	122.848	Thrust:	100.000
Time:	3.266	Roll Set Point:	0.868	Pitch Set Point:	0.959	Yaw Set Point:	-1.521	X_WP:	0.000	Y_WP:	0.000	Y_WP:	0.750	X:	0.022	Y:	-0.892	Z:	0.399	yaw:	87.161	yaw rate:	0.153	Roll:	-26.582	Pitch:	-2.561	Yaw:	123.550	Thrust:	100.000
Time:	3.288	Roll Set Point:	0.868	Pitch Set Point:	0.959	Yaw Set Point:	-1.521	X_WP:	0.000	Y_WP:	0.000	Y_WP:	0.750	X:	0.022	Y:	-0.892	Z:	0.399	yaw:	87.148	yaw rate:	1.280	Roll:	-26.573	Pitch:	-2.619	Yaw:	123.762	Thrust:	100.000
Time:	3.306	Roll Set Point:	0.868	Pitch Set Point:	0.957	Yaw Set Point:	-1.523	X_WP:	0.000	Y_WP:	0.000	Y_WP:	0.750	X:	0.022	Y:	-0.892	Z:	0.399	yaw:	87.282	yaw rate:	-13.380	Roll:	-26.708	Pitch:	-0.440	Yaw:	125.614	Thrust:	100.000
Time:	3.326	Roll Set Point:	0.868	Pitch Set Point:	0.958	Yaw Set Point:	-1.522	X_WP:	0.000	Y_WP:	0.000	Y_WP:	0.750	X:	0.022	Y:	-0.892	Z:	0.399	yaw:	87.215	yaw rate:	6.658	Roll:	-26.481	Pitch:	-3.305	Yaw:	122.951	Thrust:	100.000
Time:	3.346	Roll Set Point:	0.868	Pitch Set Point:	0.958	Yaw Set Point:	-1.522	X_WP:	0.000	Y_WP:	0.000	Y_WP:	0.750	X:	0.022	Y:	-0.892	Z:	0.399	yaw:	87.215	yaw rate:	0.022	Roll:	-26.567	Pitch:	-2.482	Yaw:	123.776	Thrust:	100.000
Time:	3.366	Roll Set Point:	0.868	Pitch Set Point:	0.959	Yaw Set Point:	-1.521	X_WP:	0.000	Y_WP:	0.000	Y_WP:	0.750	X:	0.022	Y:	-0.892	Z:	0.399	yaw:	87.140	yaw rate:	7.561	Roll:	-26.508	Pitch:	-3.505	Yaw:	122.702	Thrust:	100.000
Time:	3.387	Roll Set Point:	0.868	Pitch Set Point:	0.959	Yaw Set Point:	-1.521	X_WP:	0.000	Y_WP:	0.000	Y_WP:	0.750	X:	0.022	Y:	-0.892	Z:	0.399	yaw:	87.156	yaw rate:	-1.648	Roll:	-26.627	Pitch:	-2.306	Yaw:	124.015	Thrust:	100.000
Time:	3.406	Roll Set Point:	0.868	Pitch Set Point:	0.959	Yaw Set Point:	-1.522	X_WP:	0.000	Y_WP:	0.000	Y_WP:	0.750	X:	0.022	Y:	-0.892	Z:	0.399	yaw:	87.192	yaw rate:	-3.603	Roll:	-26.569	Pitch:	-1.978	Yaw:	124.087	Thrust:	100.000
Time:	3.426	Roll Set Point:	0.868	Pitch Set Point:	0.959	Yaw Set Point:	-1.521	X_WP:	0.000	Y_WP:	0.000	Y_WP:	0.750	X:	0.022	Y:	-0.892	Z:	0.399	yaw:	87.172	yaw rate:	2.053	Roll:	-26.537	Pitch:	-2.727	Yaw:	123.469	Thrust:	100.000
Time:	3.446	Roll Set Point:	0.868	Pitch Set Point:	0.958	Yaw Set Point:	-1.522	X_WP:	0.000	Y_WP:	0.000	Y_WP:	0.750	X:	0.022	Y:	-0.892	Z:	0.399	yaw:	87.213	yaw rate:	-4.122	Roll:	-26.594	Pitch:	-1.954	Yaw:	124.304	Thrust:	100.000
Time:	3.466	Roll Set Point:	0.868	Pitch Set Point:	0.959	Yaw Set Point:	-1.521	X_WP:	0.000	Y_WP:	0.000	Y_WP:	0.750	X:	0.022	Y:	-0.892	Z:	0.399	yaw:	87.152	yaw rate:	6.064	Roll:	-26.549	Pitch:	-3.302	Yaw:	122.905	Thrust:	100.000
Time:	3.487	Roll Set Point:	0.868	Pitch Set Point:	0.958	Yaw Set Point:	-1.523	X_WP:	0.000	Y_WP:	0.000	Y_WP:	0.750	X:	0.022	Y:	-0.892	Z:	0.399	yaw:	87.234	yaw rate:	-8.133	Roll:	-26.668	Pitch:	-1.447	Yaw:	124.909	Thrust:	100.000
Time:	3.506	Roll Set Point:	0.868	Pitch Set Point:	0.958	Yaw Set Point:	-1.523	X_WP:	0.000	Y_WP:	0.000	Y_WP:	0.750	X:	0.022	Y:	-0.892	Z:	0.399	yaw:	87.248	yaw rate:	-1.430	Roll:	-26.560	Pitch:	-2.230	Yaw:	123.924	Thrust:	100.000
Time:	3.525	Roll Set Point:	0.868	Pitch Set Point:	0.958	Yaw Set Point:	-1.522	X_WP:	0.000	Y_WP:	0.000	Y_WP:	0.750	X:	0.022	Y:	-0.892	Z:	0.399	yaw:	87.218	yaw rate:	2.995	Roll:	-26.516	Pitch:	-2.864	Yaw:	123.335	Thrust:	100.000
Time:	3.550	Roll Set Point:	0.868	Pitch Set Point:	0.958	Yaw Set Point:	-1.523	X_WP:	0.000	Y_WP:	0.000	Y_WP:	0.750	X:	0.022	Y:	-0.892	Z:	0.399	yaw:	87.256	yaw rate:	-3.763	Roll:	-26.821	Pitch:	-2.244	Yaw:	124.734	Thrust:	100.000
Time:	3.566	Roll Set Point:	0.868	Pitch Set Point:	0.958	Yaw Set Point:	-1.522	X_WP:	0.000	Y_WP:	0.000	Y_WP:	0.750	X:	0.022	Y:	-0.892	Z:	0.399	yaw:	87.219	yaw rate:	3.677	Roll:	-26.323	Pitch:	-2.929	Yaw:	122.737	Thrust:	100.000
Time:	3.588	Roll Set Point:	0.867	Pitch Set Point:	0.970	Yaw Set Point:	-1.509	X_WP:	0.000	Y_WP:	0.000	Y_WP:	0.750	X:	0.023	Y:	-0.892	Z:	0.400	yaw:	86.482	yaw rate:	73.661	Roll:	-25.783	Pitch:	-12.288	Yaw:	113.889	Thrust:	100.000
Time:	3.605	Roll Set Point:	0.868	Pitch Set Point:	0.959	Yaw Set Point:	-1.521	X_WP:	0.000	Y_WP:	0.000	Y_WP:	0.750	X:	0.022	Y:	-0.892	Z:	0.399	yaw:	87.172	yaw rate:	-69.006	Roll:	-27.405	Pitch:	7.870	Yaw:	133.699	Thrust:	100.000
Time:	3.626	Roll Set Point:	0.868	Pitch Set Point:	0.958	Yaw Set Point:	-1.522	X_WP:	0.000	Y_WP:	0.000	Y_WP:	0.750	X:	0.022	Y:	-0.892	Z:	0.399	yaw:	87.200	yaw rate:	-2.731	Roll:	-26.626	Pitch:	-2.147	Yaw:	124.175	Thrust:	100.000
Time:	3.646	Roll Set Point:	0.868	Pitch Set Point:	0.959	Yaw Set Point:	-1.521	X_WP:	0.000	Y_WP:	0.000	Y_WP:	0.750	X:	0.022	Y:	-0.892	Z:	0.399	yaw:	87.173	yaw rate:	2.665	Roll:	-26.509	Pitch:	-2.870	Yaw:	123.400	Thrust:	100.000
Time:	3.666	Roll Set Point:	0.868	Pitch Set Point:	0.958	Yaw Set Point:	-1.522	X_WP:	0.000	Y_WP:	0.000	Y_WP:	0.750	X:	0.022	Y:	-0.892	Z:	0.399	yaw:	87.201	yaw rate:	-2.848	Roll:	-26.615	Pitch:	-2.139	Yaw:	124.063	Thrust:	100.000
Time:	3.688	Roll Set Point:	0.868	Pitch Set Point:	0.957	Yaw Set Point:	-1.523	X_WP:	0.000	Y_WP:	0.000	Y_WP:	0.750	X:	0.022	Y:	-0.892	Z:	0.399	yaw:	87.261	yaw rate:	-5.963	Roll:	-26.711	Pitch:	-1.850	Yaw:	124.751	Thrust:	100.000
Time:	3.706	Roll Set Point:	0.868	Pitch Set Point:	0.958	Yaw Set Point:	-1.522	X_WP:	0.000	Y_WP:	0.000	Y_WP:	0.750	X:	0.022	Y:	-0.892	Z:	0.399	yaw:	87.224	yaw rate:	3.668	Roll:	-26.461	Pitch:	-3.024	Yaw:	123.036	Thrust:	100.000
Time:	3.726	Roll Set Point:	0.868	Pitch Set Point:	0.958	Yaw Set Point:	-1.522	X_WP:	0.000	Y_WP:	0.000	Y_WP:	0.750	X:	0.022	Y:	-0.892	Z:	0.399	yaw:	87.198	yaw rate:	2.601	Roll:	-26.527	Pitch:	-2.833	Yaw:	123.487	Thrust:	100.000
Time:	3.745	Roll Set Point:	0.868	Pitch Set Point:	0.960	Yaw Set Point:	-1.520	X_WP:	0.000	Y_WP:	0.000	Y_WP:	0.750	X:	0.022	Y:	-0.892	Z:	0.399	yaw:	87.111	yaw rate:	8.695	Roll:	-26.468	Pitch:	-3.744	Yaw:	122.391	Thrust:	100.000
Time:	3.766	Roll Set Point:	0.868	Pitch Set Point:	0.958	Yaw Set Point:	-1.523	X_WP:	0.000	Y_WP:	0.000	Y_WP:	0.750	X:	0.022	Y:	-0.893	Z:	0.399	yaw:	87.243	yaw rate:	-13.209	Roll:	-26.743	Pitch:	-0.739	Yaw:	125.547	Thrust:	100.000
Time:	3.787	Roll Set Point:	0.868	Pitch Set Point:	0.959	Yaw Set Point:	-1.521	X_WP:	0.000	Y_WP:	0.000	Y_WP:	0.750	X:	0.022	Y:	-0.892	Z:	0.399	yaw:	87.156	yaw rate:	8.787	Roll:	-26.495	Pitch:	-3.645	Yaw:	122.777	Thrust:	100.000
Time:	3.806	Roll Set Point:	0.868	Pitch Set Point:	0.957	Yaw Set Point:	-1.523	X_WP:	0.000	Y_WP:	0.000	Y_WP:	0.750	X:	0.022	Y:	-0.892	Z:	0.399	yaw:	87.280	yaw rate:	-12.410	Roll:	-26.663	Pitch:	-0.733	Yaw:	125.471	Thrust:	100.000
Time:	3.826	Roll Set Point:	0.868	Pitch Set Point:	0.958	Yaw Set Point:	-1.522	X_WP:	0.000	Y_WP:	0.000	Y_WP:	0.750	X:	0.022	Y:	-0.892	Z:	0.399	yaw:	87.221	yaw rate:	5.840	Roll:	-26.493	Pitch:	-3.313	Yaw:	122.973	Thrust:	100.000
Time:	3.848	Roll Set Point:	0.868	Pitch Set Point:	0.959	Yaw Set Point:	-1.521	X_WP:	0.000	Y_WP:	0.000	Y_WP:	0.750	X:	0.022	Y:	-0.892	Z:	0.399	yaw:	87.160	yaw rate:	6.158	Roll:	-26.543	Pitch:	-3.373	Yaw:	123.236	Thrust:	100.000
Time:	3.867	Roll Set Point:	0.868	Pitch Set Point:	0.959	Yaw Set Point:	-1.521	X_WP:	0.000	Y_WP:	0.000	Y_WP:	0.750	X:	0.022	Y:	-0.892	Z:	0.399	yaw:	87.156	yaw rate:	0.402	Roll:	-26.600	Pitch:	-2.680	Yaw:	123.595	Thrust:	100.000
Time:	3.888	Roll Set Point:	0.868	Pitch Set Point:	0.955	Yaw Set Point:	-1.526	X_WP:	0.000	Y_WP:	0.000	Y_WP:	0.750	X:	0.022	Y:	-0.893	Z:	0.399	yaw:	87.413	yaw rate:	-25.740	Roll:	-26.877	Pitch:	0.982	Yaw:	127.406	Thrust:	100.000
Time:	3.906	Roll Set Point:	0.868	Pitch Set Point:	0.959	Yaw Set Point:	-1.522	X_WP:	0.000	Y_WP:	0.000	Y_WP:	0.750	X:	0.022	Y:	-0.892	Z:	0.399	yaw:	87.185	yaw rate:	22.798	Roll:	-26.265	Pitch:	-5.771	Yaw:	120.434	Thrust:	100.000
Time:	3.926	Roll Set Point:	0.868	Pitch Set Point:	0.959	Yaw Set Point:	-1.522	X_WP:	0.000	Y_WP:	0.000	Y_WP:	0.750	X:	0.022	Y:	-0.892	Z:	0.399	yaw:	87.182	yaw rate:	0.294	Roll:	-26.546	Pitch:	-2.636	Yaw:	123.666	Thrust:	100.000
Time:	3.947	Roll Set Point:	0.867	Pitch Set Point:	0.969	Yaw Set Point:	-1.510	X_WP:	0.000	Y_WP:	0.000	Y_WP:	0.750	X:	0.023	Y:	-0.892	Z:	0.400	yaw:	86.518	yaw rate:	66.372	Roll:	-25.800	Pitch:	-11.806	Yaw:	114.471	Thrust:	100.000
Time:	3.966	Roll Set Point:	0.868	Pitch Set Point:	0.958	Yaw Set Point:	-1.522	X_WP:	0.000	Y_WP:	0.000	Y_WP:	0.750	X:	0.022	Y:	-0.892	Z:	0.399	yaw:	87.222	yaw rate:	-70.386	Roll:	-27.407	Pitch:	6.967	Yaw:	133.132	Thrust:	100.000
Time:	3.987	Roll Set Point:	0.868	Pitch Set Point:	0.956	Yaw Set Point:	-1.525	X_WP:	0.000	Y_WP:	0.000	Y_WP:	0.750	X:	0.022	Y:	-0.892	Z:	0.399	yaw:	87.354	yaw rate:	-13.192	Roll:	-26.691	Pitch:	-0.823	Yaw:	125.707	Thrust:	100.000
Time:	4.006	Roll Set Point:	0.868	Pitch Set Point:	0.959	Yaw Set Point:	-1.521	X_WP:	0.000	Y_WP:	0.000	Y_WP:	0.750	X:	0.022	Y:	-0.892	Z:	0.399	yaw:	87.174	yaw rate:	18.034	Roll:	-26.344	Pitch:	-5.015	Yaw:	121.229	Thrust:	100.000
Time:	4.026	Roll Set Point:	0.868	Pitch Set Point:	0.958	Yaw Set Point:	-1.523	X_WP:	0.000	Y_WP:	0.000	Y_WP:	0.750	X:	0.022	Y:	-0.892	Z:	0.399	yaw:	87.258	yaw rate:	-8.448	Roll:	-26.702	Pitch:	-1.414	Yaw:	124.923	Thrust:	100.000
Time:	4.047	Roll Set Point:	0.868	Pitch Set Point:	0.958	Yaw Set Point:	-1.522	X_WP:	0.000	Y_WP:	0.000	Y_WP:	0.750	X:	0.022	Y:	-0.892	Z:	0.399	yaw:	87.209	yaw rate:	4.973	Roll:	-26.500	Pitch:	-3.237	Yaw:	123.183	Thrust:	100.000
Time:	4.067	Roll Set Point:	0.868	Pitch Set Point:	0.958	Yaw Set Point:	-1.522	X_WP:	0.000	Y_WP:	0.000	Y_WP:	0.750	X:	0.022	Y:	-0.892	Z:	0.399	yaw:	87.197	yaw rate:	1.128	Roll:	-26.560	Pitch:	-2.722	Yaw:	123.555	Thrust:	100.000
Time:	4.087	Roll Set Point:	0.868	Pitch Set Point:	0.959	Yaw Set Point:	-1.521	X_WP:	0.000	Y_WP:	0.000	Y_WP:	0.750	X:	0.022	Y:	-0.892	Z:	0.399	yaw:	87.147	yaw rate:	5.056	Roll:	-26.515	Pitch:	-3.301	Yaw:	123.120	Thrust:	100.000
Time:	4.107	Roll Set Point:	0.868	Pitch Set Point:	0.959	Yaw Set Point:	-1.521	X_WP:	0.000	Y_WP:	0.000	Y_WP:	0.750	X:	0.022	Y:	-0.892	Z:	0.399	yaw:	87.175	yaw rate:	-2.795	Roll:	-26.599	Pitch:	-2.178	Yaw:	124.059	Thrust:	100.000
Time:	4.126	Roll Set Point:	0.868	Pitch Set Point:	0.959	Yaw Set Point:	-1.522	X_WP:	0.000	Y_WP:	0.000	Y_WP:	0.750	X:	0.022	Y:	-0.892	Z:	0.399	yaw:	87.185	yaw rate:	-1.056	Roll:	-26.578	Pitch:	-2.449	Yaw:	123.831	Thrust:	100.000
Time:	4.147	Roll Set Point:	0.868	Pitch Set Point:	0.958	Yaw Set Point:	-1.522	X_WP:	0.000	Y_WP:	0.000	Y_WP:	0.750	X:	0.022	Y:	-0.892	Z:	0.399	yaw:	87.209	yaw rate:	-2.405	Roll:	-26.602	Pitch:	-2.282	Yaw:	124.053	Thrust:	100.000
Time:	4.166	Roll Set Point:	0.868	Pitch Set Point:	0.959	Yaw Set Point:	-1.521	X_WP:	0.000	Y_WP:	0.000	Y_WP:	0.750	X:	0.022	Y:	-0.892	Z:	0.399	yaw:	87.144	yaw rate:	6.525	Roll:	-26.471	Pitch:	-3.494	Yaw:	122.832	Thrust:	100.000
Time:	4.187	Roll Set Point:	0.868	Pitch Set Point:	0.959	Yaw Set Point:	-1.522	X_WP:	0.000	Y_WP:	0.000	Y_WP:	0.750	X:	0.022	Y:	-0.892	Z:	0.399	yaw:	87.187	yaw rate:	-4.320	Roll:	-26.641	Pitch:	-2.115	Yaw:	124.357	Thrust:	100.000
Time:	4.206	Roll Set Point:	0.868	Pitch Set Point:	0.959	Yaw Set Point:	-1.522	X_WP:	0.000	Y_WP:	0.000	Y_WP:	0.750	X:	0.022	Y:	-0.892	Z:	0.399	yaw:	87.192	yaw rate:	-0.455	Roll:	-26.567	Pitch:	-2.521	Yaw:	123.739	Thrust:	100.000
Time:	4.226	Roll Set Point:	0.868	Pitch Set Point:	0.959	Yaw Set Point:	-1.521	X_WP:	0.000	Y_WP:	0.000	Y_WP:	0.750	X:	0.022	Y:	-0.892	Z:	0.399	yaw:	87.140	yaw rate:	5.222	Roll:	-26.499	Pitch:	-3.315	Yaw:	123.026	Thrust:	100.000
Time:	4.246	Roll Set Point:	0.868	Pitch Set Point:	0.959	Yaw Set Point:	-1.522	X_WP:	0.000	Y_WP:	0.000	Y_WP:	0.750	X:	0.022	Y:	-0.892	Z:	0.399	yaw:	87.178	yaw rate:	-3.830	Roll:	-26.599	Pitch:	-2.055	Yaw:	124.223	Thrust:	100.000
Time:	4.267	Roll Set Point:	0.868	Pitch Set Point:	0.958	Yaw Set Point:	-1.523	X_WP:	0.000	Y_WP:	0.000	Y_WP:	0.750	X:	0.022	Y:	-0.892	Z:	0.399	yaw:	87.253	yaw rate:	-7.498	Roll:	-26.696	Pitch:	-1.719	Yaw:	124.848	Thrust:	100.000
Time:	4.287	Roll Set Point:	0.868	Pitch Set Point:	0.959	Yaw Set Point:	-1.521	X_WP:	0.000	Y_WP:	0.000	Y_WP:	0.750	X:	0.022	Y:	-0.892	Z:	0.399	yaw:	87.150	yaw rate:	10.291	Roll:	-26.467	Pitch:	-4.015	Yaw:	122.424	Thrust:	100.000
Time:	4.307	Roll Set Point:	0.868	Pitch Set Point:	0.958	Yaw Set Point:	-1.522	X_WP:	0.000	Y_WP:	0.000	Y_WP:	0.750	X:	0.022	Y:	-0.892	Z:	0.399	yaw:	87.232	yaw rate:	-8.220	Roll:	-26.639	Pitch:	-1.418	Yaw:	124.830	Thrust:	100.000
Time:	4.327	Roll Set Point:	0.868	Pitch Set Point:	0.958	Yaw Set Point:	-1.522	X_WP:	0.000	Y_WP:	0.000	Y_WP:	0.750	X:	0.022	Y:	-0.892	Z:	0.399	yaw:	87.210	yaw rate:	2.231	Roll:	-26.529	Pitch:	-2.916	Yaw:	123.483	Thrust:	100.000
Time:	4.346	Roll Set Point:	0.868	Pitch Set Point:	0.958	Yaw Set Point:	-1.523	X_WP:	0.000	Y_WP:	0.000	Y_WP:	0.750	X:	0.022	Y:	-0.892	Z:	0.399	yaw:	87.246	yaw rate:	-3.659	Roll:	-26.609	Pitch:	-2.082	Yaw:	124.288	Thrust:	100.000
Time:	4.366	Roll Set Point:	0.868	Pitch Set Point:	0.958	Yaw Set Point:	-1.522	X_WP:	0.000	Y_WP:	0.000	Y_WP:	0.750	X:	0.022	Y:	-0.892	Z:	0.399	yaw:	87.223	yaw rate:	2.353	Roll:	-26.516	Pitch:	-2.909	Yaw:	123.484	Thrust:	100.000
Time:	4.388	Roll Set Point:	0.868	Pitch Set Point:	0.958	Yaw Set Point:	-1.522	X_WP:	0.000	Y_WP:	0.000	Y_WP:	0.750	X:	0.022	Y:	-0.892	Z:	0.399	yaw:	87.215	yaw rate:	0.830	Roll:	-26.642	Pitch:	-2.784	Yaw:	123.804	Thrust:	100.000
Time:	4.406	Roll Set Point:	0.868	Pitch Set Point:	0.959	Yaw Set Point:	-1.521	X_WP:	0.000	Y_WP:	0.000	Y_WP:	0.750	X:	0.022	Y:	-0.892	Z:	0.399	yaw:	87.154	yaw rate:	6.042	Roll:	-26.455	Pitch:	-3.526	Yaw:	122.656	Thrust:	100.000
Time:	4.426	Roll Set Point:	0.868	Pitch Set Point:	0.955	Yaw Set Point:	-1.526	X_WP:	0.000	Y_WP:	0.000	Y_WP:	0.750	X:	0.022	Y:	-0.892	Z:	0.399	yaw:	87.410	yaw rate:	-25.622	Roll:	-26.843	Pitch:	0.900	Yaw:	127.391	Thrust:	100.000
Time:	4.447	Roll Set Point:	0.868	Pitch Set Point:	0.958	Yaw Set Point:	-1.522	X_WP:	0.000	Y_WP:	0.000	Y_WP:	0.750	X:	0.022	Y:	-0.892	Z:	0.399	yaw:	87.204	yaw rate:	20.680	Roll:	-26.328	Pitch:	-5.440	Yaw:	120.897	Thrust:	100.000
Time:	4.467	Roll Set Point:	0.868	Pitch Set Point:	0.959	Yaw Set Point:	-1.521	X_WP:	0.000	Y_WP:	0.000	Y_WP:	0.750	X:	0.022	Y:	-0.892	Z:	0.399	yaw:	87.153	yaw rate:	5.035	Roll:	-26.530	Pitch:	-3.372	Yaw:	123.120	Thrust:	100.000
Time:	4.487	Roll Set Point:	0.868	Pitch Set Point:	0.958	Yaw Set Point:	-1.522	X_WP:	0.000	Y_WP:	0.000	Y_WP:	0.750	X:	0.022	Y:	-0.892	Z:	0.399	yaw:	87.199	yaw rate:	-4.610	Roll:	-26.642	Pitch:	-2.061	Yaw:	124.386	Thrust:	100.000
Time:	4.507	Roll Set Point:	0.868	Pitch Set Point:	0.959	Yaw Set Point:	-1.522	X_WP:	0.000	Y_WP:	0.000	Y_WP:	0.750	X:	0.022	Y:	-0.892	Z:	0.399	yaw:	87.184	yaw rate:	1.492	Roll:	-26.508	Pitch:	-2.795	Yaw:	123.530	Thrust:	100.000
Time:	4.527	Roll Set Point:	0.868	Pitch Set Point:	0.959	Yaw Set Point:	-1.521	X_WP:	0.000	Y_WP:	0.000	Y_WP:	0.750	X:	0.022	Y:	-0.892	Z:	0.399	yaw:	87.166	yaw rate:	1.837	Roll:	-26.542	Pitch:	-2.940	Yaw:	123.417	Thrust:	100.000
Time:	4.546	Roll Set Point:	0.868	Pitch Set Point:	0.958	Yaw Set Point:	-1.522	X_WP:	0.000	Y_WP:	0.000	Y_WP:	0.750	X:	0.022	Y:	-0.892	Z:	0.399	yaw:	87.213	yaw rate:	-4.664	Roll:	-26.634	Pitch:	-2.026	Yaw:	124.398	Thrust:	100.000
Time:	4.566	Roll Set Point:	0.868	Pitch Set Point:	0.955	Yaw Set Point:	-1.526	X_WP:	0.000	Y_WP:	0.000	Y_WP:	0.750	X:	0.022	Y:	-0.893	Z:	0.399	yaw:	87.429	yaw rate:	-21.618	Roll:	-26.824	Pitch:	0.405	Yaw:	126.923	Thrust:	100.000
Time:	4.588	Roll Set Point:	0.868	Pitch Set Point:	0.956	Yaw Set Point:	-1.525	X_WP:	0.000	Y_WP:	0.000	Y_WP:	0.750	X:	0.022	Y:	-0.893	Z:	0.399	yaw:	87.381	yaw rate:	4.743	Roll:	-26.585	Pitch:	-3.216	Yaw:	123.646	Thrust:	100.000
Time:	4.607	Roll Set Point:	0.868	Pitch Set Point:	0.958	Yaw Set Point:	-1.522	X_WP:	0.000	Y_WP:	0.000	Y_WP:	0.750	X:	0.022	Y:	-0.892	Z:	0.399	yaw:	87.223	yaw rate:	15.799	Roll:	-26.308	Pitch:	-4.841	Yaw:	121.373	Thrust:	100.000
Time:	4.626	Roll Set Point:	0.868	Pitch Set Point:	0.959	Yaw Set Point:	-1.521	X_WP:	0.000	Y_WP:	0.000	Y_WP:	0.750	X:	0.022	Y:	-0.892	Z:	0.399	yaw:	87.166	yaw rate:	5.781	Roll:	-26.519	Pitch:	-3.495	Yaw:	122.953	Thrust:	100.000
Time:	4.647	Roll Set Point:	0.868	Pitch Set Point:	0.959	Yaw Set Point:	-1.522	X_WP:	0.000	Y_WP:	0.000	Y_WP:	0.750	X:	0.022	Y:	-0.892	Z:	0.399	yaw:	87.187	yaw rate:	-2.145	Roll:	-26.587	Pitch:	-2.438	Yaw:	124.065	Thrust:	100.000
Time:	4.674	Roll Set Point:	0.868	Pitch Set Point:	0.959	Yaw Set Point:	-1.522	X_WP:	0.000	Y_WP:	0.000	Y_WP:	0.750	X:	0.022	Y:	-0.892	Z:	0.399	yaw:	87.194	yaw rate:	-0.728	Roll:	-26.890	Pitch:	-2.852	Yaw:	124.498	Thrust:	100.000
Time:	4.690	Roll Set Point:	0.868	Pitch Set Point:	0.958	Yaw Set Point:	-1.522	X_WP:	0.000	Y_WP:	0.000	Y_WP:	0.750	X:	0.022	Y:	-0.892	Z:	0.399	yaw:	87.218	yaw rate:	-2.338	Roll:	-26.430	Pitch:	-2.084	Yaw:	123.725	Thrust:	100.000
Time:	4.709	Roll Set Point:	0.868	Pitch Set Point:	0.958	Yaw Set Point:	-1.522	X_WP:	0.000	Y_WP:	0.000	Y_WP:	0.750	X:	0.022	Y:	-0.892	Z:	0.399	yaw:	87.211	yaw rate:	0.644	Roll:	-26.504	Pitch:	-2.683	Yaw:	123.671	Thrust:	100.000
Time:	4.732	Roll Set Point:	0.868	Pitch Set Point:	0.958	Yaw Set Point:	-1.523	X_WP:	0.000	Y_WP:	0.000	Y_WP:	0.750	X:	0.022	Y:	-0.892	Z:	0.399	yaw:	87.240	yaw rate:	-2.856	Roll:	-26.657	Pitch:	-2.397	Yaw:	124.356	Thrust:	100.000
Time:	4.747	Roll Set Point:	0.868	Pitch Set Point:	0.958	Yaw Set Point:	-1.523	X_WP:	0.000	Y_WP:	0.000	Y_WP:	0.750	X:	0.022	Y:	-0.892	Z:	0.399	yaw:	87.233	yaw rate:	0.678	Roll:	-26.485	Pitch:	-2.615	Yaw:	123.314	Thrust:	100.000
Time:	4.772	Roll Set Point:	0.868	Pitch Set Point:	0.959	Yaw Set Point:	-1.521	X_WP:	0.000	Y_WP:	0.000	Y_WP:	0.750	X:	0.022	Y:	-0.892	Z:	0.399	yaw:	87.154	yaw rate:	7.894	Roll:	-26.463	Pitch:	-3.776	Yaw:	123.365	Thrust:	100.000
Time:	4.788	Roll Set Point:	0.868	Pitch Set Point:	0.959	Yaw Set Point:	-1.521	X_WP:	0.000	Y_WP:	0.000	Y_WP:	0.750	X:	0.022	Y:	-0.892	Z:	0.399	yaw:	87.173	yaw rate:	-1.912	Roll:	-26.621	Pitch:	-2.430	Yaw:	123.573	Thrust:	100.000
Time:	4.807	Roll Set Point:	0.868	Pitch Set Point:	0.959	Yaw Set Point:	-1.522	X_WP:	0.000	Y_WP:	0.000	Y_WP:	0.750	X:	0.022	Y:	-0.892	Z:	0.399	yaw:	87.180	yaw rate:	-0.633	Roll:	-26.511	Pitch:	-2.542	Yaw:	123.707	Thrust:	100.000
Time:	4.827	Roll Set Point:	0.868	Pitch Set Point:	0.958	Yaw Set Point:	-1.522	X_WP:	0.000	Y_WP:	0.000	Y_WP:	0.750	X:	0.022	Y:	-0.892	Z:	0.399	yaw:	87.211	yaw rate:	-3.172	Roll:	-26.632	Pitch:	-2.272	Yaw:	124.207	Thrust:	100.000
Time:	4.847	Roll Set Point:	0.868	Pitch Set Point:	0.958	Yaw Set Point:	-1.522	X_WP:	0.000	Y_WP:	0.000	Y_WP:	0.750	X:	0.022	Y:	-0.892	Z:	0.399	yaw:	87.204	yaw rate:	0.694	Roll:	-26.556	Pitch:	-2.722	Yaw:	123.676	Thrust:	100.000
Time:	4.867	Roll Set Point:	0.868	Pitch Set Point:	0.958	Yaw Set Point:	-1.522	X_WP:	0.000	Y_WP:	0.000	Y_WP:	0.750	X:	0.022	Y:	-0.892	Z:	0.399	yaw:	87.197	yaw rate:	0.733	Roll:	-26.551	Pitch:	-2.731	Yaw:	123.606	Thrust:	100.000
Time:	4.888	Roll Set Point:	0.868	Pitch Set Point:	0.958	Yaw Set Point:	-1.522	X_WP:	0.000	Y_WP:	0.000	Y_WP:	0.750	X:	0.022	Y:	-0.892	Z:	0.399	yaw:	87.200	yaw rate:	-0.338	Roll:	-26.599	Pitch:	-2.658	Yaw:	123.909	Thrust:	100.000
Time:	4.907	Roll Set Point:	0.868	Pitch Set Point:	0.957	Yaw Set Point:	-1.524	X_WP:	0.000	Y_WP:	0.000	Y_WP:	0.750	X:	0.022	Y:	-0.892	Z:	0.399	yaw:	87.292	yaw rate:	-9.165	Roll:	-26.647	Pitch:	-1.348	Yaw:	125.047	Thrust:	100.000
Time:	4.927	Roll Set Point:	0.868	Pitch Set Point:	0.955	Yaw Set Point:	-1.526	X_WP:	0.000	Y_WP:	0.000	Y_WP:	0.750	X:	0.022	Y:	-0.893	Z:	0.399	yaw:	87.418	yaw rate:	-12.561	Roll:	-26.721	Pitch:	-0.846	Yaw:	125.703	Thrust:	100.000
Time:	4.948	Roll Set Point:	0.868	Pitch Set Point:	0.958	Yaw Set Point:	-1.522	X_WP:	0.000	Y_WP:	0.000	Y_WP:	0.750	X:	0.022	Y:	-0.892	Z:	0.399	yaw:	87.218	yaw rate:	19.962	Roll:	-26.325	Pitch:	-5.388	Yaw:	121.140	Thrust:	100.000
Time:	4.967	Roll Set Point:	0.868	Pitch Set Point:	0.959	Yaw Set Point:	-1.522	X_WP:	0.000	Y_WP:	0.000	Y_WP:	0.750	X:	0.022	Y:	-0.892	Z:	0.399	yaw:	87.176	yaw rate:	4.225	Roll:	-26.555	Pitch:	-3.308	Yaw:	123.181	Thrust:	100.000
Time:	4.989	Roll Set Point:	0.868	Pitch Set Point:	0.958	Yaw Set Point:	-1.522	X_WP:	0.000	Y_WP:	0.000	Y_WP:	0.750	X:	0.022	Y:	-0.892	Z:	0.399	yaw:	87.226	yaw rate:	-5.023	Roll:	-26.676	Pitch:	-2.055	Yaw:	124.582	Thrust:	100.000
Time:	5.007	Roll Set Point:	0.868	Pitch Set Point:	0.958	Yaw Set Point:	-1.522	X_WP:	0.000	Y_WP:	0.000	Y_WP:	0.750	X:	0.022	Y:	-0.892	Z:	0.399	yaw:	87.223	yaw rate:	0.313	Roll:	-26.476	Pitch:	-2.627	Yaw:	123.494	Thrust:	100.000
Time:	5.027	Roll Set Point:	0.868	Pitch Set Point:	0.958	Yaw Set Point:	-1.522	X_WP:	0.000	Y_WP:	0.000	Y_WP:	0.750	X:	0.022	Y:	-0.892	Z:	0.399	yaw:	87.226	yaw rate:	-0.345	Roll:	-26.613	Pitch:	-2.674	Yaw:	123.894	Thrust:	100.000
Time:	5.050	Roll Set Point:	0.867	Pitch Set Point:	0.970	Yaw Set Point:	-1.510	X_WP:	0.000	Y_WP:	0.000	Y_WP:	0.750	X:	0.023	Y:	-0.892	Z:	0.400	yaw:	86.503	yaw rate:	72.373	Roll:	-25.698	Pitch:	-12.536	Yaw:	114.900	Thrust:	100.000
Time:	5.067	Roll Set Point:	0.868	Pitch Set Point:	0.958	Yaw Set Point:	-1.522	X_WP:	0.000	Y_WP:	0.000	Y_WP:	0.750	X:	0.022	Y:	-0.892	Z:	0.399	yaw:	87.212	yaw rate:	-70.891	Roll:	-27.391	Pitch:	7.569	Yaw:	134.376	Thrust:	100.000
Time:	5.088	Roll Set Point:	0.868	Pitch Set Point:	0.958	Yaw Set Point:	-1.522	X_WP:	0.000	Y_WP:	0.000	Y_WP:	0.750	X:	0.022	Y:	-0.892	Z:	0.399	yaw:	87.232	yaw rate:	-2.048	Roll:	-26.621	Pitch:	-2.443	Yaw:	124.197	Thrust:	100.000
Time:	5.108	Roll Set Point:	0.868	Pitch Set Point:	0.959	Yaw Set Point:	-1.521	X_WP:	0.000	Y_WP:	0.000	Y_WP:	0.750	X:	0.022	Y:	-0.892	Z:	0.399	yaw:	87.140	yaw rate:	9.181	Roll:	-26.434	Pitch:	-3.970	Yaw:	122.249	Thrust:	100.000
Time:	5.127	Roll Set Point:	0.867	Pitch Set Point:	0.970	Yaw Set Point:	-1.510	X_WP:	0.000	Y_WP:	0.000	Y_WP:	0.750	X:	0.023	Y:	-0.892	Z:	0.400	yaw:	86.493	yaw rate:	64.763	Roll:	-25.760	Pitch:	-11.975	Yaw:	114.364	Thrust:	100.000
Time:	5.151	Roll Set Point:	0.868	Pitch Set Point:	0.958	Yaw Set Point:	-1.522	X_WP:	0.000	Y_WP:	0.000	Y_WP:	0.750	X:	0.022	Y:	-0.892	Z:	0.399	yaw:	87.218	yaw rate:	-72.489	Roll:	-27.431	Pitch:	6.915	Yaw:	132.481	Thrust:	100.000
Time:	5.169	Roll Set Point:	0.868	Pitch Set Point:	0.957	Yaw Set Point:	-1.523	X_WP:	0.000	Y_WP:	0.000	Y_WP:	0.750	X:	0.022	Y:	-0.892	Z:	0.399	yaw:	87.288	yaw rate:	-7.027	Roll:	-26.651	Pitch:	-1.684	Yaw:	124.735	Thrust:	100.000
Time:	5.191	Roll Set Point:	0.868	Pitch Set Point:	0.958	Yaw Set Point:	-1.523	X_WP:	0.000	Y_WP:	0.000	Y_WP:	0.750	X:	0.022	Y:	-0.892	Z:	0.399	yaw:	87.244	yaw rate:	4.332	Roll:	-26.619	Pitch:	-3.273	Yaw:	123.489	Thrust:	100.000
Time:	5.207	Roll Set Point:	0.868	Pitch Set Point:	0.959	Yaw Set Point:	-1.522	X_WP:	0.000	Y_WP:	0.000	Y_WP:	0.750	X:	0.022	Y:	-0.892	Z:	0.399	yaw:	87.188	yaw rate:	5.684	Roll:	-26.388	Pitch:	-3.483	Yaw:	122.512	Thrust:	100.000
Time:	5.228	Roll Set Point:	0.868	Pitch Set Point:	0.958	Yaw Set Point:	-1.523	X_WP:	0.000	Y_WP:	0.000	Y_WP:	0.750	X:	0.022	Y:	-0.892	Z:	0.399	yaw:	87.249	yaw rate:	-6.157	Roll:	-26.633	Pitch:	-1.746	Yaw:	124.646	Thrust:	100.000
Time:	5.251	Roll Set Point:	0.868	Pitch Set Point:	0.959	Yaw Set Point:	-1.521	X_WP:	0.000	Y_WP:	0.000	Y_WP:	0.750	X:	0.022	Y:	-0.892	Z:	0.399	yaw:	87.135	yaw rate:	11.450	Roll:	-26.455	Pitch:	-4.222	Yaw:	122.607	Thrust:	100.000
Time:	5.268	Roll Set Point:	0.867	Pitch Set Point:	0.969	Yaw Set Point:	-1.510	X_WP:	0.000	Y_WP:	0.000	Y_WP:	0.750	X:	0.023	Y:	-0.892	Z:	0.400	yaw:	86.507	yaw rate:	62.795	Roll:	-25.783	Pitch:	-11.656	Yaw:	113.282	Thrust:	100.000
