Time:	0.060	Roll Set Point:	-1.979	Pitch Set Point:	-0.145	Yaw Set Point:	1.378	X_WP:	0.000	Y_WP:	0.000	Z_WP:	0.500	X:	1.049	Y:	-0.743	Z:	0.040	yaw:	-78.930	yaw rate:	1.715	Roll:	13.953	Pitch:	13.309	Yaw:	-110.207	Thrust:	25.314
Time:	0.077	Roll Set Point:	-1.979	Pitch Set Point:	-0.145	Yaw Set Point:	1.378	X_WP:	0.000	Y_WP:	0.000	Z_WP:	0.500	X:	1.049	Y:	-0.743	Z:	0.040	yaw:	-78.935	yaw rate:	0.528	Roll:	13.907	Pitch:	13.434	Yaw:	-110.788	Thrust:	26.230
Time:	0.094	Roll Set Point:	-1.980	Pitch Set Point:	-0.145	Yaw Set Point:	1.378	X_WP:	0.000	Y_WP:	0.000	Z_WP:	0.500	X:	1.049	Y:	-0.742	Z:	0.040	yaw:	-78.926	yaw rate:	-0.937	Roll:	14.169	Pitch:	13.236	Yaw:	-110.999	Thrust:	27.213
Time:	0.112	Roll Set Point:	-1.980	Pitch Set Point:	-0.145	Yaw Set Point:	1.377	X_WP:	0.000	Y_WP:	0.000	Z_WP:	0.500	X:	1.049	Y:	-0.743	Z:	0.040	yaw:	-78.924	yaw rate:	-0.194	Roll:	14.122	Pitch:	13.397	Yaw:	-111.687	Thrust:	28.390
Time:	0.132	Roll Set Point:	-1.980	Pitch Set Point:	-0.145	Yaw Set Point:	1.377	X_WP:	0.000	Y_WP:	0.000	Z_WP:	0.500	X:	1.049	Y:	-0.743	Z:	0.040	yaw:	-78.925	yaw rate:	0.047	Roll:	14.137	Pitch:	13.490	Yaw:	-112.416	Thrust:	29.588
Time:	0.149	Roll Set Point:	-1.980	Pitch Set Point:	-0.145	Yaw Set Point:	1.377	X_WP:	0.000	Y_WP:	0.000	Z_WP:	0.500	X:	1.049	Y:	-0.743	Z:	0.040	yaw:	-78.916	yaw rate:	-0.853	Roll:	14.282	Pitch:	13.358	Yaw:	-112.346	Thrust:	30.078
Time:	0.167	Roll Set Point:	-1.979	Pitch Set Point:	-0.145	Yaw Set Point:	1.378	X_WP:	0.000	Y_WP:	0.000	Z_WP:	0.500	X:	1.049	Y:	-0.742	Z:	0.040	yaw:	-78.934	yaw rate:	1.765	Roll:	13.900	Pitch:	13.830	Yaw:	-113.384	Thrust:	31.112
Time:	0.184	Roll Set Point:	-1.980	Pitch Set Point:	-0.144	Yaw Set Point:	1.377	X_WP:	0.000	Y_WP:	0.000	Z_WP:	0.500	X:	1.049	Y:	-0.743	Z:	0.040	yaw:	-78.905	yaw rate:	-2.832	Roll:	14.686	Pitch:	13.117	Yaw:	-113.082	Thrust:	32.017
Time:	0.200	Roll Set Point:	-1.980	Pitch Set Point:	-0.144	Yaw Set Point:	1.377	X_WP:	0.000	Y_WP:	0.000	Z_WP:	0.500	X:	1.049	Y:	-0.743	Z:	0.040	yaw:	-78.893	yaw rate:	-1.265	Roll:	14.468	Pitch:	13.362	Yaw:	-113.274	Thrust:	32.655
Time:	0.221	Roll Set Point:	-1.979	Pitch Set Point:	-0.145	Yaw Set Point:	1.378	X_WP:	0.000	Y_WP:	0.000	Z_WP:	0.500	X:	1.049	Y:	-0.742	Z:	0.040	yaw:	-78.956	yaw rate:	6.347	Roll:	13.529	Pitch:	14.599	Yaw:	-115.183	Thrust:	35.540
Time:	0.241	Roll Set Point:	-1.980	Pitch Set Point:	-0.144	Yaw Set Point:	1.377	X_WP:	0.000	Y_WP:	0.000	Z_WP:	0.500	X:	1.049	Y:	-0.743	Z:	0.040	yaw:	-78.914	yaw rate:	-4.226	Roll:	14.987	Pitch:	13.198	Yaw:	-113.663	Thrust:	36.517
Time:	0.263	Roll Set Point:	-1.980	Pitch Set Point:	-0.144	Yaw Set Point:	1.377	X_WP:	0.000	Y_WP:	0.000	Z_WP:	0.500	X:	1.049	Y:	-0.743	Z:	0.040	yaw:	-78.877	yaw rate:	-3.692	Roll:	14.972	Pitch:	13.331	Yaw:	-114.121	Thrust:	38.452
Time:	0.284	Roll Set Point:	-1.979	Pitch Set Point:	-0.145	Yaw Set Point:	1.378	X_WP:	0.000	Y_WP:	0.000	Z_WP:	0.500	X:	1.049	Y:	-0.742	Z:	0.040	yaw:	-78.940	yaw rate:	6.282	Roll:	13.734	Pitch:	14.725	Yaw:	-115.115	Thrust:	39.155
Time:	0.305	Roll Set Point:	-1.979	Pitch Set Point:	-0.145	Yaw Set Point:	1.378	X_WP:	0.000	Y_WP:	0.000	Z_WP:	0.500	X:	1.049	Y:	-0.742	Z:	0.040	yaw:	-78.940	yaw rate:	0.026	Roll:	14.554	Pitch:	13.920	Yaw:	-114.445	Thrust:	40.424
Time:	0.325	Roll Set Point:	-1.980	Pitch Set Point:	-0.144	Yaw Set Point:	1.377	X_WP:	0.000	Y_WP:	0.000	Z_WP:	0.500	X:	1.049	Y:	-0.743	Z:	0.040	yaw:	-78.893	yaw rate:	-4.722	Roll:	15.260	Pitch:	13.267	Yaw:	-113.552	Thrust:	40.863
Time:	0.343	Roll Set Point:	-1.980	Pitch Set Point:	-0.144	Yaw Set Point:	1.377	X_WP:	0.000	Y_WP:	0.000	Z_WP:	0.500	X:	1.049	Y:	-0.742	Z:	0.040	yaw:	-78.912	yaw rate:	1.882	Roll:	14.342	Pitch:	14.200	Yaw:	-114.188	Thrust:	40.855
Time:	0.366	Roll Set Point:	-1.980	Pitch Set Point:	-0.145	Yaw Set Point:	1.377	X_WP:	0.000	Y_WP:	0.000	Z_WP:	0.500	X:	1.049	Y:	-0.742	Z:	0.040	yaw:	-78.920	yaw rate:	0.821	Roll:	14.662	Pitch:	14.203	Yaw:	-114.706	Thrust:	44.761
Time:	0.385	Roll Set Point:	-1.980	Pitch Set Point:	-0.144	Yaw Set Point:	1.377	X_WP:	0.000	Y_WP:	0.000	Z_WP:	0.500	X:	1.049	Y:	-0.743	Z:	0.040	yaw:	-78.915	yaw rate:	-0.495	Roll:	14.741	Pitch:	13.896	Yaw:	-113.961	Thrust:	42.414
Time:	0.404	Roll Set Point:	-1.980	Pitch Set Point:	-0.145	Yaw Set Point:	1.377	X_WP:	0.000	Y_WP:	0.000	Z_WP:	0.500	X:	1.049	Y:	-0.743	Z:	0.040	yaw:	-78.919	yaw rate:	0.446	Roll:	14.627	Pitch:	14.116	Yaw:	-114.072	Thrust:	45.367
Time:	0.426	Roll Set Point:	-1.980	Pitch Set Point:	-0.145	Yaw Set Point:	1.377	X_WP:	0.000	Y_WP:	0.000	Z_WP:	0.500	X:	1.049	Y:	-0.743	Z:	0.040	yaw:	-78.917	yaw rate:	-0.268	Roll:	14.780	Pitch:	14.077	Yaw:	-114.496	Thrust:	48.023
Time:	0.445	Roll Set Point:	-1.980	Pitch Set Point:	-0.145	Yaw Set Point:	1.377	X_WP:	0.000	Y_WP:	0.000	Z_WP:	0.500	X:	1.049	Y:	-0.742	Z:	0.040	yaw:	-78.920	yaw rate:	0.363	Roll:	14.651	Pitch:	14.091	Yaw:	-114.051	Thrust:	46.304
Time:	0.467	Roll Set Point:	-1.980	Pitch Set Point:	-0.145	Yaw Set Point:	1.378	X_WP:	0.000	Y_WP:	0.000	Z_WP:	0.500	X:	1.049	Y:	-0.743	Z:	0.040	yaw:	-78.926	yaw rate:	0.526	Roll:	14.724	Pitch:	14.198	Yaw:	-114.780	Thrust:	51.583
Time:	0.486	Roll Set Point:	-1.980	Pitch Set Point:	-0.144	Yaw Set Point:	1.377	X_WP:	0.000	Y_WP:	0.000	Z_WP:	0.500	X:	1.049	Y:	-0.743	Z:	0.040	yaw:	-78.916	yaw rate:	-0.976	Roll:	14.803	Pitch:	13.846	Yaw:	-113.565	Thrust:	46.698
Time:	0.500	Roll Set Point:	-1.980	Pitch Set Point:	-0.145	Yaw Set Point:	1.377	X_WP:	0.000	Y_WP:	0.000	Z_WP:	0.500	X:	1.049	Y:	-0.743	Z:	0.040	yaw:	-78.921	yaw rate:	0.550	Roll:	14.424	Pitch:	13.992	Yaw:	-113.415	Thrust:	45.112
Time:	0.520	Roll Set Point:	-1.979	Pitch Set Point:	-0.145	Yaw Set Point:	1.378	X_WP:	0.000	Y_WP:	0.000	Z_WP:	0.500	X:	1.049	Y:	-0.743	Z:	0.040	yaw:	-78.935	yaw rate:	1.348	Roll:	14.481	Pitch:	14.221	Yaw:	-114.416	Thrust:	52.023
Time:	0.541	Roll Set Point:	-1.980	Pitch Set Point:	-0.144	Yaw Set Point:	1.377	X_WP:	0.000	Y_WP:	0.000	Z_WP:	0.500	X:	1.049	Y:	-0.743	Z:	0.040	yaw:	-78.901	yaw rate:	-3.430	Roll:	15.177	Pitch:	13.641	Yaw:	-113.745	Thrust:	53.150
Time:	0.562	Roll Set Point:	-1.980	Pitch Set Point:	-0.144	Yaw Set Point:	1.377	X_WP:	0.000	Y_WP:	0.000	Z_WP:	0.500	X:	1.049	Y:	-0.743	Z:	0.040	yaw:	-78.900	yaw rate:	-0.024	Roll:	14.757	Pitch:	14.090	Yaw:	-114.473	Thrust:	56.223
Time:	0.580	Roll Set Point:	-1.979	Pitch Set Point:	-0.145	Yaw Set Point:	1.378	X_WP:	0.000	Y_WP:	0.000	Z_WP:	0.500	X:	1.049	Y:	-0.742	Z:	0.040	yaw:	-78.946	yaw rate:	4.585	Roll:	13.965	Pitch:	14.686	Yaw:	-114.469	Thrust:	51.895
Time:	0.600	Roll Set Point:	-1.979	Pitch Set Point:	-0.145	Yaw Set Point:	1.378	X_WP:	0.000	Y_WP:	0.000	Z_WP:	0.500	X:	1.049	Y:	-0.742	Z:	0.040	yaw:	-78.935	yaw rate:	-1.099	Roll:	14.845	Pitch:	13.912	Yaw:	-114.153	Thrust:	56.850
Time:	0.621	Roll Set Point:	-1.980	Pitch Set Point:	-0.144	Yaw Set Point:	1.377	X_WP:	0.000	Y_WP:	0.000	Z_WP:	0.500	X:	1.049	Y:	-0.743	Z:	0.040	yaw:	-78.888	yaw rate:	-4.766	Roll:	15.349	Pitch:	13.430	Yaw:	-113.573	Thrust:	57.694
Time:	0.641	Roll Set Point:	-1.979	Pitch Set Point:	-0.145	Yaw Set Point:	1.378	X_WP:	0.000	Y_WP:	0.000	Z_WP:	0.500	X:	1.049	Y:	-0.743	Z:	0.040	yaw:	-78.939	yaw rate:	5.105	Roll:	14.019	Pitch:	14.773	Yaw:	-114.950	Thrust:	59.052
Time:	0.662	Roll Set Point:	-1.979	Pitch Set Point:	-0.145	Yaw Set Point:	1.378	X_WP:	0.000	Y_WP:	0.000	Z_WP:	0.500	X:	1.049	Y:	-0.742	Z:	0.040	yaw:	-78.946	yaw rate:	0.695	Roll:	14.648	Pitch:	14.200	Yaw:	-114.546	Thrust:	60.670
Time:	0.681	Roll Set Point:	-1.980	Pitch Set Point:	-0.145	Yaw Set Point:	1.378	X_WP:	0.000	Y_WP:	0.000	Z_WP:	0.500	X:	1.049	Y:	-0.743	Z:	0.040	yaw:	-78.928	yaw rate:	-1.736	Roll:	14.928	Pitch:	13.772	Yaw:	-113.691	Thrust:	59.203
Time:	0.701	Roll Set Point:	-1.980	Pitch Set Point:	-0.144	Yaw Set Point:	1.377	X_WP:	0.000	Y_WP:	0.000	Z_WP:	0.500	X:	1.049	Y:	-0.743	Z:	0.040	yaw:	-78.888	yaw rate:	-3.998	Roll:	15.236	Pitch:	13.531	Yaw:	-113.765	Thrust:	62.806
Time:	0.721	Roll Set Point:	-1.979	Pitch Set Point:	-0.145	Yaw Set Point:	1.378	X_WP:	0.000	Y_WP:	0.000	Z_WP:	0.500	X:	1.049	Y:	-0.742	Z:	0.040	yaw:	-78.949	yaw rate:	6.037	Roll:	13.857	Pitch:	14.906	Yaw:	-114.907	Thrust:	61.547
Time:	0.741	Roll Set Point:	-1.980	Pitch Set Point:	-0.145	Yaw Set Point:	1.377	X_WP:	0.000	Y_WP:	0.000	Z_WP:	0.500	X:	1.049	Y:	-0.743	Z:	0.040	yaw:	-78.916	yaw rate:	-3.220	Roll:	15.159	Pitch:	13.620	Yaw:	-113.916	Thrust:	65.311
Time:	0.766	Roll Set Point:	-1.980	Pitch Set Point:	-0.145	Yaw Set Point:	1.377	X_WP:	0.000	Y_WP:	0.000	Z_WP:	0.500	X:	1.049	Y:	-0.743	Z:	0.040	yaw:	-78.921	yaw rate:	0.481	Roll:	14.833	Pitch:	14.288	Yaw:	-115.164	Thrust:	73.206
Time:	0.783	Roll Set Point:	-1.979	Pitch Set Point:	-0.145	Yaw Set Point:	1.378	X_WP:	0.000	Y_WP:	0.000	Z_WP:	0.500	X:	1.049	Y:	-0.742	Z:	0.040	yaw:	-78.931	yaw rate:	0.988	Roll:	14.443	Pitch:	14.118	Yaw:	-113.824	Thrust:	61.725
Time:	0.804	Roll Set Point:	-1.980	Pitch Set Point:	-0.144	Yaw Set Point:	1.377	X_WP:	0.000	Y_WP:	0.000	Z_WP:	0.500	X:	1.049	Y:	-0.742	Z:	0.040	yaw:	-78.905	yaw rate:	-2.560	Roll:	15.061	Pitch:	13.732	Yaw:	-114.059	Thrust:	68.374
Time:	0.827	Roll Set Point:	-1.980	Pitch Set Point:	-0.144	Yaw Set Point:	1.377	X_WP:	0.000	Y_WP:	0.000	Z_WP:	0.500	X:	1.049	Y:	-0.743	Z:	0.040	yaw:	-78.900	yaw rate:	-0.517	Roll:	14.866	Pitch:	14.084	Yaw:	-114.645	Thrust:	74.170
Time:	0.844	Roll Set Point:	-1.980	Pitch Set Point:	-0.144	Yaw Set Point:	1.377	X_WP:	0.000	Y_WP:	0.000	Z_WP:	0.500	X:	1.049	Y:	-0.743	Z:	0.040	yaw:	-78.897	yaw rate:	-0.293	Roll:	14.689	Pitch:	13.920	Yaw:	-113.562	Thrust:	64.531
Time:	0.868	Roll Set Point:	-1.980	Pitch Set Point:	-0.145	Yaw Set Point:	1.377	X_WP:	0.000	Y_WP:	0.000	Z_WP:	0.500	X:	1.049	Y:	-0.743	Z:	0.040	yaw:	-78.922	yaw rate:	2.492	Roll:	14.529	Pitch:	14.471	Yaw:	-115.179	Thrust:	78.546
Time:	0.884	Roll Set Point:	-1.980	Pitch Set Point:	-0.145	Yaw Set Point:	1.377	X_WP:	0.000	Y_WP:	0.000	Z_WP:	0.500	X:	1.049	Y:	-0.743	Z:	0.040	yaw:	-78.923	yaw rate:	0.109	Roll:	14.577	Pitch:	13.971	Yaw:	-113.562	Thrust:	64.136
Time:	0.905	Roll Set Point:	-1.980	Pitch Set Point:	-0.145	Yaw Set Point:	1.377	X_WP:	0.000	Y_WP:	0.000	Z_WP:	0.500	X:	1.049	Y:	-0.743	Z:	0.040	yaw:	-78.924	yaw rate:	0.042	Roll:	14.709	Pitch:	14.092	Yaw:	-114.315	Thrust:	74.139
Time:	0.921	Roll Set Point:	-1.980	Pitch Set Point:	-0.145	Yaw Set Point:	1.378	X_WP:	0.000	Y_WP:	0.000	Z_WP:	0.500	X:	1.049	Y:	-0.742	Z:	0.040	yaw:	-78.927	yaw rate:	0.362	Roll:	14.506	Pitch:	13.959	Yaw:	-113.488	Thrust:	64.530
Time:	0.941	Roll Set Point:	-1.979	Pitch Set Point:	-0.145	Yaw Set Point:	1.378	X_WP:	0.000	Y_WP:	0.000	Z_WP:	0.500	X:	1.049	Y:	-0.742	Z:	0.040	yaw:	-78.944	yaw rate:	1.639	Roll:	14.474	Pitch:	14.290	Yaw:	-114.401	Thrust:	74.508
Time:	0.962	Roll Set Point:	-1.980	Pitch Set Point:	-0.145	Yaw Set Point:	1.377	X_WP:	0.000	Y_WP:	0.000	Z_WP:	0.500	X:	1.049	Y:	-0.743	Z:	0.040	yaw:	-78.920	yaw rate:	-2.355	Roll:	15.048	Pitch:	13.784	Yaw:	-114.127	Thrust:	78.950
Time:	0.981	Roll Set Point:	-1.980	Pitch Set Point:	-0.144	Yaw Set Point:	1.377	X_WP:	0.000	Y_WP:	0.000	Z_WP:	0.500	X:	1.049	Y:	-0.743	Z:	0.040	yaw:	-78.891	yaw rate:	-2.877	Roll:	15.054	Pitch:	13.531	Yaw:	-113.505	Thrust:	71.465
Time:	1.001	Roll Set Point:	-1.979	Pitch Set Point:	-0.145	Yaw Set Point:	1.378	X_WP:	0.000	Y_WP:	0.000	Z_WP:	0.500	X:	1.049	Y:	-0.742	Z:	0.040	yaw:	-78.940	yaw rate:	4.870	Roll:	14.083	Pitch:	14.739	Yaw:	-114.860	Thrust:	80.979
Time:	1.021	Roll Set Point:	-1.979	Pitch Set Point:	-0.145	Yaw Set Point:	1.378	X_WP:	0.000	Y_WP:	0.000	Z_WP:	0.500	X:	1.049	Y:	-0.743	Z:	0.040	yaw:	-78.937	yaw rate:	-0.279	Roll:	14.749	Pitch:	13.998	Yaw:	-114.114	Thrust:	78.565
Time:	1.041	Roll Set Point:	-1.980	Pitch Set Point:	-0.145	Yaw Set Point:	1.377	X_WP:	0.000	Y_WP:	0.000	Z_WP:	0.500	X:	1.049	Y:	-0.742	Z:	0.040	yaw:	-78.923	yaw rate:	-1.406	Roll:	14.890	Pitch:	13.876	Yaw:	-114.160	Thrust:	82.492
Time:	1.071	Roll Set Point:	-1.979	Pitch Set Point:	-0.145	Yaw Set Point:	1.378	X_WP:	0.000	Y_WP:	0.000	Z_WP:	0.500	X:	1.049	Y:	-0.742	Z:	0.040	yaw:	-78.946	yaw rate:	2.256	Roll:	14.842	Pitch:	14.626	Yaw:	-116.301	Thrust:	100.000
Time:	1.093	Roll Set Point:	-1.979	Pitch Set Point:	-0.145	Yaw Set Point:	1.378	X_WP:	0.000	Y_WP:	0.000	Z_WP:	0.500	X:	1.049	Y:	-0.742	Z:	0.040	yaw:	-78.933	yaw rate:	-1.295	Roll:	14.894	Pitch:	13.958	Yaw:	-114.263	Thrust:	87.331
Time:	1.112	Roll Set Point:	-1.980	Pitch Set Point:	-0.144	Yaw Set Point:	1.377	X_WP:	0.000	Y_WP:	0.000	Z_WP:	0.500	X:	1.049	Y:	-0.743	Z:	0.040	yaw:	-78.898	yaw rate:	-3.452	Roll:	15.179	Pitch:	13.513	Yaw:	-113.775	Thrust:	81.756
Time:	1.130	Roll Set Point:	-1.979	Pitch Set Point:	-0.145	Yaw Set Point:	1.378	X_WP:	0.000	Y_WP:	0.000	Z_WP:	0.500	X:	1.049	Y:	-0.743	Z:	0.040	yaw:	-78.936	yaw rate:	3.789	Roll:	14.142	Pitch:	14.587	Yaw:	-114.376	Thrust:	82.215
Time:	1.145	Roll Set Point:	-1.980	Pitch Set Point:	-0.145	Yaw Set Point:	1.377	X_WP:	0.000	Y_WP:	0.000	Z_WP:	0.500	X:	1.049	Y:	-0.743	Z:	0.040	yaw:	-78.919	yaw rate:	-1.738	Roll:	14.843	Pitch:	13.578	Yaw:	-112.995	Thrust:	72.176
Time:	1.164	Roll Set Point:	-1.980	Pitch Set Point:	-0.145	Yaw Set Point:	1.378	X_WP:	0.000	Y_WP:	0.000	Z_WP:	0.500	X:	1.049	Y:	-0.742	Z:	0.040	yaw:	-78.925	yaw rate:	0.623	Roll:	14.515	Pitch:	14.091	Yaw:	-114.003	Thrust:	82.868
Time:	1.183	Roll Set Point:	-1.979	Pitch Set Point:	-0.145	Yaw Set Point:	1.378	X_WP:	0.000	Y_WP:	0.000	Z_WP:	0.500	X:	1.049	Y:	-0.743	Z:	0.040	yaw:	-78.942	yaw rate:	1.688	Roll:	14.400	Pitch:	14.268	Yaw:	-114.204	Thrust:	84.189
Time:	1.203	Roll Set Point:	-1.980	Pitch Set Point:	-0.145	Yaw Set Point:	1.377	X_WP:	0.000	Y_WP:	0.000	Z_WP:	0.500	X:	1.049	Y:	-0.743	Z:	0.040	yaw:	-78.919	yaw rate:	-2.293	Roll:	15.031	Pitch:	13.710	Yaw:	-113.915	Thrust:	88.119
Time:	1.222	Roll Set Point:	-1.979	Pitch Set Point:	-0.145	Yaw Set Point:	1.378	X_WP:	0.000	Y_WP:	0.000	Z_WP:	0.500	X:	1.049	Y:	-0.743	Z:	0.040	yaw:	-78.932	yaw rate:	1.240	Roll:	14.464	Pitch:	14.221	Yaw:	-114.165	Thrust:	88.578
Time:	1.243	Roll Set Point:	-1.979	Pitch Set Point:	-0.145	Yaw Set Point:	1.378	X_WP:	0.000	Y_WP:	0.000	Z_WP:	0.500	X:	1.049	Y:	-0.742	Z:	0.040	yaw:	-78.946	yaw rate:	1.398	Roll:	14.563	Pitch:	14.282	Yaw:	-114.664	Thrust:	95.988
Time:	1.264	Roll Set Point:	-1.979	Pitch Set Point:	-0.145	Yaw Set Point:	1.378	X_WP:	0.000	Y_WP:	0.000	Z_WP:	0.500	X:	1.049	Y:	-0.743	Z:	0.040	yaw:	-78.940	yaw rate:	-0.514	Roll:	14.810	Pitch:	14.006	Yaw:	-114.178	Thrust:	93.041
Time:	1.282	Roll Set Point:	-1.980	Pitch Set Point:	-0.145	Yaw Set Point:	1.378	X_WP:	0.000	Y_WP:	0.000	Z_WP:	0.500	X:	1.049	Y:	-0.743	Z:	0.040	yaw:	-78.929	yaw rate:	-1.096	Roll:	14.798	Pitch:	13.818	Yaw:	-113.903	Thrust:	91.174
Time:	1.303	Roll Set Point:	-1.980	Pitch Set Point:	-0.145	Yaw Set Point:	1.377	X_WP:	0.000	Y_WP:	0.000	Z_WP:	0.500	X:	1.049	Y:	-0.742	Z:	0.040	yaw:	-78.923	yaw rate:	-0.632	Roll:	14.826	Pitch:	14.027	Yaw:	-114.284	Thrust:	96.088
Time:	1.325	Roll Set Point:	-1.980	Pitch Set Point:	-0.144	Yaw Set Point:	1.377	X_WP:	0.000	Y_WP:	0.000	Z_WP:	0.500	X:	1.049	Y:	-0.743	Z:	0.040	yaw:	-78.882	yaw rate:	-4.094	Roll:	15.265	Pitch:	13.557	Yaw:	-113.861	Thrust:	100.000
Time:	1.343	Roll Set Point:	-1.980	Pitch Set Point:	-0.145	Yaw Set Point:	1.378	X_WP:	0.000	Y_WP:	0.000	Z_WP:	0.500	X:	1.049	Y:	-0.742	Z:	0.040	yaw:	-78.927	yaw rate:	4.435	Roll:	14.042	Pitch:	14.657	Yaw:	-114.468	Thrust:	90.452
Time:	1.364	Roll Set Point:	-1.980	Pitch Set Point:	-0.145	Yaw Set Point:	1.377	X_WP:	0.000	Y_WP:	0.000	Z_WP:	0.500	X:	1.049	Y:	-0.742	Z:	0.040	yaw:	-78.922	yaw rate:	-0.467	Roll:	14.830	Pitch:	14.057	Yaw:	-114.459	Thrust:	100.000
Time:	1.382	Roll Set Point:	-1.980	Pitch Set Point:	-0.144	Yaw Set Point:	1.377	X_WP:	0.000	Y_WP:	0.000	Z_WP:	0.500	X:	1.049	Y:	-0.743	Z:	0.040	yaw:	-78.906	yaw rate:	-1.600	Roll:	14.865	Pitch:	13.714	Yaw:	-113.454	Thrust:	90.461
Time:	1.403	Roll Set Point:	-1.980	Pitch Set Point:	-0.145	Yaw Set Point:	1.377	X_WP:	0.000	Y_WP:	0.000	Z_WP:	0.500	X:	1.049	Y:	-0.743	Z:	0.040	yaw:	-78.916	yaw rate:	1.046	Roll:	14.646	Pitch:	14.252	Yaw:	-114.651	Thrust:	100.000
Time:	1.422	Roll Set Point:	-1.980	Pitch Set Point:	-0.145	Yaw Set Point:	1.378	X_WP:	0.000	Y_WP:	0.000	Z_WP:	0.500	X:	1.049	Y:	-0.743	Z:	0.040	yaw:	-78.929	yaw rate:	1.265	Roll:	14.427	Pitch:	14.177	Yaw:	-113.940	Thrust:	92.948
Time:	1.442	Roll Set Point:	-1.980	Pitch Set Point:	-0.145	Yaw Set Point:	1.378	X_WP:	0.000	Y_WP:	0.000	Z_WP:	0.500	X:	1.049	Y:	-0.743	Z:	0.040	yaw:	-78.926	yaw rate:	-0.320	Roll:	14.777	Pitch:	14.041	Yaw:	-114.282	Thrust:	100.000
Time:	1.463	Roll Set Point:	-1.980	Pitch Set Point:	-0.144	Yaw Set Point:	1.377	X_WP:	0.000	Y_WP:	0.000	Z_WP:	0.500	X:	1.049	Y:	-0.743	Z:	0.040	yaw:	-78.915	yaw rate:	-1.059	Roll:	14.872	Pitch:	13.941	Yaw:	-114.385	Thrust:	100.000
Time:	1.483	Roll Set Point:	-1.980	Pitch Set Point:	-0.145	Yaw Set Point:	1.377	X_WP:	0.000	Y_WP:	0.000	Z_WP:	0.500	X:	1.049	Y:	-0.742	Z:	0.040	yaw:	-78.924	yaw rate:	0.876	Roll:	14.544	Pitch:	14.200	Yaw:	-114.252	Thrust:	100.000
Time:	1.504	Roll Set Point:	-1.980	Pitch Set Point:	-0.144	Yaw Set Point:	1.377	X_WP:	0.000	Y_WP:	0.000	Z_WP:	0.500	X:	1.049	Y:	-0.743	Z:	0.040	yaw:	-78.914	yaw rate:	-1.017	Roll:	14.900	Pitch:	13.941	Yaw:	-114.275	Thrust:	100.000
Time:	1.522	Roll Set Point:	-1.979	Pitch Set Point:	-0.145	Yaw Set Point:	1.378	X_WP:	0.000	Y_WP:	0.000	Z_WP:	0.500	X:	1.049	Y:	-0.743	Z:	0.040	yaw:	-78.942	yaw rate:	2.816	Roll:	14.193	Pitch:	14.422	Yaw:	-114.267	Thrust:	97.907
Time:	1.543	Roll Set Point:	-1.980	Pitch Set Point:	-0.145	Yaw Set Point:	1.377	X_WP:	0.000	Y_WP:	0.000	Z_WP:	0.500	X:	1.049	Y:	-0.742	Z:	0.040	yaw:	-78.924	yaw rate:	-1.768	Roll:	14.955	Pitch:	13.850	Yaw:	-114.164	Thrust:	100.000
Time:	1.565	Roll Set Point:	-1.980	Pitch Set Point:	-0.144	Yaw Set Point:	1.377	X_WP:	0.000	Y_WP:	0.000	Z_WP:	0.500	X:	1.049	Y:	-0.743	Z:	0.040	yaw:	-78.912	yaw rate:	-1.200	Roll:	14.945	Pitch:	14.000	Yaw:	-114.464	Thrust:	100.000
Time:	1.582	Roll Set Point:	-1.979	Pitch Set Point:	-0.145	Yaw Set Point:	1.378	X_WP:	0.000	Y_WP:	0.000	Z_WP:	0.500	X:	1.049	Y:	-0.742	Z:	0.040	yaw:	-78.935	yaw rate:	2.326	Roll:	14.171	Pitch:	14.328	Yaw:	-113.919	Thrust:	98.624
Time:	1.602	Roll Set Point:	-1.980	Pitch Set Point:	-0.144	Yaw Set Point:	1.377	X_WP:	0.000	Y_WP:	0.000	Z_WP:	0.500	X:	1.049	Y:	-0.743	Z:	0.040	yaw:	-78.906	yaw rate:	-2.916	Roll:	15.130	Pitch:	13.703	Yaw:	-113.799	Thrust:	100.000
Time:	1.622	Roll Set Point:	-1.980	Pitch Set Point:	-0.144	Yaw Set Point:	1.377	X_WP:	0.000	Y_WP:	0.000	Z_WP:	0.500	X:	1.049	Y:	-0.743	Z:	0.040	yaw:	-78.904	yaw rate:	-0.226	Roll:	14.722	Pitch:	14.001	Yaw:	-114.079	Thrust:	100.000
Time:	1.643	Roll Set Point:	-1.979	Pitch Set Point:	-0.145	Yaw Set Point:	1.378	X_WP:	0.000	Y_WP:	0.000	Z_WP:	0.500	X:	1.049	Y:	-0.742	Z:	0.040	yaw:	-78.943	yaw rate:	3.868	Roll:	14.217	Pitch:	14.611	Yaw:	-115.004	Thrust:	100.000
Time:	1.664	Roll Set Point:	-1.979	Pitch Set Point:	-0.145	Yaw Set Point:	1.378	X_WP:	0.000	Y_WP:	0.000	Z_WP:	0.500	X:	1.049	Y:	-0.742	Z:	0.040	yaw:	-78.946	yaw rate:	0.316	Roll:	14.705	Pitch:	14.145	Yaw:	-114.328	Thrust:	100.000
Time:	1.682	Roll Set Point:	-1.980	Pitch Set Point:	-0.144	Yaw Set Point:	1.377	X_WP:	0.000	Y_WP:	0.000	Z_WP:	0.500	X:	1.049	Y:	-0.743	Z:	0.040	yaw:	-78.907	yaw rate:	-3.886	Roll:	15.210	Pitch:	13.400	Yaw:	-113.235	Thrust:	100.000
Time:	1.701	Roll Set Point:	-1.980	Pitch Set Point:	-0.144	Yaw Set Point:	1.377	X_WP:	0.000	Y_WP:	0.000	Z_WP:	0.500	X:	1.049	Y:	-0.742	Z:	0.040	yaw:	-78.913	yaw rate:	0.562	Roll:	14.592	Pitch:	14.112	Yaw:	-114.183	Thrust:	100.000
Time:	1.723	Roll Set Point:	-1.980	Pitch Set Point:	-0.145	Yaw Set Point:	1.378	X_WP:	0.000	Y_WP:	0.000	Z_WP:	0.500	X:	1.049	Y:	-0.742	Z:	0.040	yaw:	-78.927	yaw rate:	1.467	Roll:	14.537	Pitch:	14.296	Yaw:	-114.720	Thrust:	100.000
Time:	1.741	Roll Set Point:	-1.980	Pitch Set Point:	-0.145	Yaw Set Point:	1.378	X_WP:	0.000	Y_WP:	0.000	Z_WP:	0.500	X:	1.049	Y:	-0.742	Z:	0.040	yaw:	-78.929	yaw rate:	0.166	Roll:	14.647	Pitch:	14.008	Yaw:	-113.841	Thrust:	100.000
Time:	1.763	Roll Set Point:	-1.980	Pitch Set Point:	-0.144	Yaw Set Point:	1.377	X_WP:	0.000	Y_WP:	0.000	Z_WP:	0.500	X:	1.049	Y:	-0.743	Z:	0.040	yaw:	-78.893	yaw rate:	-3.572	Roll:	15.243	Pitch:	13.711	Yaw:	-114.158	Thrust:	100.000
Time:	1.781	Roll Set Point:	-1.980	Pitch Set Point:	-0.145	Yaw Set Point:	1.377	X_WP:	0.000	Y_WP:	0.000	Z_WP:	0.500	X:	1.049	Y:	-0.742	Z:	0.040	yaw:	-78.925	yaw rate:	3.127	Roll:	14.130	Pitch:	14.468	Yaw:	-114.204	Thrust:	100.000
Time:	1.803	Roll Set Point:	-1.979	Pitch Set Point:	-0.145	Yaw Set Point:	1.378	X_WP:	0.000	Y_WP:	0.000	Z_WP:	0.500	X:	1.049	Y:	-0.742	Z:	0.040	yaw:	-78.941	yaw rate:	1.656	Roll:	14.533	Pitch:	14.317	Yaw:	-114.743	Thrust:	100.000
Time:	1.821	Roll Set Point:	-1.980	Pitch Set Point:	-0.145	Yaw Set Point:	1.377	X_WP:	0.000	Y_WP:	0.000	Z_WP:	0.500	X:	1.049	Y:	-0.743	Z:	0.040	yaw:	-78.925	yaw rate:	-1.646	Roll:	14.895	Pitch:	13.746	Yaw:	-113.562	Thrust:	100.000
Time:	1.841	Roll Set Point:	-1.979	Pitch Set Point:	-0.145	Yaw Set Point:	1.378	X_WP:	0.000	Y_WP:	0.000	Z_WP:	0.500	X:	1.049	Y:	-0.743	Z:	0.040	yaw:	-78.956	yaw rate:	3.166	Roll:	14.295	Pitch:	14.515	Yaw:	-114.707	Thrust:	100.000
Time:	1.862	Roll Set Point:	-1.979	Pitch Set Point:	-0.145	Yaw Set Point:	1.378	X_WP:	0.000	Y_WP:	0.000	Z_WP:	0.500	X:	1.049	Y:	-0.742	Z:	0.040	yaw:	-78.955	yaw rate:	-0.099	Roll:	14.714	Pitch:	14.085	Yaw:	-114.465	Thrust:	100.000
Time:	1.886	Roll Set Point:	-1.980	Pitch Set Point:	-0.144	Yaw Set Point:	1.377	X_WP:	0.000	Y_WP:	0.000	Z_WP:	0.500	X:	1.049	Y:	-0.743	Z:	0.040	yaw:	-78.911	yaw rate:	-4.411	Roll:	15.357	Pitch:	13.658	Yaw:	-114.389	Thrust:	100.000
Time:	1.905	Roll Set Point:	-1.980	Pitch Set Point:	-0.145	Yaw Set Point:	1.377	X_WP:	0.000	Y_WP:	0.000	Z_WP:	0.500	X:	1.049	Y:	-0.742	Z:	0.040	yaw:	-78.924	yaw rate:	1.255	Roll:	14.482	Pitch:	14.226	Yaw:	-114.251	Thrust:	100.000
Time:	1.927	Roll Set Point:	-1.979	Pitch Set Point:	-0.145	Yaw Set Point:	1.378	X_WP:	0.000	Y_WP:	0.000	Z_WP:	0.500	X:	1.049	Y:	-0.743	Z:	0.040	yaw:	-78.946	yaw rate:	2.189	Roll:	14.451	Pitch:	14.381	Yaw:	-114.731	Thrust:	100.000
Time:	1.945	Roll Set Point:	-1.979	Pitch Set Point:	-0.145	Yaw Set Point:	1.378	X_WP:	0.000	Y_WP:	0.000	Z_WP:	0.500	X:	1.049	Y:	-0.743	Z:	0.040	yaw:	-78.935	yaw rate:	-1.055	Roll:	14.814	Pitch:	13.889	Yaw:	-113.895	Thrust:	100.000
Time:	1.967	Roll Set Point:	-1.980	Pitch Set Point:	-0.145	Yaw Set Point:	1.377	X_WP:	0.000	Y_WP:	0.000	Z_WP:	0.500	X:	1.049	Y:	-0.743	Z:	0.040	yaw:	-78.917	yaw rate:	-1.854	Roll:	15.027	Pitch:	13.913	Yaw:	-114.373	Thrust:	100.000
Time:	1.985	Roll Set Point:	-1.980	Pitch Set Point:	-0.145	Yaw Set Point:	1.377	X_WP:	0.000	Y_WP:	0.000	Z_WP:	0.500	X:	1.049	Y:	-0.743	Z:	0.040	yaw:	-78.921	yaw rate:	0.420	Roll:	14.569	Pitch:	14.027	Yaw:	-113.842	Thrust:	100.000
Time:	2.002	Roll Set Point:	-1.980	Pitch Set Point:	-0.145	Yaw Set Point:	1.377	X_WP:	0.000	Y_WP:	0.000	Z_WP:	0.500	X:	1.049	Y:	-0.742	Z:	0.040	yaw:	-78.922	yaw rate:	0.113	Roll:	14.537	Pitch:	13.936	Yaw:	-113.534	Thrust:	100.000
Time:	2.021	Roll Set Point:	-1.980	Pitch Set Point:	-0.145	Yaw Set Point:	1.378	X_WP:	0.000	Y_WP:	0.000	Z_WP:	0.500	X:	1.049	Y:	-0.743	Z:	0.040	yaw:	-78.926	yaw rate:	0.438	Roll:	14.627	Pitch:	14.091	Yaw:	-114.039	Thrust:	100.000
Time:	2.042	Roll Set Point:	-1.980	Pitch Set Point:	-0.144	Yaw Set Point:	1.377	X_WP:	0.000	Y_WP:	0.000	Z_WP:	0.500	X:	1.049	Y:	-0.743	Z:	0.040	yaw:	-78.911	yaw rate:	-1.577	Roll:	14.945	Pitch:	13.904	Yaw:	-114.197	Thrust:	100.000
Time:	2.062	Roll Set Point:	-1.980	Pitch Set Point:	-0.145	Yaw Set Point:	1.377	X_WP:	0.000	Y_WP:	0.000	Z_WP:	0.500	X:	1.049	Y:	-0.743	Z:	0.040	yaw:	-78.923	yaw rate:	1.231	Roll:	14.545	Pitch:	14.207	Yaw:	-114.484	Thrust:	100.000
Time:	2.085	Roll Set Point:	-1.979	Pitch Set Point:	-0.145	Yaw Set Point:	1.378	X_WP:	0.000	Y_WP:	0.000	Z_WP:	0.500	X:	1.049	Y:	-0.743	Z:	0.040	yaw:	-78.933	yaw rate:	1.028	Roll:	14.687	Pitch:	14.324	Yaw:	-114.945	Thrust:	100.000
Time:	2.106	Roll Set Point:	-1.980	Pitch Set Point:	-0.144	Yaw Set Point:	1.377	X_WP:	0.000	Y_WP:	0.000	Z_WP:	0.500	X:	1.049	Y:	-0.743	Z:	0.040	yaw:	-78.891	yaw rate:	-4.209	Roll:	15.278	Pitch:	13.515	Yaw:	-113.739	Thrust:	100.000
Time:	2.122	Roll Set Point:	-1.979	Pitch Set Point:	-0.145	Yaw Set Point:	1.378	X_WP:	0.000	Y_WP:	0.000	Z_WP:	0.500	X:	1.049	Y:	-0.742	Z:	0.040	yaw:	-78.946	yaw rate:	5.545	Roll:	13.542	Pitch:	14.868	Yaw:	-114.299	Thrust:	100.000
Time:	2.147	Roll Set Point:	-1.980	Pitch Set Point:	-0.144	Yaw Set Point:	1.377	X_WP:	0.000	Y_WP:	0.000	Z_WP:	0.500	X:	1.049	Y:	-0.743	Z:	0.040	yaw:	-78.906	yaw rate:	-4.076	Roll:	15.332	Pitch:	13.715	Yaw:	-114.464	Thrust:	100.000
Time:	2.169	Roll Set Point:	-1.980	Pitch Set Point:	-0.144	Yaw Set Point:	1.377	X_WP:	0.000	Y_WP:	0.000	Z_WP:	0.500	X:	1.049	Y:	-0.743	Z:	0.040	yaw:	-78.906	yaw rate:	0.049	Roll:	14.793	Pitch:	14.180	Yaw:	-114.891	Thrust:	100.000
Time:	2.189	Roll Set Point:	-1.980	Pitch Set Point:	-0.144	Yaw Set Point:	1.377	X_WP:	0.000	Y_WP:	0.000	Z_WP:	0.500	X:	1.049	Y:	-0.743	Z:	0.040	yaw:	-78.913	yaw rate:	0.657	Roll:	14.632	Pitch:	14.143	Yaw:	-114.330	Thrust:	100.000
Time:	2.209	Roll Set Point:	-1.980	Pitch Set Point:	-0.144	Yaw Set Point:	1.377	X_WP:	0.000	Y_WP:	0.000	Z_WP:	0.500	X:	1.049	Y:	-0.743	Z:	0.040	yaw:	-78.914	yaw rate:	0.072	Roll:	14.708	Pitch:	14.076	Yaw:	-114.120	Thrust:	100.000
Time:	2.230	Roll Set Point:	-1.980	Pitch Set Point:	-0.144	Yaw Set Point:	1.377	X_WP:	0.000	Y_WP:	0.000	Z_WP:	0.500	X:	1.049	Y:	-0.743	Z:	0.040	yaw:	-78.913	yaw rate:	-0.059	Roll:	14.730	Pitch:	14.062	Yaw:	-114.296	Thrust:	100.000
Time:	2.248	Roll Set Point:	-1.980	Pitch Set Point:	-0.145	Yaw Set Point:	1.377	X_WP:	0.000	Y_WP:	0.000	Z_WP:	0.500	X:	1.049	Y:	-0.743	Z:	0.040	yaw:	-78.921	yaw rate:	0.849	Roll:	14.502	Pitch:	14.098	Yaw:	-114.026	Thrust:	100.000
Time:	2.269	Roll Set Point:	-1.980	Pitch Set Point:	-0.145	Yaw Set Point:	1.377	X_WP:	0.000	Y_WP:	0.000	Z_WP:	0.500	X:	1.049	Y:	-0.743	Z:	0.040	yaw:	-78.923	yaw rate:	0.120	Roll:	14.722	Pitch:	14.120	Yaw:	-114.334	Thrust:	100.000
Time:	2.287	Roll Set Point:	-1.980	Pitch Set Point:	-0.144	Yaw Set Point:	1.377	X_WP:	0.000	Y_WP:	0.000	Z_WP:	0.500	X:	1.049	Y:	-0.742	Z:	0.040	yaw:	-78.887	yaw rate:	-3.557	Roll:	15.160	Pitch:	13.477	Yaw:	-113.281	Thrust:	100.000
Time:	2.308	Roll Set Point:	-1.980	Pitch Set Point:	-0.145	Yaw Set Point:	1.377	X_WP:	0.000	Y_WP:	0.000	Z_WP:	0.500	X:	1.049	Y:	-0.742	Z:	0.040	yaw:	-78.921	yaw rate:	3.409	Roll:	14.233	Pitch:	14.540	Yaw:	-114.655	Thrust:	100.000
Time:	2.328	Roll Set Point:	-1.980	Pitch Set Point:	-0.144	Yaw Set Point:	1.377	X_WP:	0.000	Y_WP:	0.000	Z_WP:	0.500	X:	1.049	Y:	-0.743	Z:	0.040	yaw:	-78.909	yaw rate:	-1.197	Roll:	14.894	Pitch:	13.899	Yaw:	-114.168	Thrust:	100.000
Time:	2.346	Roll Set Point:	-1.980	Pitch Set Point:	-0.144	Yaw Set Point:	1.377	X_WP:	0.000	Y_WP:	0.000	Z_WP:	0.500	X:	1.049	Y:	-0.743	Z:	0.040	yaw:	-78.890	yaw rate:	-1.939	Roll:	14.943	Pitch:	13.708	Yaw:	-113.574	Thrust:	100.000
Time:	2.365	Roll Set Point:	-1.980	Pitch Set Point:	-0.145	Yaw Set Point:	1.378	X_WP:	0.000	Y_WP:	0.000	Z_WP:	0.500	X:	1.049	Y:	-0.743	Z:	0.040	yaw:	-78.929	yaw rate:	3.910	Roll:	14.030	Pitch:	14.591	Yaw:	-114.417	Thrust:	100.000
Time:	2.384	Roll Set Point:	-1.980	Pitch Set Point:	-0.144	Yaw Set Point:	1.377	X_WP:	0.000	Y_WP:	0.000	Z_WP:	0.500	X:	1.049	Y:	-0.743	Z:	0.040	yaw:	-78.892	yaw rate:	-3.658	Roll:	15.196	Pitch:	13.451	Yaw:	-113.500	Thrust:	100.000
Time:	2.403	Roll Set Point:	-1.980	Pitch Set Point:	-0.145	Yaw Set Point:	1.377	X_WP:	0.000	Y_WP:	0.000	Z_WP:	0.500	X:	1.049	Y:	-0.743	Z:	0.040	yaw:	-78.919	yaw rate:	2.629	Roll:	14.361	Pitch:	14.431	Yaw:	-114.459	Thrust:	100.000
Time:	2.422	Roll Set Point:	-1.980	Pitch Set Point:	-0.145	Yaw Set Point:	1.377	X_WP:	0.000	Y_WP:	0.000	Z_WP:	0.500	X:	1.049	Y:	-0.742	Z:	0.040	yaw:	-78.915	yaw rate:	-0.346	Roll:	14.693	Pitch:	13.953	Yaw:	-113.863	Thrust:	100.000
Time:	2.443	Roll Set Point:	-1.980	Pitch Set Point:	-0.145	Yaw Set Point:	1.377	X_WP:	0.000	Y_WP:	0.000	Z_WP:	0.500	X:	1.049	Y:	-0.743	Z:	0.040	yaw:	-78.921	yaw rate:	0.570	Roll:	14.692	Pitch:	14.188	Yaw:	-114.512	Thrust:	100.000
Time:	2.465	Roll Set Point:	-1.980	Pitch Set Point:	-0.144	Yaw Set Point:	1.377	X_WP:	0.000	Y_WP:	0.000	Z_WP:	0.500	X:	1.049	Y:	-0.743	Z:	0.040	yaw:	-78.889	yaw rate:	-3.170	Roll:	15.147	Pitch:	13.649	Yaw:	-114.039	Thrust:	100.000
Time:	2.483	Roll Set Point:	-1.980	Pitch Set Point:	-0.145	Yaw Set Point:	1.378	X_WP:	0.000	Y_WP:	0.000	Z_WP:	0.500	X:	1.049	Y:	-0.742	Z:	0.040	yaw:	-78.926	yaw rate:	3.672	Roll:	14.042	Pitch:	14.554	Yaw:	-114.321	Thrust:	100.000
Time:	2.503	Roll Set Point:	-1.980	Pitch Set Point:	-0.145	Yaw Set Point:	1.377	X_WP:	0.000	Y_WP:	0.000	Z_WP:	0.500	X:	1.049	Y:	-0.742	Z:	0.040	yaw:	-78.917	yaw rate:	-0.887	Roll:	14.845	Pitch:	13.960	Yaw:	-114.096	Thrust:	100.000
Time:	2.525	Roll Set Point:	-1.980	Pitch Set Point:	-0.144	Yaw Set Point:	1.377	X_WP:	0.000	Y_WP:	0.000	Z_WP:	0.500	X:	1.049	Y:	-0.742	Z:	0.040	yaw:	-78.907	yaw rate:	-1.020	Roll:	14.904	Pitch:	13.996	Yaw:	-114.445	Thrust:	100.000
Time:	2.542	Roll Set Point:	-1.980	Pitch Set Point:	-0.144	Yaw Set Point:	1.377	X_WP:	0.000	Y_WP:	0.000	Z_WP:	0.500	X:	1.049	Y:	-0.743	Z:	0.040	yaw:	-78.913	yaw rate:	0.645	Roll:	14.552	Pitch:	14.091	Yaw:	-113.847	Thrust:	100.000
Time:	2.564	Roll Set Point:	-1.980	Pitch Set Point:	-0.144	Yaw Set Point:	1.377	X_WP:	0.000	Y_WP:	0.000	Z_WP:	0.500	X:	1.049	Y:	-0.742	Z:	0.040	yaw:	-78.909	yaw rate:	-0.379	Roll:	14.774	Pitch:	14.046	Yaw:	-114.349	Thrust:	100.000
Time:	2.582	Roll Set Point:	-1.979	Pitch Set Point:	-0.145	Yaw Set Point:	1.378	X_WP:	0.000	Y_WP:	0.000	Z_WP:	0.500	X:	1.049	Y:	-0.742	Z:	0.040	yaw:	-78.937	yaw rate:	2.754	Roll:	14.255	Pitch:	14.408	Yaw:	-114.229	Thrust:	100.000
Time:	2.604	Roll Set Point:	-1.980	Pitch Set Point:	-0.145	Yaw Set Point:	1.377	X_WP:	0.000	Y_WP:	0.000	Z_WP:	0.500	X:	1.049	Y:	-0.743	Z:	0.040	yaw:	-78.923	yaw rate:	-1.394	Roll:	14.966	Pitch:	13.983	Yaw:	-114.589	Thrust:	100.000
Time:	2.624	Roll Set Point:	-1.980	Pitch Set Point:	-0.145	Yaw Set Point:	1.377	X_WP:	0.000	Y_WP:	0.000	Z_WP:	0.500	X:	1.049	Y:	-0.743	Z:	0.040	yaw:	-78.921	yaw rate:	-0.248	Roll:	14.702	Pitch:	13.988	Yaw:	-114.082	Thrust:	100.000
Time:	2.643	Roll Set Point:	-1.980	Pitch Set Point:	-0.145	Yaw Set Point:	1.377	X_WP:	0.000	Y_WP:	0.000	Z_WP:	0.500	X:	1.049	Y:	-0.742	Z:	0.040	yaw:	-78.923	yaw rate:	0.290	Roll:	14.634	Pitch:	14.061	Yaw:	-113.951	Thrust:	100.000
Time:	2.664	Roll Set Point:	-1.979	Pitch Set Point:	-0.145	Yaw Set Point:	1.378	X_WP:	0.000	Y_WP:	0.000	Z_WP:	0.500	X:	1.049	Y:	-0.743	Z:	0.040	yaw:	-78.939	yaw rate:	1.528	Roll:	14.559	Pitch:	14.327	Yaw:	-114.718	Thrust:	100.000
Time:	2.684	Roll Set Point:	-1.979	Pitch Set Point:	-0.145	Yaw Set Point:	1.378	X_WP:	0.000	Y_WP:	0.000	Z_WP:	0.500	X:	1.049	Y:	-0.743	Z:	0.040	yaw:	-78.946	yaw rate:	0.681	Roll:	14.574	Pitch:	14.106	Yaw:	-114.216	Thrust:	100.000
Time:	2.703	Roll Set Point:	-1.980	Pitch Set Point:	-0.144	Yaw Set Point:	1.377	X_WP:	0.000	Y_WP:	0.000	Z_WP:	0.500	X:	1.049	Y:	-0.743	Z:	0.040	yaw:	-78.915	yaw rate:	-3.041	Roll:	15.101	Pitch:	13.665	Yaw:	-113.689	Thrust:	100.000
Time:	2.722	Roll Set Point:	-1.979	Pitch Set Point:	-0.145	Yaw Set Point:	1.378	X_WP:	0.000	Y_WP:	0.000	Z_WP:	0.500	X:	1.049	Y:	-0.742	Z:	0.040	yaw:	-78.935	yaw rate:	1.948	Roll:	14.389	Pitch:	14.295	Yaw:	-114.227	Thrust:	100.000
Time:	2.742	Roll Set Point:	-1.980	Pitch Set Point:	-0.144	Yaw Set Point:	1.377	X_WP:	0.000	Y_WP:	0.000	Z_WP:	0.500	X:	1.049	Y:	-0.743	Z:	0.040	yaw:	-78.908	yaw rate:	-2.665	Roll:	15.070	Pitch:	13.683	Yaw:	-113.811	Thrust:	100.000
Time:	2.765	Roll Set Point:	-1.980	Pitch Set Point:	-0.145	Yaw Set Point:	1.378	X_WP:	0.000	Y_WP:	0.000	Z_WP:	0.500	X:	1.049	Y:	-0.742	Z:	0.040	yaw:	-78.928	yaw rate:	2.043	Roll:	14.538	Pitch:	14.396	Yaw:	-114.907	Thrust:	100.000
Time:	2.784	Roll Set Point:	-1.979	Pitch Set Point:	-0.145	Yaw Set Point:	1.378	X_WP:	0.000	Y_WP:	0.000	Z_WP:	0.500	X:	1.049	Y:	-0.742	Z:	0.040	yaw:	-78.947	yaw rate:	1.896	Roll:	14.434	Pitch:	14.318	Yaw:	-114.412	Thrust:	100.000
Time:	2.804	Roll Set Point:	-1.980	Pitch Set Point:	-0.145	Yaw Set Point:	1.377	X_WP:	0.000	Y_WP:	0.000	Z_WP:	0.500	X:	1.049	Y:	-0.742	Z:	0.040	yaw:	-78.918	yaw rate:	-2.886	Roll:	15.086	Pitch:	13.653	Yaw:	-113.879	Thrust:	100.000
Time:	2.822	Roll Set Point:	-1.980	Pitch Set Point:	-0.145	Yaw Set Point:	1.377	X_WP:	0.000	Y_WP:	0.000	Z_WP:	0.500	X:	1.049	Y:	-0.742	Z:	0.040	yaw:	-78.917	yaw rate:	-0.160	Roll:	14.660	Pitch:	13.946	Yaw:	-113.707	Thrust:	100.000
Time:	2.845	Roll Set Point:	-1.980	Pitch Set Point:	-0.144	Yaw Set Point:	1.377	X_WP:	0.000	Y_WP:	0.000	Z_WP:	0.500	X:	1.049	Y:	-0.742	Z:	0.040	yaw:	-78.904	yaw rate:	-1.285	Roll:	14.946	Pitch:	13.983	Yaw:	-114.667	Thrust:	100.000
Time:	2.864	Roll Set Point:	-1.979	Pitch Set Point:	-0.145	Yaw Set Point:	1.378	X_WP:	0.000	Y_WP:	0.000	Z_WP:	0.500	X:	1.049	Y:	-0.742	Z:	0.040	yaw:	-78.958	yaw rate:	5.407	Roll:	13.985	Pitch:	14.819	Yaw:	-114.797	Thrust:	100.000
Time:	2.883	Roll Set Point:	-1.980	Pitch Set Point:	-0.145	Yaw Set Point:	1.378	X_WP:	0.000	Y_WP:	0.000	Z_WP:	0.500	X:	1.049	Y:	-0.743	Z:	0.040	yaw:	-78.927	yaw rate:	-3.132	Roll:	15.116	Pitch:	13.578	Yaw:	-113.650	Thrust:	100.000
Time:	2.903	Roll Set Point:	-1.980	Pitch Set Point:	-0.144	Yaw Set Point:	1.377	X_WP:	0.000	Y_WP:	0.000	Z_WP:	0.500	X:	1.049	Y:	-0.743	Z:	0.040	yaw:	-78.894	yaw rate:	-3.241	Roll:	15.119	Pitch:	13.552	Yaw:	-113.649	Thrust:	100.000
Time:	2.925	Roll Set Point:	-1.979	Pitch Set Point:	-0.145	Yaw Set Point:	1.378	X_WP:	0.000	Y_WP:	0.000	Z_WP:	0.500	X:	1.049	Y:	-0.742	Z:	0.040	yaw:	-78.942	yaw rate:	4.782	Roll:	14.142	Pitch:	14.732	Yaw:	-115.188	Thrust:	100.000
Time:	2.943	Roll Set Point:	-1.980	Pitch Set Point:	-0.145	Yaw Set Point:	1.378	X_WP:	0.000	Y_WP:	0.000	Z_WP:	0.500	X:	1.049	Y:	-0.742	Z:	0.040	yaw:	-78.927	yaw rate:	-1.566	Roll:	14.885	Pitch:	13.766	Yaw:	-113.632	Thrust:	100.000
Time:	2.964	Roll Set Point:	-1.980	Pitch Set Point:	-0.144	Yaw Set Point:	1.377	X_WP:	0.000	Y_WP:	0.000	Z_WP:	0.500	X:	1.049	Y:	-0.743	Z:	0.040	yaw:	-78.901	yaw rate:	-2.581	Roll:	15.101	Pitch:	13.791	Yaw:	-114.112	Thrust:	100.000
Time:	2.982	Roll Set Point:	-1.979	Pitch Set Point:	-0.145	Yaw Set Point:	1.378	X_WP:	0.000	Y_WP:	0.000	Z_WP:	0.500	X:	1.049	Y:	-0.742	Z:	0.040	yaw:	-78.941	yaw rate:	3.997	Roll:	14.023	Pitch:	14.596	Yaw:	-114.322	Thrust:	100.000
Time:	3.004	Roll Set Point:	-1.979	Pitch Set Point:	-0.145	Yaw Set Point:	1.378	X_WP:	0.000	Y_WP:	0.000	Z_WP:	0.500	X:	1.049	Y:	-0.742	Z:	0.040	yaw:	-78.945	yaw rate:	0.464	Roll:	14.689	Pitch:	14.198	Yaw:	-114.696	Thrust:	100.000
Time:	3.022	Roll Set Point:	-1.980	Pitch Set Point:	-0.144	Yaw Set Point:	1.377	X_WP:	0.000	Y_WP:	0.000	Z_WP:	0.500	X:	1.049	Y:	-0.742	Z:	0.040	yaw:	-78.907	yaw rate:	-3.783	Roll:	15.209	Pitch:	13.407	Yaw:	-113.256	Thrust:	100.000
Time:	3.043	Roll Set Point:	-1.980	Pitch Set Point:	-0.144	Yaw Set Point:	1.377	X_WP:	0.000	Y_WP:	0.000	Z_WP:	0.500	X:	1.049	Y:	-0.743	Z:	0.040	yaw:	-78.896	yaw rate:	-1.176	Roll:	14.893	Pitch:	13.888	Yaw:	-114.073	Thrust:	100.000
Time:	3.064	Roll Set Point:	-1.979	Pitch Set Point:	-0.145	Yaw Set Point:	1.378	X_WP:	0.000	Y_WP:	0.000	Z_WP:	0.500	X:	1.049	Y:	-0.742	Z:	0.040	yaw:	-78.932	yaw rate:	3.630	Roll:	14.263	Pitch:	14.599	Yaw:	-114.963	Thrust:	100.000
Time:	3.083	Roll Set Point:	-1.980	Pitch Set Point:	-0.145	Yaw Set Point:	1.378	X_WP:	0.000	Y_WP:	0.000	Z_WP:	0.500	X:	1.049	Y:	-0.743	Z:	0.040	yaw:	-78.925	yaw rate:	-0.676	Roll:	14.767	Pitch:	13.929	Yaw:	-113.978	Thrust:	100.000
Time:	3.103	Roll Set Point:	-1.980	Pitch Set Point:	-0.145	Yaw Set Point:	1.377	X_WP:	0.000	Y_WP:	0.000	Z_WP:	0.500	X:	1.049	Y:	-0.743	Z:	0.040	yaw:	-78.924	yaw rate:	-0.136	Roll:	14.758	Pitch:	14.040	Yaw:	-114.121	Thrust:	100.000
Time:	3.123	Roll Set Point:	-1.979	Pitch Set Point:	-0.145	Yaw Set Point:	1.378	X_WP:	0.000	Y_WP:	0.000	Z_WP:	0.500	X:	1.049	Y:	-0.742	Z:	0.040	yaw:	-78.944	yaw rate:	1.972	Roll:	14.370	Pitch:	14.306	Yaw:	-114.492	Thrust:	100.000
Time:	3.142	Roll Set Point:	-1.979	Pitch Set Point:	-0.145	Yaw Set Point:	1.378	X_WP:	0.000	Y_WP:	0.000	Z_WP:	0.500	X:	1.049	Y:	-0.742	Z:	0.040	yaw:	-78.935	yaw rate:	-0.893	Roll:	14.819	Pitch:	13.932	Yaw:	-113.911	Thrust:	100.000
Time:	3.163	Roll Set Point:	-1.980	Pitch Set Point:	-0.145	Yaw Set Point:	1.378	X_WP:	0.000	Y_WP:	0.000	Z_WP:	0.500	X:	1.049	Y:	-0.743	Z:	0.040	yaw:	-78.927	yaw rate:	-0.742	Roll:	14.841	Pitch:	13.984	Yaw:	-114.221	Thrust:	100.000
Time:	3.181	Roll Set Point:	-1.980	Pitch Set Point:	-0.144	Yaw Set Point:	1.377	X_WP:	0.000	Y_WP:	0.000	Z_WP:	0.500	X:	1.049	Y:	-0.743	Z:	0.040	yaw:	-78.908	yaw rate:	-1.882	Roll:	14.906	Pitch:	13.707	Yaw:	-113.550	Thrust:	100.000
Time:	3.202	Roll Set Point:	-1.979	Pitch Set Point:	-0.145	Yaw Set Point:	1.378	X_WP:	0.000	Y_WP:	0.000	Z_WP:	0.500	X:	1.049	Y:	-0.742	Z:	0.040	yaw:	-78.956	yaw rate:	4.797	Roll:	14.056	Pitch:	14.728	Yaw:	-114.960	Thrust:	100.000
Time:	3.222	Roll Set Point:	-1.980	Pitch Set Point:	-0.145	Yaw Set Point:	1.377	X_WP:	0.000	Y_WP:	0.000	Z_WP:	0.500	X:	1.049	Y:	-0.743	Z:	0.040	yaw:	-78.918	yaw rate:	-3.821	Roll:	15.233	Pitch:	13.565	Yaw:	-113.727	Thrust:	100.000
Time:	3.241	Roll Set Point:	-1.980	Pitch Set Point:	-0.144	Yaw Set Point:	1.377	X_WP:	0.000	Y_WP:	0.000	Z_WP:	0.500	X:	1.049	Y:	-0.743	Z:	0.040	yaw:	-78.898	yaw rate:	-1.979	Roll:	14.942	Pitch:	13.740	Yaw:	-113.741	Thrust:	100.000
Time:	3.263	Roll Set Point:	-1.979	Pitch Set Point:	-0.145	Yaw Set Point:	1.378	X_WP:	0.000	Y_WP:	0.000	Z_WP:	0.500	X:	1.049	Y:	-0.742	Z:	0.040	yaw:	-78.946	yaw rate:	4.767	Roll:	14.198	Pitch:	14.737	Yaw:	-115.225	Thrust:	100.000
Time:	3.281	Roll Set Point:	-1.980	Pitch Set Point:	-0.145	Yaw Set Point:	1.377	X_WP:	0.000	Y_WP:	0.000	Z_WP:	0.500	X:	1.049	Y:	-0.743	Z:	0.040	yaw:	-78.922	yaw rate:	-2.416	Roll:	15.006	Pitch:	13.628	Yaw:	-113.492	Thrust:	100.000
Time:	3.302	Roll Set Point:	-1.980	Pitch Set Point:	-0.144	Yaw Set Point:	1.377	X_WP:	0.000	Y_WP:	0.000	Z_WP:	0.500	X:	1.049	Y:	-0.743	Z:	0.040	yaw:	-78.884	yaw rate:	-3.832	Roll:	15.221	Pitch:	13.530	Yaw:	-113.703	Thrust:	100.000
Time:	3.322	Roll Set Point:	-1.980	Pitch Set Point:	-0.145	Yaw Set Point:	1.378	X_WP:	0.000	Y_WP:	0.000	Z_WP:	0.500	X:	1.049	Y:	-0.742	Z:	0.040	yaw:	-78.926	yaw rate:	4.219	Roll:	14.106	Pitch:	14.635	Yaw:	-114.593	Thrust:	100.000
Time:	3.342	Roll Set Point:	-1.979	Pitch Set Point:	-0.145	Yaw Set Point:	1.378	X_WP:	0.000	Y_WP:	0.000	Z_WP:	0.500	X:	1.049	Y:	-0.742	Z:	0.040	yaw:	-78.944	yaw rate:	1.777	Roll:	14.479	Pitch:	14.317	Yaw:	-114.530	Thrust:	100.000
Time:	3.363	Roll Set Point:	-1.980	Pitch Set Point:	-0.144	Yaw Set Point:	1.377	X_WP:	0.000	Y_WP:	0.000	Z_WP:	0.500	X:	1.049	Y:	-0.742	Z:	0.040	yaw:	-78.910	yaw rate:	-3.401	Roll:	15.180	Pitch:	13.668	Yaw:	-114.054	Thrust:	100.000
Time:	3.386	Roll Set Point:	-1.980	Pitch Set Point:	-0.144	Yaw Set Point:	1.377	X_WP:	0.000	Y_WP:	0.000	Z_WP:	0.500	X:	1.049	Y:	-0.743	Z:	0.040	yaw:	-78.900	yaw rate:	-0.990	Roll:	14.928	Pitch:	14.016	Yaw:	-114.681	Thrust:	100.000
Time:	3.406	Roll Set Point:	-1.979	Pitch Set Point:	-0.145	Yaw Set Point:	1.378	X_WP:	0.000	Y_WP:	0.000	Z_WP:	0.500	X:	1.049	Y:	-0.742	Z:	0.040	yaw:	-78.964	yaw rate:	6.398	Roll:	13.906	Pitch:	14.938	Yaw:	-115.162	Thrust:	100.000
Time:	3.430	Roll Set Point:	-1.979	Pitch Set Point:	-0.145	Yaw Set Point:	1.378	X_WP:	0.000	Y_WP:	0.000	Z_WP:	0.500	X:	1.049	Y:	-0.742	Z:	0.040	yaw:	-78.942	yaw rate:	-2.124	Roll:	15.080	Pitch:	13.935	Yaw:	-114.746	Thrust:	100.000
Time:	3.449	Roll Set Point:	-1.979	Pitch Set Point:	-0.145	Yaw Set Point:	1.378	X_WP:	0.000	Y_WP:	0.000	Z_WP:	0.500	X:	1.049	Y:	-0.742	Z:	0.040	yaw:	-78.940	yaw rate:	-0.211	Roll:	14.674	Pitch:	13.971	Yaw:	-114.019	Thrust:	100.000
Time:	3.469	Roll Set Point:	-1.980	Pitch Set Point:	-0.145	Yaw Set Point:	1.378	X_WP:	0.000	Y_WP:	0.000	Z_WP:	0.500	X:	1.049	Y:	-0.742	Z:	0.040	yaw:	-78.925	yaw rate:	-1.535	Roll:	14.901	Pitch:	13.848	Yaw:	-113.906	Thrust:	100.000
Time:	3.488	Roll Set Point:	-1.980	Pitch Set Point:	-0.144	Yaw Set Point:	1.377	X_WP:	0.000	Y_WP:	0.000	Z_WP:	0.500	X:	1.049	Y:	-0.743	Z:	0.040	yaw:	-78.915	yaw rate:	-0.971	Roll:	14.839	Pitch:	13.899	Yaw:	-113.849	Thrust:	100.000
Time:	3.507	Roll Set Point:	-1.979	Pitch Set Point:	-0.145	Yaw Set Point:	1.378	X_WP:	0.000	Y_WP:	0.000	Z_WP:	0.500	X:	1.049	Y:	-0.743	Z:	0.040	yaw:	-78.937	yaw rate:	2.209	Roll:	14.334	Pitch:	14.345	Yaw:	-114.354	Thrust:	100.000
Time:	3.528	Roll Set Point:	-1.980	Pitch Set Point:	-0.144	Yaw Set Point:	1.377	X_WP:	0.000	Y_WP:	0.000	Z_WP:	0.500	X:	1.049	Y:	-0.743	Z:	0.040	yaw:	-78.890	yaw rate:	-4.764	Roll:	15.356	Pitch:	13.509	Yaw:	-113.816	Thrust:	100.000
Time:	3.547	Roll Set Point:	-1.979	Pitch Set Point:	-0.145	Yaw Set Point:	1.378	X_WP:	0.000	Y_WP:	0.000	Z_WP:	0.500	X:	1.049	Y:	-0.742	Z:	0.040	yaw:	-78.957	yaw rate:	6.743	Roll:	13.766	Pitch:	14.996	Yaw:	-115.027	Thrust:	100.000
Time:	3.567	Roll Set Point:	-1.980	Pitch Set Point:	-0.144	Yaw Set Point:	1.377	X_WP:	0.000	Y_WP:	0.000	Z_WP:	0.500	X:	1.049	Y:	-0.742	Z:	0.040	yaw:	-78.913	yaw rate:	-4.434	Roll:	15.294	Pitch:	13.426	Yaw:	-113.503	Thrust:	100.000
Time:	3.586	Roll Set Point:	-1.980	Pitch Set Point:	-0.144	Yaw Set Point:	1.377	X_WP:	0.000	Y_WP:	0.000	Z_WP:	0.500	X:	1.049	Y:	-0.743	Z:	0.040	yaw:	-78.909	yaw rate:	-0.393	Roll:	14.730	Pitch:	13.915	Yaw:	-113.984	Thrust:	100.000
Time:	3.607	Roll Set Point:	-1.980	Pitch Set Point:	-0.145	Yaw Set Point:	1.377	X_WP:	0.000	Y_WP:	0.000	Z_WP:	0.500	X:	1.049	Y:	-0.743	Z:	0.040	yaw:	-78.922	yaw rate:	1.277	Roll:	14.587	Pitch:	14.269	Yaw:	-114.476	Thrust:	100.000
Time:	3.623	Roll Set Point:	-1.980	Pitch Set Point:	-0.145	Yaw Set Point:	1.377	X_WP:	0.000	Y_WP:	0.000	Z_WP:	0.500	X:	1.049	Y:	-0.742	Z:	0.040	yaw:	-78.923	yaw rate:	0.118	Roll:	14.491	Pitch:	13.917	Yaw:	-113.435	Thrust:	100.000
Time:	3.644	Roll Set Point:	-1.979	Pitch Set Point:	-0.145	Yaw Set Point:	1.378	X_WP:	0.000	Y_WP:	0.000	Z_WP:	0.500	X:	1.049	Y:	-0.742	Z:	0.040	yaw:	-78.934	yaw rate:	1.086	Roll:	14.599	Pitch:	14.224	Yaw:	-114.486	Thrust:	100.000
Time:	3.665	Roll Set Point:	-1.980	Pitch Set Point:	-0.145	Yaw Set Point:	1.377	X_WP:	0.000	Y_WP:	0.000	Z_WP:	0.500	X:	1.049	Y:	-0.742	Z:	0.040	yaw:	-78.920	yaw rate:	-1.324	Roll:	14.935	Pitch:	13.959	Yaw:	-114.311	Thrust:	100.000
Time:	3.683	Roll Set Point:	-1.980	Pitch Set Point:	-0.144	Yaw Set Point:	1.377	X_WP:	0.000	Y_WP:	0.000	Z_WP:	0.500	X:	1.049	Y:	-0.743	Z:	0.040	yaw:	-78.916	yaw rate:	-0.463	Roll:	14.701	Pitch:	13.902	Yaw:	-113.571	Thrust:	100.000
Time:	3.703	Roll Set Point:	-1.979	Pitch Set Point:	-0.145	Yaw Set Point:	1.378	X_WP:	0.000	Y_WP:	0.000	Z_WP:	0.500	X:	1.049	Y:	-0.742	Z:	0.040	yaw:	-78.932	yaw rate:	1.654	Roll:	14.486	Pitch:	14.311	Yaw:	-114.594	Thrust:	100.000
Time:	3.723	Roll Set Point:	-1.980	Pitch Set Point:	-0.145	Yaw Set Point:	1.377	X_WP:	0.000	Y_WP:	0.000	Z_WP:	0.500	X:	1.049	Y:	-0.742	Z:	0.040	yaw:	-78.921	yaw rate:	-1.087	Roll:	14.830	Pitch:	13.850	Yaw:	-113.800	Thrust:	100.000
Time:	3.743	Roll Set Point:	-1.980	Pitch Set Point:	-0.145	Yaw Set Point:	1.377	X_WP:	0.000	Y_WP:	0.000	Z_WP:	0.500	X:	1.049	Y:	-0.743	Z:	0.040	yaw:	-78.921	yaw rate:	-0.002	Roll:	14.762	Pitch:	14.102	Yaw:	-114.443	Thrust:	100.000
Time:	3.765	Roll Set Point:	-1.979	Pitch Set Point:	-0.145	Yaw Set Point:	1.378	X_WP:	0.000	Y_WP:	0.000	Z_WP:	0.500	X:	1.049	Y:	-0.742	Z:	0.040	yaw:	-78.942	yaw rate:	2.055	Roll:	14.478	Pitch:	14.383	Yaw:	-114.795	Thrust:	100.000
Time:	3.783	Roll Set Point:	-1.979	Pitch Set Point:	-0.145	Yaw Set Point:	1.378	X_WP:	0.000	Y_WP:	0.000	Z_WP:	0.500	X:	1.049	Y:	-0.742	Z:	0.040	yaw:	-78.934	yaw rate:	-0.750	Roll:	14.727	Pitch:	13.861	Yaw:	-113.765	Thrust:	100.000
Time:	3.804	Roll Set Point:	-1.980	Pitch Set Point:	-0.144	Yaw Set Point:	1.377	X_WP:	0.000	Y_WP:	0.000	Z_WP:	0.500	X:	1.049	Y:	-0.743	Z:	0.040	yaw:	-78.885	yaw rate:	-4.915	Roll:	15.379	Pitch:	13.428	Yaw:	-113.527	Thrust:	100.000
Time:	3.823	Roll Set Point:	-1.979	Pitch Set Point:	-0.145	Yaw Set Point:	1.378	X_WP:	0.000	Y_WP:	0.000	Z_WP:	0.500	X:	1.049	Y:	-0.742	Z:	0.040	yaw:	-78.957	yaw rate:	7.160	Roll:	13.613	Pitch:	15.081	Yaw:	-115.123	Thrust:	100.000
Time:	3.843	Roll Set Point:	-1.979	Pitch Set Point:	-0.145	Yaw Set Point:	1.378	X_WP:	0.000	Y_WP:	0.000	Z_WP:	0.500	X:	1.049	Y:	-0.742	Z:	0.040	yaw:	-78.934	yaw rate:	-2.344	Roll:	15.025	Pitch:	13.703	Yaw:	-114.035	Thrust:	100.000
Time:	3.865	Roll Set Point:	-1.980	Pitch Set Point:	-0.144	Yaw Set Point:	1.377	X_WP:	0.000	Y_WP:	0.000	Z_WP:	0.500	X:	1.049	Y:	-0.743	Z:	0.040	yaw:	-78.907	yaw rate:	-2.650	Roll:	15.136	Pitch:	13.823	Yaw:	-114.273	Thrust:	100.000
Time:	3.883	Roll Set Point:	-1.980	Pitch Set Point:	-0.145	Yaw Set Point:	1.377	X_WP:	0.000	Y_WP:	0.000	Z_WP:	0.500	X:	1.049	Y:	-0.743	Z:	0.040	yaw:	-78.918	yaw rate:	1.108	Roll:	14.406	Pitch:	14.161	Yaw:	-113.807	Thrust:	100.000
Time:	3.903	Roll Set Point:	-1.980	Pitch Set Point:	-0.144	Yaw Set Point:	1.377	X_WP:	0.000	Y_WP:	0.000	Z_WP:	0.500	X:	1.049	Y:	-0.742	Z:	0.040	yaw:	-78.912	yaw rate:	-0.601	Roll:	14.804	Pitch:	13.973	Yaw:	-114.232	Thrust:	100.000
Time:	3.922	Roll Set Point:	-1.980	Pitch Set Point:	-0.145	Yaw Set Point:	1.377	X_WP:	0.000	Y_WP:	0.000	Z_WP:	0.500	X:	1.049	Y:	-0.742	Z:	0.040	yaw:	-78.923	yaw rate:	1.103	Roll:	14.541	Pitch:	14.174	Yaw:	-114.173	Thrust:	100.000
Time:	3.943	Roll Set Point:	-1.980	Pitch Set Point:	-0.144	Yaw Set Point:	1.377	X_WP:	0.000	Y_WP:	0.000	Z_WP:	0.500	X:	1.049	Y:	-0.743	Z:	0.040	yaw:	-78.909	yaw rate:	-1.394	Roll:	14.904	Pitch:	13.848	Yaw:	-114.134	Thrust:	100.000
Time:	3.965	Roll Set Point:	-1.980	Pitch Set Point:	-0.145	Yaw Set Point:	1.378	X_WP:	0.000	Y_WP:	0.000	Z_WP:	0.500	X:	1.049	Y:	-0.743	Z:	0.040	yaw:	-78.929	yaw rate:	2.014	Roll:	14.529	Pitch:	14.387	Yaw:	-114.763	Thrust:	100.000
Time:	3.983	Roll Set Point:	-1.980	Pitch Set Point:	-0.145	Yaw Set Point:	1.377	X_WP:	0.000	Y_WP:	0.000	Z_WP:	0.500	X:	1.049	Y:	-0.742	Z:	0.040	yaw:	-78.922	yaw rate:	-0.738	Roll:	14.753	Pitch:	13.907	Yaw:	-113.721	Thrust:	100.000
Time:	4.002	Roll Set Point:	-1.980	Pitch Set Point:	-0.144	Yaw Set Point:	1.377	X_WP:	0.000	Y_WP:	0.000	Z_WP:	0.500	X:	1.049	Y:	-0.743	Z:	0.040	yaw:	-78.915	yaw rate:	-0.691	Roll:	14.782	Pitch:	13.929	Yaw:	-114.012	Thrust:	100.000
Time:	4.023	Roll Set Point:	-1.980	Pitch Set Point:	-0.144	Yaw Set Point:	1.377	X_WP:	0.000	Y_WP:	0.000	Z_WP:	0.500	X:	1.049	Y:	-0.743	Z:	0.040	yaw:	-78.891	yaw rate:	-2.362	Roll:	15.023	Pitch:	13.736	Yaw:	-113.895	Thrust:	100.000
Time:	4.043	Roll Set Point:	-1.980	Pitch Set Point:	-0.145	Yaw Set Point:	1.377	X_WP:	0.000	Y_WP:	0.000	Z_WP:	0.500	X:	1.049	Y:	-0.743	Z:	0.040	yaw:	-78.920	yaw rate:	2.849	Roll:	14.356	Pitch:	14.455	Yaw:	-114.482	Thrust:	100.000
Time:	4.074	Roll Set Point:	-1.979	Pitch Set Point:	-0.145	Yaw Set Point:	1.378	X_WP:	0.000	Y_WP:	0.000	Z_WP:	0.500	X:	1.049	Y:	-0.742	Z:	0.040	yaw:	-78.951	yaw rate:	3.104	Roll:	14.818	Pitch:	14.733	Yaw:	-116.716	Thrust:	100.000
Time:	4.099	Roll Set Point:	-1.980	Pitch Set Point:	-0.145	Yaw Set Point:	1.378	X_WP:	0.000	Y_WP:	0.000	Z_WP:	0.500	X:	1.049	Y:	-0.743	Z:	0.040	yaw:	-78.928	yaw rate:	-2.275	Roll:	15.144	Pitch:	14.043	Yaw:	-115.042	Thrust:	100.000
Time:	4.117	Roll Set Point:	-1.980	Pitch Set Point:	-0.144	Yaw Set Point:	1.377	X_WP:	0.000	Y_WP:	0.000	Z_WP:	0.500	X:	1.049	Y:	-0.743	Z:	0.040	yaw:	-78.908	yaw rate:	-2.005	Roll:	14.922	Pitch:	13.672	Yaw:	-113.537	Thrust:	100.000
Time:	4.135	Roll Set Point:	-1.980	Pitch Set Point:	-0.145	Yaw Set Point:	1.377	X_WP:	0.000	Y_WP:	0.000	Z_WP:	0.500	X:	1.049	Y:	-0.743	Z:	0.040	yaw:	-78.923	yaw rate:	1.488	Roll:	14.435	Pitch:	14.210	Yaw:	-114.024	Thrust:	100.000
Time:	4.153	Roll Set Point:	-1.980	Pitch Set Point:	-0.145	Yaw Set Point:	1.378	X_WP:	0.000	Y_WP:	0.000	Z_WP:	0.500	X:	1.049	Y:	-0.743	Z:	0.040	yaw:	-78.928	yaw rate:	0.499	Roll:	14.587	Pitch:	14.080	Yaw:	-113.908	Thrust:	100.000
Time:	4.172	Roll Set Point:	-1.980	Pitch Set Point:	-0.145	Yaw Set Point:	1.377	X_WP:	0.000	Y_WP:	0.000	Z_WP:	0.500	X:	1.049	Y:	-0.743	Z:	0.040	yaw:	-78.924	yaw rate:	-0.442	Roll:	14.721	Pitch:	13.943	Yaw:	-113.959	Thrust:	100.000
Time:	4.193	Roll Set Point:	-1.980	Pitch Set Point:	-0.145	Yaw Set Point:	1.377	X_WP:	0.000	Y_WP:	0.000	Z_WP:	0.500	X:	1.049	Y:	-0.743	Z:	0.040	yaw:	-78.924	yaw rate:	0.060	Roll:	14.704	Pitch:	14.078	Yaw:	-114.390	Thrust:	100.000
Time:	4.210	Roll Set Point:	-1.979	Pitch Set Point:	-0.145	Yaw Set Point:	1.378	X_WP:	0.000	Y_WP:	0.000	Z_WP:	0.500	X:	1.049	Y:	-0.742	Z:	0.040	yaw:	-78.948	yaw rate:	2.397	Roll:	14.264	Pitch:	14.350	Yaw:	-114.019	Thrust:	100.000
Time:	4.230	Roll Set Point:	-1.980	Pitch Set Point:	-0.144	Yaw Set Point:	1.377	X_WP:	0.000	Y_WP:	0.000	Z_WP:	0.500	X:	1.049	Y:	-0.743	Z:	0.040	yaw:	-78.914	yaw rate:	-3.382	Roll:	15.169	Pitch:	13.555	Yaw:	-113.649	Thrust:	100.000
Time:	4.247	Roll Set Point:	-1.980	Pitch Set Point:	-0.144	Yaw Set Point:	1.377	X_WP:	0.000	Y_WP:	0.000	Z_WP:	0.500	X:	1.049	Y:	-0.743	Z:	0.040	yaw:	-78.899	yaw rate:	-1.537	Roll:	14.860	Pitch:	13.725	Yaw:	-113.457	Thrust:	100.000
Time:	4.283	Roll Set Point:	-1.980	Pitch Set Point:	-0.144	Yaw Set Point:	1.377	X_WP:	0.000	Y_WP:	0.000	Z_WP:	0.500	X:	1.049	Y:	-0.743	Z:	0.040	yaw:	-78.887	yaw rate:	-1.221	Roll:	15.327	Pitch:	14.518	Yaw:	-117.083	Thrust:	100.000
Time:	4.303	Roll Set Point:	-1.980	Pitch Set Point:	-0.145	Yaw Set Point:	1.378	X_WP:	0.000	Y_WP:	0.000	Z_WP:	0.500	X:	1.049	Y:	-0.743	Z:	0.040	yaw:	-78.928	yaw rate:	4.109	Roll:	14.229	Pitch:	14.617	Yaw:	-114.840	Thrust:	100.000
Time:	4.321	Roll Set Point:	-1.980	Pitch Set Point:	-0.144	Yaw Set Point:	1.377	X_WP:	0.000	Y_WP:	0.000	Z_WP:	0.500	X:	1.049	Y:	-0.743	Z:	0.040	yaw:	-78.881	yaw rate:	-4.678	Roll:	15.332	Pitch:	13.296	Yaw:	-112.982	Thrust:	100.000
Time:	4.339	Roll Set Point:	-1.980	Pitch Set Point:	-0.144	Yaw Set Point:	1.377	X_WP:	0.000	Y_WP:	0.000	Z_WP:	0.500	X:	1.049	Y:	-0.743	Z:	0.040	yaw:	-78.904	yaw rate:	2.324	Roll:	14.303	Pitch:	14.319	Yaw:	-114.225	Thrust:	100.000
Time:	4.360	Roll Set Point:	-1.980	Pitch Set Point:	-0.144	Yaw Set Point:	1.377	X_WP:	0.000	Y_WP:	0.000	Z_WP:	0.500	X:	1.049	Y:	-0.743	Z:	0.040	yaw:	-78.912	yaw rate:	0.736	Roll:	14.607	Pitch:	14.162	Yaw:	-114.414	Thrust:	100.000
Time:	4.380	Roll Set Point:	-1.980	Pitch Set Point:	-0.145	Yaw Set Point:	1.378	X_WP:	0.000	Y_WP:	0.000	Z_WP:	0.500	X:	1.049	Y:	-0.743	Z:	0.040	yaw:	-78.925	yaw rate:	1.383	Roll:	14.548	Pitch:	14.274	Yaw:	-114.288	Thrust:	100.000
Time:	4.399	Roll Set Point:	-1.980	Pitch Set Point:	-0.144	Yaw Set Point:	1.377	X_WP:	0.000	Y_WP:	0.000	Z_WP:	0.500	X:	1.049	Y:	-0.743	Z:	0.040	yaw:	-78.903	yaw rate:	-2.269	Roll:	14.996	Pitch:	13.673	Yaw:	-113.777	Thrust:	100.000
Time:	4.418	Roll Set Point:	-1.979	Pitch Set Point:	-0.145	Yaw Set Point:	1.378	X_WP:	0.000	Y_WP:	0.000	Z_WP:	0.500	X:	1.049	Y:	-0.743	Z:	0.040	yaw:	-78.934	yaw rate:	3.148	Roll:	14.240	Pitch:	14.496	Yaw:	-114.383	Thrust:	100.000
Time:	4.436	Roll Set Point:	-1.980	Pitch Set Point:	-0.145	Yaw Set Point:	1.378	X_WP:	0.000	Y_WP:	0.000	Z_WP:	0.500	X:	1.049	Y:	-0.743	Z:	0.040	yaw:	-78.929	yaw rate:	-0.547	Roll:	14.685	Pitch:	13.899	Yaw:	-113.752	Thrust:	100.000
Time:	4.455	Roll Set Point:	-1.980	Pitch Set Point:	-0.144	Yaw Set Point:	1.377	X_WP:	0.000	Y_WP:	0.000	Z_WP:	0.500	X:	1.049	Y:	-0.743	Z:	0.040	yaw:	-78.899	yaw rate:	-2.994	Roll:	15.093	Pitch:	13.539	Yaw:	-113.459	Thrust:	100.000
Time:	4.473	Roll Set Point:	-1.980	Pitch Set Point:	-0.144	Yaw Set Point:	1.377	X_WP:	0.000	Y_WP:	0.000	Z_WP:	0.500	X:	1.049	Y:	-0.743	Z:	0.040	yaw:	-78.913	yaw rate:	1.390	Roll:	14.403	Pitch:	14.206	Yaw:	-114.003	Thrust:	100.000
Time:	4.492	Roll Set Point:	-1.980	Pitch Set Point:	-0.145	Yaw Set Point:	1.377	X_WP:	0.000	Y_WP:	0.000	Z_WP:	0.500	X:	1.049	Y:	-0.742	Z:	0.040	yaw:	-78.919	yaw rate:	0.643	Roll:	14.594	Pitch:	14.120	Yaw:	-114.106	Thrust:	100.000
Time:	4.508	Roll Set Point:	-1.980	Pitch Set Point:	-0.145	Yaw Set Point:	1.377	X_WP:	0.000	Y_WP:	0.000	Z_WP:	0.500	X:	1.049	Y:	-0.743	Z:	0.040	yaw:	-78.923	yaw rate:	0.421	Roll:	14.514	Pitch:	13.990	Yaw:	-113.475	Thrust:	100.000
Time:	4.526	Roll Set Point:	-1.980	Pitch Set Point:	-0.144	Yaw Set Point:	1.377	X_WP:	0.000	Y_WP:	0.000	Z_WP:	0.500	X:	1.049	Y:	-0.743	Z:	0.040	yaw:	-78.911	yaw rate:	-1.273	Roll:	14.789	Pitch:	13.726	Yaw:	-113.354	Thrust:	100.000
Time:	4.542	Roll Set Point:	-1.980	Pitch Set Point:	-0.144	Yaw Set Point:	1.377	X_WP:	0.000	Y_WP:	0.000	Z_WP:	0.500	X:	1.049	Y:	-0.742	Z:	0.040	yaw:	-78.913	yaw rate:	0.268	Roll:	14.532	Pitch:	13.979	Yaw:	-113.729	Thrust:	100.000
Time:	4.564	Roll Set Point:	-1.979	Pitch Set Point:	-0.145	Yaw Set Point:	1.378	X_WP:	0.000	Y_WP:	0.000	Z_WP:	0.500	X:	1.049	Y:	-0.742	Z:	0.040	yaw:	-78.941	yaw rate:	2.773	Roll:	14.436	Pitch:	14.479	Yaw:	-114.872	Thrust:	100.000
Time:	4.582	Roll Set Point:	-1.979	Pitch Set Point:	-0.145	Yaw Set Point:	1.378	X_WP:	0.000	Y_WP:	0.000	Z_WP:	0.500	X:	1.049	Y:	-0.742	Z:	0.040	yaw:	-78.933	yaw rate:	-0.827	Roll:	14.753	Pitch:	13.909	Yaw:	-113.827	Thrust:	100.000
Time:	4.602	Roll Set Point:	-1.980	Pitch Set Point:	-0.144	Yaw Set Point:	1.377	X_WP:	0.000	Y_WP:	0.000	Z_WP:	0.500	X:	1.049	Y:	-0.743	Z:	0.040	yaw:	-78.898	yaw rate:	-3.473	Roll:	15.192	Pitch:	13.509	Yaw:	-113.537	Thrust:	100.000
Time:	4.623	Roll Set Point:	-1.980	Pitch Set Point:	-0.145	Yaw Set Point:	1.378	X_WP:	0.000	Y_WP:	0.000	Z_WP:	0.500	X:	1.049	Y:	-0.743	Z:	0.040	yaw:	-78.930	yaw rate:	3.230	Roll:	14.260	Pitch:	14.509	Yaw:	-114.803	Thrust:	100.000
Time:	4.642	Roll Set Point:	-1.980	Pitch Set Point:	-0.144	Yaw Set Point:	1.377	X_WP:	0.000	Y_WP:	0.000	Z_WP:	0.500	X:	1.049	Y:	-0.743	Z:	0.040	yaw:	-78.901	yaw rate:	-2.945	Roll:	15.094	Pitch:	13.647	Yaw:	-113.607	Thrust:	100.000
Time:	4.663	Roll Set Point:	-1.980	Pitch Set Point:	-0.145	Yaw Set Point:	1.377	X_WP:	0.000	Y_WP:	0.000	Z_WP:	0.500	X:	1.049	Y:	-0.742	Z:	0.040	yaw:	-78.924	yaw rate:	2.308	Roll:	14.417	Pitch:	14.393	Yaw:	-114.655	Thrust:	100.000
Time:	4.681	Roll Set Point:	-1.980	Pitch Set Point:	-0.145	Yaw Set Point:	1.378	X_WP:	0.000	Y_WP:	0.000	Z_WP:	0.500	X:	1.049	Y:	-0.742	Z:	0.040	yaw:	-78.927	yaw rate:	0.276	Roll:	14.643	Pitch:	14.069	Yaw:	-114.009	Thrust:	100.000
Time:	4.702	Roll Set Point:	-1.980	Pitch Set Point:	-0.145	Yaw Set Point:	1.377	X_WP:	0.000	Y_WP:	0.000	Z_WP:	0.500	X:	1.049	Y:	-0.743	Z:	0.040	yaw:	-78.920	yaw rate:	-0.696	Roll:	14.825	Pitch:	13.972	Yaw:	-114.256	Thrust:	100.000
Time:	4.725	Roll Set Point:	-1.980	Pitch Set Point:	-0.144	Yaw Set Point:	1.377	X_WP:	0.000	Y_WP:	0.000	Z_WP:	0.500	X:	1.049	Y:	-0.743	Z:	0.040	yaw:	-78.913	yaw rate:	-0.706	Roll:	14.852	Pitch:	14.032	Yaw:	-114.581	Thrust:	100.000
Time:	4.743	Roll Set Point:	-1.979	Pitch Set Point:	-0.145	Yaw Set Point:	1.378	X_WP:	0.000	Y_WP:	0.000	Z_WP:	0.500	X:	1.049	Y:	-0.742	Z:	0.040	yaw:	-78.929	yaw rate:	1.614	Roll:	14.404	Pitch:	14.249	Yaw:	-114.017	Thrust:	100.000
Time:	4.763	Roll Set Point:	-1.979	Pitch Set Point:	-0.145	Yaw Set Point:	1.378	X_WP:	0.000	Y_WP:	0.000	Z_WP:	0.500	X:	1.049	Y:	-0.742	Z:	0.040	yaw:	-78.939	yaw rate:	1.041	Roll:	14.598	Pitch:	14.230	Yaw:	-114.471	Thrust:	100.000
Time:	4.782	Roll Set Point:	-1.979	Pitch Set Point:	-0.145	Yaw Set Point:	1.378	X_WP:	0.000	Y_WP:	0.000	Z_WP:	0.500	X:	1.049	Y:	-0.742	Z:	0.040	yaw:	-78.932	yaw rate:	-0.764	Roll:	14.746	Pitch:	13.898	Yaw:	-113.949	Thrust:	100.000
Time:	4.802	Roll Set Point:	-1.980	Pitch Set Point:	-0.144	Yaw Set Point:	1.377	X_WP:	0.000	Y_WP:	0.000	Z_WP:	0.500	X:	1.049	Y:	-0.743	Z:	0.040	yaw:	-78.885	yaw rate:	-4.688	Roll:	15.369	Pitch:	13.390	Yaw:	-113.428	Thrust:	100.000
Time:	4.822	Roll Set Point:	-1.979	Pitch Set Point:	-0.145	Yaw Set Point:	1.378	X_WP:	0.000	Y_WP:	0.000	Z_WP:	0.500	X:	1.049	Y:	-0.742	Z:	0.040	yaw:	-78.943	yaw rate:	5.803	Roll:	13.879	Pitch:	14.857	Yaw:	-114.935	Thrust:	100.000
Time:	4.842	Roll Set Point:	-1.980	Pitch Set Point:	-0.145	Yaw Set Point:	1.377	X_WP:	0.000	Y_WP:	0.000	Z_WP:	0.500	X:	1.049	Y:	-0.742	Z:	0.040	yaw:	-78.923	yaw rate:	-2.021	Roll:	14.970	Pitch:	13.786	Yaw:	-114.073	Thrust:	100.000
Time:	4.863	Roll Set Point:	-1.980	Pitch Set Point:	-0.144	Yaw Set Point:	1.377	X_WP:	0.000	Y_WP:	0.000	Z_WP:	0.500	X:	1.049	Y:	-0.743	Z:	0.040	yaw:	-78.910	yaw rate:	-1.273	Roll:	14.922	Pitch:	13.927	Yaw:	-114.259	Thrust:	100.000
Time:	4.882	Roll Set Point:	-1.980	Pitch Set Point:	-0.144	Yaw Set Point:	1.377	X_WP:	0.000	Y_WP:	0.000	Z_WP:	0.500	X:	1.049	Y:	-0.743	Z:	0.040	yaw:	-78.898	yaw rate:	-1.174	Roll:	14.829	Pitch:	13.854	Yaw:	-113.773	Thrust:	100.000
Time:	4.902	Roll Set Point:	-1.979	Pitch Set Point:	-0.145	Yaw Set Point:	1.378	X_WP:	0.000	Y_WP:	0.000	Z_WP:	0.500	X:	1.049	Y:	-0.743	Z:	0.040	yaw:	-78.945	yaw rate:	4.682	Roll:	14.090	Pitch:	14.730	Yaw:	-114.785	Thrust:	100.000
Time:	4.924	Roll Set Point:	-1.980	Pitch Set Point:	-0.145	Yaw Set Point:	1.377	X_WP:	0.000	Y_WP:	0.000	Z_WP:	0.500	X:	1.049	Y:	-0.743	Z:	0.040	yaw:	-78.919	yaw rate:	-2.631	Roll:	15.094	Pitch:	13.772	Yaw:	-114.192	Thrust:	100.000
Time:	4.942	Roll Set Point:	-1.980	Pitch Set Point:	-0.145	Yaw Set Point:	1.377	X_WP:	0.000	Y_WP:	0.000	Z_WP:	0.500	X:	1.049	Y:	-0.742	Z:	0.040	yaw:	-78.918	yaw rate:	-0.082	Roll:	14.649	Pitch:	13.989	Yaw:	-113.966	Thrust:	100.000
Time:	4.964	Roll Set Point:	-1.979	Pitch Set Point:	-0.145	Yaw Set Point:	1.378	X_WP:	0.000	Y_WP:	0.000	Z_WP:	0.500	X:	1.049	Y:	-0.742	Z:	0.040	yaw:	-78.933	yaw rate:	1.481	Roll:	14.580	Pitch:	14.308	Yaw:	-114.615	Thrust:	100.000
Time:	4.982	Roll Set Point:	-1.980	Pitch Set Point:	-0.145	Yaw Set Point:	1.377	X_WP:	0.000	Y_WP:	0.000	Z_WP:	0.500	X:	1.049	Y:	-0.743	Z:	0.040	yaw:	-78.921	yaw rate:	-1.140	Roll:	14.826	Pitch:	13.814	Yaw:	-113.643	Thrust:	100.000
Time:	5.002	Roll Set Point:	-1.980	Pitch Set Point:	-0.144	Yaw Set Point:	1.377	X_WP:	0.000	Y_WP:	0.000	Z_WP:	0.500	X:	1.049	Y:	-0.743	Z:	0.040	yaw:	-78.914	yaw rate:	-0.734	Roll:	14.786	Pitch:	13.943	Yaw:	-114.100	Thrust:	100.000
Time:	5.033	Roll Set Point:	-1.980	Pitch Set Point:	-0.144	Yaw Set Point:	1.377	X_WP:	0.000	Y_WP:	0.000	Z_WP:	0.500	X:	1.049	Y:	-0.743	Z:	0.040	yaw:	-78.893	yaw rate:	-2.131	Roll:	15.304	Pitch:	14.280	Yaw:	-116.301	Thrust:	100.000
Time:	5.059	Roll Set Point:	-1.979	Pitch Set Point:	-0.145	Yaw Set Point:	1.378	X_WP:	0.000	Y_WP:	0.000	Z_WP:	0.500	X:	1.049	Y:	-0.742	Z:	0.040	yaw:	-78.947	yaw rate:	5.461	Roll:	14.111	Pitch:	14.826	Yaw:	-115.667	Thrust:	100.000
Time:	5.082	Roll Set Point:	-1.980	Pitch Set Point:	-0.144	Yaw Set Point:	1.377	X_WP:	0.000	Y_WP:	0.000	Z_WP:	0.500	X:	1.049	Y:	-0.743	Z:	0.040	yaw:	-78.912	yaw rate:	-3.491	Roll:	15.278	Pitch:	13.864	Yaw:	-114.390	Thrust:	100.000
Time:	5.102	Roll Set Point:	-1.980	Pitch Set Point:	-0.144	Yaw Set Point:	1.377	X_WP:	0.000	Y_WP:	0.000	Z_WP:	0.500	X:	1.049	Y:	-0.743	Z:	0.040	yaw:	-78.905	yaw rate:	-0.704	Roll:	14.820	Pitch:	13.944	Yaw:	-114.304	Thrust:	100.000
Time:	5.122	Roll Set Point:	-1.980	Pitch Set Point:	-0.144	Yaw Set Point:	1.377	X_WP:	0.000	Y_WP:	0.000	Z_WP:	0.500	X:	1.049	Y:	-0.742	Z:	0.040	yaw:	-78.914	yaw rate:	0.829	Roll:	14.610	Pitch:	14.183	Yaw:	-114.297	Thrust:	100.000
Time:	5.142	Roll Set Point:	-1.980	Pitch Set Point:	-0.145	Yaw Set Point:	1.378	X_WP:	0.000	Y_WP:	0.000	Z_WP:	0.500	X:	1.049	Y:	-0.742	Z:	0.040	yaw:	-78.926	yaw rate:	1.199	Roll:	14.549	Pitch:	14.240	Yaw:	-114.389	Thrust:	100.000
Time:	5.165	Roll Set Point:	-1.980	Pitch Set Point:	-0.144	Yaw Set Point:	1.377	X_WP:	0.000	Y_WP:	0.000	Z_WP:	0.500	X:	1.049	Y:	-0.743	Z:	0.040	yaw:	-78.909	yaw rate:	-1.664	Roll:	15.013	Pitch:	13.940	Yaw:	-114.513	Thrust:	100.000
Time:	5.186	Roll Set Point:	-1.980	Pitch Set Point:	-0.145	Yaw Set Point:	1.377	X_WP:	0.000	Y_WP:	0.000	Z_WP:	0.500	X:	1.049	Y:	-0.743	Z:	0.040	yaw:	-78.924	yaw rate:	1.485	Roll:	14.546	Pitch:	14.301	Yaw:	-114.543	Thrust:	100.000
Time:	5.206	Roll Set Point:	-1.980	Pitch Set Point:	-0.145	Yaw Set Point:	1.377	X_WP:	0.000	Y_WP:	0.000	Z_WP:	0.500	X:	1.049	Y:	-0.743	Z:	0.040	yaw:	-78.922	yaw rate:	-0.157	Roll:	14.735	Pitch:	14.036	Yaw:	-114.211	Thrust:	100.000
Time:	5.228	Roll Set Point:	-1.979	Pitch Set Point:	-0.145	Yaw Set Point:	1.378	X_WP:	0.000	Y_WP:	0.000	Z_WP:	0.500	X:	1.049	Y:	-0.742	Z:	0.040	yaw:	-78.934	yaw rate:	1.199	Roll:	14.576	Pitch:	14.282	Yaw:	-114.794	Thrust:	100.000
Time:	5.247	Roll Set Point:	-1.980	Pitch Set Point:	-0.145	Yaw Set Point:	1.377	X_WP:	0.000	Y_WP:	0.000	Z_WP:	0.500	X:	1.049	Y:	-0.743	Z:	0.040	yaw:	-78.924	yaw rate:	0.619	Roll:	14.876	Pitch:	13.879	Yaw:	-113.987	Thrust:	100.000
