Time:	0.047	Roll Set Point:	0.205	Pitch Set Point:	0.873	Yaw Set Point:	0.008	X_WP:	0.189	Y_WP:	-0.945	Y_WP:	1.000	X:	-0.008	Y:	-0.908	Z:	0.404	yaw:	-0.478	yaw rate:	-0.091	Roll:	-5.710	Pitch:	1.017	Yaw:	-0.668	Thrust:	32.794
Time:	0.067	Roll Set Point:	0.205	Pitch Set Point:	0.873	Yaw Set Point:	0.008	X_WP:	0.189	Y_WP:	-0.945	Y_WP:	1.000	X:	-0.008	Y:	-0.908	Z:	0.404	yaw:	-0.467	yaw rate:	-1.167	Roll:	-5.713	Pitch:	1.060	Yaw:	-0.511	Thrust:	34.314
Time:	0.088	Roll Set Point:	0.205	Pitch Set Point:	0.873	Yaw Set Point:	0.008	X_WP:	0.189	Y_WP:	-0.945	Y_WP:	1.000	X:	-0.008	Y:	-0.908	Z:	0.404	yaw:	-0.485	yaw rate:	1.813	Roll:	-5.744	Pitch:	0.944	Yaw:	-0.924	Thrust:	35.588
Time:	0.108	Roll Set Point:	0.205	Pitch Set Point:	0.874	Yaw Set Point:	0.012	X_WP:	0.189	Y_WP:	-0.945	Y_WP:	1.000	X:	-0.008	Y:	-0.908	Z:	0.404	yaw:	-0.716	yaw rate:	23.133	Roll:	-5.862	Pitch:	0.335	Yaw:	-3.819	Thrust:	37.489
Time:	0.129	Roll Set Point:	0.205	Pitch Set Point:	0.874	Yaw Set Point:	0.012	X_WP:	0.189	Y_WP:	-0.945	Y_WP:	1.000	X:	-0.008	Y:	-0.908	Z:	0.404	yaw:	-0.709	yaw rate:	-0.695	Roll:	-5.754	Pitch:	1.013	Yaw:	-0.919	Thrust:	38.790
Time:	0.147	Roll Set Point:	0.205	Pitch Set Point:	0.873	Yaw Set Point:	0.009	X_WP:	0.189	Y_WP:	-0.945	Y_WP:	1.000	X:	-0.008	Y:	-0.908	Z:	0.404	yaw:	-0.491	yaw rate:	-21.852	Roll:	-5.622	Pitch:	1.797	Yaw:	2.598	Thrust:	38.954
Time:	0.167	Roll Set Point:	0.205	Pitch Set Point:	0.873	Yaw Set Point:	0.008	X_WP:	0.189	Y_WP:	-0.945	Y_WP:	1.000	X:	-0.008	Y:	-0.908	Z:	0.404	yaw:	-0.475	yaw rate:	-1.580	Roll:	-5.759	Pitch:	1.093	Yaw:	-0.484	Thrust:	41.620
Time:	0.191	Roll Set Point:	0.205	Pitch Set Point:	0.873	Yaw Set Point:	0.008	X_WP:	0.189	Y_WP:	-0.945	Y_WP:	1.000	X:	-0.008	Y:	-0.908	Z:	0.404	yaw:	-0.433	yaw rate:	-4.157	Roll:	-5.767	Pitch:	1.134	Yaw:	-0.163	Thrust:	44.041
Time:	0.207	Roll Set Point:	0.205	Pitch Set Point:	0.874	Yaw Set Point:	0.013	X_WP:	0.189	Y_WP:	-0.945	Y_WP:	1.000	X:	-0.008	Y:	-0.908	Z:	0.404	yaw:	-0.749	yaw rate:	31.586	Roll:	-5.982	Pitch:	-0.167	Yaw:	-6.003	Thrust:	42.416
Time:	0.227	Roll Set Point:	0.205	Pitch Set Point:	0.873	Yaw Set Point:	0.008	X_WP:	0.189	Y_WP:	-0.945	Y_WP:	1.000	X:	-0.008	Y:	-0.908	Z:	0.404	yaw:	-0.480	yaw rate:	-26.910	Roll:	-5.651	Pitch:	1.875	Yaw:	2.889	Thrust:	45.745
Time:	0.247	Roll Set Point:	0.205	Pitch Set Point:	0.873	Yaw Set Point:	0.007	X_WP:	0.189	Y_WP:	-0.945	Y_WP:	1.000	X:	-0.008	Y:	-0.908	Z:	0.404	yaw:	-0.426	yaw rate:	-5.355	Roll:	-5.781	Pitch:	1.197	Yaw:	0.058	Thrust:	47.271
Time:	0.267	Roll Set Point:	0.205	Pitch Set Point:	0.873	Yaw Set Point:	0.009	X_WP:	0.189	Y_WP:	-0.945	Y_WP:	1.000	X:	-0.008	Y:	-0.908	Z:	0.404	yaw:	-0.490	yaw rate:	6.399	Roll:	-5.856	Pitch:	0.832	Yaw:	-1.545	Thrust:	48.929
Time:	0.287	Roll Set Point:	0.205	Pitch Set Point:	0.874	Yaw Set Point:	0.013	X_WP:	0.189	Y_WP:	-0.945	Y_WP:	1.000	X:	-0.008	Y:	-0.908	Z:	0.404	yaw:	-0.743	yaw rate:	25.261	Roll:	-5.968	Pitch:	0.228	Yaw:	-4.428	Thrust:	49.798
Time:	0.308	Roll Set Point:	0.205	Pitch Set Point:	0.873	Yaw Set Point:	0.008	X_WP:	0.189	Y_WP:	-0.945	Y_WP:	1.000	X:	-0.008	Y:	-0.908	Z:	0.404	yaw:	-0.442	yaw rate:	-30.131	Roll:	-5.672	Pitch:	1.984	Yaw:	3.287	Thrust:	51.308
Time:	0.329	Roll Set Point:	0.205	Pitch Set Point:	0.873	Yaw Set Point:	0.008	X_WP:	0.189	Y_WP:	-0.945	Y_WP:	1.000	X:	-0.008	Y:	-0.908	Z:	0.404	yaw:	-0.463	yaw rate:	2.097	Roll:	-5.865	Pitch:	0.968	Yaw:	-0.957	Thrust:	53.459
Time:	0.346	Roll Set Point:	0.205	Pitch Set Point:	0.873	Yaw Set Point:	0.009	X_WP:	0.189	Y_WP:	-0.945	Y_WP:	1.000	X:	-0.008	Y:	-0.908	Z:	0.404	yaw:	-0.518	yaw rate:	5.539	Roll:	-5.881	Pitch:	0.855	Yaw:	-1.594	Thrust:	52.848
Time:	0.367	Roll Set Point:	0.205	Pitch Set Point:	0.874	Yaw Set Point:	0.012	X_WP:	0.189	Y_WP:	-0.945	Y_WP:	1.000	X:	-0.008	Y:	-0.908	Z:	0.404	yaw:	-0.709	yaw rate:	19.093	Roll:	-5.975	Pitch:	0.445	Yaw:	-3.519	Thrust:	55.922
Time:	0.387	Roll Set Point:	0.205	Pitch Set Point:	0.873	Yaw Set Point:	0.008	X_WP:	0.189	Y_WP:	-0.945	Y_WP:	1.000	X:	-0.008	Y:	-0.908	Z:	0.404	yaw:	-0.450	yaw rate:	-25.851	Roll:	-5.746	Pitch:	1.826	Yaw:	2.582	Thrust:	57.882
Time:	0.408	Roll Set Point:	0.205	Pitch Set Point:	0.873	Yaw Set Point:	0.009	X_WP:	0.189	Y_WP:	-0.945	Y_WP:	1.000	X:	-0.008	Y:	-0.908	Z:	0.404	yaw:	-0.489	yaw rate:	3.845	Roll:	-5.915	Pitch:	0.921	Yaw:	-1.234	Thrust:	59.867
Time:	0.427	Roll Set Point:	0.205	Pitch Set Point:	0.873	Yaw Set Point:	0.008	X_WP:	0.189	Y_WP:	-0.945	Y_WP:	1.000	X:	-0.008	Y:	-0.908	Z:	0.404	yaw:	-0.452	yaw rate:	-3.731	Roll:	-5.861	Pitch:	1.178	Yaw:	-0.190	Thrust:	58.829
Time:	0.447	Roll Set Point:	0.205	Pitch Set Point:	0.873	Yaw Set Point:	0.008	X_WP:	0.189	Y_WP:	-0.945	Y_WP:	1.000	X:	-0.008	Y:	-0.908	Z:	0.404	yaw:	-0.440	yaw rate:	-1.134	Roll:	-5.893	Pitch:	1.102	Yaw:	-0.535	Thrust:	60.565
Time:	0.468	Roll Set Point:	0.205	Pitch Set Point:	0.873	Yaw Set Point:	0.008	X_WP:	0.189	Y_WP:	-0.945	Y_WP:	1.000	X:	-0.008	Y:	-0.908	Z:	0.404	yaw:	-0.478	yaw rate:	3.801	Roll:	-5.955	Pitch:	0.925	Yaw:	-1.222	Thrust:	63.743
Time:	0.487	Roll Set Point:	0.205	Pitch Set Point:	0.874	Yaw Set Point:	0.012	X_WP:	0.189	Y_WP:	-0.945	Y_WP:	1.000	X:	-0.008	Y:	-0.908	Z:	0.404	yaw:	-0.710	yaw rate:	23.127	Roll:	-6.057	Pitch:	0.321	Yaw:	-4.165	Thrust:	64.411
Time:	0.507	Roll Set Point:	0.205	Pitch Set Point:	0.873	Yaw Set Point:	0.008	X_WP:	0.189	Y_WP:	-0.945	Y_WP:	1.000	X:	-0.008	Y:	-0.908	Z:	0.404	yaw:	-0.442	yaw rate:	-26.784	Roll:	-5.783	Pitch:	1.907	Yaw:	2.870	Thrust:	65.029
Time:	0.527	Roll Set Point:	0.205	Pitch Set Point:	0.873	Yaw Set Point:	0.008	X_WP:	0.189	Y_WP:	-0.945	Y_WP:	1.000	X:	-0.008	Y:	-0.908	Z:	0.404	yaw:	-0.463	yaw rate:	2.170	Roll:	-5.961	Pitch:	1.000	Yaw:	-1.017	Thrust:	67.740
Time:	0.547	Roll Set Point:	0.205	Pitch Set Point:	0.873	Yaw Set Point:	0.009	X_WP:	0.189	Y_WP:	-0.945	Y_WP:	1.000	X:	-0.008	Y:	-0.908	Z:	0.404	yaw:	-0.500	yaw rate:	3.658	Roll:	-5.968	Pitch:	0.918	Yaw:	-1.271	Thrust:	66.563
Time:	0.567	Roll Set Point:	0.205	Pitch Set Point:	0.873	Yaw Set Point:	0.008	X_WP:	0.189	Y_WP:	-0.945	Y_WP:	1.000	X:	-0.008	Y:	-0.908	Z:	0.404	yaw:	-0.464	yaw rate:	-3.582	Roll:	-5.950	Pitch:	1.194	Yaw:	-0.277	Thrust:	72.040
Time:	0.589	Roll Set Point:	0.205	Pitch Set Point:	0.873	Yaw Set Point:	0.008	X_WP:	0.189	Y_WP:	-0.945	Y_WP:	1.000	X:	-0.008	Y:	-0.908	Z:	0.404	yaw:	-0.454	yaw rate:	-1.019	Roll:	-5.985	Pitch:	1.085	Yaw:	-0.615	Thrust:	74.104
Time:	0.609	Roll Set Point:	0.205	Pitch Set Point:	0.873	Yaw Set Point:	0.008	X_WP:	0.189	Y_WP:	-0.945	Y_WP:	1.000	X:	-0.008	Y:	-0.908	Z:	0.404	yaw:	-0.477	yaw rate:	2.345	Roll:	-6.004	Pitch:	0.997	Yaw:	-1.076	Thrust:	71.720
Time:	0.633	Roll Set Point:	0.205	Pitch Set Point:	0.873	Yaw Set Point:	0.008	X_WP:	0.189	Y_WP:	-0.945	Y_WP:	1.000	X:	-0.008	Y:	-0.908	Z:	0.404	yaw:	-0.476	yaw rate:	-0.172	Roll:	-6.062	Pitch:	1.091	Yaw:	-0.776	Thrust:	85.250
Time:	0.647	Roll Set Point:	0.205	Pitch Set Point:	0.874	Yaw Set Point:	0.012	X_WP:	0.189	Y_WP:	-0.945	Y_WP:	1.000	X:	-0.008	Y:	-0.908	Z:	0.404	yaw:	-0.691	yaw rate:	21.528	Roll:	-6.090	Pitch:	0.053	Yaw:	-5.153	Thrust:	62.015
Time:	0.667	Roll Set Point:	0.205	Pitch Set Point:	0.874	Yaw Set Point:	0.012	X_WP:	0.189	Y_WP:	-0.945	Y_WP:	1.000	X:	-0.008	Y:	-0.908	Z:	0.404	yaw:	-0.699	yaw rate:	0.792	Roll:	-6.020	Pitch:	1.021	Yaw:	-1.193	Thrust:	77.836
Time:	0.687	Roll Set Point:	0.205	Pitch Set Point:	0.873	Yaw Set Point:	0.008	X_WP:	0.189	Y_WP:	-0.945	Y_WP:	1.000	X:	-0.008	Y:	-0.908	Z:	0.404	yaw:	-0.485	yaw rate:	-21.380	Roll:	-5.923	Pitch:	1.713	Yaw:	1.982	Thrust:	78.873
Time:	0.707	Roll Set Point:	0.205	Pitch Set Point:	0.873	Yaw Set Point:	0.008	X_WP:	0.189	Y_WP:	-0.945	Y_WP:	1.000	X:	-0.008	Y:	-0.908	Z:	0.404	yaw:	-0.454	yaw rate:	-3.076	Roll:	-6.008	Pitch:	1.177	Yaw:	-0.339	Thrust:	78.629
Time:	0.727	Roll Set Point:	0.205	Pitch Set Point:	0.873	Yaw Set Point:	0.009	X_WP:	0.189	Y_WP:	-0.945	Y_WP:	1.000	X:	-0.008	Y:	-0.908	Z:	0.404	yaw:	-0.498	yaw rate:	4.380	Roll:	-6.076	Pitch:	0.946	Yaw:	-1.384	Thrust:	82.628
Time:	0.746	Roll Set Point:	0.205	Pitch Set Point:	0.873	Yaw Set Point:	0.008	X_WP:	0.189	Y_WP:	-0.945	Y_WP:	1.000	X:	-0.008	Y:	-0.908	Z:	0.404	yaw:	-0.466	yaw rate:	-3.186	Roll:	-6.021	Pitch:	1.171	Yaw:	-0.336	Thrust:	80.470
Time:	0.767	Roll Set Point:	0.205	Pitch Set Point:	0.874	Yaw Set Point:	0.013	X_WP:	0.189	Y_WP:	-0.945	Y_WP:	1.000	X:	-0.008	Y:	-0.908	Z:	0.404	yaw:	-0.721	yaw rate:	25.472	Roll:	-6.209	Pitch:	0.294	Yaw:	-4.374	Thrust:	85.971
Time:	0.787	Roll Set Point:	0.205	Pitch Set Point:	0.874	Yaw Set Point:	0.012	X_WP:	0.189	Y_WP:	-0.945	Y_WP:	1.000	X:	-0.008	Y:	-0.908	Z:	0.404	yaw:	-0.687	yaw rate:	-3.354	Roll:	-6.073	Pitch:	1.169	Yaw:	-0.663	Thrust:	86.234
Time:	0.808	Roll Set Point:	0.205	Pitch Set Point:	0.874	Yaw Set Point:	0.012	X_WP:	0.189	Y_WP:	-0.945	Y_WP:	1.000	X:	-0.008	Y:	-0.908	Z:	0.404	yaw:	-0.716	yaw rate:	2.810	Roll:	-6.103	Pitch:	0.964	Yaw:	-1.505	Thrust:	88.145
Time:	0.827	Roll Set Point:	0.205	Pitch Set Point:	0.873	Yaw Set Point:	0.008	X_WP:	0.189	Y_WP:	-0.945	Y_WP:	1.000	X:	-0.008	Y:	-0.908	Z:	0.404	yaw:	-0.472	yaw rate:	-24.380	Roll:	-5.922	Pitch:	1.922	Yaw:	2.552	Thrust:	85.897
Time:	0.846	Roll Set Point:	0.205	Pitch Set Point:	0.873	Yaw Set Point:	0.008	X_WP:	0.189	Y_WP:	-0.945	Y_WP:	1.000	X:	-0.008	Y:	-0.908	Z:	0.404	yaw:	-0.481	yaw rate:	0.905	Roll:	-6.126	Pitch:	1.054	Yaw:	-0.939	Thrust:	89.416
Time:	0.867	Roll Set Point:	0.205	Pitch Set Point:	0.874	Yaw Set Point:	0.012	X_WP:	0.189	Y_WP:	-0.945	Y_WP:	1.000	X:	-0.008	Y:	-0.908	Z:	0.404	yaw:	-0.677	yaw rate:	19.651	Roll:	-6.223	Pitch:	0.468	Yaw:	-3.671	Thrust:	91.545
Time:	0.888	Roll Set Point:	0.205	Pitch Set Point:	0.873	Yaw Set Point:	0.008	X_WP:	0.189	Y_WP:	-0.945	Y_WP:	1.000	X:	-0.008	Y:	-0.908	Z:	0.404	yaw:	-0.479	yaw rate:	-19.842	Roll:	-6.021	Pitch:	1.672	Yaw:	1.617	Thrust:	96.365
Time:	0.908	Roll Set Point:	0.205	Pitch Set Point:	0.873	Yaw Set Point:	0.008	X_WP:	0.189	Y_WP:	-0.945	Y_WP:	1.000	X:	-0.008	Y:	-0.908	Z:	0.404	yaw:	-0.478	yaw rate:	-0.044	Roll:	-6.140	Pitch:	1.088	Yaw:	-0.822	Thrust:	93.686
Time:	0.928	Roll Set Point:	0.205	Pitch Set Point:	0.873	Yaw Set Point:	0.009	X_WP:	0.189	Y_WP:	-0.945	Y_WP:	1.000	X:	-0.008	Y:	-0.908	Z:	0.404	yaw:	-0.493	yaw rate:	1.464	Roll:	-6.147	Pitch:	1.046	Yaw:	-1.046	Thrust:	93.536
Time:	0.947	Roll Set Point:	0.205	Pitch Set Point:	0.874	Yaw Set Point:	0.012	X_WP:	0.189	Y_WP:	-0.945	Y_WP:	1.000	X:	-0.008	Y:	-0.908	Z:	0.404	yaw:	-0.709	yaw rate:	21.542	Roll:	-6.270	Pitch:	0.402	Yaw:	-3.881	Thrust:	99.661
Time:	0.968	Roll Set Point:	0.205	Pitch Set Point:	0.873	Yaw Set Point:	0.008	X_WP:	0.189	Y_WP:	-0.945	Y_WP:	1.000	X:	-0.008	Y:	-0.908	Z:	0.404	yaw:	-0.478	yaw rate:	-23.094	Roll:	-6.070	Pitch:	1.756	Yaw:	2.092	Thrust:	100.000
Time:	0.990	Roll Set Point:	0.205	Pitch Set Point:	0.873	Yaw Set Point:	0.008	X_WP:	0.189	Y_WP:	-0.945	Y_WP:	1.000	X:	-0.008	Y:	-0.908	Z:	0.404	yaw:	-0.467	yaw rate:	-1.014	Roll:	-6.193	Pitch:	1.133	Yaw:	-0.720	Thrust:	100.000
Time:	1.008	Roll Set Point:	0.205	Pitch Set Point:	0.874	Yaw Set Point:	0.013	X_WP:	0.189	Y_WP:	-0.945	Y_WP:	1.000	X:	-0.008	Y:	-0.908	Z:	0.404	yaw:	-0.742	yaw rate:	27.461	Roll:	-6.316	Pitch:	0.171	Yaw:	-5.133	Thrust:	97.234
Time:	1.028	Roll Set Point:	0.205	Pitch Set Point:	0.873	Yaw Set Point:	0.008	X_WP:	0.189	Y_WP:	-0.945	Y_WP:	1.000	X:	-0.008	Y:	-0.908	Z:	0.404	yaw:	-0.468	yaw rate:	-27.408	Roll:	-6.064	Pitch:	1.923	Yaw:	2.725	Thrust:	100.000
Time:	1.049	Roll Set Point:	0.205	Pitch Set Point:	0.874	Yaw Set Point:	0.013	X_WP:	0.189	Y_WP:	-0.945	Y_WP:	1.000	X:	-0.008	Y:	-0.908	Z:	0.404	yaw:	-0.719	yaw rate:	25.148	Roll:	-6.341	Pitch:	0.289	Yaw:	-4.517	Thrust:	100.000
Time:	1.068	Roll Set Point:	0.205	Pitch Set Point:	0.873	Yaw Set Point:	0.008	X_WP:	0.189	Y_WP:	-0.945	Y_WP:	1.000	X:	-0.008	Y:	-0.908	Z:	0.404	yaw:	-0.462	yaw rate:	-25.760	Roll:	-6.058	Pitch:	1.915	Yaw:	2.516	Thrust:	100.000
Time:	1.090	Roll Set Point:	0.205	Pitch Set Point:	0.873	Yaw Set Point:	0.008	X_WP:	0.189	Y_WP:	-0.945	Y_WP:	1.000	X:	-0.008	Y:	-0.908	Z:	0.404	yaw:	-0.444	yaw rate:	-1.739	Roll:	-6.251	Pitch:	1.181	Yaw:	-0.630	Thrust:	100.000
Time:	1.108	Roll Set Point:	0.205	Pitch Set Point:	0.873	Yaw Set Point:	0.008	X_WP:	0.189	Y_WP:	-0.945	Y_WP:	1.000	X:	-0.008	Y:	-0.908	Z:	0.404	yaw:	-0.479	yaw rate:	3.414	Roll:	-6.217	Pitch:	0.982	Yaw:	-1.343	Thrust:	100.000
Time:	1.128	Roll Set Point:	0.205	Pitch Set Point:	0.874	Yaw Set Point:	0.013	X_WP:	0.189	Y_WP:	-0.945	Y_WP:	1.000	X:	-0.008	Y:	-0.908	Z:	0.404	yaw:	-0.753	yaw rate:	27.456	Roll:	-6.379	Pitch:	0.215	Yaw:	-4.923	Thrust:	100.000
Time:	1.148	Roll Set Point:	0.205	Pitch Set Point:	0.874	Yaw Set Point:	0.011	X_WP:	0.189	Y_WP:	-0.945	Y_WP:	1.000	X:	-0.008	Y:	-0.908	Z:	0.404	yaw:	-0.657	yaw rate:	-9.613	Roll:	-6.202	Pitch:	1.393	Yaw:	0.133	Thrust:	100.000
Time:	1.168	Roll Set Point:	0.205	Pitch Set Point:	0.874	Yaw Set Point:	0.013	X_WP:	0.189	Y_WP:	-0.945	Y_WP:	1.000	X:	-0.008	Y:	-0.908	Z:	0.404	yaw:	-0.738	yaw rate:	8.051	Roll:	-6.327	Pitch:	0.826	Yaw:	-2.291	Thrust:	100.000
Time:	1.188	Roll Set Point:	0.205	Pitch Set Point:	0.874	Yaw Set Point:	0.014	X_WP:	0.189	Y_WP:	-0.945	Y_WP:	1.000	X:	-0.008	Y:	-0.908	Z:	0.404	yaw:	-0.782	yaw rate:	4.480	Roll:	-6.310	Pitch:	0.946	Yaw:	-1.883	Thrust:	100.000
Time:	1.209	Roll Set Point:	0.205	Pitch Set Point:	0.874	Yaw Set Point:	0.014	X_WP:	0.189	Y_WP:	-0.945	Y_WP:	1.000	X:	-0.008	Y:	-0.908	Z:	0.404	yaw:	-0.777	yaw rate:	-0.527	Roll:	-6.277	Pitch:	1.169	Yaw:	-1.241	Thrust:	100.000
Time:	1.228	Roll Set Point:	0.205	Pitch Set Point:	0.873	Yaw Set Point:	0.008	X_WP:	0.189	Y_WP:	-0.945	Y_WP:	1.000	X:	-0.008	Y:	-0.908	Z:	0.404	yaw:	-0.450	yaw rate:	-32.686	Roll:	-6.090	Pitch:	2.146	Yaw:	3.618	Thrust:	100.000
Time:	1.246	Roll Set Point:	0.205	Pitch Set Point:	0.873	Yaw Set Point:	0.008	X_WP:	0.189	Y_WP:	-0.945	Y_WP:	1.000	X:	-0.008	Y:	-0.908	Z:	0.404	yaw:	-0.479	yaw rate:	2.873	Roll:	-6.309	Pitch:	1.025	Yaw:	-1.288	Thrust:	100.000
Time:	1.267	Roll Set Point:	0.205	Pitch Set Point:	0.873	Yaw Set Point:	0.008	X_WP:	0.189	Y_WP:	-0.945	Y_WP:	1.000	X:	-0.008	Y:	-0.908	Z:	0.404	yaw:	-0.480	yaw rate:	0.060	Roll:	-6.313	Pitch:	1.117	Yaw:	-0.913	Thrust:	100.000
Time:	1.288	Roll Set Point:	0.205	Pitch Set Point:	0.873	Yaw Set Point:	0.007	X_WP:	0.189	Y_WP:	-0.945	Y_WP:	1.000	X:	-0.008	Y:	-0.908	Z:	0.404	yaw:	-0.417	yaw rate:	-6.297	Roll:	-6.324	Pitch:	1.319	Yaw:	-0.057	Thrust:	100.000
Time:	1.307	Roll Set Point:	0.205	Pitch Set Point:	0.873	Yaw Set Point:	0.008	X_WP:	0.189	Y_WP:	-0.945	Y_WP:	1.000	X:	-0.008	Y:	-0.908	Z:	0.404	yaw:	-0.478	yaw rate:	6.114	Roll:	-6.339	Pitch:	0.935	Yaw:	-1.719	Thrust:	100.000
Time:	1.327	Roll Set Point:	0.205	Pitch Set Point:	0.874	Yaw Set Point:	0.013	X_WP:	0.189	Y_WP:	-0.945	Y_WP:	1.000	X:	-0.008	Y:	-0.908	Z:	0.404	yaw:	-0.765	yaw rate:	28.758	Roll:	-6.504	Pitch:	0.189	Yaw:	-5.146	Thrust:	100.000
Time:	1.347	Roll Set Point:	0.205	Pitch Set Point:	0.873	Yaw Set Point:	0.007	X_WP:	0.189	Y_WP:	-0.945	Y_WP:	1.000	X:	-0.008	Y:	-0.908	Z:	0.404	yaw:	-0.420	yaw rate:	-34.485	Roll:	-6.142	Pitch:	2.226	Yaw:	3.790	Thrust:	100.000
Time:	1.369	Roll Set Point:	0.205	Pitch Set Point:	0.873	Yaw Set Point:	0.009	X_WP:	0.189	Y_WP:	-0.945	Y_WP:	1.000	X:	-0.008	Y:	-0.908	Z:	0.404	yaw:	-0.491	yaw rate:	7.025	Roll:	-6.448	Pitch:	0.938	Yaw:	-1.797	Thrust:	100.000
Time:	1.388	Roll Set Point:	0.205	Pitch Set Point:	0.873	Yaw Set Point:	0.009	X_WP:	0.189	Y_WP:	-0.945	Y_WP:	1.000	X:	-0.008	Y:	-0.908	Z:	0.404	yaw:	-0.495	yaw rate:	0.454	Roll:	-6.336	Pitch:	1.107	Yaw:	-1.001	Thrust:	100.000
Time:	1.408	Roll Set Point:	0.205	Pitch Set Point:	0.873	Yaw Set Point:	0.008	X_WP:	0.189	Y_WP:	-0.945	Y_WP:	1.000	X:	-0.008	Y:	-0.908	Z:	0.404	yaw:	-0.468	yaw rate:	-2.725	Roll:	-6.385	Pitch:	1.226	Yaw:	-0.559	Thrust:	100.000
Time:	1.428	Roll Set Point:	0.205	Pitch Set Point:	0.873	Yaw Set Point:	0.008	X_WP:	0.189	Y_WP:	-0.945	Y_WP:	1.000	X:	-0.008	Y:	-0.908	Z:	0.404	yaw:	-0.468	yaw rate:	-0.026	Roll:	-6.377	Pitch:	1.141	Yaw:	-0.914	Thrust:	100.000
Time:	1.447	Roll Set Point:	0.205	Pitch Set Point:	0.873	Yaw Set Point:	0.008	X_WP:	0.189	Y_WP:	-0.945	Y_WP:	1.000	X:	-0.008	Y:	-0.908	Z:	0.404	yaw:	-0.455	yaw rate:	-1.280	Roll:	-6.399	Pitch:	1.183	Yaw:	-0.717	Thrust:	100.000
Time:	1.470	Roll Set Point:	0.205	Pitch Set Point:	0.874	Yaw Set Point:	0.013	X_WP:	0.189	Y_WP:	-0.945	Y_WP:	1.000	X:	-0.008	Y:	-0.908	Z:	0.404	yaw:	-0.731	yaw rate:	27.640	Roll:	-6.585	Pitch:	0.306	Yaw:	-4.651	Thrust:	100.000
Time:	1.487	Roll Set Point:	0.205	Pitch Set Point:	0.873	Yaw Set Point:	0.008	X_WP:	0.189	Y_WP:	-0.945	Y_WP:	1.000	X:	-0.008	Y:	-0.908	Z:	0.404	yaw:	-0.434	yaw rate:	-29.739	Roll:	-6.222	Pitch:	2.120	Yaw:	3.420	Thrust:	100.000
Time:	1.508	Roll Set Point:	0.205	Pitch Set Point:	0.874	Yaw Set Point:	0.012	X_WP:	0.189	Y_WP:	-0.945	Y_WP:	1.000	X:	-0.008	Y:	-0.908	Z:	0.404	yaw:	-0.708	yaw rate:	27.453	Roll:	-6.592	Pitch:	0.288	Yaw:	-4.728	Thrust:	100.000
Time:	1.529	Roll Set Point:	0.205	Pitch Set Point:	0.873	Yaw Set Point:	0.008	X_WP:	0.189	Y_WP:	-0.945	Y_WP:	1.000	X:	-0.008	Y:	-0.908	Z:	0.404	yaw:	-0.474	yaw rate:	-23.485	Roll:	-6.313	Pitch:	1.883	Yaw:	2.032	Thrust:	100.000
Time:	1.548	Roll Set Point:	0.205	Pitch Set Point:	0.873	Yaw Set Point:	0.008	X_WP:	0.189	Y_WP:	-0.945	Y_WP:	1.000	X:	-0.008	Y:	-0.908	Z:	0.404	yaw:	-0.453	yaw rate:	-2.071	Roll:	-6.410	Pitch:	1.197	Yaw:	-0.626	Thrust:	100.000
Time:	1.568	Roll Set Point:	0.205	Pitch Set Point:	0.874	Yaw Set Point:	0.013	X_WP:	0.189	Y_WP:	-0.945	Y_WP:	1.000	X:	-0.008	Y:	-0.908	Z:	0.404	yaw:	-0.718	yaw rate:	26.482	Roll:	-6.626	Pitch:	0.333	Yaw:	-4.826	Thrust:	100.000
Time:	1.588	Roll Set Point:	0.205	Pitch Set Point:	0.873	Yaw Set Point:	0.008	X_WP:	0.189	Y_WP:	-0.945	Y_WP:	1.000	X:	-0.008	Y:	-0.908	Z:	0.404	yaw:	-0.473	yaw rate:	-24.422	Roll:	-6.318	Pitch:	1.920	Yaw:	2.274	Thrust:	100.000
Time:	1.608	Roll Set Point:	0.205	Pitch Set Point:	0.874	Yaw Set Point:	0.012	X_WP:	0.189	Y_WP:	-0.945	Y_WP:	1.000	X:	-0.008	Y:	-0.908	Z:	0.404	yaw:	-0.684	yaw rate:	21.074	Roll:	-6.585	Pitch:	0.485	Yaw:	-3.930	Thrust:	100.000
Time:	1.629	Roll Set Point:	0.205	Pitch Set Point:	0.873	Yaw Set Point:	0.008	X_WP:	0.189	Y_WP:	-0.945	Y_WP:	1.000	X:	-0.008	Y:	-0.908	Z:	0.404	yaw:	-0.481	yaw rate:	-20.335	Roll:	-6.352	Pitch:	1.782	Yaw:	1.607	Thrust:	100.000
Time:	1.647	Roll Set Point:	0.205	Pitch Set Point:	0.873	Yaw Set Point:	0.008	X_WP:	0.189	Y_WP:	-0.945	Y_WP:	1.000	X:	-0.008	Y:	-0.908	Z:	0.404	yaw:	-0.467	yaw rate:	-1.433	Roll:	-6.409	Pitch:	1.197	Yaw:	-0.740	Thrust:	100.000
Time:	1.669	Roll Set Point:	0.205	Pitch Set Point:	0.873	Yaw Set Point:	0.008	X_WP:	0.189	Y_WP:	-0.945	Y_WP:	1.000	X:	-0.008	Y:	-0.908	Z:	0.404	yaw:	-0.462	yaw rate:	-0.483	Roll:	-6.499	Pitch:	1.185	Yaw:	-0.912	Thrust:	100.000
Time:	1.689	Roll Set Point:	0.205	Pitch Set Point:	0.873	Yaw Set Point:	0.008	X_WP:	0.189	Y_WP:	-0.945	Y_WP:	1.000	X:	-0.008	Y:	-0.908	Z:	0.404	yaw:	-0.451	yaw rate:	-1.112	Roll:	-6.482	Pitch:	1.185	Yaw:	-0.811	Thrust:	100.000
Time:	1.710	Roll Set Point:	0.205	Pitch Set Point:	0.874	Yaw Set Point:	0.013	X_WP:	0.189	Y_WP:	-0.945	Y_WP:	1.000	X:	-0.008	Y:	-0.908	Z:	0.404	yaw:	-0.717	yaw rate:	26.675	Roll:	-6.642	Pitch:	0.373	Yaw:	-4.717	Thrust:	100.000
Time:	1.729	Roll Set Point:	0.205	Pitch Set Point:	0.874	Yaw Set Point:	0.012	X_WP:	0.189	Y_WP:	-0.945	Y_WP:	1.000	X:	-0.008	Y:	-0.908	Z:	0.404	yaw:	-0.708	yaw rate:	-0.916	Roll:	-6.438	Pitch:	1.170	Yaw:	-1.178	Thrust:	100.000
Time:	1.747	Roll Set Point:	0.205	Pitch Set Point:	0.874	Yaw Set Point:	0.013	X_WP:	0.189	Y_WP:	-0.945	Y_WP:	1.000	X:	-0.008	Y:	-0.908	Z:	0.404	yaw:	-0.722	yaw rate:	1.355	Roll:	-6.399	Pitch:	1.067	Yaw:	-1.495	Thrust:	100.000
Time:	1.767	Roll Set Point:	0.205	Pitch Set Point:	0.874	Yaw Set Point:	0.012	X_WP:	0.189	Y_WP:	-0.945	Y_WP:	1.000	X:	-0.008	Y:	-0.908	Z:	0.404	yaw:	-0.705	yaw rate:	-1.653	Roll:	-6.463	Pitch:	1.202	Yaw:	-1.105	Thrust:	100.000
Time:	1.787	Roll Set Point:	0.205	Pitch Set Point:	0.874	Yaw Set Point:	0.013	X_WP:	0.189	Y_WP:	-0.945	Y_WP:	1.000	X:	-0.008	Y:	-0.908	Z:	0.404	yaw:	-0.725	yaw rate:	2.021	Roll:	-6.481	Pitch:	1.080	Yaw:	-1.613	Thrust:	100.000
Time:	1.807	Roll Set Point:	0.205	Pitch Set Point:	0.874	Yaw Set Point:	0.012	X_WP:	0.189	Y_WP:	-0.945	Y_WP:	1.000	X:	-0.008	Y:	-0.908	Z:	0.404	yaw:	-0.714	yaw rate:	-1.108	Roll:	-6.449	Pitch:	1.180	Yaw:	-1.187	Thrust:	100.000
Time:	1.827	Roll Set Point:	0.205	Pitch Set Point:	0.873	Yaw Set Point:	0.008	X_WP:	0.189	Y_WP:	-0.945	Y_WP:	1.000	X:	-0.008	Y:	-0.908	Z:	0.404	yaw:	-0.483	yaw rate:	-23.126	Roll:	-6.307	Pitch:	1.870	Yaw:	1.944	Thrust:	100.000
Time:	1.849	Roll Set Point:	0.205	Pitch Set Point:	0.873	Yaw Set Point:	0.008	X_WP:	0.189	Y_WP:	-0.945	Y_WP:	1.000	X:	-0.008	Y:	-0.908	Z:	0.404	yaw:	-0.477	yaw rate:	-0.586	Roll:	-6.515	Pitch:	1.196	Yaw:	-0.949	Thrust:	100.000
Time:	1.868	Roll Set Point:	0.205	Pitch Set Point:	0.873	Yaw Set Point:	0.008	X_WP:	0.189	Y_WP:	-0.945	Y_WP:	1.000	X:	-0.008	Y:	-0.908	Z:	0.404	yaw:	-0.460	yaw rate:	-1.699	Roll:	-6.433	Pitch:	1.229	Yaw:	-0.775	Thrust:	100.000
Time:	1.888	Roll Set Point:	0.205	Pitch Set Point:	0.874	Yaw Set Point:	0.013	X_WP:	0.189	Y_WP:	-0.945	Y_WP:	1.000	X:	-0.008	Y:	-0.908	Z:	0.404	yaw:	-0.745	yaw rate:	28.472	Roll:	-6.644	Pitch:	0.311	Yaw:	-5.079	Thrust:	100.000
Time:	1.908	Roll Set Point:	0.205	Pitch Set Point:	0.873	Yaw Set Point:	0.009	X_WP:	0.189	Y_WP:	-0.945	Y_WP:	1.000	X:	-0.008	Y:	-0.908	Z:	0.404	yaw:	-0.494	yaw rate:	-25.116	Roll:	-6.296	Pitch:	1.966	Yaw:	2.267	Thrust:	100.000
Time:	1.927	Roll Set Point:	0.205	Pitch Set Point:	0.873	Yaw Set Point:	0.008	X_WP:	0.189	Y_WP:	-0.945	Y_WP:	1.000	X:	-0.008	Y:	-0.908	Z:	0.404	yaw:	-0.486	yaw rate:	-0.809	Roll:	-6.436	Pitch:	1.206	Yaw:	-0.912	Thrust:	100.000
Time:	1.948	Roll Set Point:	0.205	Pitch Set Point:	0.874	Yaw Set Point:	0.013	X_WP:	0.189	Y_WP:	-0.945	Y_WP:	1.000	X:	-0.008	Y:	-0.908	Z:	0.404	yaw:	-0.726	yaw rate:	24.007	Roll:	-6.578	Pitch:	0.393	Yaw:	-4.455	Thrust:	100.000
Time:	1.967	Roll Set Point:	0.205	Pitch Set Point:	0.874	Yaw Set Point:	0.013	X_WP:	0.189	Y_WP:	-0.945	Y_WP:	1.000	X:	-0.008	Y:	-0.908	Z:	0.404	yaw:	-0.735	yaw rate:	0.961	Roll:	-6.475	Pitch:	1.127	Yaw:	-1.520	Thrust:	100.000
Time:	1.987	Roll Set Point:	0.205	Pitch Set Point:	0.873	Yaw Set Point:	0.008	X_WP:	0.189	Y_WP:	-0.945	Y_WP:	1.000	X:	-0.008	Y:	-0.908	Z:	0.404	yaw:	-0.477	yaw rate:	-25.790	Roll:	-6.341	Pitch:	1.985	Yaw:	2.339	Thrust:	100.000
Time:	2.007	Roll Set Point:	0.205	Pitch Set Point:	0.873	Yaw Set Point:	0.008	X_WP:	0.189	Y_WP:	-0.945	Y_WP:	1.000	X:	-0.008	Y:	-0.908	Z:	0.404	yaw:	-0.471	yaw rate:	-0.647	Roll:	-6.460	Pitch:	1.214	Yaw:	-0.957	Thrust:	100.000
Time:	2.028	Roll Set Point:	0.205	Pitch Set Point:	0.873	Yaw Set Point:	0.008	X_WP:	0.189	Y_WP:	-0.945	Y_WP:	1.000	X:	-0.008	Y:	-0.908	Z:	0.404	yaw:	-0.471	yaw rate:	-0.024	Roll:	-6.431	Pitch:	1.184	Yaw:	-1.023	Thrust:	100.000
Time:	2.047	Roll Set Point:	0.205	Pitch Set Point:	0.874	Yaw Set Point:	0.013	X_WP:	0.189	Y_WP:	-0.945	Y_WP:	1.000	X:	-0.008	Y:	-0.908	Z:	0.404	yaw:	-0.724	yaw rate:	25.370	Roll:	-6.593	Pitch:	0.407	Yaw:	-4.625	Thrust:	100.000
Time:	2.068	Roll Set Point:	0.205	Pitch Set Point:	0.873	Yaw Set Point:	0.008	X_WP:	0.189	Y_WP:	-0.945	Y_WP:	1.000	X:	-0.008	Y:	-0.908	Z:	0.404	yaw:	-0.479	yaw rate:	-24.588	Roll:	-6.374	Pitch:	1.953	Yaw:	2.055	Thrust:	100.000
Time:	2.093	Roll Set Point:	0.205	Pitch Set Point:	0.874	Yaw Set Point:	0.012	X_WP:	0.189	Y_WP:	-0.945	Y_WP:	1.000	X:	-0.008	Y:	-0.908	Z:	0.404	yaw:	-0.703	yaw rate:	22.472	Roll:	-6.751	Pitch:	0.663	Yaw:	-3.865	Thrust:	100.000
Time:	2.108	Roll Set Point:	0.205	Pitch Set Point:	0.873	Yaw Set Point:	0.009	X_WP:	0.189	Y_WP:	-0.945	Y_WP:	1.000	X:	-0.008	Y:	-0.908	Z:	0.404	yaw:	-0.509	yaw rate:	-19.410	Roll:	-6.139	Pitch:	1.929	Yaw:	2.235	Thrust:	100.000
Time:	2.129	Roll Set Point:	0.205	Pitch Set Point:	0.874	Yaw Set Point:	0.012	X_WP:	0.189	Y_WP:	-0.945	Y_WP:	1.000	X:	-0.008	Y:	-0.908	Z:	0.404	yaw:	-0.705	yaw rate:	19.596	Roll:	-6.587	Pitch:	0.598	Yaw:	-3.950	Thrust:	100.000
Time:	2.147	Roll Set Point:	0.205	Pitch Set Point:	0.874	Yaw Set Point:	0.013	X_WP:	0.189	Y_WP:	-0.945	Y_WP:	1.000	X:	-0.008	Y:	-0.908	Z:	0.404	yaw:	-0.732	yaw rate:	2.680	Roll:	-6.438	Pitch:	1.073	Yaw:	-1.780	Thrust:	100.000
Time:	2.168	Roll Set Point:	0.205	Pitch Set Point:	0.873	Yaw Set Point:	0.009	X_WP:	0.189	Y_WP:	-0.945	Y_WP:	1.000	X:	-0.008	Y:	-0.908	Z:	0.404	yaw:	-0.497	yaw rate:	-23.540	Roll:	-6.354	Pitch:	1.910	Yaw:	1.894	Thrust:	100.000
Time:	2.189	Roll Set Point:	0.205	Pitch Set Point:	0.873	Yaw Set Point:	0.008	X_WP:	0.189	Y_WP:	-0.945	Y_WP:	1.000	X:	-0.008	Y:	-0.908	Z:	0.404	yaw:	-0.453	yaw rate:	-4.346	Roll:	-6.443	Pitch:	1.348	Yaw:	-0.539	Thrust:	100.000
Time:	2.208	Roll Set Point:	0.205	Pitch Set Point:	0.873	Yaw Set Point:	0.009	X_WP:	0.189	Y_WP:	-0.945	Y_WP:	1.000	X:	-0.008	Y:	-0.908	Z:	0.404	yaw:	-0.490	yaw rate:	3.666	Roll:	-6.487	Pitch:	1.086	Yaw:	-1.586	Thrust:	100.000
Time:	2.227	Roll Set Point:	0.205	Pitch Set Point:	0.873	Yaw Set Point:	0.008	X_WP:	0.189	Y_WP:	-0.945	Y_WP:	1.000	X:	-0.008	Y:	-0.908	Z:	0.404	yaw:	-0.469	yaw rate:	-2.097	Roll:	-6.438	Pitch:	1.272	Yaw:	-0.777	Thrust:	100.000
Time:	2.248	Roll Set Point:	0.205	Pitch Set Point:	0.873	Yaw Set Point:	0.009	X_WP:	0.189	Y_WP:	-0.945	Y_WP:	1.000	X:	-0.008	Y:	-0.908	Z:	0.404	yaw:	-0.495	yaw rate:	2.604	Roll:	-6.479	Pitch:	1.132	Yaw:	-1.460	Thrust:	100.000
Time:	2.268	Roll Set Point:	0.205	Pitch Set Point:	0.873	Yaw Set Point:	0.008	X_WP:	0.189	Y_WP:	-0.945	Y_WP:	1.000	X:	-0.008	Y:	-0.908	Z:	0.404	yaw:	-0.456	yaw rate:	-3.874	Roll:	-6.442	Pitch:	1.332	Yaw:	-0.588	Thrust:	100.000
Time:	2.289	Roll Set Point:	0.205	Pitch Set Point:	0.873	Yaw Set Point:	0.008	X_WP:	0.189	Y_WP:	-0.945	Y_WP:	1.000	X:	-0.008	Y:	-0.908	Z:	0.404	yaw:	-0.471	yaw rate:	1.458	Roll:	-6.505	Pitch:	1.171	Yaw:	-1.288	Thrust:	100.000
Time:	2.309	Roll Set Point:	0.205	Pitch Set Point:	0.873	Yaw Set Point:	0.008	X_WP:	0.189	Y_WP:	-0.945	Y_WP:	1.000	X:	-0.008	Y:	-0.908	Z:	0.404	yaw:	-0.457	yaw rate:	-1.369	Roll:	-6.448	Pitch:	1.260	Yaw:	-0.909	Thrust:	100.000
Time:	2.329	Roll Set Point:	0.205	Pitch Set Point:	0.873	Yaw Set Point:	0.008	X_WP:	0.189	Y_WP:	-0.945	Y_WP:	1.000	X:	-0.008	Y:	-0.908	Z:	0.404	yaw:	-0.471	yaw rate:	1.381	Roll:	-6.456	Pitch:	1.181	Yaw:	-1.269	Thrust:	100.000
Time:	2.348	Roll Set Point:	0.205	Pitch Set Point:	0.873	Yaw Set Point:	0.008	X_WP:	0.189	Y_WP:	-0.945	Y_WP:	1.000	X:	-0.008	Y:	-0.908	Z:	0.404	yaw:	-0.480	yaw rate:	0.926	Roll:	-6.416	Pitch:	1.161	Yaw:	-1.228	Thrust:	100.000
Time:	2.370	Roll Set Point:	0.205	Pitch Set Point:	0.873	Yaw Set Point:	0.008	X_WP:	0.189	Y_WP:	-0.945	Y_WP:	1.000	X:	-0.008	Y:	-0.908	Z:	0.404	yaw:	-0.473	yaw rate:	-0.675	Roll:	-6.498	Pitch:	1.265	Yaw:	-1.051	Thrust:	100.000
Time:	2.388	Roll Set Point:	0.205	Pitch Set Point:	0.873	Yaw Set Point:	0.008	X_WP:	0.189	Y_WP:	-0.945	Y_WP:	1.000	X:	-0.008	Y:	-0.908	Z:	0.404	yaw:	-0.448	yaw rate:	-2.549	Roll:	-6.388	Pitch:	1.294	Yaw:	-0.701	Thrust:	100.000
Time:	2.408	Roll Set Point:	0.205	Pitch Set Point:	0.873	Yaw Set Point:	0.009	X_WP:	0.189	Y_WP:	-0.945	Y_WP:	1.000	X:	-0.008	Y:	-0.908	Z:	0.404	yaw:	-0.500	yaw rate:	5.209	Roll:	-6.518	Pitch:	1.055	Yaw:	-1.835	Thrust:	100.000
Time:	2.428	Roll Set Point:	0.205	Pitch Set Point:	0.873	Yaw Set Point:	0.008	X_WP:	0.189	Y_WP:	-0.945	Y_WP:	1.000	X:	-0.008	Y:	-0.908	Z:	0.404	yaw:	-0.465	yaw rate:	-3.539	Roll:	-6.451	Pitch:	1.332	Yaw:	-0.630	Thrust:	100.000
Time:	2.448	Roll Set Point:	0.205	Pitch Set Point:	0.874	Yaw Set Point:	0.012	X_WP:	0.189	Y_WP:	-0.945	Y_WP:	1.000	X:	-0.008	Y:	-0.908	Z:	0.404	yaw:	-0.707	yaw rate:	24.203	Roll:	-6.572	Pitch:	0.423	Yaw:	-4.580	Thrust:	100.000
Time:	2.468	Roll Set Point:	0.205	Pitch Set Point:	0.873	Yaw Set Point:	0.009	X_WP:	0.189	Y_WP:	-0.945	Y_WP:	1.000	X:	-0.008	Y:	-0.908	Z:	0.404	yaw:	-0.504	yaw rate:	-20.295	Roll:	-6.376	Pitch:	1.831	Yaw:	1.397	Thrust:	100.000
Time:	2.489	Roll Set Point:	0.205	Pitch Set Point:	0.874	Yaw Set Point:	0.013	X_WP:	0.189	Y_WP:	-0.945	Y_WP:	1.000	X:	-0.008	Y:	-0.908	Z:	0.404	yaw:	-0.743	yaw rate:	23.952	Roll:	-6.619	Pitch:	0.471	Yaw:	-4.675	Thrust:	100.000
Time:	2.508	Roll Set Point:	0.205	Pitch Set Point:	0.873	Yaw Set Point:	0.008	X_WP:	0.189	Y_WP:	-0.945	Y_WP:	1.000	X:	-0.008	Y:	-0.908	Z:	0.404	yaw:	-0.455	yaw rate:	-28.846	Roll:	-6.259	Pitch:	2.164	Yaw:	2.764	Thrust:	100.000
Time:	2.527	Roll Set Point:	0.205	Pitch Set Point:	0.873	Yaw Set Point:	0.008	X_WP:	0.189	Y_WP:	-0.945	Y_WP:	1.000	X:	-0.008	Y:	-0.908	Z:	0.404	yaw:	-0.431	yaw rate:	-2.392	Roll:	-6.433	Pitch:	1.293	Yaw:	-0.729	Thrust:	100.000
Time:	2.547	Roll Set Point:	0.205	Pitch Set Point:	0.873	Yaw Set Point:	0.009	X_WP:	0.189	Y_WP:	-0.945	Y_WP:	1.000	X:	-0.008	Y:	-0.908	Z:	0.404	yaw:	-0.519	yaw rate:	8.867	Roll:	-6.494	Pitch:	0.971	Yaw:	-2.348	Thrust:	100.000
Time:	2.568	Roll Set Point:	0.205	Pitch Set Point:	0.873	Yaw Set Point:	0.008	X_WP:	0.189	Y_WP:	-0.945	Y_WP:	1.000	X:	-0.008	Y:	-0.908	Z:	0.404	yaw:	-0.480	yaw rate:	-3.914	Roll:	-6.469	Pitch:	1.368	Yaw:	-0.658	Thrust:	100.000
Time:	2.596	Roll Set Point:	0.205	Pitch Set Point:	0.873	Yaw Set Point:	0.008	X_WP:	0.189	Y_WP:	-0.945	Y_WP:	1.000	X:	-0.008	Y:	-0.908	Z:	0.404	yaw:	-0.447	yaw rate:	-3.352	Roll:	-6.774	Pitch:	1.409	Yaw:	-1.018	Thrust:	100.000
Time:	2.608	Roll Set Point:	0.205	Pitch Set Point:	0.873	Yaw Set Point:	0.009	X_WP:	0.189	Y_WP:	-0.945	Y_WP:	1.000	X:	-0.008	Y:	-0.908	Z:	0.404	yaw:	-0.501	yaw rate:	5.376	Roll:	-6.231	Pitch:	0.867	Yaw:	-2.166	Thrust:	100.000
Time:	2.627	Roll Set Point:	0.205	Pitch Set Point:	0.874	Yaw Set Point:	0.013	X_WP:	0.189	Y_WP:	-0.945	Y_WP:	1.000	X:	-0.008	Y:	-0.908	Z:	0.404	yaw:	-0.742	yaw rate:	24.184	Roll:	-6.558	Pitch:	0.404	Yaw:	-4.876	Thrust:	100.000
Time:	2.648	Roll Set Point:	0.205	Pitch Set Point:	0.874	Yaw Set Point:	0.013	X_WP:	0.189	Y_WP:	-0.945	Y_WP:	1.000	X:	-0.008	Y:	-0.908	Z:	0.404	yaw:	-0.748	yaw rate:	0.607	Roll:	-6.441	Pitch:	1.206	Yaw:	-1.630	Thrust:	100.000
Time:	2.668	Roll Set Point:	0.205	Pitch Set Point:	0.874	Yaw Set Point:	0.013	X_WP:	0.189	Y_WP:	-0.945	Y_WP:	1.000	X:	-0.008	Y:	-0.908	Z:	0.404	yaw:	-0.742	yaw rate:	-0.672	Roll:	-6.494	Pitch:	1.234	Yaw:	-1.462	Thrust:	100.000
Time:	2.689	Roll Set Point:	0.205	Pitch Set Point:	0.873	Yaw Set Point:	0.008	X_WP:	0.189	Y_WP:	-0.945	Y_WP:	1.000	X:	-0.008	Y:	-0.908	Z:	0.404	yaw:	-0.466	yaw rate:	-27.545	Roll:	-6.318	Pitch:	2.082	Yaw:	2.318	Thrust:	100.000
Time:	2.708	Roll Set Point:	0.205	Pitch Set Point:	0.873	Yaw Set Point:	0.008	X_WP:	0.189	Y_WP:	-0.945	Y_WP:	1.000	X:	-0.008	Y:	-0.908	Z:	0.404	yaw:	-0.464	yaw rate:	-0.200	Roll:	-6.454	Pitch:	1.254	Yaw:	-1.119	Thrust:	100.000
Time:	2.729	Roll Set Point:	0.205	Pitch Set Point:	0.874	Yaw Set Point:	0.012	X_WP:	0.189	Y_WP:	-0.945	Y_WP:	1.000	X:	-0.008	Y:	-0.908	Z:	0.404	yaw:	-0.710	yaw rate:	24.538	Roll:	-6.615	Pitch:	0.467	Yaw:	-4.588	Thrust:	100.000
Time:	2.747	Roll Set Point:	0.205	Pitch Set Point:	0.874	Yaw Set Point:	0.013	X_WP:	0.189	Y_WP:	-0.945	Y_WP:	1.000	X:	-0.008	Y:	-0.908	Z:	0.404	yaw:	-0.757	yaw rate:	4.767	Roll:	-6.453	Pitch:	1.040	Yaw:	-2.221	Thrust:	100.000
Time:	2.768	Roll Set Point:	0.205	Pitch Set Point:	0.874	Yaw Set Point:	0.012	X_WP:	0.189	Y_WP:	-0.945	Y_WP:	1.000	X:	-0.008	Y:	-0.908	Z:	0.404	yaw:	-0.712	yaw rate:	-4.565	Roll:	-6.451	Pitch:	1.389	Yaw:	-0.970	Thrust:	100.000
Time:	2.787	Roll Set Point:	0.205	Pitch Set Point:	0.874	Yaw Set Point:	0.012	X_WP:	0.189	Y_WP:	-0.945	Y_WP:	1.000	X:	-0.008	Y:	-0.908	Z:	0.404	yaw:	-0.710	yaw rate:	-0.183	Roll:	-6.458	Pitch:	1.228	Yaw:	-1.479	Thrust:	100.000
Time:	2.809	Roll Set Point:	0.205	Pitch Set Point:	0.873	Yaw Set Point:	0.008	X_WP:	0.189	Y_WP:	-0.945	Y_WP:	1.000	X:	-0.008	Y:	-0.908	Z:	0.404	yaw:	-0.472	yaw rate:	-23.757	Roll:	-6.379	Pitch:	1.964	Yaw:	1.649	Thrust:	100.000
Time:	2.827	Roll Set Point:	0.205	Pitch Set Point:	0.874	Yaw Set Point:	0.012	X_WP:	0.189	Y_WP:	-0.945	Y_WP:	1.000	X:	-0.008	Y:	-0.908	Z:	0.404	yaw:	-0.708	yaw rate:	23.591	Roll:	-6.538	Pitch:	0.394	Yaw:	-4.885	Thrust:	100.000
Time:	2.847	Roll Set Point:	0.205	Pitch Set Point:	0.873	Yaw Set Point:	0.008	X_WP:	0.189	Y_WP:	-0.945	Y_WP:	1.000	X:	-0.008	Y:	-0.908	Z:	0.404	yaw:	-0.455	yaw rate:	-25.303	Roll:	-6.324	Pitch:	2.047	Yaw:	2.124	Thrust:	100.000
Time:	2.868	Roll Set Point:	0.205	Pitch Set Point:	0.873	Yaw Set Point:	0.008	X_WP:	0.189	Y_WP:	-0.945	Y_WP:	1.000	X:	-0.008	Y:	-0.908	Z:	0.404	yaw:	-0.474	yaw rate:	1.914	Roll:	-6.493	Pitch:	1.217	Yaw:	-1.478	Thrust:	100.000
Time:	2.888	Roll Set Point:	0.205	Pitch Set Point:	0.874	Yaw Set Point:	0.013	X_WP:	0.189	Y_WP:	-0.945	Y_WP:	1.000	X:	-0.008	Y:	-0.908	Z:	0.404	yaw:	-0.730	yaw rate:	25.606	Roll:	-6.612	Pitch:	0.455	Yaw:	-4.959	Thrust:	100.000
Time:	2.907	Roll Set Point:	0.205	Pitch Set Point:	0.873	Yaw Set Point:	0.008	X_WP:	0.189	Y_WP:	-0.945	Y_WP:	1.000	X:	-0.008	Y:	-0.908	Z:	0.404	yaw:	-0.449	yaw rate:	-28.154	Roll:	-6.263	Pitch:	2.158	Yaw:	2.591	Thrust:	100.000
Time:	2.927	Roll Set Point:	0.205	Pitch Set Point:	0.874	Yaw Set Point:	0.013	X_WP:	0.189	Y_WP:	-0.945	Y_WP:	1.000	X:	-0.008	Y:	-0.908	Z:	0.404	yaw:	-0.757	yaw rate:	30.815	Roll:	-6.626	Pitch:	0.228	Yaw:	-5.614	Thrust:	100.000
Time:	2.947	Roll Set Point:	0.205	Pitch Set Point:	0.873	Yaw Set Point:	0.008	X_WP:	0.189	Y_WP:	-0.945	Y_WP:	1.000	X:	-0.008	Y:	-0.908	Z:	0.404	yaw:	-0.482	yaw rate:	-27.448	Roll:	-6.339	Pitch:	2.104	Yaw:	2.432	Thrust:	100.000
Time:	2.967	Roll Set Point:	0.205	Pitch Set Point:	0.874	Yaw Set Point:	0.012	X_WP:	0.189	Y_WP:	-0.945	Y_WP:	1.000	X:	-0.008	Y:	-0.908	Z:	0.404	yaw:	-0.716	yaw rate:	23.325	Roll:	-6.575	Pitch:	0.513	Yaw:	-4.633	Thrust:	100.000
Time:	2.988	Roll Set Point:	0.205	Pitch Set Point:	0.873	Yaw Set Point:	0.008	X_WP:	0.189	Y_WP:	-0.945	Y_WP:	1.000	X:	-0.008	Y:	-0.908	Z:	0.404	yaw:	-0.472	yaw rate:	-24.374	Roll:	-6.400	Pitch:	2.002	Yaw:	1.745	Thrust:	100.000
Time:	3.007	Roll Set Point:	0.205	Pitch Set Point:	0.874	Yaw Set Point:	0.013	X_WP:	0.188	Y_WP:	-0.945	Y_WP:	1.000	X:	-0.008	Y:	-0.908	Z:	0.404	yaw:	-0.722	yaw rate:	25.024	Roll:	-6.528	Pitch:	0.514	Yaw:	-5.030	Thrust:	100.000
Time:	3.026	Roll Set Point:	0.205	Pitch Set Point:	0.874	Yaw Set Point:	0.013	X_WP:	0.189	Y_WP:	-0.945	Y_WP:	1.000	X:	-0.008	Y:	-0.908	Z:	0.404	yaw:	-0.728	yaw rate:	0.626	Roll:	-6.486	Pitch:	1.111	Yaw:	-1.666	Thrust:	100.000
Time:	3.047	Roll Set Point:	0.205	Pitch Set Point:	0.874	Yaw Set Point:	0.013	X_WP:	0.189	Y_WP:	-0.945	Y_WP:	1.000	X:	-0.008	Y:	-0.908	Z:	0.404	yaw:	-0.727	yaw rate:	-0.170	Roll:	-6.474	Pitch:	1.265	Yaw:	-1.587	Thrust:	100.000
Time:	3.067	Roll Set Point:	0.205	Pitch Set Point:	0.873	Yaw Set Point:	0.008	X_WP:	0.189	Y_WP:	-0.945	Y_WP:	1.000	X:	-0.008	Y:	-0.908	Z:	0.404	yaw:	-0.458	yaw rate:	-26.894	Roll:	-6.295	Pitch:	2.123	Yaw:	2.271	Thrust:	100.000
Time:	3.087	Roll Set Point:	0.205	Pitch Set Point:	0.873	Yaw Set Point:	0.008	X_WP:	0.189	Y_WP:	-0.945	Y_WP:	1.000	X:	-0.008	Y:	-0.908	Z:	0.404	yaw:	-0.458	yaw rate:	0.049	Roll:	-6.486	Pitch:	1.286	Yaw:	-1.246	Thrust:	100.000
Time:	3.107	Roll Set Point:	0.205	Pitch Set Point:	0.873	Yaw Set Point:	0.008	X_WP:	0.189	Y_WP:	-0.945	Y_WP:	1.000	X:	-0.008	Y:	-0.908	Z:	0.404	yaw:	-0.478	yaw rate:	1.939	Roll:	-6.454	Pitch:	1.226	Yaw:	-1.520	Thrust:	100.000
Time:	3.129	Roll Set Point:	0.205	Pitch Set Point:	0.873	Yaw Set Point:	0.008	X_WP:	0.189	Y_WP:	-0.945	Y_WP:	1.000	X:	-0.008	Y:	-0.908	Z:	0.404	yaw:	-0.475	yaw rate:	-0.264	Roll:	-6.502	Pitch:	1.295	Yaw:	-1.249	Thrust:	100.000
Time:	3.147	Roll Set Point:	0.205	Pitch Set Point:	0.874	Yaw Set Point:	0.012	X_WP:	0.189	Y_WP:	-0.945	Y_WP:	1.000	X:	-0.008	Y:	-0.908	Z:	0.404	yaw:	-0.671	yaw rate:	19.584	Roll:	-6.528	Pitch:	0.648	Yaw:	-4.131	Thrust:	100.000
Time:	3.167	Roll Set Point:	0.205	Pitch Set Point:	0.873	Yaw Set Point:	0.008	X_WP:	0.189	Y_WP:	-0.945	Y_WP:	1.000	X:	-0.008	Y:	-0.908	Z:	0.404	yaw:	-0.442	yaw rate:	-22.843	Roll:	-6.374	Pitch:	2.014	Yaw:	1.786	Thrust:	100.000
Time:	3.190	Roll Set Point:	0.205	Pitch Set Point:	0.873	Yaw Set Point:	0.008	X_WP:	0.189	Y_WP:	-0.945	Y_WP:	1.000	X:	-0.008	Y:	-0.908	Z:	0.404	yaw:	-0.473	yaw rate:	3.066	Roll:	-6.479	Pitch:	1.202	Yaw:	-1.704	Thrust:	100.000
Time:	3.208	Roll Set Point:	0.205	Pitch Set Point:	0.873	Yaw Set Point:	0.008	X_WP:	0.189	Y_WP:	-0.945	Y_WP:	1.000	X:	-0.008	Y:	-0.908	Z:	0.404	yaw:	-0.479	yaw rate:	0.617	Roll:	-6.462	Pitch:	1.266	Yaw:	-1.316	Thrust:	100.000
Time:	3.226	Roll Set Point:	0.205	Pitch Set Point:	0.873	Yaw Set Point:	0.008	X_WP:	0.189	Y_WP:	-0.945	Y_WP:	1.000	X:	-0.008	Y:	-0.908	Z:	0.404	yaw:	-0.466	yaw rate:	-1.328	Roll:	-6.422	Pitch:	1.337	Yaw:	-1.045	Thrust:	100.000
Time:	3.247	Roll Set Point:	0.205	Pitch Set Point:	0.873	Yaw Set Point:	0.008	X_WP:	0.189	Y_WP:	-0.945	Y_WP:	1.000	X:	-0.008	Y:	-0.908	Z:	0.404	yaw:	-0.457	yaw rate:	-0.890	Roll:	-6.464	Pitch:	1.311	Yaw:	-1.150	Thrust:	100.000
Time:	3.267	Roll Set Point:	0.205	Pitch Set Point:	0.874	Yaw Set Point:	0.013	X_WP:	0.189	Y_WP:	-0.945	Y_WP:	1.000	X:	-0.008	Y:	-0.908	Z:	0.404	yaw:	-0.733	yaw rate:	27.556	Roll:	-6.627	Pitch:	0.451	Yaw:	-5.190	Thrust:	100.000
Time:	3.288	Roll Set Point:	0.205	Pitch Set Point:	0.874	Yaw Set Point:	0.012	X_WP:	0.189	Y_WP:	-0.945	Y_WP:	1.000	X:	-0.008	Y:	-0.908	Z:	0.404	yaw:	-0.705	yaw rate:	-2.817	Roll:	-6.454	Pitch:	1.374	Yaw:	-1.278	Thrust:	100.000
Time:	3.307	Roll Set Point:	0.205	Pitch Set Point:	0.874	Yaw Set Point:	0.013	X_WP:	0.189	Y_WP:	-0.945	Y_WP:	1.000	X:	-0.008	Y:	-0.908	Z:	0.404	yaw:	-0.745	yaw rate:	4.028	Roll:	-6.469	Pitch:	1.128	Yaw:	-2.200	Thrust:	100.000
Time:	3.327	Roll Set Point:	0.205	Pitch Set Point:	0.874	Yaw Set Point:	0.012	X_WP:	0.189	Y_WP:	-0.945	Y_WP:	1.000	X:	-0.008	Y:	-0.908	Z:	0.404	yaw:	-0.705	yaw rate:	-4.011	Roll:	-6.434	Pitch:	1.392	Yaw:	-1.112	Thrust:	100.000
Time:	3.347	Roll Set Point:	0.205	Pitch Set Point:	0.873	Yaw Set Point:	0.008	X_WP:	0.189	Y_WP:	-0.945	Y_WP:	1.000	X:	-0.008	Y:	-0.908	Z:	0.404	yaw:	-0.475	yaw rate:	-22.931	Roll:	-6.360	Pitch:	2.030	Yaw:	1.775	Thrust:	100.000
Time:	3.367	Roll Set Point:	0.205	Pitch Set Point:	0.873	Yaw Set Point:	0.008	X_WP:	0.189	Y_WP:	-0.945	Y_WP:	1.000	X:	-0.008	Y:	-0.908	Z:	0.404	yaw:	-0.458	yaw rate:	-1.731	Roll:	-6.456	Pitch:	1.364	Yaw:	-1.068	Thrust:	100.000
Time:	3.387	Roll Set Point:	0.205	Pitch Set Point:	0.873	Yaw Set Point:	0.008	X_WP:	0.189	Y_WP:	-0.945	Y_WP:	1.000	X:	-0.008	Y:	-0.908	Z:	0.404	yaw:	-0.483	yaw rate:	2.509	Roll:	-6.471	Pitch:	1.229	Yaw:	-1.654	Thrust:	100.000
Time:	3.408	Roll Set Point:	0.205	Pitch Set Point:	0.873	Yaw Set Point:	0.008	X_WP:	0.189	Y_WP:	-0.945	Y_WP:	1.000	X:	-0.008	Y:	-0.908	Z:	0.404	yaw:	-0.480	yaw rate:	-0.283	Roll:	-6.489	Pitch:	1.319	Yaw:	-1.315	Thrust:	100.000
Time:	3.427	Roll Set Point:	0.205	Pitch Set Point:	0.873	Yaw Set Point:	0.007	X_WP:	0.189	Y_WP:	-0.945	Y_WP:	1.000	X:	-0.008	Y:	-0.908	Z:	0.404	yaw:	-0.413	yaw rate:	-6.777	Roll:	-6.369	Pitch:	1.525	Yaw:	-0.243	Thrust:	100.000
Time:	3.447	Roll Set Point:	0.205	Pitch Set Point:	0.874	Yaw Set Point:	0.012	X_WP:	0.189	Y_WP:	-0.945	Y_WP:	1.000	X:	-0.008	Y:	-0.908	Z:	0.404	yaw:	-0.682	yaw rate:	26.963	Roll:	-6.600	Pitch:	0.497	Yaw:	-5.059	Thrust:	100.000
Time:	3.467	Roll Set Point:	0.205	Pitch Set Point:	0.874	Yaw Set Point:	0.012	X_WP:	0.189	Y_WP:	-0.945	Y_WP:	1.000	X:	-0.008	Y:	-0.908	Z:	0.404	yaw:	-0.716	yaw rate:	3.390	Roll:	-6.501	Pitch:	1.168	Yaw:	-2.105	Thrust:	100.000
Time:	3.487	Roll Set Point:	0.205	Pitch Set Point:	0.873	Yaw Set Point:	0.008	X_WP:	0.189	Y_WP:	-0.945	Y_WP:	1.000	X:	-0.008	Y:	-0.908	Z:	0.404	yaw:	-0.470	yaw rate:	-24.600	Roll:	-6.321	Pitch:	2.073	Yaw:	1.814	Thrust:	100.000
Time:	3.507	Roll Set Point:	0.205	Pitch Set Point:	0.873	Yaw Set Point:	0.008	X_WP:	0.189	Y_WP:	-0.945	Y_WP:	1.000	X:	-0.008	Y:	-0.908	Z:	0.404	yaw:	-0.449	yaw rate:	-2.155	Roll:	-6.449	Pitch:	1.390	Yaw:	-1.020	Thrust:	100.000
Time:	3.527	Roll Set Point:	0.205	Pitch Set Point:	0.873	Yaw Set Point:	0.008	X_WP:	0.189	Y_WP:	-0.945	Y_WP:	1.000	X:	-0.008	Y:	-0.908	Z:	0.404	yaw:	-0.468	yaw rate:	1.961	Roll:	-6.477	Pitch:	1.239	Yaw:	-1.579	Thrust:	100.000
Time:	3.548	Roll Set Point:	0.205	Pitch Set Point:	0.874	Yaw Set Point:	0.013	X_WP:	0.189	Y_WP:	-0.945	Y_WP:	1.000	X:	-0.008	Y:	-0.908	Z:	0.404	yaw:	-0.744	yaw rate:	27.552	Roll:	-6.615	Pitch:	0.515	Yaw:	-5.178	Thrust:	100.000
Time:	3.567	Roll Set Point:	0.205	Pitch Set Point:	0.873	Yaw Set Point:	0.008	X_WP:	0.189	Y_WP:	-0.945	Y_WP:	1.000	X:	-0.008	Y:	-0.908	Z:	0.404	yaw:	-0.469	yaw rate:	-27.441	Roll:	-6.301	Pitch:	2.201	Yaw:	2.412	Thrust:	100.000
Time:	3.589	Roll Set Point:	0.205	Pitch Set Point:	0.873	Yaw Set Point:	0.008	X_WP:	0.189	Y_WP:	-0.945	Y_WP:	1.000	X:	-0.008	Y:	-0.908	Z:	0.404	yaw:	-0.470	yaw rate:	0.111	Roll:	-6.498	Pitch:	1.344	Yaw:	-1.377	Thrust:	100.000
Time:	3.607	Roll Set Point:	0.205	Pitch Set Point:	0.874	Yaw Set Point:	0.012	X_WP:	0.189	Y_WP:	-0.945	Y_WP:	1.000	X:	-0.008	Y:	-0.908	Z:	0.404	yaw:	-0.693	yaw rate:	22.224	Roll:	-6.565	Pitch:	0.568	Yaw:	-4.589	Thrust:	100.000
Time:	3.628	Roll Set Point:	0.205	Pitch Set Point:	0.873	Yaw Set Point:	0.008	X_WP:	0.189	Y_WP:	-0.945	Y_WP:	1.000	X:	-0.008	Y:	-0.908	Z:	0.404	yaw:	-0.464	yaw rate:	-22.878	Roll:	-6.362	Pitch:	2.039	Yaw:	1.626	Thrust:	100.000
Time:	3.646	Roll Set Point:	0.205	Pitch Set Point:	0.874	Yaw Set Point:	0.012	X_WP:	0.189	Y_WP:	-0.945	Y_WP:	1.000	X:	-0.008	Y:	-0.908	Z:	0.404	yaw:	-0.673	yaw rate:	20.897	Roll:	-6.543	Pitch:	0.604	Yaw:	-4.500	Thrust:	100.000
Time:	3.668	Roll Set Point:	0.205	Pitch Set Point:	0.873	Yaw Set Point:	0.008	X_WP:	0.189	Y_WP:	-0.945	Y_WP:	1.000	X:	-0.008	Y:	-0.908	Z:	0.404	yaw:	-0.468	yaw rate:	-20.471	Roll:	-6.375	Pitch:	1.949	Yaw:	1.146	Thrust:	100.000
Time:	3.687	Roll Set Point:	0.205	Pitch Set Point:	0.873	Yaw Set Point:	0.008	X_WP:	0.189	Y_WP:	-0.945	Y_WP:	1.000	X:	-0.008	Y:	-0.908	Z:	0.404	yaw:	-0.456	yaw rate:	-1.252	Roll:	-6.461	Pitch:	1.389	Yaw:	-1.171	Thrust:	100.000
Time:	3.707	Roll Set Point:	0.205	Pitch Set Point:	0.873	Yaw Set Point:	0.008	X_WP:	0.189	Y_WP:	-0.945	Y_WP:	1.000	X:	-0.008	Y:	-0.908	Z:	0.404	yaw:	-0.476	yaw rate:	1.998	Roll:	-6.468	Pitch:	1.249	Yaw:	-1.633	Thrust:	100.000
Time:	3.726	Roll Set Point:	0.205	Pitch Set Point:	0.873	Yaw Set Point:	0.009	X_WP:	0.189	Y_WP:	-0.945	Y_WP:	1.000	X:	-0.008	Y:	-0.908	Z:	0.404	yaw:	-0.488	yaw rate:	1.258	Roll:	-6.434	Pitch:	1.302	Yaw:	-1.539	Thrust:	100.000
Time:	3.747	Roll Set Point:	0.205	Pitch Set Point:	0.873	Yaw Set Point:	0.008	X_WP:	0.189	Y_WP:	-0.945	Y_WP:	1.000	X:	-0.008	Y:	-0.908	Z:	0.404	yaw:	-0.465	yaw rate:	-2.315	Roll:	-6.477	Pitch:	1.420	Yaw:	-1.104	Thrust:	100.000
Time:	3.768	Roll Set Point:	0.205	Pitch Set Point:	0.873	Yaw Set Point:	0.008	X_WP:	0.189	Y_WP:	-0.945	Y_WP:	1.000	X:	-0.008	Y:	-0.908	Z:	0.404	yaw:	-0.480	yaw rate:	1.542	Roll:	-6.473	Pitch:	1.280	Yaw:	-1.609	Thrust:	100.000
Time:	3.787	Roll Set Point:	0.205	Pitch Set Point:	0.873	Yaw Set Point:	0.008	X_WP:	0.189	Y_WP:	-0.945	Y_WP:	1.000	X:	-0.008	Y:	-0.908	Z:	0.404	yaw:	-0.454	yaw rate:	-2.668	Roll:	-6.449	Pitch:	1.442	Yaw:	-0.991	Thrust:	100.000
Time:	3.808	Roll Set Point:	0.205	Pitch Set Point:	0.874	Yaw Set Point:	0.012	X_WP:	0.189	Y_WP:	-0.945	Y_WP:	1.000	X:	-0.008	Y:	-0.908	Z:	0.404	yaw:	-0.681	yaw rate:	22.693	Roll:	-6.598	Pitch:	0.626	Yaw:	-4.563	Thrust:	100.000
Time:	3.828	Roll Set Point:	0.205	Pitch Set Point:	0.873	Yaw Set Point:	0.008	X_WP:	0.189	Y_WP:	-0.945	Y_WP:	1.000	X:	-0.008	Y:	-0.908	Z:	0.404	yaw:	-0.448	yaw rate:	-23.314	Roll:	-6.336	Pitch:	2.064	Yaw:	1.781	Thrust:	100.000
Time:	3.847	Roll Set Point:	0.205	Pitch Set Point:	0.874	Yaw Set Point:	0.013	X_WP:	0.189	Y_WP:	-0.945	Y_WP:	1.000	X:	-0.008	Y:	-0.908	Z:	0.404	yaw:	-0.742	yaw rate:	29.428	Roll:	-6.574	Pitch:	0.372	Yaw:	-5.740	Thrust:	100.000
Time:	3.868	Roll Set Point:	0.205	Pitch Set Point:	0.873	Yaw Set Point:	0.008	X_WP:	0.189	Y_WP:	-0.945	Y_WP:	1.000	X:	-0.008	Y:	-0.908	Z:	0.404	yaw:	-0.449	yaw rate:	-29.305	Roll:	-6.353	Pitch:	2.267	Yaw:	2.310	Thrust:	100.000
Time:	3.887	Roll Set Point:	0.205	Pitch Set Point:	0.874	Yaw Set Point:	0.012	X_WP:	0.189	Y_WP:	-0.945	Y_WP:	1.000	X:	-0.008	Y:	-0.908	Z:	0.404	yaw:	-0.698	yaw rate:	24.967	Roll:	-6.599	Pitch:	0.527	Yaw:	-5.007	Thrust:	100.000
Time:	3.907	Roll Set Point:	0.205	Pitch Set Point:	0.874	Yaw Set Point:	0.013	X_WP:	0.189	Y_WP:	-0.945	Y_WP:	1.000	X:	-0.008	Y:	-0.908	Z:	0.404	yaw:	-0.733	yaw rate:	3.453	Roll:	-6.473	Pitch:	1.228	Yaw:	-2.221	Thrust:	100.000
Time:	3.927	Roll Set Point:	0.205	Pitch Set Point:	0.873	Yaw Set Point:	0.008	X_WP:	0.189	Y_WP:	-0.945	Y_WP:	1.000	X:	-0.008	Y:	-0.908	Z:	0.404	yaw:	-0.443	yaw rate:	-28.966	Roll:	-6.296	Pitch:	2.287	Yaw:	2.559	Thrust:	100.000
Time:	3.947	Roll Set Point:	0.205	Pitch Set Point:	0.874	Yaw Set Point:	0.013	X_WP:	0.189	Y_WP:	-0.945	Y_WP:	1.000	X:	-0.008	Y:	-0.908	Z:	0.404	yaw:	-0.730	yaw rate:	28.631	Roll:	-6.627	Pitch:	0.440	Yaw:	-5.502	Thrust:	100.000
Time:	3.967	Roll Set Point:	0.205	Pitch Set Point:	0.873	Yaw Set Point:	0.009	X_WP:	0.189	Y_WP:	-0.945	Y_WP:	1.000	X:	-0.008	Y:	-0.908	Z:	0.404	yaw:	-0.519	yaw rate:	-21.101	Roll:	-6.349	Pitch:	2.005	Yaw:	1.264	Thrust:	100.000
Time:	3.988	Roll Set Point:	0.205	Pitch Set Point:	0.873	Yaw Set Point:	0.008	X_WP:	0.189	Y_WP:	-0.945	Y_WP:	1.000	X:	-0.008	Y:	-0.908	Z:	0.404	yaw:	-0.482	yaw rate:	-3.631	Roll:	-6.478	Pitch:	1.481	Yaw:	-1.024	Thrust:	100.000
Time:	4.007	Roll Set Point:	0.205	Pitch Set Point:	0.874	Yaw Set Point:	0.012	X_WP:	0.189	Y_WP:	-0.945	Y_WP:	1.000	X:	-0.008	Y:	-0.908	Z:	0.404	yaw:	-0.712	yaw rate:	22.988	Roll:	-6.558	Pitch:	0.588	Yaw:	-4.821	Thrust:	100.000
Time:	4.027	Roll Set Point:	0.205	Pitch Set Point:	0.874	Yaw Set Point:	0.013	X_WP:	0.189	Y_WP:	-0.945	Y_WP:	1.000	X:	-0.008	Y:	-0.908	Z:	0.404	yaw:	-0.724	yaw rate:	1.151	Roll:	-6.469	Pitch:	1.293	Yaw:	-1.917	Thrust:	100.000
Time:	4.047	Roll Set Point:	0.205	Pitch Set Point:	0.873	Yaw Set Point:	0.008	X_WP:	0.189	Y_WP:	-0.945	Y_WP:	1.000	X:	-0.008	Y:	-0.908	Z:	0.404	yaw:	-0.477	yaw rate:	-24.672	Roll:	-6.334	Pitch:	2.114	Yaw:	1.757	Thrust:	100.000
Time:	4.067	Roll Set Point:	0.205	Pitch Set Point:	0.874	Yaw Set Point:	0.012	X_WP:	0.189	Y_WP:	-0.945	Y_WP:	1.000	X:	-0.008	Y:	-0.908	Z:	0.404	yaw:	-0.691	yaw rate:	21.428	Roll:	-6.579	Pitch:	0.702	Yaw:	-4.549	Thrust:	100.000
Time:	4.088	Roll Set Point:	0.205	Pitch Set Point:	0.873	Yaw Set Point:	0.008	X_WP:	0.189	Y_WP:	-0.945	Y_WP:	1.000	X:	-0.008	Y:	-0.908	Z:	0.404	yaw:	-0.480	yaw rate:	-21.087	Roll:	-6.382	Pitch:	2.003	Yaw:	1.161	Thrust:	100.000
Time:	4.107	Roll Set Point:	0.205	Pitch Set Point:	0.873	Yaw Set Point:	0.008	X_WP:	0.189	Y_WP:	-0.945	Y_WP:	1.000	X:	-0.008	Y:	-0.908	Z:	0.404	yaw:	-0.476	yaw rate:	-0.406	Roll:	-6.426	Pitch:	1.359	Yaw:	-1.365	Thrust:	100.000
Time:	4.127	Roll Set Point:	0.205	Pitch Set Point:	0.873	Yaw Set Point:	0.008	X_WP:	0.189	Y_WP:	-0.945	Y_WP:	1.000	X:	-0.008	Y:	-0.908	Z:	0.404	yaw:	-0.453	yaw rate:	-2.328	Roll:	-6.411	Pitch:	1.457	Yaw:	-1.124	Thrust:	100.000
Time:	4.147	Roll Set Point:	0.205	Pitch Set Point:	0.874	Yaw Set Point:	0.013	X_WP:	0.189	Y_WP:	-0.945	Y_WP:	1.000	X:	-0.008	Y:	-0.908	Z:	0.404	yaw:	-0.742	yaw rate:	28.881	Roll:	-6.637	Pitch:	0.420	Yaw:	-5.537	Thrust:	100.000
Time:	4.167	Roll Set Point:	0.205	Pitch Set Point:	0.874	Yaw Set Point:	0.011	X_WP:	0.189	Y_WP:	-0.945	Y_WP:	1.000	X:	-0.008	Y:	-0.908	Z:	0.404	yaw:	-0.647	yaw rate:	-9.451	Roll:	-6.426	Pitch:	1.634	Yaw:	-0.392	Thrust:	100.000
Time:	4.187	Roll Set Point:	0.205	Pitch Set Point:	0.874	Yaw Set Point:	0.012	X_WP:	0.189	Y_WP:	-0.945	Y_WP:	1.000	X:	-0.008	Y:	-0.908	Z:	0.404	yaw:	-0.706	yaw rate:	5.881	Roll:	-6.507	Pitch:	1.193	Yaw:	-2.564	Thrust:	100.000
Time:	4.208	Roll Set Point:	0.205	Pitch Set Point:	0.874	Yaw Set Point:	0.012	X_WP:	0.189	Y_WP:	-0.945	Y_WP:	1.000	X:	-0.008	Y:	-0.908	Z:	0.404	yaw:	-0.686	yaw rate:	-2.040	Roll:	-6.463	Pitch:	1.428	Yaw:	-1.544	Thrust:	100.000
Time:	4.227	Roll Set Point:	0.205	Pitch Set Point:	0.874	Yaw Set Point:	0.012	X_WP:	0.189	Y_WP:	-0.945	Y_WP:	1.000	X:	-0.008	Y:	-0.908	Z:	0.404	yaw:	-0.663	yaw rate:	-2.273	Roll:	-6.436	Pitch:	1.418	Yaw:	-1.393	Thrust:	100.000
Time:	4.247	Roll Set Point:	0.205	Pitch Set Point:	0.873	Yaw Set Point:	0.008	X_WP:	0.189	Y_WP:	-0.945	Y_WP:	1.000	X:	-0.008	Y:	-0.908	Z:	0.404	yaw:	-0.486	yaw rate:	-17.711	Roll:	-6.340	Pitch:	1.938	Yaw:	0.746	Thrust:	100.000
Time:	4.267	Roll Set Point:	0.205	Pitch Set Point:	0.874	Yaw Set Point:	0.012	X_WP:	0.189	Y_WP:	-0.945	Y_WP:	1.000	X:	-0.008	Y:	-0.908	Z:	0.404	yaw:	-0.695	yaw rate:	20.949	Roll:	-6.601	Pitch:	0.735	Yaw:	-4.573	Thrust:	100.000
Time:	4.288	Roll Set Point:	0.205	Pitch Set Point:	0.874	Yaw Set Point:	0.011	X_WP:	0.189	Y_WP:	-0.945	Y_WP:	1.000	X:	-0.008	Y:	-0.908	Z:	0.404	yaw:	-0.659	yaw rate:	-3.684	Roll:	-6.443	Pitch:	1.481	Yaw:	-1.299	Thrust:	100.000
Time:	4.307	Roll Set Point:	0.205	Pitch Set Point:	0.874	Yaw Set Point:	0.013	X_WP:	0.189	Y_WP:	-0.945	Y_WP:	1.000	X:	-0.008	Y:	-0.908	Z:	0.404	yaw:	-0.749	yaw rate:	9.085	Roll:	-6.508	Pitch:	1.087	Yaw:	-3.082	Thrust:	100.000
Time:	4.327	Roll Set Point:	0.205	Pitch Set Point:	0.873	Yaw Set Point:	0.008	X_WP:	0.189	Y_WP:	-0.945	Y_WP:	1.000	X:	-0.008	Y:	-0.908	Z:	0.404	yaw:	-0.464	yaw rate:	-28.586	Roll:	-6.294	Pitch:	2.276	Yaw:	2.315	Thrust:	100.000
Time:	4.347	Roll Set Point:	0.205	Pitch Set Point:	0.873	Yaw Set Point:	0.008	X_WP:	0.189	Y_WP:	-0.945	Y_WP:	1.000	X:	-0.008	Y:	-0.908	Z:	0.404	yaw:	-0.456	yaw rate:	-0.767	Roll:	-6.441	Pitch:	1.417	Yaw:	-1.363	Thrust:	100.000
Time:	4.367	Roll Set Point:	0.205	Pitch Set Point:	0.873	Yaw Set Point:	0.008	X_WP:	0.189	Y_WP:	-0.945	Y_WP:	1.000	X:	-0.008	Y:	-0.908	Z:	0.404	yaw:	-0.460	yaw rate:	0.405	Roll:	-6.467	Pitch:	1.382	Yaw:	-1.546	Thrust:	100.000
Time:	4.387	Roll Set Point:	0.205	Pitch Set Point:	0.873	Yaw Set Point:	0.007	X_WP:	0.189	Y_WP:	-0.945	Y_WP:	1.000	X:	-0.008	Y:	-0.908	Z:	0.404	yaw:	-0.418	yaw rate:	-4.204	Roll:	-6.456	Pitch:	1.518	Yaw:	-0.913	Thrust:	100.000
Time:	4.408	Roll Set Point:	0.205	Pitch Set Point:	0.874	Yaw Set Point:	0.013	X_WP:	0.189	Y_WP:	-0.945	Y_WP:	1.000	X:	-0.008	Y:	-0.908	Z:	0.404	yaw:	-0.757	yaw rate:	33.940	Roll:	-6.657	Pitch:	0.340	Yaw:	-6.219	Thrust:	100.000
Time:	4.427	Roll Set Point:	0.205	Pitch Set Point:	0.874	Yaw Set Point:	0.012	X_WP:	0.189	Y_WP:	-0.945	Y_WP:	1.000	X:	-0.008	Y:	-0.908	Z:	0.404	yaw:	-0.703	yaw rate:	-5.461	Roll:	-6.437	Pitch:	1.560	Yaw:	-1.095	Thrust:	100.000
Time:	4.446	Roll Set Point:	0.205	Pitch Set Point:	0.874	Yaw Set Point:	0.013	X_WP:	0.189	Y_WP:	-0.945	Y_WP:	1.000	X:	-0.008	Y:	-0.908	Z:	0.404	yaw:	-0.721	yaw rate:	1.827	Roll:	-6.443	Pitch:	1.296	Yaw:	-2.082	Thrust:	100.000
Time:	4.467	Roll Set Point:	0.205	Pitch Set Point:	0.873	Yaw Set Point:	0.009	X_WP:	0.189	Y_WP:	-0.945	Y_WP:	1.000	X:	-0.008	Y:	-0.908	Z:	0.404	yaw:	-0.504	yaw rate:	-21.717	Roll:	-6.369	Pitch:	2.047	Yaw:	1.175	Thrust:	100.000
Time:	4.488	Roll Set Point:	0.205	Pitch Set Point:	0.873	Yaw Set Point:	0.008	X_WP:	0.189	Y_WP:	-0.945	Y_WP:	1.000	X:	-0.008	Y:	-0.908	Z:	0.404	yaw:	-0.432	yaw rate:	-7.146	Roll:	-6.427	Pitch:	1.647	Yaw:	-0.561	Thrust:	100.000
Time:	4.511	Roll Set Point:	0.205	Pitch Set Point:	0.874	Yaw Set Point:	0.012	X_WP:	0.189	Y_WP:	-0.945	Y_WP:	1.000	X:	-0.008	Y:	-0.908	Z:	0.404	yaw:	-0.699	yaw rate:	26.641	Roll:	-6.707	Pitch:	0.732	Yaw:	-4.960	Thrust:	100.000
Time:	4.526	Roll Set Point:	0.205	Pitch Set Point:	0.874	Yaw Set Point:	0.012	X_WP:	0.189	Y_WP:	-0.945	Y_WP:	1.000	X:	-0.008	Y:	-0.908	Z:	0.404	yaw:	-0.700	yaw rate:	0.170	Roll:	-6.322	Pitch:	1.279	Yaw:	-1.691	Thrust:	100.000
Time:	4.546	Roll Set Point:	0.205	Pitch Set Point:	0.873	Yaw Set Point:	0.009	X_WP:	0.189	Y_WP:	-0.945	Y_WP:	1.000	X:	-0.008	Y:	-0.908	Z:	0.404	yaw:	-0.495	yaw rate:	-20.550	Roll:	-6.347	Pitch:	2.048	Yaw:	1.117	Thrust:	100.000
Time:	4.567	Roll Set Point:	0.205	Pitch Set Point:	0.874	Yaw Set Point:	0.012	X_WP:	0.189	Y_WP:	-0.945	Y_WP:	1.000	X:	-0.008	Y:	-0.908	Z:	0.404	yaw:	-0.715	yaw rate:	21.990	Roll:	-6.600	Pitch:	0.745	Yaw:	-4.710	Thrust:	100.000
Time:	4.587	Roll Set Point:	0.205	Pitch Set Point:	0.874	Yaw Set Point:	0.012	X_WP:	0.189	Y_WP:	-0.945	Y_WP:	1.000	X:	-0.008	Y:	-0.908	Z:	0.404	yaw:	-0.709	yaw rate:	-0.569	Roll:	-6.456	Pitch:	1.389	Yaw:	-1.799	Thrust:	100.000
Time:	4.608	Roll Set Point:	0.205	Pitch Set Point:	0.874	Yaw Set Point:	0.013	X_WP:	0.189	Y_WP:	-0.945	Y_WP:	1.000	X:	-0.008	Y:	-0.908	Z:	0.404	yaw:	-0.738	yaw rate:	2.872	Roll:	-6.494	Pitch:	1.304	Yaw:	-2.313	Thrust:	100.000
Time:	4.629	Roll Set Point:	0.205	Pitch Set Point:	0.873	Yaw Set Point:	0.008	X_WP:	0.189	Y_WP:	-0.945	Y_WP:	1.000	X:	-0.008	Y:	-0.908	Z:	0.404	yaw:	-0.443	yaw rate:	-29.497	Roll:	-6.323	Pitch:	2.324	Yaw:	2.326	Thrust:	100.000
Time:	4.657	Roll Set Point:	0.205	Pitch Set Point:	0.874	Yaw Set Point:	0.012	X_WP:	0.189	Y_WP:	-0.945	Y_WP:	1.000	X:	-0.008	Y:	-0.908	Z:	0.404	yaw:	-0.703	yaw rate:	25.996	Roll:	-6.869	Pitch:	0.986	Yaw:	-4.638	Thrust:	100.000
Time:	4.668	Roll Set Point:	0.205	Pitch Set Point:	0.874	Yaw Set Point:	0.011	X_WP:	0.189	Y_WP:	-0.945	Y_WP:	1.000	X:	-0.008	Y:	-0.908	Z:	0.404	yaw:	-0.649	yaw rate:	-5.386	Roll:	-6.141	Pitch:	1.482	Yaw:	-0.210	Thrust:	100.000
Time:	4.688	Roll Set Point:	0.205	Pitch Set Point:	0.874	Yaw Set Point:	0.013	X_WP:	0.189	Y_WP:	-0.945	Y_WP:	1.000	X:	-0.008	Y:	-0.908	Z:	0.404	yaw:	-0.734	yaw rate:	8.455	Roll:	-6.453	Pitch:	1.103	Yaw:	-3.053	Thrust:	100.000
Time:	4.707	Roll Set Point:	0.205	Pitch Set Point:	0.874	Yaw Set Point:	0.012	X_WP:	0.189	Y_WP:	-0.945	Y_WP:	1.000	X:	-0.008	Y:	-0.908	Z:	0.404	yaw:	-0.698	yaw rate:	-3.559	Roll:	-6.449	Pitch:	1.515	Yaw:	-1.405	Thrust:	100.000
Time:	4.727	Roll Set Point:	0.205	Pitch Set Point:	0.873	Yaw Set Point:	0.008	X_WP:	0.189	Y_WP:	-0.945	Y_WP:	1.000	X:	-0.008	Y:	-0.908	Z:	0.404	yaw:	-0.458	yaw rate:	-23.998	Roll:	-6.302	Pitch:	2.179	Yaw:	1.607	Thrust:	100.000
Time:	4.747	Roll Set Point:	0.205	Pitch Set Point:	0.873	Yaw Set Point:	0.009	X_WP:	0.189	Y_WP:	-0.945	Y_WP:	1.000	X:	-0.008	Y:	-0.908	Z:	0.404	yaw:	-0.497	yaw rate:	3.863	Roll:	-6.500	Pitch:	1.306	Yaw:	-2.116	Thrust:	100.000
Time:	4.770	Roll Set Point:	0.205	Pitch Set Point:	0.873	Yaw Set Point:	0.008	X_WP:	0.189	Y_WP:	-0.945	Y_WP:	1.000	X:	-0.008	Y:	-0.908	Z:	0.404	yaw:	-0.454	yaw rate:	-4.226	Roll:	-6.421	Pitch:	1.567	Yaw:	-1.267	Thrust:	100.000
Time:	4.787	Roll Set Point:	0.205	Pitch Set Point:	0.874	Yaw Set Point:	0.012	X_WP:	0.189	Y_WP:	-0.945	Y_WP:	1.000	X:	-0.008	Y:	-0.908	Z:	0.404	yaw:	-0.702	yaw rate:	24.803	Roll:	-6.616	Pitch:	0.646	Yaw:	-5.580	Thrust:	100.000
Time:	4.808	Roll Set Point:	0.205	Pitch Set Point:	0.873	Yaw Set Point:	0.009	X_WP:	0.189	Y_WP:	-0.945	Y_WP:	1.000	X:	-0.008	Y:	-0.908	Z:	0.404	yaw:	-0.498	yaw rate:	-20.419	Roll:	-6.356	Pitch:	2.044	Yaw:	1.024	Thrust:	100.000
Time:	4.828	Roll Set Point:	0.205	Pitch Set Point:	0.874	Yaw Set Point:	0.013	X_WP:	0.189	Y_WP:	-0.945	Y_WP:	1.000	X:	-0.008	Y:	-0.908	Z:	0.404	yaw:	-0.733	yaw rate:	23.445	Roll:	-6.612	Pitch:	0.698	Yaw:	-5.016	Thrust:	100.000
Time:	4.847	Roll Set Point:	0.205	Pitch Set Point:	0.874	Yaw Set Point:	0.013	X_WP:	0.189	Y_WP:	-0.945	Y_WP:	1.000	X:	-0.008	Y:	-0.908	Z:	0.404	yaw:	-0.754	yaw rate:	2.183	Roll:	-6.421	Pitch:	1.298	Yaw:	-2.271	Thrust:	100.000
Time:	4.867	Roll Set Point:	0.205	Pitch Set Point:	0.873	Yaw Set Point:	0.008	X_WP:	0.189	Y_WP:	-0.945	Y_WP:	1.000	X:	-0.008	Y:	-0.908	Z:	0.404	yaw:	-0.463	yaw rate:	-29.167	Roll:	-6.331	Pitch:	2.319	Yaw:	2.190	Thrust:	100.000
Time:	4.887	Roll Set Point:	0.205	Pitch Set Point:	0.873	Yaw Set Point:	0.008	X_WP:	0.189	Y_WP:	-0.945	Y_WP:	1.000	X:	-0.008	Y:	-0.908	Z:	0.404	yaw:	-0.455	yaw rate:	-0.771	Roll:	-6.459	Pitch:	1.484	Yaw:	-1.498	Thrust:	100.000
Time:	4.908	Roll Set Point:	0.205	Pitch Set Point:	0.873	Yaw Set Point:	0.008	X_WP:	0.189	Y_WP:	-0.945	Y_WP:	1.000	X:	-0.008	Y:	-0.908	Z:	0.404	yaw:	-0.454	yaw rate:	-0.142	Roll:	-6.471	Pitch:	1.433	Yaw:	-1.587	Thrust:	100.000
Time:	4.927	Roll Set Point:	0.205	Pitch Set Point:	0.874	Yaw Set Point:	0.012	X_WP:	0.189	Y_WP:	-0.945	Y_WP:	1.000	X:	-0.008	Y:	-0.908	Z:	0.404	yaw:	-0.664	yaw rate:	21.031	Roll:	-6.537	Pitch:	0.739	Yaw:	-4.731	Thrust:	100.000
Time:	4.947	Roll Set Point:	0.205	Pitch Set Point:	0.874	Yaw Set Point:	0.013	X_WP:	0.189	Y_WP:	-0.945	Y_WP:	1.000	X:	-0.008	Y:	-0.908	Z:	0.404	yaw:	-0.731	yaw rate:	6.665	Roll:	-6.512	Pitch:	1.222	Yaw:	-2.863	Thrust:	100.000
Time:	4.967	Roll Set Point:	0.205	Pitch Set Point:	0.873	Yaw Set Point:	0.009	X_WP:	0.189	Y_WP:	-0.945	Y_WP:	1.000	X:	-0.008	Y:	-0.908	Z:	0.404	yaw:	-0.488	yaw rate:	-24.301	Roll:	-6.354	Pitch:	2.159	Yaw:	1.533	Thrust:	100.000
Time:	4.987	Roll Set Point:	0.205	Pitch Set Point:	0.874	Yaw Set Point:	0.012	X_WP:	0.189	Y_WP:	-0.945	Y_WP:	1.000	X:	-0.008	Y:	-0.908	Z:	0.404	yaw:	-0.685	yaw rate:	19.773	Roll:	-6.573	Pitch:	0.799	Yaw:	-4.555	Thrust:	100.000
Time:	5.007	Roll Set Point:	0.205	Pitch Set Point:	0.874	Yaw Set Point:	0.012	X_WP:	0.189	Y_WP:	-0.945	Y_WP:	1.000	X:	-0.008	Y:	-0.908	Z:	0.404	yaw:	-0.696	yaw rate:	1.026	Roll:	-6.461	Pitch:	1.390	Yaw:	-2.099	Thrust:	100.000
Time:	5.027	Roll Set Point:	0.205	Pitch Set Point:	0.873	Yaw Set Point:	0.008	X_WP:	0.189	Y_WP:	-0.945	Y_WP:	1.000	X:	-0.008	Y:	-0.908	Z:	0.404	yaw:	-0.466	yaw rate:	-22.989	Roll:	-6.343	Pitch:	2.158	Yaw:	1.445	Thrust:	100.000
Time:	5.048	Roll Set Point:	0.205	Pitch Set Point:	0.874	Yaw Set Point:	0.013	X_WP:	0.189	Y_WP:	-0.945	Y_WP:	1.000	X:	-0.008	Y:	-0.908	Z:	0.404	yaw:	-0.717	yaw rate:	25.143	Roll:	-6.605	Pitch:	0.648	Yaw:	-5.167	Thrust:	100.000
Time:	5.068	Roll Set Point:	0.205	Pitch Set Point:	0.873	Yaw Set Point:	0.008	X_WP:	0.189	Y_WP:	-0.945	Y_WP:	1.000	X:	-0.008	Y:	-0.908	Z:	0.404	yaw:	-0.478	yaw rate:	-23.924	Roll:	-6.331	Pitch:	2.197	Yaw:	1.458	Thrust:	100.000
Time:	5.089	Roll Set Point:	0.205	Pitch Set Point:	0.873	Yaw Set Point:	0.008	X_WP:	0.189	Y_WP:	-0.945	Y_WP:	1.000	X:	-0.008	Y:	-0.908	Z:	0.404	yaw:	-0.456	yaw rate:	-2.158	Roll:	-6.470	Pitch:	1.539	Yaw:	-1.419	Thrust:	100.000
Time:	5.108	Roll Set Point:	0.205	Pitch Set Point:	0.873	Yaw Set Point:	0.009	X_WP:	0.189	Y_WP:	-0.945	Y_WP:	1.000	X:	-0.008	Y:	-0.908	Z:	0.404	yaw:	-0.498	yaw rate:	4.180	Roll:	-6.461	Pitch:	1.279	Yaw:	-2.210	Thrust:	100.000
Time:	5.129	Roll Set Point:	0.205	Pitch Set Point:	0.873	Yaw Set Point:	0.008	X_WP:	0.189	Y_WP:	-0.945	Y_WP:	1.000	X:	-0.008	Y:	-0.908	Z:	0.404	yaw:	-0.441	yaw rate:	-5.685	Roll:	-6.468	Pitch:	1.653	Yaw:	-1.008	Thrust:	100.000
Time:	5.147	Roll Set Point:	0.205	Pitch Set Point:	0.874	Yaw Set Point:	0.012	X_WP:	0.189	Y_WP:	-0.945	Y_WP:	1.000	X:	-0.008	Y:	-0.908	Z:	0.404	yaw:	-0.673	yaw rate:	23.146	Roll:	-6.561	Pitch:	0.674	Yaw:	-5.204	Thrust:	100.000
Time:	5.167	Roll Set Point:	0.205	Pitch Set Point:	0.873	Yaw Set Point:	0.008	X_WP:	0.189	Y_WP:	-0.945	Y_WP:	1.000	X:	-0.008	Y:	-0.908	Z:	0.404	yaw:	-0.461	yaw rate:	-21.189	Roll:	-6.317	Pitch:	2.107	Yaw:	1.058	Thrust:	100.000
Time:	5.189	Roll Set Point:	0.205	Pitch Set Point:	0.873	Yaw Set Point:	0.008	X_WP:	0.189	Y_WP:	-0.945	Y_WP:	1.000	X:	-0.008	Y:	-0.908	Z:	0.404	yaw:	-0.460	yaw rate:	-0.039	Roll:	-6.490	Pitch:	1.487	Yaw:	-1.694	Thrust:	100.000
Time:	5.207	Roll Set Point:	0.205	Pitch Set Point:	0.873	Yaw Set Point:	0.008	X_WP:	0.189	Y_WP:	-0.945	Y_WP:	1.000	X:	-0.008	Y:	-0.908	Z:	0.404	yaw:	-0.460	yaw rate:	-0.014	Roll:	-6.444	Pitch:	1.456	Yaw:	-1.615	Thrust:	100.000
Time:	5.228	Roll Set Point:	0.205	Pitch Set Point:	0.874	Yaw Set Point:	0.012	X_WP:	0.189	Y_WP:	-0.945	Y_WP:	1.000	X:	-0.008	Y:	-0.908	Z:	0.404	yaw:	-0.685	yaw rate:	22.505	Roll:	-6.577	Pitch:	0.741	Yaw:	-4.899	Thrust:	100.000
Time:	5.247	Roll Set Point:	0.205	Pitch Set Point:	0.873	Yaw Set Point:	0.008	X_WP:	0.189	Y_WP:	-0.945	Y_WP:	1.000	X:	-0.008	Y:	-0.908	Z:	0.404	yaw:	-0.477	yaw rate:	-20.812	Roll:	-6.373	Pitch:	2.089	Yaw:	1.127	Thrust:	100.000
Time:	5.270	Roll Set Point:	0.205	Pitch Set Point:	0.874	Yaw Set Point:	0.012	X_WP:	0.189	Y_WP:	-0.945	Y_WP:	1.000	X:	-0.008	Y:	-0.908	Z:	0.404	yaw:	-0.715	yaw rate:	23.756	Roll:	-6.642	Pitch:	0.834	Yaw:	-4.915	Thrust:	100.000
Time:	5.290	Roll Set Point:	0.205	Pitch Set Point:	0.873	Yaw Set Point:	0.008	X_WP:	0.189	Y_WP:	-0.945	Y_WP:	1.000	X:	-0.008	Y:	-0.908	Z:	0.404	yaw:	-0.456	yaw rate:	-25.926	Roll:	-6.297	Pitch:	2.284	Yaw:	1.825	Thrust:	100.000
Time:	5.309	Roll Set Point:	0.205	Pitch Set Point:	0.873	Yaw Set Point:	0.008	X_WP:	0.189	Y_WP:	-0.945	Y_WP:	1.000	X:	-0.008	Y:	-0.908	Z:	0.404	yaw:	-0.451	yaw rate:	-0.471	Roll:	-6.406	Pitch:	1.444	Yaw:	-1.555	Thrust:	100.000
