Time:	0.031	Roll Set Point:	-0.007	Pitch Set Point:	-0.002	Yaw Set Point:	0.028	X_WP:	0.000	Y_WP:	0.000	Y_WP:	0.500	X:	0.004	Y:	0.001	Z:	0.058	yaw:	-1.625	yaw rate:	-0.692	Roll:	0.141	Pitch:	0.045	Yaw:	-2.269	Thrust:	24.332
Time:	0.042	Roll Set Point:	-0.007	Pitch Set Point:	-0.002	Yaw Set Point:	0.028	X_WP:	0.000	Y_WP:	0.000	Y_WP:	0.500	X:	0.004	Y:	0.001	Z:	0.058	yaw:	-1.625	yaw rate:	0.003	Roll:	0.124	Pitch:	0.049	Yaw:	-2.276	Thrust:	24.895
Time:	0.053	Roll Set Point:	-0.007	Pitch Set Point:	-0.002	Yaw Set Point:	0.028	X_WP:	0.000	Y_WP:	0.000	Y_WP:	0.500	X:	0.004	Y:	0.001	Z:	0.058	yaw:	-1.630	yaw rate:	0.474	Roll:	0.181	Pitch:	0.053	Yaw:	-2.401	Thrust:	25.628
Time:	0.064	Roll Set Point:	-0.007	Pitch Set Point:	-0.002	Yaw Set Point:	0.028	X_WP:	0.000	Y_WP:	0.000	Y_WP:	0.500	X:	0.004	Y:	0.001	Z:	0.058	yaw:	-1.620	yaw rate:	-1.007	Roll:	0.210	Pitch:	0.127	Yaw:	-2.041	Thrust:	26.067
Time:	0.076	Roll Set Point:	-0.007	Pitch Set Point:	-0.002	Yaw Set Point:	0.027	X_WP:	0.000	Y_WP:	0.000	Y_WP:	0.500	X:	0.004	Y:	0.001	Z:	0.057	yaw:	-1.568	yaw rate:	-5.169	Roll:	-0.035	Pitch:	-0.313	Yaw:	-1.089	Thrust:	27.371
Time:	0.096	Roll Set Point:	-0.007	Pitch Set Point:	-0.002	Yaw Set Point:	0.026	X_WP:	0.000	Y_WP:	0.000	Y_WP:	0.500	X:	0.004	Y:	0.001	Z:	0.058	yaw:	-1.517	yaw rate:	-5.118	Roll:	0.311	Pitch:	0.272	Yaw:	-1.428	Thrust:	28.169
Time:	0.118	Roll Set Point:	-0.007	Pitch Set Point:	-0.002	Yaw Set Point:	0.027	X_WP:	0.000	Y_WP:	0.000	Y_WP:	0.500	X:	0.003	Y:	0.001	Z:	0.058	yaw:	-1.569	yaw rate:	5.225	Roll:	-0.002	Pitch:	-0.000	Yaw:	-2.850	Thrust:	30.852
Time:	0.129	Roll Set Point:	-0.007	Pitch Set Point:	-0.002	Yaw Set Point:	0.028	X_WP:	0.000	Y_WP:	0.000	Y_WP:	0.500	X:	0.003	Y:	0.001	Z:	0.058	yaw:	-1.595	yaw rate:	-1.933	Roll:	0.174	Pitch:	-0.041	Yaw:	-2.891	Thrust:	30.604
Time:	0.139	Roll Set Point:	-0.007	Pitch Set Point:	-0.002	Yaw Set Point:	0.028	X_WP:	0.000	Y_WP:	0.000	Y_WP:	0.500	X:	0.003	Y:	0.001	Z:	0.057	yaw:	-1.594	yaw rate:	-0.122	Roll:	0.022	Pitch:	-0.027	Yaw:	-2.239	Thrust:	28.924
Time:	0.160	Roll Set Point:	-0.007	Pitch Set Point:	-0.002	Yaw Set Point:	0.027	X_WP:	0.000	Y_WP:	0.000	Y_WP:	0.500	X:	0.003	Y:	0.001	Z:	0.057	yaw:	-1.529	yaw rate:	-6.497	Roll:	0.249	Pitch:	-0.035	Yaw:	-1.312	Thrust:	32.360
Time:	0.179	Roll Set Point:	-0.007	Pitch Set Point:	-0.002	Yaw Set Point:	0.029	X_WP:	0.000	Y_WP:	0.000	Y_WP:	0.500	X:	0.004	Y:	0.001	Z:	0.057	yaw:	-1.672	yaw rate:	2.416	Roll:	0.263	Pitch:	0.255	Yaw:	-4.266	Thrust:	35.950
Time:	0.196	Roll Set Point:	-0.007	Pitch Set Point:	-0.002	Yaw Set Point:	0.029	X_WP:	0.000	Y_WP:	0.000	Y_WP:	0.500	X:	0.004	Y:	0.001	Z:	0.058	yaw:	-1.641	yaw rate:	2.617	Roll:	0.123	Pitch:	0.069	Yaw:	-1.941	Thrust:	34.892
Time:	0.206	Roll Set Point:	-0.007	Pitch Set Point:	-0.002	Yaw Set Point:	0.029	X_WP:	0.000	Y_WP:	0.000	Y_WP:	0.500	X:	0.004	Y:	0.001	Z:	0.058	yaw:	-1.655	yaw rate:	1.448	Roll:	0.061	Pitch:	-0.047	Yaw:	-2.757	Thrust:	30.386
Time:	0.217	Roll Set Point:	-0.007	Pitch Set Point:	-0.002	Yaw Set Point:	0.028	X_WP:	0.000	Y_WP:	0.000	Y_WP:	0.500	X:	0.004	Y:	0.001	Z:	0.057	yaw:	-1.599	yaw rate:	-5.659	Roll:	0.132	Pitch:	-0.161	Yaw:	-1.033	Thrust:	32.750
Time:	0.231	Roll Set Point:	-0.007	Pitch Set Point:	-0.002	Yaw Set Point:	0.029	X_WP:	0.000	Y_WP:	0.000	Y_WP:	0.500	X:	0.004	Y:	0.001	Z:	0.058	yaw:	-1.675	yaw rate:	7.565	Roll:	0.267	Pitch:	0.216	Yaw:	-3.858	Thrust:	34.575
Time:	0.248	Roll Set Point:	-0.007	Pitch Set Point:	-0.002	Yaw Set Point:	0.029	X_WP:	0.000	Y_WP:	0.000	Y_WP:	0.500	X:	0.004	Y:	0.001	Z:	0.058	yaw:	-1.670	yaw rate:	-0.479	Roll:	0.086	Pitch:	0.082	Yaw:	-2.402	Thrust:	37.563
Time:	0.259	Roll Set Point:	-0.007	Pitch Set Point:	-0.002	Yaw Set Point:	0.028	X_WP:	0.000	Y_WP:	0.000	Y_WP:	0.500	X:	0.004	Y:	0.001	Z:	0.058	yaw:	-1.592	yaw rate:	-10.506	Roll:	0.226	Pitch:	-0.169	Yaw:	-0.293	Thrust:	33.452
Time:	0.270	Roll Set Point:	-0.007	Pitch Set Point:	-0.002	Yaw Set Point:	0.029	X_WP:	0.000	Y_WP:	0.000	Y_WP:	0.500	X:	0.004	Y:	0.001	Z:	0.058	yaw:	-1.636	yaw rate:	4.451	Roll:	0.073	Pitch:	0.222	Yaw:	-3.446	Thrust:	33.823
Time:	0.285	Roll Set Point:	-0.007	Pitch Set Point:	-0.002	Yaw Set Point:	0.029	X_WP:	0.000	Y_WP:	0.000	Y_WP:	0.500	X:	0.004	Y:	0.001	Z:	0.058	yaw:	-1.660	yaw rate:	2.345	Roll:	0.166	Pitch:	0.055	Yaw:	-2.887	Thrust:	38.387
Time:	0.303	Roll Set Point:	-0.007	Pitch Set Point:	-0.002	Yaw Set Point:	0.028	X_WP:	0.000	Y_WP:	0.000	Y_WP:	0.500	X:	0.004	Y:	0.001	Z:	0.058	yaw:	-1.608	yaw rate:	-5.130	Roll:	0.245	Pitch:	0.023	Yaw:	-1.746	Thrust:	43.630
Time:	0.319	Roll Set Point:	-0.007	Pitch Set Point:	-0.002	Yaw Set Point:	0.028	X_WP:	0.000	Y_WP:	0.000	Y_WP:	0.500	X:	0.004	Y:	0.001	Z:	0.058	yaw:	-1.591	yaw rate:	-2.824	Roll:	0.155	Pitch:	0.061	Yaw:	-2.112	Thrust:	40.847
Time:	0.329	Roll Set Point:	-0.007	Pitch Set Point:	-0.002	Yaw Set Point:	0.028	X_WP:	0.000	Y_WP:	0.000	Y_WP:	0.500	X:	0.004	Y:	0.001	Z:	0.058	yaw:	-1.605	yaw rate:	1.337	Roll:	0.032	Pitch:	0.108	Yaw:	-2.695	Thrust:	35.972
Time:	0.339	Roll Set Point:	-0.007	Pitch Set Point:	-0.002	Yaw Set Point:	0.029	X_WP:	0.000	Y_WP:	0.000	Y_WP:	0.500	X:	0.004	Y:	0.001	Z:	0.058	yaw:	-1.641	yaw rate:	3.639	Roll:	0.381	Pitch:	0.120	Yaw:	-3.366	Thrust:	35.986
Time:	0.363	Roll Set Point:	-0.007	Pitch Set Point:	-0.002	Yaw Set Point:	0.029	X_WP:	0.000	Y_WP:	0.000	Y_WP:	0.500	X:	0.004	Y:	0.001	Z:	0.058	yaw:	-1.634	yaw rate:	-0.691	Roll:	0.128	Pitch:	0.046	Yaw:	-2.519	Thrust:	46.872
Time:	0.380	Roll Set Point:	-0.007	Pitch Set Point:	-0.002	Yaw Set Point:	0.029	X_WP:	0.000	Y_WP:	0.000	Y_WP:	0.500	X:	0.004	Y:	0.001	Z:	0.058	yaw:	-1.644	yaw rate:	0.954	Roll:	0.183	Pitch:	0.035	Yaw:	-2.665	Thrust:	48.112
Time:	0.392	Roll Set Point:	-0.007	Pitch Set Point:	-0.002	Yaw Set Point:	0.028	X_WP:	0.000	Y_WP:	0.000	Y_WP:	0.500	X:	0.004	Y:	0.001	Z:	0.058	yaw:	-1.626	yaw rate:	-2.604	Roll:	0.169	Pitch:	0.079	Yaw:	-2.096	Thrust:	42.225
Time:	0.402	Roll Set Point:	-0.007	Pitch Set Point:	-0.002	Yaw Set Point:	0.029	X_WP:	0.000	Y_WP:	0.000	Y_WP:	0.500	X:	0.004	Y:	0.001	Z:	0.058	yaw:	-1.647	yaw rate:	2.127	Roll:	0.245	Pitch:	0.073	Yaw:	-3.002	Thrust:	38.343
Time:	0.413	Roll Set Point:	-0.007	Pitch Set Point:	-0.002	Yaw Set Point:	0.029	X_WP:	0.000	Y_WP:	0.000	Y_WP:	0.500	X:	0.004	Y:	0.001	Z:	0.058	yaw:	-1.647	yaw rate:	-0.057	Roll:	0.042	Pitch:	-0.089	Yaw:	-2.454	Thrust:	40.314
Time:	0.429	Roll Set Point:	-0.007	Pitch Set Point:	-0.002	Yaw Set Point:	0.028	X_WP:	0.000	Y_WP:	0.000	Y_WP:	0.500	X:	0.004	Y:	0.001	Z:	0.058	yaw:	-1.627	yaw rate:	-1.998	Roll:	0.162	Pitch:	0.119	Yaw:	-2.211	Thrust:	48.545
Time:	0.440	Roll Set Point:	-0.007	Pitch Set Point:	-0.002	Yaw Set Point:	0.029	X_WP:	0.000	Y_WP:	0.000	Y_WP:	0.500	X:	0.004	Y:	0.001	Z:	0.058	yaw:	-1.652	yaw rate:	2.519	Roll:	0.170	Pitch:	0.066	Yaw:	-3.085	Thrust:	41.220
Time:	0.451	Roll Set Point:	-0.007	Pitch Set Point:	-0.002	Yaw Set Point:	0.029	X_WP:	0.000	Y_WP:	0.000	Y_WP:	0.500	X:	0.004	Y:	0.001	Z:	0.058	yaw:	-1.642	yaw rate:	-1.009	Roll:	0.339	Pitch:	0.073	Yaw:	-2.240	Thrust:	41.807
Time:	0.462	Roll Set Point:	-0.007	Pitch Set Point:	-0.002	Yaw Set Point:	0.029	X_WP:	0.000	Y_WP:	0.000	Y_WP:	0.500	X:	0.004	Y:	0.001	Z:	0.058	yaw:	-1.666	yaw rate:	2.424	Roll:	0.071	Pitch:	0.000	Yaw:	-3.094	Thrust:	42.415
Time:	0.473	Roll Set Point:	-0.007	Pitch Set Point:	-0.002	Yaw Set Point:	0.029	X_WP:	0.000	Y_WP:	0.000	Y_WP:	0.500	X:	0.004	Y:	0.001	Z:	0.058	yaw:	-1.645	yaw rate:	-2.069	Roll:	0.133	Pitch:	0.039	Yaw:	-2.006	Thrust:	43.278
Time:	0.492	Roll Set Point:	-0.007	Pitch Set Point:	-0.002	Yaw Set Point:	0.029	X_WP:	0.000	Y_WP:	0.000	Y_WP:	0.500	X:	0.004	Y:	0.001	Z:	0.058	yaw:	-1.657	yaw rate:	1.146	Roll:	0.167	Pitch:	0.109	Yaw:	-2.826	Thrust:	55.626
Time:	0.512	Roll Set Point:	-0.007	Pitch Set Point:	-0.002	Yaw Set Point:	0.029	X_WP:	0.000	Y_WP:	0.000	Y_WP:	0.500	X:	0.004	Y:	0.001	Z:	0.058	yaw:	-1.666	yaw rate:	1.180	Roll:	0.246	Pitch:	0.053	Yaw:	-2.809	Thrust:	58.103
Time:	0.524	Roll Set Point:	-0.007	Pitch Set Point:	-0.002	Yaw Set Point:	0.029	X_WP:	0.000	Y_WP:	0.000	Y_WP:	0.500	X:	0.004	Y:	0.001	Z:	0.058	yaw:	-1.664	yaw rate:	-0.110	Roll:	0.169	Pitch:	-0.001	Yaw:	-2.561	Thrust:	50.542
Time:	0.534	Roll Set Point:	-0.007	Pitch Set Point:	-0.002	Yaw Set Point:	0.029	X_WP:	0.000	Y_WP:	0.000	Y_WP:	0.500	X:	0.004	Y:	0.001	Z:	0.058	yaw:	-1.660	yaw rate:	-0.423	Roll:	0.184	Pitch:	0.102	Yaw:	-2.420	Thrust:	43.959
Time:	0.548	Roll Set Point:	-0.007	Pitch Set Point:	-0.002	Yaw Set Point:	0.029	X_WP:	0.000	Y_WP:	0.000	Y_WP:	0.500	X:	0.004	Y:	0.001	Z:	0.058	yaw:	-1.679	yaw rate:	1.899	Roll:	0.269	Pitch:	0.075	Yaw:	-2.994	Thrust:	50.767
Time:	0.575	Roll Set Point:	-0.007	Pitch Set Point:	-0.002	Yaw Set Point:	0.029	X_WP:	0.000	Y_WP:	0.000	Y_WP:	0.500	X:	0.004	Y:	0.001	Z:	0.058	yaw:	-1.682	yaw rate:	0.286	Roll:	0.245	Pitch:	0.089	Yaw:	-2.951	Thrust:	78.951
Time:	0.591	Roll Set Point:	-0.007	Pitch Set Point:	-0.002	Yaw Set Point:	0.029	X_WP:	0.000	Y_WP:	0.000	Y_WP:	0.500	X:	0.004	Y:	0.001	Z:	0.058	yaw:	-1.662	yaw rate:	-2.005	Roll:	0.089	Pitch:	0.022	Yaw:	-2.371	Thrust:	58.539
Time:	0.601	Roll Set Point:	-0.007	Pitch Set Point:	-0.002	Yaw Set Point:	0.030	X_WP:	0.000	Y_WP:	0.000	Y_WP:	0.500	X:	0.004	Y:	0.001	Z:	0.058	yaw:	-1.713	yaw rate:	5.084	Roll:	0.280	Pitch:	0.028	Yaw:	-3.947	Thrust:	45.785
Time:	0.614	Roll Set Point:	-0.007	Pitch Set Point:	-0.002	Yaw Set Point:	0.029	X_WP:	0.000	Y_WP:	0.000	Y_WP:	0.500	X:	0.004	Y:	0.001	Z:	0.058	yaw:	-1.675	yaw rate:	-0.352	Roll:	0.116	Pitch:	0.107	Yaw:	-1.881	Thrust:	52.505
Time:	0.644	Roll Set Point:	-0.007	Pitch Set Point:	-0.002	Yaw Set Point:	0.030	X_WP:	0.000	Y_WP:	0.000	Y_WP:	0.500	X:	0.004	Y:	0.001	Z:	0.058	yaw:	-1.702	yaw rate:	2.686	Roll:	0.274	Pitch:	0.090	Yaw:	-3.245	Thrust:	75.815
Time:	0.656	Roll Set Point:	-0.007	Pitch Set Point:	-0.002	Yaw Set Point:	0.029	X_WP:	0.000	Y_WP:	0.000	Y_WP:	0.500	X:	0.004	Y:	0.001	Z:	0.058	yaw:	-1.645	yaw rate:	-5.621	Roll:	0.188	Pitch:	0.007	Yaw:	-1.890	Thrust:	64.446
Time:	0.666	Roll Set Point:	-0.007	Pitch Set Point:	-0.002	Yaw Set Point:	0.030	X_WP:	0.000	Y_WP:	0.000	Y_WP:	0.500	X:	0.004	Y:	0.001	Z:	0.058	yaw:	-1.718	yaw rate:	7.219	Roll:	0.131	Pitch:	0.101	Yaw:	-4.521	Thrust:	47.864
Time:	0.677	Roll Set Point:	-0.007	Pitch Set Point:	-0.002	Yaw Set Point:	0.029	X_WP:	0.000	Y_WP:	0.000	Y_WP:	0.500	X:	0.004	Y:	0.001	Z:	0.058	yaw:	-1.674	yaw rate:	-4.329	Roll:	0.349	Pitch:	0.152	Yaw:	-1.594	Thrust:	49.288
Time:	0.695	Roll Set Point:	-0.007	Pitch Set Point:	-0.002	Yaw Set Point:	0.029	X_WP:	0.000	Y_WP:	0.000	Y_WP:	0.500	X:	0.004	Y:	0.001	Z:	0.058	yaw:	-1.690	yaw rate:	1.526	Roll:	0.159	Pitch:	-0.026	Yaw:	-3.042	Thrust:	67.370
Time:	0.707	Roll Set Point:	-0.008	Pitch Set Point:	-0.002	Yaw Set Point:	0.029	X_WP:	0.000	Y_WP:	0.000	Y_WP:	0.500	X:	0.004	Y:	0.001	Z:	0.058	yaw:	-1.666	yaw rate:	-2.375	Roll:	0.397	Pitch:	0.191	Yaw:	-2.199	Thrust:	56.531
Time:	0.719	Roll Set Point:	-0.008	Pitch Set Point:	-0.002	Yaw Set Point:	0.029	X_WP:	0.000	Y_WP:	0.000	Y_WP:	0.500	X:	0.004	Y:	0.001	Z:	0.058	yaw:	-1.682	yaw rate:	-2.654	Roll:	0.396	Pitch:	-0.016	Yaw:	-3.036	Thrust:	53.088
Time:	0.730	Roll Set Point:	-0.008	Pitch Set Point:	-0.002	Yaw Set Point:	0.031	X_WP:	0.000	Y_WP:	0.000	Y_WP:	0.500	X:	0.004	Y:	0.001	Z:	0.058	yaw:	-1.762	yaw rate:	7.938	Roll:	0.427	Pitch:	0.161	Yaw:	-4.721	Thrust:	52.665
Time:	0.741	Roll Set Point:	-0.008	Pitch Set Point:	-0.002	Yaw Set Point:	0.031	X_WP:	0.000	Y_WP:	0.000	Y_WP:	0.500	X:	0.004	Y:	0.001	Z:	0.058	yaw:	-1.755	yaw rate:	-0.696	Roll:	0.668	Pitch:	0.032	Yaw:	-2.601	Thrust:	50.155
Time:	0.767	Roll Set Point:	-0.008	Pitch Set Point:	-0.002	Yaw Set Point:	0.030	X_WP:	0.000	Y_WP:	0.000	Y_WP:	0.500	X:	0.004	Y:	0.001	Z:	0.059	yaw:	-1.747	yaw rate:	-0.798	Roll:	0.409	Pitch:	0.077	Yaw:	-3.114	Thrust:	93.782
Time:	0.779	Roll Set Point:	-0.009	Pitch Set Point:	-0.002	Yaw Set Point:	0.030	X_WP:	0.000	Y_WP:	0.000	Y_WP:	0.500	X:	0.005	Y:	0.001	Z:	0.059	yaw:	-1.711	yaw rate:	-3.532	Roll:	1.048	Pitch:	-0.013	Yaw:	-1.934	Thrust:	57.865
Time:	0.792	Roll Set Point:	-0.009	Pitch Set Point:	-0.002	Yaw Set Point:	0.029	X_WP:	0.000	Y_WP:	0.000	Y_WP:	0.500	X:	0.005	Y:	0.001	Z:	0.059	yaw:	-1.683	yaw rate:	3.316	Roll:	0.631	Pitch:	-0.148	Yaw:	-2.218	Thrust:	61.661
Time:	0.802	Roll Set Point:	-0.010	Pitch Set Point:	-0.002	Yaw Set Point:	0.029	X_WP:	0.000	Y_WP:	0.000	Y_WP:	0.500	X:	0.005	Y:	0.001	Z:	0.059	yaw:	-1.669	yaw rate:	-1.440	Roll:	0.713	Pitch:	-0.086	Yaw:	-2.265	Thrust:	52.369
Time:	0.813	Roll Set Point:	-0.010	Pitch Set Point:	-0.002	Yaw Set Point:	0.029	X_WP:	0.000	Y_WP:	0.000	Y_WP:	0.500	X:	0.005	Y:	0.001	Z:	0.059	yaw:	-1.670	yaw rate:	0.160	Roll:	0.628	Pitch:	0.051	Yaw:	-2.734	Thrust:	57.787
Time:	0.833	Roll Set Point:	-0.010	Pitch Set Point:	-0.002	Yaw Set Point:	0.029	X_WP:	0.000	Y_WP:	0.000	Y_WP:	0.500	X:	0.005	Y:	0.001	Z:	0.059	yaw:	-1.643	yaw rate:	-2.744	Roll:	0.464	Pitch:	-0.016	Yaw:	-2.532	Thrust:	80.691
Time:	0.850	Roll Set Point:	-0.011	Pitch Set Point:	-0.002	Yaw Set Point:	0.027	X_WP:	0.000	Y_WP:	0.000	Y_WP:	0.500	X:	0.005	Y:	0.001	Z:	0.060	yaw:	-1.575	yaw rate:	-6.792	Roll:	0.460	Pitch:	-0.054	Yaw:	-1.762	Thrust:	76.743
Time:	0.861	Roll Set Point:	-0.011	Pitch Set Point:	-0.001	Yaw Set Point:	0.027	X_WP:	0.000	Y_WP:	0.000	Y_WP:	0.500	X:	0.005	Y:	0.001	Z:	0.060	yaw:	-1.529	yaw rate:	-4.579	Roll:	0.405	Pitch:	-0.220	Yaw:	-1.440	Thrust:	58.502
Time:	0.871	Roll Set Point:	-0.011	Pitch Set Point:	-0.001	Yaw Set Point:	0.027	X_WP:	0.000	Y_WP:	0.000	Y_WP:	0.500	X:	0.005	Y:	0.001	Z:	0.060	yaw:	-1.548	yaw rate:	1.844	Roll:	0.529	Pitch:	-0.194	Yaw:	-2.982	Thrust:	55.294
Time:	0.885	Roll Set Point:	-0.011	Pitch Set Point:	-0.001	Yaw Set Point:	0.027	X_WP:	0.000	Y_WP:	0.000	Y_WP:	0.500	X:	0.005	Y:	0.000	Z:	0.060	yaw:	-1.556	yaw rate:	0.851	Roll:	0.429	Pitch:	-0.255	Yaw:	-2.804	Thrust:	67.198
Time:	0.900	Roll Set Point:	-0.011	Pitch Set Point:	-0.001	Yaw Set Point:	0.027	X_WP:	0.000	Y_WP:	0.000	Y_WP:	0.500	X:	0.006	Y:	0.000	Z:	0.060	yaw:	-1.556	yaw rate:	-0.050	Roll:	0.574	Pitch:	-0.115	Yaw:	-2.708	Thrust:	74.005
Time:	0.916	Roll Set Point:	-0.012	Pitch Set Point:	-0.000	Yaw Set Point:	0.027	X_WP:	0.000	Y_WP:	0.000	Y_WP:	0.500	X:	0.006	Y:	0.000	Z:	0.060	yaw:	-1.526	yaw rate:	-2.964	Roll:	1.385	Pitch:	-0.436	Yaw:	-2.187	Thrust:	72.768
Time:	0.926	Roll Set Point:	-0.014	Pitch Set Point:	0.000	Yaw Set Point:	0.026	X_WP:	0.000	Y_WP:	0.000	Y_WP:	0.500	X:	0.007	Y:	-0.000	Z:	0.061	yaw:	-1.510	yaw rate:	-4.414	Roll:	2.145	Pitch:	-0.798	Yaw:	-2.085	Thrust:	58.100
Time:	0.937	Roll Set Point:	-0.015	Pitch Set Point:	0.000	Yaw Set Point:	0.026	X_WP:	0.000	Y_WP:	0.000	Y_WP:	0.500	X:	0.007	Y:	-0.000	Z:	0.062	yaw:	-1.470	yaw rate:	-4.028	Roll:	1.937	Pitch:	-0.262	Yaw:	-1.500	Thrust:	60.051
Time:	0.952	Roll Set Point:	-0.016	Pitch Set Point:	0.001	Yaw Set Point:	0.029	X_WP:	0.000	Y_WP:	0.000	Y_WP:	0.500	X:	0.008	Y:	-0.001	Z:	0.062	yaw:	-1.661	yaw rate:	19.088	Roll:	1.828	Pitch:	-0.325	Yaw:	-6.294	Thrust:	71.350
Time:	0.968	Roll Set Point:	-0.018	Pitch Set Point:	0.001	Yaw Set Point:	0.030	X_WP:	0.000	Y_WP:	0.000	Y_WP:	0.500	X:	0.009	Y:	-0.001	Z:	0.063	yaw:	-1.737	yaw rate:	7.675	Roll:	1.909	Pitch:	-0.135	Yaw:	-4.327	Thrust:	76.977
Time:	0.986	Roll Set Point:	-0.021	Pitch Set Point:	0.002	Yaw Set Point:	0.028	X_WP:	0.000	Y_WP:	0.000	Y_WP:	0.500	X:	0.010	Y:	-0.001	Z:	0.064	yaw:	-1.589	yaw rate:	-14.842	Roll:	3.168	Pitch:	-0.737	Yaw:	-0.834	Thrust:	87.340
Time:	0.997	Roll Set Point:	-0.026	Pitch Set Point:	0.003	Yaw Set Point:	0.029	X_WP:	0.000	Y_WP:	0.000	Y_WP:	0.500	X:	0.013	Y:	-0.002	Z:	0.065	yaw:	-1.641	yaw rate:	8.316	Roll:	6.680	Pitch:	-1.353	Yaw:	-3.945	Thrust:	58.253
Time:	1.008	Roll Set Point:	-0.028	Pitch Set Point:	0.003	Yaw Set Point:	0.028	X_WP:	0.000	Y_WP:	0.000	Y_WP:	0.500	X:	0.014	Y:	-0.002	Z:	0.066	yaw:	-1.589	yaw rate:	-5.124	Roll:	4.733	Pitch:	-0.767	Yaw:	-1.438	Thrust:	57.060
Time:	1.030	Roll Set Point:	-0.031	Pitch Set Point:	0.004	Yaw Set Point:	0.026	X_WP:	0.000	Y_WP:	0.000	Y_WP:	0.500	X:	0.016	Y:	-0.002	Z:	0.067	yaw:	-1.498	yaw rate:	-9.107	Roll:	2.694	Pitch:	-0.419	Yaw:	-1.939	Thrust:	100.000
Time:	1.041	Roll Set Point:	-0.038	Pitch Set Point:	0.005	Yaw Set Point:	0.024	X_WP:	0.000	Y_WP:	0.000	Y_WP:	0.500	X:	0.019	Y:	-0.003	Z:	0.069	yaw:	-1.356	yaw rate:	-14.197	Roll:	8.807	Pitch:	-1.530	Yaw:	1.027	Thrust:	57.696
Time:	1.053	Roll Set Point:	-0.041	Pitch Set Point:	0.006	Yaw Set Point:	0.023	X_WP:	0.000	Y_WP:	0.000	Y_WP:	0.500	X:	0.021	Y:	-0.003	Z:	0.070	yaw:	-1.310	yaw rate:	-4.600	Roll:	5.820	Pitch:	-0.651	Yaw:	-1.257	Thrust:	63.129
Time:	1.063	Roll Set Point:	-0.045	Pitch Set Point:	0.006	Yaw Set Point:	0.022	X_WP:	0.000	Y_WP:	0.000	Y_WP:	0.500	X:	0.022	Y:	-0.003	Z:	0.071	yaw:	-1.279	yaw rate:	-3.161	Roll:	5.882	Pitch:	-0.964	Yaw:	-1.419	Thrust:	58.909
Time:	1.074	Roll Set Point:	-0.048	Pitch Set Point:	0.007	Yaw Set Point:	0.019	X_WP:	0.000	Y_WP:	0.000	Y_WP:	0.500	X:	0.024	Y:	-0.004	Z:	0.073	yaw:	-1.070	yaw rate:	-20.847	Roll:	6.688	Pitch:	-1.292	Yaw:	3.529	Thrust:	57.600
Time:	1.089	Roll Set Point:	-0.056	Pitch Set Point:	0.008	Yaw Set Point:	0.014	X_WP:	0.000	Y_WP:	0.000	Y_WP:	0.500	X:	0.028	Y:	-0.004	Z:	0.076	yaw:	-0.822	yaw rate:	-12.306	Roll:	9.290	Pitch:	-1.341	Yaw:	2.367	Thrust:	77.256
Time:	1.102	Roll Set Point:	-0.065	Pitch Set Point:	0.009	Yaw Set Point:	0.011	X_WP:	0.000	Y_WP:	0.000	Y_WP:	0.500	X:	0.032	Y:	-0.005	Z:	0.079	yaw:	-0.654	yaw rate:	-16.814	Roll:	10.854	Pitch:	-1.385	Yaw:	1.798	Thrust:	67.537
Time:	1.116	Roll Set Point:	-0.069	Pitch Set Point:	0.010	Yaw Set Point:	0.007	X_WP:	0.000	Y_WP:	0.000	Y_WP:	0.500	X:	0.034	Y:	-0.005	Z:	0.080	yaw:	-0.402	yaw rate:	-25.236	Roll:	5.665	Pitch:	-1.397	Yaw:	3.721	Thrust:	73.839
Time:	1.127	Roll Set Point:	-0.073	Pitch Set Point:	0.011	Yaw Set Point:	0.005	X_WP:	0.000	Y_WP:	0.000	Y_WP:	0.500	X:	0.036	Y:	-0.005	Z:	0.082	yaw:	-0.262	yaw rate:	-13.959	Roll:	7.192	Pitch:	-0.884	Yaw:	2.497	Thrust:	62.143
Time:	1.138	Roll Set Point:	-0.082	Pitch Set Point:	0.012	Yaw Set Point:	-0.000	X_WP:	0.000	Y_WP:	0.000	Y_WP:	0.500	X:	0.041	Y:	-0.006	Z:	0.085	yaw:	0.014	yaw rate:	-15.249	Roll:	13.497	Pitch:	-2.366	Yaw:	6.112	Thrust:	57.854
Time:	1.153	Roll Set Point:	-0.086	Pitch Set Point:	0.013	Yaw Set Point:	-0.003	X_WP:	0.000	Y_WP:	0.000	Y_WP:	0.500	X:	0.043	Y:	-0.006	Z:	0.086	yaw:	0.148	yaw rate:	-13.370	Roll:	6.573	Pitch:	-1.015	Yaw:	1.885	Thrust:	82.451
Time:	1.168	Roll Set Point:	-0.091	Pitch Set Point:	0.013	Yaw Set Point:	-0.004	X_WP:	0.000	Y_WP:	0.000	Y_WP:	0.500	X:	0.045	Y:	-0.007	Z:	0.088	yaw:	0.239	yaw rate:	-9.070	Roll:	6.136	Pitch:	-0.844	Yaw:	1.194	Thrust:	84.848
Time:	1.194	Roll Set Point:	-0.095	Pitch Set Point:	0.014	Yaw Set Point:	-0.007	X_WP:	0.000	Y_WP:	0.000	Y_WP:	0.500	X:	0.048	Y:	-0.007	Z:	0.089	yaw:	0.378	yaw rate:	-13.928	Roll:	5.990	Pitch:	-1.108	Yaw:	1.770	Thrust:	97.063
Time:	1.205	Roll Set Point:	-0.109	Pitch Set Point:	0.017	Yaw Set Point:	-0.013	X_WP:	0.000	Y_WP:	0.000	Y_WP:	0.500	X:	0.054	Y:	-0.008	Z:	0.094	yaw:	0.754	yaw rate:	-12.175	Roll:	13.128	Pitch:	-2.597	Yaw:	5.566	Thrust:	92.870
Time:	1.217	Roll Set Point:	-0.113	Pitch Set Point:	0.017	Yaw Set Point:	-0.015	X_WP:	0.000	Y_WP:	0.000	Y_WP:	0.500	X:	0.057	Y:	-0.008	Z:	0.096	yaw:	0.879	yaw rate:	-12.543	Roll:	8.707	Pitch:	-1.768	Yaw:	3.583	Thrust:	67.048
Time:	1.234	Roll Set Point:	-0.118	Pitch Set Point:	0.018	Yaw Set Point:	-0.017	X_WP:	0.000	Y_WP:	0.000	Y_WP:	0.500	X:	0.059	Y:	-0.009	Z:	0.097	yaw:	1.002	yaw rate:	-12.233	Roll:	6.499	Pitch:	-1.420	Yaw:	2.555	Thrust:	89.602
Time:	1.251	Roll Set Point:	-0.126	Pitch Set Point:	0.020	Yaw Set Point:	-0.018	X_WP:	0.000	Y_WP:	0.000	Y_WP:	0.500	X:	0.063	Y:	-0.009	Z:	0.101	yaw:	1.057	yaw rate:	-5.547	Roll:	10.222	Pitch:	-1.866	Yaw:	1.568	Thrust:	95.238
Time:	1.263	Roll Set Point:	-0.130	Pitch Set Point:	0.021	Yaw Set Point:	-0.019	X_WP:	0.000	Y_WP:	0.000	Y_WP:	0.500	X:	0.065	Y:	-0.010	Z:	0.103	yaw:	1.070	yaw rate:	-1.275	Roll:	7.384	Pitch:	-1.357	Yaw:	1.289	Thrust:	71.247
Time:	1.273	Roll Set Point:	-0.138	Pitch Set Point:	0.022	Yaw Set Point:	-0.020	X_WP:	0.000	Y_WP:	0.000	Y_WP:	0.500	X:	0.069	Y:	-0.010	Z:	0.107	yaw:	1.152	yaw rate:	-8.242	Roll:	14.272	Pitch:	-2.583	Yaw:	3.349	Thrust:	50.133
Time:	1.289	Roll Set Point:	-0.141	Pitch Set Point:	0.023	Yaw Set Point:	-0.021	X_WP:	0.000	Y_WP:	0.000	Y_WP:	0.500	X:	0.071	Y:	-0.011	Z:	0.110	yaw:	1.213	yaw rate:	-6.040	Roll:	7.112	Pitch:	-1.332	Yaw:	2.132	Thrust:	82.550
Time:	1.303	Roll Set Point:	-0.148	Pitch Set Point:	0.023	Yaw Set Point:	-0.019	X_WP:	0.000	Y_WP:	0.000	Y_WP:	0.500	X:	0.074	Y:	-0.011	Z:	0.115	yaw:	1.115	yaw rate:	3.426	Roll:	9.465	Pitch:	-1.216	Yaw:	-0.825	Thrust:	75.003
Time:	1.315	Roll Set Point:	-0.150	Pitch Set Point:	0.024	Yaw Set Point:	-0.020	X_WP:	0.000	Y_WP:	0.000	Y_WP:	0.500	X:	0.075	Y:	-0.011	Z:	0.118	yaw:	1.121	yaw rate:	-0.612	Roll:	6.711	Pitch:	-1.286	Yaw:	1.219	Thrust:	67.863
Time:	1.325	Roll Set Point:	-0.153	Pitch Set Point:	0.024	Yaw Set Point:	-0.018	X_WP:	0.000	Y_WP:	0.000	Y_WP:	0.500	X:	0.077	Y:	-0.011	Z:	0.121	yaw:	1.043	yaw rate:	7.832	Roll:	7.477	Pitch:	-0.765	Yaw:	-0.898	Thrust:	59.052
Time:	1.335	Roll Set Point:	-0.156	Pitch Set Point:	0.024	Yaw Set Point:	-0.017	X_WP:	0.000	Y_WP:	0.000	Y_WP:	0.500	X:	0.078	Y:	-0.012	Z:	0.125	yaw:	0.948	yaw rate:	9.453	Roll:	7.553	Pitch:	-0.827	Yaw:	-1.536	Thrust:	54.841
Time:	1.350	Roll Set Point:	-0.159	Pitch Set Point:	0.025	Yaw Set Point:	-0.012	X_WP:	0.000	Y_WP:	0.000	Y_WP:	0.500	X:	0.080	Y:	-0.012	Z:	0.128	yaw:	0.700	yaw rate:	24.780	Roll:	6.732	Pitch:	-0.613	Yaw:	-4.044	Thrust:	81.102
Time:	1.367	Roll Set Point:	-0.162	Pitch Set Point:	0.026	Yaw Set Point:	-0.012	X_WP:	0.000	Y_WP:	0.000	Y_WP:	0.500	X:	0.081	Y:	-0.012	Z:	0.132	yaw:	0.702	yaw rate:	-0.139	Roll:	5.957	Pitch:	-1.187	Yaw:	0.304	Thrust:	100.000
Time:	1.387	Roll Set Point:	-0.170	Pitch Set Point:	0.027	Yaw Set Point:	-0.000	X_WP:	0.000	Y_WP:	0.000	Y_WP:	0.500	X:	0.085	Y:	-0.013	Z:	0.145	yaw:	0.026	yaw rate:	37.106	Roll:	10.279	Pitch:	-0.804	Yaw:	-9.758	Thrust:	87.044
Time:	1.398	Roll Set Point:	-0.172	Pitch Set Point:	0.027	Yaw Set Point:	0.003	X_WP:	0.000	Y_WP:	0.000	Y_WP:	0.500	X:	0.086	Y:	-0.014	Z:	0.149	yaw:	-0.167	yaw rate:	19.301	Roll:	7.456	Pitch:	-1.033	Yaw:	-5.427	Thrust:	58.248
Time:	1.409	Roll Set Point:	-0.175	Pitch Set Point:	0.028	Yaw Set Point:	0.007	X_WP:	0.000	Y_WP:	0.000	Y_WP:	0.500	X:	0.087	Y:	-0.014	Z:	0.154	yaw:	-0.409	yaw rate:	24.215	Roll:	7.888	Pitch:	-0.948	Yaw:	-6.505	Thrust:	61.337
Time:	1.431	Roll Set Point:	-0.178	Pitch Set Point:	0.029	Yaw Set Point:	0.012	X_WP:	0.000	Y_WP:	0.000	Y_WP:	0.500	X:	0.089	Y:	-0.015	Z:	0.158	yaw:	-0.667	yaw rate:	25.840	Roll:	6.274	Pitch:	-0.736	Yaw:	-4.897	Thrust:	100.000
Time:	1.444	Roll Set Point:	-0.185	Pitch Set Point:	0.031	Yaw Set Point:	0.023	X_WP:	0.000	Y_WP:	0.000	Y_WP:	0.500	X:	0.092	Y:	-0.017	Z:	0.173	yaw:	-1.301	yaw rate:	45.318	Roll:	12.141	Pitch:	-2.102	Yaw:	-15.038	Thrust:	39.089
Time:	1.455	Roll Set Point:	-0.187	Pitch Set Point:	0.032	Yaw Set Point:	0.028	X_WP:	0.000	Y_WP:	0.000	Y_WP:	0.500	X:	0.093	Y:	-0.017	Z:	0.178	yaw:	-1.583	yaw rate:	28.198	Roll:	7.087	Pitch:	-0.884	Yaw:	-9.064	Thrust:	55.692
Time:	1.466	Roll Set Point:	-0.189	Pitch Set Point:	0.033	Yaw Set Point:	0.030	X_WP:	0.000	Y_WP:	0.000	Y_WP:	0.500	X:	0.094	Y:	-0.018	Z:	0.183	yaw:	-1.729	yaw rate:	14.527	Roll:	7.012	Pitch:	-1.493	Yaw:	-6.368	Thrust:	57.582
Time:	1.479	Roll Set Point:	-0.191	Pitch Set Point:	0.034	Yaw Set Point:	0.031	X_WP:	0.000	Y_WP:	0.000	Y_WP:	0.500	X:	0.095	Y:	-0.018	Z:	0.189	yaw:	-1.805	yaw rate:	7.611	Roll:	7.072	Pitch:	-1.994	Yaw:	-4.614	Thrust:	65.873
Time:	1.498	Roll Set Point:	-0.193	Pitch Set Point:	0.034	Yaw Set Point:	0.037	X_WP:	0.000	Y_WP:	0.000	Y_WP:	0.500	X:	0.096	Y:	-0.019	Z:	0.194	yaw:	-2.144	yaw rate:	33.976	Roll:	6.348	Pitch:	-0.525	Yaw:	-8.579	Thrust:	100.000
Time:	1.515	Roll Set Point:	-0.197	Pitch Set Point:	0.036	Yaw Set Point:	0.042	X_WP:	0.000	Y_WP:	0.000	Y_WP:	0.500	X:	0.098	Y:	-0.020	Z:	0.204	yaw:	-2.432	yaw rate:	28.746	Roll:	7.839	Pitch:	-2.096	Yaw:	-8.407	Thrust:	85.306
Time:	1.527	Roll Set Point:	-0.200	Pitch Set Point:	0.038	Yaw Set Point:	0.049	X_WP:	0.000	Y_WP:	0.000	Y_WP:	0.500	X:	0.100	Y:	-0.022	Z:	0.215	yaw:	-2.816	yaw rate:	22.066	Roll:	9.254	Pitch:	-2.013	Yaw:	-12.779	Thrust:	44.106
Time:	1.539	Roll Set Point:	-0.201	Pitch Set Point:	0.039	Yaw Set Point:	0.051	X_WP:	0.000	Y_WP:	0.000	Y_WP:	0.500	X:	0.100	Y:	-0.022	Z:	0.220	yaw:	-2.938	yaw rate:	12.286	Roll:	6.520	Pitch:	-2.153	Yaw:	-7.500	Thrust:	55.437
Time:	1.569	Roll Set Point:	-0.203	Pitch Set Point:	0.041	Yaw Set Point:	0.053	X_WP:	0.000	Y_WP:	0.000	Y_WP:	0.500	X:	0.101	Y:	-0.023	Z:	0.226	yaw:	-3.048	yaw rate:	10.941	Roll:	6.424	Pitch:	-1.316	Yaw:	-6.555	Thrust:	100.000
Time:	1.587	Roll Set Point:	-0.207	Pitch Set Point:	0.043	Yaw Set Point:	0.065	X_WP:	0.000	Y_WP:	0.000	Y_WP:	0.500	X:	0.103	Y:	-0.025	Z:	0.242	yaw:	-3.708	yaw rate:	22.023	Roll:	8.916	Pitch:	-2.387	Yaw:	-15.561	Thrust:	67.891
Time:	1.599	Roll Set Point:	-0.210	Pitch Set Point:	0.046	Yaw Set Point:	0.069	X_WP:	0.000	Y_WP:	0.000	Y_WP:	0.500	X:	0.104	Y:	-0.027	Z:	0.254	yaw:	-3.926	yaw rate:	21.779	Roll:	7.683	Pitch:	-2.800	Yaw:	-10.620	Thrust:	53.063
Time:	1.613	Roll Set Point:	-0.211	Pitch Set Point:	0.047	Yaw Set Point:	0.071	X_WP:	0.000	Y_WP:	0.000	Y_WP:	0.500	X:	0.105	Y:	-0.027	Z:	0.259	yaw:	-4.045	yaw rate:	11.950	Roll:	6.570	Pitch:	-1.803	Yaw:	-8.553	Thrust:	74.296
Time:	1.633	Roll Set Point:	-0.213	Pitch Set Point:	0.050	Yaw Set Point:	0.075	X_WP:	0.000	Y_WP:	0.000	Y_WP:	0.500	X:	0.106	Y:	-0.029	Z:	0.271	yaw:	-4.286	yaw rate:	17.666	Roll:	7.348	Pitch:	-2.552	Yaw:	-10.198	Thrust:	96.078
Time:	1.652	Roll Set Point:	-0.214	Pitch Set Point:	0.051	Yaw Set Point:	0.078	X_WP:	0.000	Y_WP:	0.000	Y_WP:	0.500	X:	0.106	Y:	-0.029	Z:	0.277	yaw:	-4.453	yaw rate:	16.739	Roll:	6.595	Pitch:	-1.437	Yaw:	-9.459	Thrust:	100.000
Time:	1.662	Roll Set Point:	-0.217	Pitch Set Point:	0.055	Yaw Set Point:	0.080	X_WP:	0.000	Y_WP:	0.000	Y_WP:	0.500	X:	0.108	Y:	-0.032	Z:	0.293	yaw:	-4.560	yaw rate:	15.482	Roll:	9.249	Pitch:	-6.377	Yaw:	-9.622	Thrust:	2.442
Time:	1.672	Roll Set Point:	-0.218	Pitch Set Point:	0.056	Yaw Set Point:	0.077	X_WP:	0.000	Y_WP:	0.000	Y_WP:	0.500	X:	0.108	Y:	-0.032	Z:	0.299	yaw:	-4.429	yaw rate:	-13.100	Roll:	6.261	Pitch:	-4.009	Yaw:	-3.309	Thrust:	44.481
Time:	1.692	Roll Set Point:	-0.219	Pitch Set Point:	0.058	Yaw Set Point:	0.078	X_WP:	0.000	Y_WP:	0.000	Y_WP:	0.500	X:	0.108	Y:	-0.033	Z:	0.305	yaw:	-4.452	yaw rate:	2.336	Roll:	6.216	Pitch:	-2.318	Yaw:	-7.642	Thrust:	96.717
Time:	1.705	Roll Set Point:	-0.219	Pitch Set Point:	0.058	Yaw Set Point:	0.082	X_WP:	0.000	Y_WP:	0.000	Y_WP:	0.500	X:	0.109	Y:	-0.034	Z:	0.310	yaw:	-4.706	yaw rate:	25.419	Roll:	6.466	Pitch:	-1.137	Yaw:	-12.782	Thrust:	77.049
Time:	1.716	Roll Set Point:	-0.220	Pitch Set Point:	0.060	Yaw Set Point:	0.081	X_WP:	0.000	Y_WP:	0.000	Y_WP:	0.500	X:	0.109	Y:	-0.034	Z:	0.316	yaw:	-4.619	yaw rate:	-8.727	Roll:	5.958	Pitch:	-3.522	Yaw:	-5.149	Thrust:	55.425
Time:	1.726	Roll Set Point:	-0.221	Pitch Set Point:	0.063	Yaw Set Point:	0.079	X_WP:	0.000	Y_WP:	0.000	Y_WP:	0.500	X:	0.109	Y:	-0.036	Z:	0.327	yaw:	-4.513	yaw rate:	-10.648	Roll:	6.746	Pitch:	-5.463	Yaw:	-4.297	Thrust:	26.624
Time:	1.737	Roll Set Point:	-0.221	Pitch Set Point:	0.064	Yaw Set Point:	0.080	X_WP:	0.000	Y_WP:	0.000	Y_WP:	0.500	X:	0.109	Y:	-0.036	Z:	0.333	yaw:	-4.599	yaw rate:	8.593	Roll:	6.319	Pitch:	-2.185	Yaw:	-9.148	Thrust:	52.101
Time:	1.774	Roll Set Point:	-0.222	Pitch Set Point:	0.066	Yaw Set Point:	0.078	X_WP:	0.000	Y_WP:	0.000	Y_WP:	0.500	X:	0.110	Y:	-0.037	Z:	0.343	yaw:	-4.486	yaw rate:	-5.523	Roll:	7.314	Pitch:	-2.767	Yaw:	-7.668	Thrust:	100.000
Time:	1.786	Roll Set Point:	-0.223	Pitch Set Point:	0.070	Yaw Set Point:	0.074	X_WP:	0.000	Y_WP:	0.000	Y_WP:	0.500	X:	0.110	Y:	-0.039	Z:	0.358	yaw:	-4.227	yaw rate:	-19.549	Roll:	6.507	Pitch:	-6.512	Yaw:	-1.781	Thrust:	37.771
Time:	1.797	Roll Set Point:	-0.223	Pitch Set Point:	0.073	Yaw Set Point:	0.070	X_WP:	0.000	Y_WP:	0.000	Y_WP:	0.500	X:	0.110	Y:	-0.040	Z:	0.367	yaw:	-3.987	yaw rate:	-24.014	Roll:	5.756	Pitch:	-5.395	Yaw:	-0.357	Thrust:	39.008
Time:	1.807	Roll Set Point:	-0.223	Pitch Set Point:	0.074	Yaw Set Point:	0.067	X_WP:	0.000	Y_WP:	0.000	Y_WP:	0.500	X:	0.110	Y:	-0.041	Z:	0.371	yaw:	-3.825	yaw rate:	-16.198	Roll:	5.407	Pitch:	-3.975	Yaw:	-1.795	Thrust:	48.107
Time:	1.820	Roll Set Point:	-0.223	Pitch Set Point:	0.075	Yaw Set Point:	0.066	X_WP:	0.000	Y_WP:	0.000	Y_WP:	0.500	X:	0.110	Y:	-0.041	Z:	0.375	yaw:	-3.759	yaw rate:	-6.556	Roll:	5.876	Pitch:	-3.085	Yaw:	-4.753	Thrust:	67.094
Time:	1.833	Roll Set Point:	-0.223	Pitch Set Point:	0.076	Yaw Set Point:	0.061	X_WP:	0.000	Y_WP:	0.000	Y_WP:	0.500	X:	0.110	Y:	-0.042	Z:	0.379	yaw:	-3.492	yaw rate:	-26.742	Roll:	5.450	Pitch:	-3.583	Yaw:	-0.897	Thrust:	77.523
Time:	1.853	Roll Set Point:	-0.223	Pitch Set Point:	0.078	Yaw Set Point:	0.058	X_WP:	0.000	Y_WP:	0.000	Y_WP:	0.500	X:	0.110	Y:	-0.042	Z:	0.382	yaw:	-3.327	yaw rate:	-16.517	Roll:	6.192	Pitch:	-2.963	Yaw:	-3.848	Thrust:	100.000
Time:	1.864	Roll Set Point:	-0.223	Pitch Set Point:	0.080	Yaw Set Point:	0.052	X_WP:	0.000	Y_WP:	0.000	Y_WP:	0.500	X:	0.110	Y:	-0.043	Z:	0.389	yaw:	-2.993	yaw rate:	-33.338	Roll:	5.110	Pitch:	-5.145	Yaw:	3.241	Thrust:	42.786
Time:	1.875	Roll Set Point:	-0.222	Pitch Set Point:	0.081	Yaw Set Point:	0.049	X_WP:	0.000	Y_WP:	0.000	Y_WP:	0.500	X:	0.110	Y:	-0.043	Z:	0.392	yaw:	-2.827	yaw rate:	-16.619	Roll:	5.200	Pitch:	-3.734	Yaw:	-0.354	Thrust:	52.835
Time:	1.887	Roll Set Point:	-0.222	Pitch Set Point:	0.082	Yaw Set Point:	0.046	X_WP:	0.000	Y_WP:	0.000	Y_WP:	0.500	X:	0.110	Y:	-0.043	Z:	0.395	yaw:	-2.639	yaw rate:	-18.812	Roll:	5.248	Pitch:	-3.477	Yaw:	-1.073	Thrust:	73.840
Time:	1.900	Roll Set Point:	-0.222	Pitch Set Point:	0.083	Yaw Set Point:	0.043	X_WP:	0.000	Y_WP:	0.000	Y_WP:	0.500	X:	0.110	Y:	-0.044	Z:	0.398	yaw:	-2.471	yaw rate:	-16.832	Roll:	5.576	Pitch:	-3.027	Yaw:	-0.976	Thrust:	75.903
Time:	1.917	Roll Set Point:	-0.221	Pitch Set Point:	0.084	Yaw Set Point:	0.037	X_WP:	0.000	Y_WP:	0.000	Y_WP:	0.500	X:	0.110	Y:	-0.044	Z:	0.403	yaw:	-2.125	yaw rate:	-34.581	Roll:	5.435	Pitch:	-3.850	Yaw:	1.016	Thrust:	94.812
Time:	1.928	Roll Set Point:	-0.221	Pitch Set Point:	0.085	Yaw Set Point:	0.033	X_WP:	0.000	Y_WP:	0.000	Y_WP:	0.500	X:	0.110	Y:	-0.044	Z:	0.407	yaw:	-1.880	yaw rate:	-9.494	Roll:	4.534	Pitch:	-3.424	Yaw:	2.395	Thrust:	53.543
Time:	1.938	Roll Set Point:	-0.221	Pitch Set Point:	0.085	Yaw Set Point:	0.030	X_WP:	0.000	Y_WP:	0.000	Y_WP:	0.500	X:	0.110	Y:	-0.044	Z:	0.409	yaw:	-1.708	yaw rate:	-17.150	Roll:	4.726	Pitch:	-3.043	Yaw:	1.309	Thrust:	56.471
Time:	1.956	Roll Set Point:	-0.220	Pitch Set Point:	0.085	Yaw Set Point:	0.029	X_WP:	0.000	Y_WP:	0.000	Y_WP:	0.500	X:	0.110	Y:	-0.044	Z:	0.411	yaw:	-1.647	yaw rate:	-6.165	Roll:	5.702	Pitch:	-2.216	Yaw:	-2.770	Thrust:	100.000
Time:	1.969	Roll Set Point:	-0.220	Pitch Set Point:	0.085	Yaw Set Point:	0.026	X_WP:	0.000	Y_WP:	0.000	Y_WP:	0.500	X:	0.109	Y:	-0.044	Z:	0.413	yaw:	-1.509	yaw rate:	-13.721	Roll:	5.494	Pitch:	-2.356	Yaw:	-0.395	Thrust:	80.223
Time:	1.980	Roll Set Point:	-0.219	Pitch Set Point:	0.085	Yaw Set Point:	0.024	X_WP:	0.000	Y_WP:	0.000	Y_WP:	0.500	X:	0.109	Y:	-0.044	Z:	0.415	yaw:	-1.373	yaw rate:	-13.661	Roll:	4.762	Pitch:	-2.443	Yaw:	0.260	Thrust:	67.258
Time:	1.991	Roll Set Point:	-0.219	Pitch Set Point:	0.086	Yaw Set Point:	0.020	X_WP:	0.000	Y_WP:	0.000	Y_WP:	0.500	X:	0.109	Y:	-0.044	Z:	0.416	yaw:	-1.173	yaw rate:	-19.932	Roll:	4.824	Pitch:	-2.629	Yaw:	2.485	Thrust:	60.903
Time:	2.001	Roll Set Point:	-0.219	Pitch Set Point:	0.085	Yaw Set Point:	0.021	X_WP:	0.000	Y_WP:	0.000	Y_WP:	0.500	X:	0.109	Y:	-0.044	Z:	0.418	yaw:	-1.209	yaw rate:	3.559	Roll:	4.896	Pitch:	-0.855	Yaw:	-3.430	Thrust:	57.493
Time:	2.012	Roll Set Point:	-0.218	Pitch Set Point:	0.085	Yaw Set Point:	0.019	X_WP:	0.000	Y_WP:	0.000	Y_WP:	0.500	X:	0.109	Y:	-0.043	Z:	0.420	yaw:	-1.060	yaw rate:	-14.884	Roll:	4.666	Pitch:	-2.154	Yaw:	1.361	Thrust:	60.891
Time:	2.031	Roll Set Point:	-0.218	Pitch Set Point:	0.084	Yaw Set Point:	0.018	X_WP:	0.000	Y_WP:	0.000	Y_WP:	0.500	X:	0.109	Y:	-0.043	Z:	0.422	yaw:	-1.039	yaw rate:	-2.102	Roll:	5.901	Pitch:	-1.660	Yaw:	-2.822	Thrust:	100.000
Time:	2.046	Roll Set Point:	-0.216	Pitch Set Point:	0.082	Yaw Set Point:	0.013	X_WP:	0.000	Y_WP:	0.000	Y_WP:	0.500	X:	0.108	Y:	-0.042	Z:	0.428	yaw:	-0.739	yaw rate:	-13.634	Roll:	4.108	Pitch:	-0.702	Yaw:	3.172	Thrust:	70.966
Time:	2.059	Roll Set Point:	-0.215	Pitch Set Point:	0.080	Yaw Set Point:	0.010	X_WP:	0.000	Y_WP:	0.000	Y_WP:	0.500	X:	0.107	Y:	-0.041	Z:	0.432	yaw:	-0.590	yaw rate:	-14.846	Roll:	4.276	Pitch:	-0.079	Yaw:	1.283	Thrust:	67.632
Time:	2.069	Roll Set Point:	-0.215	Pitch Set Point:	0.079	Yaw Set Point:	0.010	X_WP:	0.000	Y_WP:	0.000	Y_WP:	0.500	X:	0.107	Y:	-0.040	Z:	0.435	yaw:	-0.584	yaw rate:	-0.609	Roll:	4.677	Pitch:	-0.180	Yaw:	-1.536	Thrust:	58.577
Time:	2.080	Roll Set Point:	-0.214	Pitch Set Point:	0.078	Yaw Set Point:	0.009	X_WP:	0.000	Y_WP:	0.000	Y_WP:	0.500	X:	0.107	Y:	-0.039	Z:	0.437	yaw:	-0.530	yaw rate:	-5.413	Roll:	4.515	Pitch:	-0.341	Yaw:	-0.372	Thrust:	62.098
Time:	2.098	Roll Set Point:	-0.214	Pitch Set Point:	0.077	Yaw Set Point:	0.007	X_WP:	0.000	Y_WP:	0.000	Y_WP:	0.500	X:	0.107	Y:	-0.039	Z:	0.439	yaw:	-0.379	yaw rate:	-15.131	Roll:	5.436	Pitch:	-1.504	Yaw:	0.156	Thrust:	100.000
Time:	2.117	Roll Set Point:	-0.213	Pitch Set Point:	0.076	Yaw Set Point:	0.004	X_WP:	0.000	Y_WP:	0.000	Y_WP:	0.500	X:	0.107	Y:	-0.038	Z:	0.442	yaw:	-0.250	yaw rate:	-12.847	Roll:	5.597	Pitch:	-1.410	Yaw:	-0.083	Thrust:	100.000
Time:	2.127	Roll Set Point:	-0.212	Pitch Set Point:	0.073	Yaw Set Point:	0.003	X_WP:	0.000	Y_WP:	0.000	Y_WP:	0.500	X:	0.106	Y:	-0.037	Z:	0.447	yaw:	-0.196	yaw rate:	-13.618	Roll:	3.904	Pitch:	2.024	Yaw:	0.198	Thrust:	51.240
Time:	2.137	Roll Set Point:	-0.211	Pitch Set Point:	0.070	Yaw Set Point:	0.003	X_WP:	0.000	Y_WP:	0.000	Y_WP:	0.500	X:	0.105	Y:	-0.035	Z:	0.452	yaw:	-0.153	yaw rate:	-4.276	Roll:	3.352	Pitch:	3.053	Yaw:	0.066	Thrust:	42.177
Time:	2.155	Roll Set Point:	-0.210	Pitch Set Point:	0.068	Yaw Set Point:	0.002	X_WP:	0.000	Y_WP:	0.000	Y_WP:	0.500	X:	0.105	Y:	-0.034	Z:	0.454	yaw:	-0.121	yaw rate:	-3.201	Roll:	5.317	Pitch:	-0.457	Yaw:	-1.158	Thrust:	99.981
Time:	2.167	Roll Set Point:	-0.210	Pitch Set Point:	0.066	Yaw Set Point:	0.002	X_WP:	0.000	Y_WP:	0.000	Y_WP:	0.500	X:	0.105	Y:	-0.033	Z:	0.457	yaw:	-0.086	yaw rate:	-3.488	Roll:	4.637	Pitch:	0.204	Yaw:	-0.438	Thrust:	65.978
Time:	2.178	Roll Set Point:	-0.209	Pitch Set Point:	0.063	Yaw Set Point:	-0.000	X_WP:	0.000	Y_WP:	0.000	Y_WP:	0.500	X:	0.104	Y:	-0.031	Z:	0.463	yaw:	0.002	yaw rate:	-4.257	Roll:	3.833	Pitch:	2.668	Yaw:	1.329	Thrust:	47.414
Time:	2.188	Roll Set Point:	-0.208	Pitch Set Point:	0.061	Yaw Set Point:	0.002	X_WP:	0.000	Y_WP:	0.000	Y_WP:	0.500	X:	0.104	Y:	-0.031	Z:	0.466	yaw:	-0.100	yaw rate:	10.223	Roll:	4.302	Pitch:	1.718	Yaw:	-3.561	Thrust:	53.572
Time:	2.199	Roll Set Point:	-0.207	Pitch Set Point:	0.059	Yaw Set Point:	-0.001	X_WP:	0.000	Y_WP:	0.000	Y_WP:	0.500	X:	0.104	Y:	-0.030	Z:	0.470	yaw:	0.050	yaw rate:	-14.957	Roll:	4.186	Pitch:	-0.075	Yaw:	2.899	Thrust:	57.686
Time:	2.209	Roll Set Point:	-0.207	Pitch Set Point:	0.058	Yaw Set Point:	-0.000	X_WP:	0.000	Y_WP:	0.000	Y_WP:	0.500	X:	0.103	Y:	-0.029	Z:	0.473	yaw:	0.014	yaw rate:	3.527	Roll:	4.335	Pitch:	1.176	Yaw:	-1.737	Thrust:	53.164
Time:	2.228	Roll Set Point:	-0.206	Pitch Set Point:	0.056	Yaw Set Point:	-0.001	X_WP:	0.000	Y_WP:	0.000	Y_WP:	0.500	X:	0.103	Y:	-0.028	Z:	0.476	yaw:	0.035	yaw rate:	-2.095	Roll:	5.120	Pitch:	-0.415	Yaw:	-1.261	Thrust:	100.000
Time:	2.242	Roll Set Point:	-0.205	Pitch Set Point:	0.054	Yaw Set Point:	-0.000	X_WP:	0.000	Y_WP:	0.000	Y_WP:	0.500	X:	0.103	Y:	-0.027	Z:	0.480	yaw:	0.022	yaw rate:	1.336	Roll:	5.099	Pitch:	0.638	Yaw:	-1.359	Thrust:	73.741
Time:	2.254	Roll Set Point:	-0.205	Pitch Set Point:	0.052	Yaw Set Point:	-0.002	X_WP:	0.000	Y_WP:	0.000	Y_WP:	0.500	X:	0.102	Y:	-0.026	Z:	0.483	yaw:	0.131	yaw rate:	-10.881	Roll:	4.652	Pitch:	0.108	Yaw:	1.690	Thrust:	59.720
Time:	2.265	Roll Set Point:	-0.204	Pitch Set Point:	0.049	Yaw Set Point:	-0.002	X_WP:	0.000	Y_WP:	0.000	Y_WP:	0.500	X:	0.102	Y:	-0.024	Z:	0.490	yaw:	0.127	yaw rate:	0.411	Roll:	3.579	Pitch:	3.438	Yaw:	-0.845	Thrust:	43.150
Time:	2.278	Roll Set Point:	-0.203	Pitch Set Point:	0.047	Yaw Set Point:	-0.003	X_WP:	0.000	Y_WP:	0.000	Y_WP:	0.500	X:	0.102	Y:	-0.023	Z:	0.493	yaw:	0.154	yaw rate:	-2.726	Roll:	4.562	Pitch:	0.362	Yaw:	-0.389	Thrust:	69.929
Time:	2.297	Roll Set Point:	-0.202	Pitch Set Point:	0.046	Yaw Set Point:	-0.004	X_WP:	0.000	Y_WP:	0.000	Y_WP:	0.500	X:	0.101	Y:	-0.023	Z:	0.496	yaw:	0.246	yaw rate:	-9.169	Roll:	5.414	Pitch:	-0.858	Yaw:	0.011	Thrust:	100.000
Time:	2.313	Roll Set Point:	-0.201	Pitch Set Point:	0.043	Yaw Set Point:	-0.005	X_WP:	0.000	Y_WP:	0.000	Y_WP:	0.500	X:	0.101	Y:	-0.021	Z:	0.503	yaw:	0.267	yaw rate:	3.436	Roll:	4.508	Pitch:	1.805	Yaw:	-0.565	Thrust:	73.849
Time:	2.325	Roll Set Point:	-0.200	Pitch Set Point:	0.040	Yaw Set Point:	-0.006	X_WP:	0.000	Y_WP:	0.000	Y_WP:	0.500	X:	0.100	Y:	-0.020	Z:	0.509	yaw:	0.369	yaw rate:	-10.186	Roll:	4.445	Pitch:	1.340	Yaw:	1.570	Thrust:	60.174
Time:	2.335	Roll Set Point:	-0.200	Pitch Set Point:	0.038	Yaw Set Point:	-0.006	X_WP:	0.000	Y_WP:	0.000	Y_WP:	0.500	X:	0.100	Y:	-0.019	Z:	0.513	yaw:	0.345	yaw rate:	2.340	Roll:	4.019	Pitch:	1.426	Yaw:	-0.962	Thrust:	47.067
Time:	2.346	Roll Set Point:	-0.199	Pitch Set Point:	0.037	Yaw Set Point:	-0.008	X_WP:	0.000	Y_WP:	0.000	Y_WP:	0.500	X:	0.100	Y:	-0.018	Z:	0.516	yaw:	0.466	yaw rate:	-12.052	Roll:	4.252	Pitch:	-0.042	Yaw:	2.773	Thrust:	51.044
Time:	2.364	Roll Set Point:	-0.199	Pitch Set Point:	0.036	Yaw Set Point:	-0.006	X_WP:	0.000	Y_WP:	0.000	Y_WP:	0.500	X:	0.099	Y:	-0.017	Z:	0.519	yaw:	0.345	yaw rate:	12.115	Roll:	5.160	Pitch:	0.117	Yaw:	-2.771	Thrust:	100.000
Time:	2.382	Roll Set Point:	-0.198	Pitch Set Point:	0.033	Yaw Set Point:	-0.006	X_WP:	0.000	Y_WP:	0.000	Y_WP:	0.500	X:	0.099	Y:	-0.016	Z:	0.527	yaw:	0.324	yaw rate:	6.221	Roll:	4.959	Pitch:	1.002	Yaw:	-1.354	Thrust:	93.209
Time:	2.393	Roll Set Point:	-0.197	Pitch Set Point:	0.032	Yaw Set Point:	-0.008	X_WP:	0.000	Y_WP:	0.000	Y_WP:	0.500	X:	0.099	Y:	-0.015	Z:	0.530	yaw:	0.439	yaw rate:	-11.591	Roll:	4.358	Pitch:	-0.143	Yaw:	2.338	Thrust:	54.655
Time:	2.403	Roll Set Point:	-0.196	Pitch Set Point:	0.031	Yaw Set Point:	-0.009	X_WP:	0.000	Y_WP:	0.000	Y_WP:	0.500	X:	0.098	Y:	-0.015	Z:	0.534	yaw:	0.502	yaw rate:	-6.211	Roll:	4.044	Pitch:	0.182	Yaw:	1.496	Thrust:	44.288
Time:	2.419	Roll Set Point:	-0.196	Pitch Set Point:	0.029	Yaw Set Point:	-0.008	X_WP:	0.000	Y_WP:	0.000	Y_WP:	0.500	X:	0.098	Y:	-0.014	Z:	0.538	yaw:	0.457	yaw rate:	4.462	Roll:	4.836	Pitch:	0.131	Yaw:	-1.392	Thrust:	82.720
Time:	2.437	Roll Set Point:	-0.195	Pitch Set Point:	0.029	Yaw Set Point:	-0.009	X_WP:	0.000	Y_WP:	0.000	Y_WP:	0.500	X:	0.098	Y:	-0.014	Z:	0.542	yaw:	0.511	yaw rate:	-5.396	Roll:	5.099	Pitch:	-0.752	Yaw:	0.075	Thrust:	95.886
Time:	2.454	Roll Set Point:	-0.193	Pitch Set Point:	0.026	Yaw Set Point:	-0.009	X_WP:	0.000	Y_WP:	0.000	Y_WP:	0.500	X:	0.097	Y:	-0.012	Z:	0.555	yaw:	0.504	yaw rate:	-4.976	Roll:	4.045	Pitch:	1.391	Yaw:	-0.805	Thrust:	70.312
Time:	2.465	Roll Set Point:	-0.192	Pitch Set Point:	0.024	Yaw Set Point:	-0.011	X_WP:	0.000	Y_WP:	0.000	Y_WP:	0.500	X:	0.096	Y:	-0.012	Z:	0.564	yaw:	0.609	yaw rate:	-10.552	Roll:	3.109	Pitch:	0.681	Yaw:	2.439	Thrust:	31.137
Time:	2.477	Roll Set Point:	-0.191	Pitch Set Point:	0.023	Yaw Set Point:	-0.013	X_WP:	0.000	Y_WP:	0.000	Y_WP:	0.500	X:	0.095	Y:	-0.011	Z:	0.572	yaw:	0.722	yaw rate:	-21.540	Roll:	3.334	Pitch:	0.016	Yaw:	2.335	Thrust:	43.849
Time:	2.494	Roll Set Point:	-0.190	Pitch Set Point:	0.022	Yaw Set Point:	-0.010	X_WP:	0.000	Y_WP:	0.000	Y_WP:	0.500	X:	0.095	Y:	-0.010	Z:	0.577	yaw:	0.556	yaw rate:	16.610	Roll:	4.582	Pitch:	0.219	Yaw:	-3.159	Thrust:	88.593
Time:	2.510	Roll Set Point:	-0.188	Pitch Set Point:	0.021	Yaw Set Point:	-0.012	X_WP:	0.000	Y_WP:	0.000	Y_WP:	0.500	X:	0.094	Y:	-0.010	Z:	0.585	yaw:	0.688	yaw rate:	-13.265	Roll:	4.217	Pitch:	-0.766	Yaw:	2.047	Thrust:	63.034
Time:	2.520	Roll Set Point:	-0.187	Pitch Set Point:	0.021	Yaw Set Point:	-0.012	X_WP:	0.000	Y_WP:	0.000	Y_WP:	0.500	X:	0.094	Y:	-0.010	Z:	0.590	yaw:	0.670	yaw rate:	1.854	Roll:	3.642	Pitch:	-0.051	Yaw:	-0.396	Thrust:	41.655
Time:	2.531	Roll Set Point:	-0.187	Pitch Set Point:	0.020	Yaw Set Point:	-0.008	X_WP:	0.000	Y_WP:	0.000	Y_WP:	0.500	X:	0.094	Y:	-0.009	Z:	0.594	yaw:	0.478	yaw rate:	19.204	Roll:	4.187	Pitch:	0.975	Yaw:	-4.914	Thrust:	47.100
Time:	2.542	Roll Set Point:	-0.186	Pitch Set Point:	0.020	Yaw Set Point:	-0.013	X_WP:	0.000	Y_WP:	0.000	Y_WP:	0.500	X:	0.093	Y:	-0.009	Z:	0.598	yaw:	0.743	yaw rate:	-26.529	Roll:	3.242	Pitch:	-1.911	Yaw:	6.453	Thrust:	45.832
Time:	2.559	Roll Set Point:	-0.185	Pitch Set Point:	0.020	Yaw Set Point:	-0.014	X_WP:	0.000	Y_WP:	0.000	Y_WP:	0.500	X:	0.093	Y:	-0.009	Z:	0.602	yaw:	0.830	yaw rate:	-8.719	Roll:	4.703	Pitch:	-1.119	Yaw:	1.187	Thrust:	85.215
Time:	2.578	Roll Set Point:	-0.185	Pitch Set Point:	0.019	Yaw Set Point:	-0.013	X_WP:	0.000	Y_WP:	0.000	Y_WP:	0.500	X:	0.092	Y:	-0.009	Z:	0.606	yaw:	0.762	yaw rate:	6.838	Roll:	4.444	Pitch:	-0.638	Yaw:	-1.416	Thrust:	100.000
Time:	2.590	Roll Set Point:	-0.182	Pitch Set Point:	0.018	Yaw Set Point:	-0.014	X_WP:	0.000	Y_WP:	0.000	Y_WP:	0.500	X:	0.091	Y:	-0.008	Z:	0.617	yaw:	0.808	yaw rate:	-0.473	Roll:	3.452	Pitch:	-0.247	Yaw:	1.235	Thrust:	24.176
Time:	2.601	Roll Set Point:	-0.182	Pitch Set Point:	0.019	Yaw Set Point:	-0.017	X_WP:	0.000	Y_WP:	0.000	Y_WP:	0.500	X:	0.091	Y:	-0.009	Z:	0.621	yaw:	0.955	yaw rate:	-14.771	Roll:	3.997	Pitch:	-1.712	Yaw:	4.107	Thrust:	47.847
Time:	2.612	Roll Set Point:	-0.181	Pitch Set Point:	0.018	Yaw Set Point:	-0.016	X_WP:	0.000	Y_WP:	0.000	Y_WP:	0.500	X:	0.091	Y:	-0.008	Z:	0.624	yaw:	0.895	yaw rate:	6.047	Roll:	3.678	Pitch:	-0.109	Yaw:	-1.056	Thrust:	46.278
Time:	2.629	Roll Set Point:	-0.180	Pitch Set Point:	0.018	Yaw Set Point:	-0.015	X_WP:	0.000	Y_WP:	0.000	Y_WP:	0.500	X:	0.090	Y:	-0.008	Z:	0.628	yaw:	0.872	yaw rate:	2.295	Roll:	4.825	Pitch:	-1.111	Yaw:	-0.507	Thrust:	89.969
Time:	2.643	Roll Set Point:	-0.180	Pitch Set Point:	0.018	Yaw Set Point:	-0.014	X_WP:	0.000	Y_WP:	0.000	Y_WP:	0.500	X:	0.090	Y:	-0.008	Z:	0.631	yaw:	0.805	yaw rate:	6.672	Roll:	3.924	Pitch:	-0.421	Yaw:	-1.227	Thrust:	63.551
Time:	2.654	Roll Set Point:	-0.179	Pitch Set Point:	0.018	Yaw Set Point:	-0.016	X_WP:	0.000	Y_WP:	0.000	Y_WP:	0.500	X:	0.090	Y:	-0.008	Z:	0.634	yaw:	0.907	yaw rate:	-10.140	Roll:	3.979	Pitch:	-1.606	Yaw:	2.812	Thrust:	46.265
Time:	2.665	Roll Set Point:	-0.178	Pitch Set Point:	0.018	Yaw Set Point:	-0.018	X_WP:	0.000	Y_WP:	0.000	Y_WP:	0.500	X:	0.089	Y:	-0.008	Z:	0.640	yaw:	1.040	yaw rate:	-13.288	Roll:	3.255	Pitch:	-1.601	Yaw:	3.680	Thrust:	37.832
Time:	2.678	Roll Set Point:	-0.177	Pitch Set Point:	0.018	Yaw Set Point:	-0.017	X_WP:	0.000	Y_WP:	0.000	Y_WP:	0.500	X:	0.089	Y:	-0.008	Z:	0.642	yaw:	0.965	yaw rate:	7.458	Roll:	3.898	Pitch:	-0.512	Yaw:	-1.160	Thrust:	57.046
Time:	2.693	Roll Set Point:	-0.177	Pitch Set Point:	0.018	Yaw Set Point:	-0.019	X_WP:	0.000	Y_WP:	0.000	Y_WP:	0.500	X:	0.088	Y:	-0.008	Z:	0.645	yaw:	1.084	yaw rate:	-11.935	Roll:	4.487	Pitch:	-1.718	Yaw:	2.427	Thrust:	77.186
Time:	2.707	Roll Set Point:	-0.176	Pitch Set Point:	0.019	Yaw Set Point:	-0.020	X_WP:	0.000	Y_WP:	0.000	Y_WP:	0.500	X:	0.088	Y:	-0.008	Z:	0.649	yaw:	1.144	yaw rate:	-10.733	Roll:	3.774	Pitch:	-1.386	Yaw:	1.632	Thrust:	61.100
Time:	2.718	Roll Set Point:	-0.175	Pitch Set Point:	0.018	Yaw Set Point:	-0.019	X_WP:	0.000	Y_WP:	0.000	Y_WP:	0.500	X:	0.088	Y:	-0.008	Z:	0.651	yaw:	1.076	yaw rate:	6.807	Roll:	3.733	Pitch:	-0.004	Yaw:	-0.994	Thrust:	45.884
Time:	2.728	Roll Set Point:	-0.175	Pitch Set Point:	0.018	Yaw Set Point:	-0.021	X_WP:	0.000	Y_WP:	0.000	Y_WP:	0.500	X:	0.087	Y:	-0.008	Z:	0.653	yaw:	1.179	yaw rate:	-10.266	Roll:	3.895	Pitch:	-1.668	Yaw:	3.552	Thrust:	43.771
Time:	2.738	Roll Set Point:	-0.174	Pitch Set Point:	0.019	Yaw Set Point:	-0.022	X_WP:	0.000	Y_WP:	0.000	Y_WP:	0.500	X:	0.087	Y:	-0.008	Z:	0.654	yaw:	1.244	yaw rate:	-6.588	Roll:	3.867	Pitch:	-1.353	Yaw:	2.700	Thrust:	44.058
Time:	2.761	Roll Set Point:	-0.174	Pitch Set Point:	0.019	Yaw Set Point:	-0.021	X_WP:	0.000	Y_WP:	0.000	Y_WP:	0.500	X:	0.087	Y:	-0.008	Z:	0.655	yaw:	1.206	yaw rate:	3.857	Roll:	5.357	Pitch:	-1.533	Yaw:	-0.513	Thrust:	100.000
Time:	2.776	Roll Set Point:	-0.173	Pitch Set Point:	0.019	Yaw Set Point:	-0.022	X_WP:	0.000	Y_WP:	0.000	Y_WP:	0.500	X:	0.087	Y:	-0.008	Z:	0.656	yaw:	1.260	yaw rate:	-5.373	Roll:	4.094	Pitch:	-1.291	Yaw:	1.711	Thrust:	63.611
Time:	2.788	Roll Set Point:	-0.172	Pitch Set Point:	0.019	Yaw Set Point:	-0.022	X_WP:	0.000	Y_WP:	0.000	Y_WP:	0.500	X:	0.086	Y:	-0.008	Z:	0.658	yaw:	1.271	yaw rate:	4.825	Roll:	3.807	Pitch:	-1.182	Yaw:	1.126	Thrust:	57.647
Time:	2.798	Roll Set Point:	-0.172	Pitch Set Point:	0.019	Yaw Set Point:	-0.022	X_WP:	0.000	Y_WP:	0.000	Y_WP:	0.500	X:	0.086	Y:	-0.009	Z:	0.658	yaw:	1.278	yaw rate:	-0.713	Roll:	4.050	Pitch:	-1.022	Yaw:	1.227	Thrust:	51.297
Time:	2.810	Roll Set Point:	-0.171	Pitch Set Point:	0.019	Yaw Set Point:	-0.022	X_WP:	0.000	Y_WP:	0.000	Y_WP:	0.500	X:	0.086	Y:	-0.009	Z:	0.658	yaw:	1.275	yaw rate:	0.267	Roll:	4.133	Pitch:	-0.984	Yaw:	0.875	Thrust:	57.449
Time:	2.836	Roll Set Point:	-0.171	Pitch Set Point:	0.019	Yaw Set Point:	-0.023	X_WP:	0.000	Y_WP:	0.000	Y_WP:	0.500	X:	0.086	Y:	-0.009	Z:	0.658	yaw:	1.312	yaw rate:	-3.670	Roll:	4.230	Pitch:	-1.224	Yaw:	0.612	Thrust:	66.467
Time:	2.852	Roll Set Point:	-0.171	Pitch Set Point:	0.019	Yaw Set Point:	-0.025	X_WP:	0.000	Y_WP:	0.000	Y_WP:	0.500	X:	0.086	Y:	-0.009	Z:	0.656	yaw:	1.428	yaw rate:	-11.574	Roll:	6.172	Pitch:	-2.220	Yaw:	1.975	Thrust:	100.000
Time:	2.863	Roll Set Point:	-0.170	Pitch Set Point:	0.019	Yaw Set Point:	-0.026	X_WP:	0.000	Y_WP:	0.000	Y_WP:	0.500	X:	0.085	Y:	-0.009	Z:	0.653	yaw:	1.510	yaw rate:	-10.852	Roll:	4.146	Pitch:	-1.250	Yaw:	3.279	Thrust:	67.296
Time:	2.877	Roll Set Point:	-0.170	Pitch Set Point:	0.019	Yaw Set Point:	-0.025	X_WP:	0.000	Y_WP:	0.000	Y_WP:	0.500	X:	0.085	Y:	-0.009	Z:	0.652	yaw:	1.410	yaw rate:	10.044	Roll:	4.523	Pitch:	-0.531	Yaw:	-0.940	Thrust:	71.567
Time:	2.897	Roll Set Point:	-0.170	Pitch Set Point:	0.019	Yaw Set Point:	-0.026	X_WP:	0.000	Y_WP:	0.000	Y_WP:	0.500	X:	0.085	Y:	-0.009	Z:	0.651	yaw:	1.506	yaw rate:	-9.626	Roll:	5.173	Pitch:	-1.673	Yaw:	1.908	Thrust:	100.000
Time:	2.916	Roll Set Point:	-0.170	Pitch Set Point:	0.019	Yaw Set Point:	-0.024	X_WP:	0.000	Y_WP:	0.000	Y_WP:	0.500	X:	0.085	Y:	-0.008	Z:	0.646	yaw:	1.381	yaw rate:	9.573	Roll:	4.934	Pitch:	-0.755	Yaw:	-1.138	Thrust:	100.000
Time:	2.927	Roll Set Point:	-0.170	Pitch Set Point:	0.019	Yaw Set Point:	-0.025	X_WP:	0.000	Y_WP:	0.000	Y_WP:	0.500	X:	0.085	Y:	-0.008	Z:	0.645	yaw:	1.406	yaw rate:	-2.477	Roll:	4.809	Pitch:	-1.074	Yaw:	1.721	Thrust:	67.155
Time:	2.937	Roll Set Point:	-0.170	Pitch Set Point:	0.018	Yaw Set Point:	-0.023	X_WP:	0.000	Y_WP:	0.000	Y_WP:	0.500	X:	0.085	Y:	-0.008	Z:	0.643	yaw:	1.330	yaw rate:	7.620	Roll:	4.211	Pitch:	-0.197	Yaw:	-0.828	Thrust:	53.404
Time:	2.949	Roll Set Point:	-0.170	Pitch Set Point:	0.018	Yaw Set Point:	-0.025	X_WP:	0.000	Y_WP:	0.000	Y_WP:	0.500	X:	0.085	Y:	-0.008	Z:	0.642	yaw:	1.414	yaw rate:	-8.392	Roll:	4.570	Pitch:	-1.276	Yaw:	2.966	Thrust:	61.450
Time:	2.965	Roll Set Point:	-0.170	Pitch Set Point:	0.018	Yaw Set Point:	-0.022	X_WP:	0.000	Y_WP:	0.000	Y_WP:	0.500	X:	0.085	Y:	-0.008	Z:	0.641	yaw:	1.256	yaw rate:	15.749	Roll:	4.858	Pitch:	-0.374	Yaw:	-1.962	Thrust:	83.957
Time:	2.982	Roll Set Point:	-0.169	Pitch Set Point:	0.017	Yaw Set Point:	-0.020	X_WP:	0.000	Y_WP:	0.000	Y_WP:	0.500	X:	0.085	Y:	-0.008	Z:	0.639	yaw:	1.135	yaw rate:	12.193	Roll:	5.107	Pitch:	-0.618	Yaw:	-1.446	Thrust:	91.508
Time:	2.994	Roll Set Point:	-0.170	Pitch Set Point:	0.017	Yaw Set Point:	-0.021	X_WP:	0.000	Y_WP:	0.000	Y_WP:	0.500	X:	0.085	Y:	-0.008	Z:	0.637	yaw:	1.226	yaw rate:	-8.594	Roll:	4.576	Pitch:	-1.401	Yaw:	2.954	Thrust:	57.560
Time:	3.005	Roll Set Point:	-0.169	Pitch Set Point:	0.017	Yaw Set Point:	-0.018	X_WP:	0.000	Y_WP:	0.000	Y_WP:	0.500	X:	0.085	Y:	-0.008	Z:	0.637	yaw:	1.046	yaw rate:	17.920	Roll:	4.343	Pitch:	0.484	Yaw:	-3.892	Thrust:	54.854
Time:	3.018	Roll Set Point:	-0.169	Pitch Set Point:	0.016	Yaw Set Point:	-0.018	X_WP:	0.000	Y_WP:	0.000	Y_WP:	0.500	X:	0.085	Y:	-0.007	Z:	0.636	yaw:	1.056	yaw rate:	-0.925	Roll:	4.807	Pitch:	-0.820	Yaw:	0.669	Thrust:	73.402
Time:	3.034	Roll Set Point:	-0.169	Pitch Set Point:	0.016	Yaw Set Point:	-0.018	X_WP:	0.000	Y_WP:	0.000	Y_WP:	0.500	X:	0.085	Y:	-0.007	Z:	0.636	yaw:	1.021	yaw rate:	3.446	Roll:	4.895	Pitch:	-0.962	Yaw:	-0.174	Thrust:	75.714
Time:	3.052	Roll Set Point:	-0.169	Pitch Set Point:	0.016	Yaw Set Point:	-0.017	X_WP:	0.000	Y_WP:	0.000	Y_WP:	0.500	X:	0.085	Y:	-0.007	Z:	0.635	yaw:	0.961	yaw rate:	6.001	Roll:	5.118	Pitch:	-1.115	Yaw:	-0.742	Thrust:	97.075
Time:	3.063	Roll Set Point:	-0.169	Pitch Set Point:	0.015	Yaw Set Point:	-0.015	X_WP:	0.000	Y_WP:	0.000	Y_WP:	0.500	X:	0.085	Y:	-0.007	Z:	0.635	yaw:	0.876	yaw rate:	0.428	Roll:	4.316	Pitch:	-0.057	Yaw:	-1.527	Thrust:	52.713
Time:	3.074	Roll Set Point:	-0.169	Pitch Set Point:	0.015	Yaw Set Point:	-0.015	X_WP:	0.000	Y_WP:	0.000	Y_WP:	0.500	X:	0.085	Y:	-0.007	Z:	0.635	yaw:	0.845	yaw rate:	3.046	Roll:	4.360	Pitch:	-0.543	Yaw:	-0.265	Thrust:	51.654
Time:	3.097	Roll Set Point:	-0.169	Pitch Set Point:	0.014	Yaw Set Point:	-0.012	X_WP:	0.000	Y_WP:	0.000	Y_WP:	0.500	X:	0.084	Y:	-0.007	Z:	0.636	yaw:	0.684	yaw rate:	16.171	Roll:	5.244	Pitch:	-0.836	Yaw:	-2.392	Thrust:	100.000
Time:	3.109	Roll Set Point:	-0.169	Pitch Set Point:	0.014	Yaw Set Point:	-0.012	X_WP:	0.000	Y_WP:	0.000	Y_WP:	0.500	X:	0.084	Y:	-0.007	Z:	0.636	yaw:	0.706	yaw rate:	-2.298	Roll:	4.660	Pitch:	-1.029	Yaw:	0.704	Thrust:	55.940
Time:	3.120	Roll Set Point:	-0.168	Pitch Set Point:	0.014	Yaw Set Point:	-0.012	X_WP:	0.000	Y_WP:	0.000	Y_WP:	0.500	X:	0.084	Y:	-0.007	Z:	0.637	yaw:	0.692	yaw rate:	1.443	Roll:	4.227	Pitch:	-0.731	Yaw:	-0.089	Thrust:	49.476
Time:	3.131	Roll Set Point:	-0.168	Pitch Set Point:	0.014	Yaw Set Point:	-0.010	X_WP:	0.000	Y_WP:	0.000	Y_WP:	0.500	X:	0.084	Y:	-0.007	Z:	0.637	yaw:	0.601	yaw rate:	9.077	Roll:	4.061	Pitch:	-0.096	Yaw:	-2.054	Thrust:	47.667
Time:	3.145	Roll Set Point:	-0.168	Pitch Set Point:	0.014	Yaw Set Point:	-0.011	X_WP:	0.000	Y_WP:	0.000	Y_WP:	0.500	X:	0.084	Y:	-0.006	Z:	0.638	yaw:	0.647	yaw rate:	-5.409	Roll:	4.431	Pitch:	-0.967	Yaw:	0.848	Thrust:	64.018
Time:	3.164	Roll Set Point:	-0.168	Pitch Set Point:	0.014	Yaw Set Point:	-0.011	X_WP:	0.000	Y_WP:	0.000	Y_WP:	0.500	X:	0.084	Y:	-0.006	Z:	0.639	yaw:	0.606	yaw rate:	4.040	Roll:	5.016	Pitch:	-1.086	Yaw:	-0.928	Thrust:	86.634
Time:	3.182	Roll Set Point:	-0.167	Pitch Set Point:	0.013	Yaw Set Point:	-0.009	X_WP:	0.000	Y_WP:	0.000	Y_WP:	0.500	X:	0.084	Y:	-0.006	Z:	0.640	yaw:	0.494	yaw rate:	11.191	Roll:	4.617	Pitch:	-0.662	Yaw:	-2.097	Thrust:	85.516
Time:	3.193	Roll Set Point:	-0.167	Pitch Set Point:	0.013	Yaw Set Point:	-0.009	X_WP:	0.000	Y_WP:	0.000	Y_WP:	0.500	X:	0.083	Y:	-0.006	Z:	0.641	yaw:	0.527	yaw rate:	-5.159	Roll:	4.125	Pitch:	-0.598	Yaw:	0.791	Thrust:	51.399
Time:	3.203	Roll Set Point:	-0.167	Pitch Set Point:	0.013	Yaw Set Point:	-0.011	X_WP:	0.000	Y_WP:	0.000	Y_WP:	0.500	X:	0.083	Y:	-0.006	Z:	0.641	yaw:	0.624	yaw rate:	-9.699	Roll:	4.147	Pitch:	-1.334	Yaw:	2.765	Thrust:	44.653
Time:	3.215	Roll Set Point:	-0.166	Pitch Set Point:	0.013	Yaw Set Point:	-0.011	X_WP:	0.000	Y_WP:	0.000	Y_WP:	0.500	X:	0.083	Y:	-0.006	Z:	0.641	yaw:	0.653	yaw rate:	-2.904	Roll:	4.232	Pitch:	-0.932	Yaw:	0.782	Thrust:	52.269
Time:	3.234	Roll Set Point:	-0.166	Pitch Set Point:	0.013	Yaw Set Point:	-0.011	X_WP:	0.000	Y_WP:	0.000	Y_WP:	0.500	X:	0.083	Y:	-0.006	Z:	0.641	yaw:	0.641	yaw rate:	1.201	Roll:	5.047	Pitch:	-1.270	Yaw:	-0.466	Thrust:	93.544
Time:	3.253	Roll Set Point:	-0.166	Pitch Set Point:	0.013	Yaw Set Point:	-0.009	X_WP:	0.000	Y_WP:	0.000	Y_WP:	0.500	X:	0.083	Y:	-0.006	Z:	0.641	yaw:	0.492	yaw rate:	14.890	Roll:	5.210	Pitch:	-0.952	Yaw:	-2.554	Thrust:	88.245
Time:	3.263	Roll Set Point:	-0.166	Pitch Set Point:	0.012	Yaw Set Point:	-0.008	X_WP:	0.000	Y_WP:	0.000	Y_WP:	0.500	X:	0.083	Y:	-0.006	Z:	0.641	yaw:	0.451	yaw rate:	4.069	Roll:	4.161	Pitch:	-0.643	Yaw:	-1.046	Thrust:	48.328
Time:	3.276	Roll Set Point:	-0.165	Pitch Set Point:	0.013	Yaw Set Point:	-0.011	X_WP:	0.000	Y_WP:	0.000	Y_WP:	0.500	X:	0.083	Y:	-0.006	Z:	0.641	yaw:	0.657	yaw rate:	-20.643	Roll:	3.666	Pitch:	-1.840	Yaw:	4.658	Thrust:	54.389
Time:	3.297	Roll Set Point:	-0.165	Pitch Set Point:	0.013	Yaw Set Point:	-0.012	X_WP:	0.000	Y_WP:	0.000	Y_WP:	0.500	X:	0.083	Y:	-0.006	Z:	0.641	yaw:	0.677	yaw rate:	-1.962	Roll:	5.364	Pitch:	-1.602	Yaw:	-0.197	Thrust:	100.000
Time:	3.308	Roll Set Point:	-0.165	Pitch Set Point:	0.013	Yaw Set Point:	-0.012	X_WP:	0.000	Y_WP:	0.000	Y_WP:	0.500	X:	0.083	Y:	-0.006	Z:	0.641	yaw:	0.680	yaw rate:	-0.264	Roll:	4.240	Pitch:	-0.831	Yaw:	0.329	Thrust:	48.877
Time:	3.319	Roll Set Point:	-0.164	Pitch Set Point:	0.013	Yaw Set Point:	-0.011	X_WP:	0.000	Y_WP:	0.000	Y_WP:	0.500	X:	0.082	Y:	-0.006	Z:	0.641	yaw:	0.647	yaw rate:	0.338	Roll:	3.641	Pitch:	-0.709	Yaw:	-0.554	Thrust:	47.059
Time:	3.330	Roll Set Point:	-0.164	Pitch Set Point:	0.013	Yaw Set Point:	-0.012	X_WP:	0.000	Y_WP:	0.000	Y_WP:	0.500	X:	0.082	Y:	-0.006	Z:	0.641	yaw:	0.660	yaw rate:	-1.320	Roll:	4.112	Pitch:	-0.958	Yaw:	0.602	Thrust:	49.201
Time:	3.341	Roll Set Point:	-0.164	Pitch Set Point:	0.012	Yaw Set Point:	-0.010	X_WP:	0.000	Y_WP:	0.000	Y_WP:	0.500	X:	0.082	Y:	-0.006	Z:	0.640	yaw:	0.574	yaw rate:	8.623	Roll:	3.752	Pitch:	-0.164	Yaw:	-1.920	Thrust:	49.302
Time:	3.377	Roll Set Point:	-0.164	Pitch Set Point:	0.013	Yaw Set Point:	-0.011	X_WP:	0.000	Y_WP:	0.000	Y_WP:	0.500	X:	0.082	Y:	-0.006	Z:	0.640	yaw:	0.653	yaw rate:	-7.924	Roll:	4.756	Pitch:	-1.410	Yaw:	-0.634	Thrust:	86.322
Time:	3.388	Roll Set Point:	-0.163	Pitch Set Point:	0.013	Yaw Set Point:	-0.015	X_WP:	0.000	Y_WP:	0.000	Y_WP:	0.500	X:	0.082	Y:	-0.006	Z:	0.638	yaw:	0.861	yaw rate:	-11.550	Roll:	6.064	Pitch:	-2.434	Yaw:	5.077	Thrust:	100.000
Time:	3.398	Roll Set Point:	-0.163	Pitch Set Point:	0.013	Yaw Set Point:	-0.013	X_WP:	0.000	Y_WP:	0.000	Y_WP:	0.500	X:	0.081	Y:	-0.006	Z:	0.637	yaw:	0.729	yaw rate:	13.171	Roll:	3.892	Pitch:	-0.133	Yaw:	-2.881	Thrust:	48.880
Time:	3.412	Roll Set Point:	-0.163	Pitch Set Point:	0.013	Yaw Set Point:	-0.013	X_WP:	0.000	Y_WP:	0.000	Y_WP:	0.500	X:	0.081	Y:	-0.006	Z:	0.636	yaw:	0.741	yaw rate:	-1.238	Roll:	4.403	Pitch:	-1.133	Yaw:	0.458	Thrust:	63.838
Time:	3.430	Roll Set Point:	-0.163	Pitch Set Point:	0.013	Yaw Set Point:	-0.013	X_WP:	0.000	Y_WP:	0.000	Y_WP:	0.500	X:	0.081	Y:	-0.006	Z:	0.635	yaw:	0.752	yaw rate:	-1.090	Roll:	4.969	Pitch:	-1.325	Yaw:	0.102	Thrust:	87.183
Time:	3.450	Roll Set Point:	-0.162	Pitch Set Point:	0.013	Yaw Set Point:	-0.013	X_WP:	0.000	Y_WP:	0.000	Y_WP:	0.500	X:	0.081	Y:	-0.006	Z:	0.632	yaw:	0.750	yaw rate:	3.425	Roll:	5.008	Pitch:	-1.510	Yaw:	-0.152	Thrust:	95.581
Time:	3.461	Roll Set Point:	-0.162	Pitch Set Point:	0.013	Yaw Set Point:	-0.015	X_WP:	0.000	Y_WP:	0.000	Y_WP:	0.500	X:	0.081	Y:	-0.006	Z:	0.631	yaw:	0.878	yaw rate:	-12.858	Roll:	4.504	Pitch:	-1.668	Yaw:	3.458	Thrust:	52.363
Time:	3.472	Roll Set Point:	-0.162	Pitch Set Point:	0.013	Yaw Set Point:	-0.015	X_WP:	0.000	Y_WP:	0.000	Y_WP:	0.500	X:	0.081	Y:	-0.006	Z:	0.629	yaw:	0.846	yaw rate:	3.248	Roll:	4.362	Pitch:	-0.833	Yaw:	-0.249	Thrust:	52.605
Time:	3.489	Roll Set Point:	-0.162	Pitch Set Point:	0.013	Yaw Set Point:	-0.014	X_WP:	0.000	Y_WP:	0.000	Y_WP:	0.500	X:	0.081	Y:	-0.006	Z:	0.627	yaw:	0.774	yaw rate:	8.368	Roll:	4.459	Pitch:	-0.893	Yaw:	-1.036	Thrust:	80.214
Time:	3.508	Roll Set Point:	-0.162	Pitch Set Point:	0.013	Yaw Set Point:	-0.013	X_WP:	0.000	Y_WP:	0.000	Y_WP:	0.500	X:	0.081	Y:	-0.006	Z:	0.625	yaw:	0.732	yaw rate:	4.201	Roll:	5.264	Pitch:	-1.395	Yaw:	-0.687	Thrust:	93.451
Time:	3.520	Roll Set Point:	-0.162	Pitch Set Point:	0.013	Yaw Set Point:	-0.013	X_WP:	0.000	Y_WP:	0.000	Y_WP:	0.500	X:	0.081	Y:	-0.006	Z:	0.623	yaw:	0.758	yaw rate:	0.215	Roll:	4.620	Pitch:	-1.278	Yaw:	0.923	Thrust:	55.929
Time:	3.531	Roll Set Point:	-0.162	Pitch Set Point:	0.013	Yaw Set Point:	-0.014	X_WP:	0.000	Y_WP:	0.000	Y_WP:	0.500	X:	0.081	Y:	-0.006	Z:	0.623	yaw:	0.819	yaw rate:	-6.109	Roll:	4.335	Pitch:	-1.349	Yaw:	2.040	Thrust:	50.525
Time:	3.542	Roll Set Point:	-0.162	Pitch Set Point:	0.013	Yaw Set Point:	-0.013	X_WP:	0.000	Y_WP:	0.000	Y_WP:	0.500	X:	0.081	Y:	-0.006	Z:	0.622	yaw:	0.725	yaw rate:	9.439	Roll:	4.030	Pitch:	-0.243	Yaw:	-1.866	Thrust:	49.912
Time:	3.563	Roll Set Point:	-0.162	Pitch Set Point:	0.013	Yaw Set Point:	-0.013	X_WP:	0.000	Y_WP:	0.000	Y_WP:	0.500	X:	0.081	Y:	-0.006	Z:	0.621	yaw:	0.721	yaw rate:	0.386	Roll:	4.868	Pitch:	-1.456	Yaw:	-0.282	Thrust:	94.495
Time:	3.582	Roll Set Point:	-0.162	Pitch Set Point:	0.014	Yaw Set Point:	-0.015	X_WP:	0.000	Y_WP:	0.000	Y_WP:	0.500	X:	0.081	Y:	-0.006	Z:	0.620	yaw:	0.855	yaw rate:	-12.171	Roll:	5.239	Pitch:	-1.894	Yaw:	2.112	Thrust:	84.069
Time:	3.595	Roll Set Point:	-0.162	Pitch Set Point:	0.013	Yaw Set Point:	-0.013	X_WP:	0.000	Y_WP:	0.000	Y_WP:	0.500	X:	0.081	Y:	-0.006	Z:	0.619	yaw:	0.769	yaw rate:	8.679	Roll:	4.819	Pitch:	-0.777	Yaw:	-1.408	Thrust:	58.353
Time:	3.607	Roll Set Point:	-0.162	Pitch Set Point:	0.013	Yaw Set Point:	-0.013	X_WP:	0.000	Y_WP:	0.000	Y_WP:	0.500	X:	0.081	Y:	-0.006	Z:	0.618	yaw:	0.738	yaw rate:	0.244	Roll:	4.523	Pitch:	-0.812	Yaw:	-0.331	Thrust:	55.666
Time:	3.633	Roll Set Point:	-0.162	Pitch Set Point:	0.014	Yaw Set Point:	-0.015	X_WP:	0.000	Y_WP:	0.000	Y_WP:	0.500	X:	0.081	Y:	-0.006	Z:	0.617	yaw:	0.854	yaw rate:	-11.632	Roll:	4.831	Pitch:	-1.985	Yaw:	0.883	Thrust:	100.000
Time:	3.652	Roll Set Point:	-0.162	Pitch Set Point:	0.013	Yaw Set Point:	-0.012	X_WP:	0.000	Y_WP:	0.000	Y_WP:	0.500	X:	0.081	Y:	-0.006	Z:	0.616	yaw:	0.663	yaw rate:	4.534	Roll:	5.833	Pitch:	-0.925	Yaw:	-2.736	Thrust:	91.051
Time:	3.664	Roll Set Point:	-0.162	Pitch Set Point:	0.013	Yaw Set Point:	-0.012	X_WP:	0.000	Y_WP:	0.000	Y_WP:	0.500	X:	0.081	Y:	-0.006	Z:	0.616	yaw:	0.687	yaw rate:	-2.409	Roll:	4.931	Pitch:	-1.197	Yaw:	0.831	Thrust:	53.027
Time:	3.678	Roll Set Point:	-0.162	Pitch Set Point:	0.013	Yaw Set Point:	-0.011	X_WP:	0.000	Y_WP:	0.000	Y_WP:	0.500	X:	0.081	Y:	-0.006	Z:	0.616	yaw:	0.623	yaw rate:	2.798	Roll:	4.337	Pitch:	-0.561	Yaw:	-1.097	Thrust:	60.726
Time:	3.718	Roll Set Point:	-0.162	Pitch Set Point:	0.013	Yaw Set Point:	-0.011	X_WP:	0.000	Y_WP:	0.000	Y_WP:	0.500	X:	0.081	Y:	-0.006	Z:	0.616	yaw:	0.619	yaw rate:	0.465	Roll:	6.630	Pitch:	-2.499	Yaw:	-1.421	Thrust:	100.000
Time:	3.730	Roll Set Point:	-0.162	Pitch Set Point:	0.013	Yaw Set Point:	-0.013	X_WP:	0.000	Y_WP:	0.000	Y_WP:	0.500	X:	0.081	Y:	-0.006	Z:	0.618	yaw:	0.765	yaw rate:	-14.026	Roll:	5.177	Pitch:	-1.685	Yaw:	3.578	Thrust:	50.986
Time:	3.744	Roll Set Point:	-0.162	Pitch Set Point:	0.013	Yaw Set Point:	-0.012	X_WP:	0.000	Y_WP:	0.000	Y_WP:	0.500	X:	0.081	Y:	-0.006	Z:	0.619	yaw:	0.669	yaw rate:	-1.060	Roll:	4.095	Pitch:	-0.208	Yaw:	-1.709	Thrust:	48.799
Time:	3.763	Roll Set Point:	-0.162	Pitch Set Point:	0.012	Yaw Set Point:	-0.012	X_WP:	0.000	Y_WP:	0.000	Y_WP:	0.500	X:	0.081	Y:	-0.006	Z:	0.619	yaw:	0.673	yaw rate:	-0.380	Roll:	4.471	Pitch:	-1.210	Yaw:	-0.053	Thrust:	79.453
Time:	3.779	Roll Set Point:	-0.161	Pitch Set Point:	0.012	Yaw Set Point:	-0.013	X_WP:	0.000	Y_WP:	0.000	Y_WP:	0.500	X:	0.081	Y:	-0.006	Z:	0.621	yaw:	0.758	yaw rate:	1.413	Roll:	5.048	Pitch:	-1.422	Yaw:	1.562	Thrust:	65.520
Time:	3.791	Roll Set Point:	-0.161	Pitch Set Point:	0.012	Yaw Set Point:	-0.013	X_WP:	0.000	Y_WP:	0.000	Y_WP:	0.500	X:	0.081	Y:	-0.006	Z:	0.621	yaw:	0.756	yaw rate:	0.148	Roll:	4.622	Pitch:	-1.043	Yaw:	0.345	Thrust:	51.969
Time:	3.802	Roll Set Point:	-0.161	Pitch Set Point:	0.012	Yaw Set Point:	-0.014	X_WP:	0.000	Y_WP:	0.000	Y_WP:	0.500	X:	0.081	Y:	-0.006	Z:	0.622	yaw:	0.830	yaw rate:	-7.386	Roll:	4.136	Pitch:	-1.097	Yaw:	2.547	Thrust:	39.927
Time:	3.831	Roll Set Point:	-0.161	Pitch Set Point:	0.013	Yaw Set Point:	-0.016	X_WP:	0.000	Y_WP:	0.000	Y_WP:	0.500	X:	0.081	Y:	-0.006	Z:	0.623	yaw:	0.937	yaw rate:	-10.669	Roll:	4.895	Pitch:	-1.646	Yaw:	1.621	Thrust:	75.823
Time:	3.849	Roll Set Point:	-0.161	Pitch Set Point:	0.012	Yaw Set Point:	-0.019	X_WP:	0.000	Y_WP:	0.000	Y_WP:	0.500	X:	0.080	Y:	-0.005	Z:	0.624	yaw:	1.069	yaw rate:	-4.029	Roll:	5.957	Pitch:	-2.093	Yaw:	1.227	Thrust:	100.000
