Time:	0.045	Roll Set Point:	-0.065	Pitch Set Point:	1.775	Yaw Set Point:	-0.080	X_WP:	0.000	Y_WP:	0.000	Y_WP:	0.750	X:	0.068	Y:	-0.886	Z:	0.403	yaw:	4.557	yaw rate:	-43.955	Roll:	-0.076	Pitch:	-25.775	Yaw:	6.363	Thrust:	19.091
Time:	0.061	Roll Set Point:	-0.066	Pitch Set Point:	1.775	Yaw Set Point:	-0.079	X_WP:	0.000	Y_WP:	0.000	Y_WP:	0.750	X:	0.068	Y:	-0.886	Z:	0.403	yaw:	4.537	yaw rate:	2.001	Roll:	0.265	Pitch:	-25.810	Yaw:	6.055	Thrust:	19.723
Time:	0.081	Roll Set Point:	-0.073	Pitch Set Point:	1.775	Yaw Set Point:	-0.071	X_WP:	0.000	Y_WP:	0.000	Y_WP:	0.750	X:	0.068	Y:	-0.886	Z:	0.403	yaw:	4.075	yaw rate:	46.158	Roll:	6.203	Pitch:	-25.836	Yaw:	-0.265	Thrust:	21.029
Time:	0.102	Roll Set Point:	-0.063	Pitch Set Point:	1.775	Yaw Set Point:	-0.081	X_WP:	0.000	Y_WP:	0.000	Y_WP:	0.750	X:	0.068	Y:	-0.886	Z:	0.403	yaw:	4.654	yaw rate:	-57.812	Roll:	-7.154	Pitch:	-25.761	Yaw:	13.760	Thrust:	21.875
Time:	0.120	Roll Set Point:	-0.065	Pitch Set Point:	1.775	Yaw Set Point:	-0.079	X_WP:	0.000	Y_WP:	0.000	Y_WP:	0.750	X:	0.068	Y:	-0.886	Z:	0.403	yaw:	4.555	yaw rate:	9.871	Roll:	1.690	Pitch:	-26.150	Yaw:	5.083	Thrust:	21.853
Time:	0.141	Roll Set Point:	-0.073	Pitch Set Point:	1.775	Yaw Set Point:	-0.071	X_WP:	0.000	Y_WP:	0.000	Y_WP:	0.750	X:	0.068	Y:	-0.886	Z:	0.403	yaw:	4.083	yaw rate:	47.192	Roll:	6.618	Pitch:	-26.136	Yaw:	-0.617	Thrust:	22.917
Time:	0.161	Roll Set Point:	-0.065	Pitch Set Point:	1.775	Yaw Set Point:	-0.080	X_WP:	0.000	Y_WP:	0.000	Y_WP:	0.750	X:	0.068	Y:	-0.886	Z:	0.403	yaw:	4.587	yaw rate:	-50.409	Roll:	-6.721	Pitch:	-25.915	Yaw:	12.903	Thrust:	24.513
Time:	0.181	Roll Set Point:	-0.073	Pitch Set Point:	1.775	Yaw Set Point:	-0.071	X_WP:	0.000	Y_WP:	0.000	Y_WP:	0.750	X:	0.068	Y:	-0.886	Z:	0.403	yaw:	4.085	yaw rate:	50.161	Roll:	6.660	Pitch:	-26.231	Yaw:	-0.589	Thrust:	24.875
Time:	0.201	Roll Set Point:	-0.066	Pitch Set Point:	1.775	Yaw Set Point:	-0.079	X_WP:	0.000	Y_WP:	0.000	Y_WP:	0.750	X:	0.068	Y:	-0.886	Z:	0.403	yaw:	4.543	yaw rate:	-45.725	Roll:	-6.069	Pitch:	-26.006	Yaw:	12.423	Thrust:	25.967
Time:	0.220	Roll Set Point:	-0.073	Pitch Set Point:	1.775	Yaw Set Point:	-0.072	X_WP:	0.000	Y_WP:	0.000	Y_WP:	0.750	X:	0.068	Y:	-0.886	Z:	0.403	yaw:	4.105	yaw rate:	43.743	Roll:	6.484	Pitch:	-26.289	Yaw:	-0.196	Thrust:	25.952
Time:	0.240	Roll Set Point:	-0.073	Pitch Set Point:	1.775	Yaw Set Point:	-0.070	X_WP:	0.000	Y_WP:	0.000	Y_WP:	0.750	X:	0.068	Y:	-0.886	Z:	0.403	yaw:	4.033	yaw rate:	7.198	Roll:	0.855	Pitch:	-26.093	Yaw:	5.014	Thrust:	27.708
Time:	0.260	Roll Set Point:	-0.064	Pitch Set Point:	1.775	Yaw Set Point:	-0.080	X_WP:	0.000	Y_WP:	0.000	Y_WP:	0.750	X:	0.068	Y:	-0.886	Z:	0.403	yaw:	4.608	yaw rate:	-57.521	Roll:	-7.983	Pitch:	-26.059	Yaw:	14.242	Thrust:	28.541
Time:	0.281	Roll Set Point:	-0.063	Pitch Set Point:	1.775	Yaw Set Point:	-0.081	X_WP:	0.000	Y_WP:	0.000	Y_WP:	0.750	X:	0.068	Y:	-0.886	Z:	0.403	yaw:	4.655	yaw rate:	-4.616	Roll:	-0.738	Pitch:	-26.294	Yaw:	7.477	Thrust:	28.766
Time:	0.300	Roll Set Point:	-0.072	Pitch Set Point:	1.775	Yaw Set Point:	-0.072	X_WP:	0.000	Y_WP:	0.000	Y_WP:	0.750	X:	0.068	Y:	-0.886	Z:	0.403	yaw:	4.121	yaw rate:	53.409	Roll:	7.596	Pitch:	-26.678	Yaw:	-0.873	Thrust:	29.542
Time:	0.321	Roll Set Point:	-0.065	Pitch Set Point:	1.775	Yaw Set Point:	-0.079	X_WP:	0.000	Y_WP:	0.000	Y_WP:	0.750	X:	0.068	Y:	-0.886	Z:	0.403	yaw:	4.555	yaw rate:	-43.433	Roll:	-5.613	Pitch:	-26.329	Yaw:	12.087	Thrust:	31.747
Time:	0.340	Roll Set Point:	-0.065	Pitch Set Point:	1.775	Yaw Set Point:	-0.080	X_WP:	0.000	Y_WP:	0.000	Y_WP:	0.750	X:	0.068	Y:	-0.886	Z:	0.403	yaw:	4.595	yaw rate:	-4.042	Roll:	-0.659	Pitch:	-26.397	Yaw:	7.408	Thrust:	31.129
Time:	0.361	Roll Set Point:	-0.065	Pitch Set Point:	1.775	Yaw Set Point:	-0.080	X_WP:	0.000	Y_WP:	0.000	Y_WP:	0.750	X:	0.068	Y:	-0.886	Z:	0.403	yaw:	4.607	yaw rate:	-1.222	Roll:	-0.264	Pitch:	-26.491	Yaw:	7.092	Thrust:	32.415
Time:	0.381	Roll Set Point:	-0.063	Pitch Set Point:	1.774	Yaw Set Point:	-0.081	X_WP:	0.000	Y_WP:	0.000	Y_WP:	0.750	X:	0.068	Y:	-0.886	Z:	0.403	yaw:	4.652	yaw rate:	-4.458	Roll:	-0.989	Pitch:	-26.347	Yaw:	7.601	Thrust:	33.959
Time:	0.401	Roll Set Point:	-0.063	Pitch Set Point:	1.775	Yaw Set Point:	-0.081	X_WP:	0.000	Y_WP:	0.000	Y_WP:	0.750	X:	0.068	Y:	-0.886	Z:	0.403	yaw:	4.663	yaw rate:	-1.094	Roll:	-0.251	Pitch:	-26.516	Yaw:	7.182	Thrust:	33.387
Time:	0.420	Roll Set Point:	-0.073	Pitch Set Point:	1.775	Yaw Set Point:	-0.072	X_WP:	0.000	Y_WP:	0.000	Y_WP:	0.750	X:	0.068	Y:	-0.886	Z:	0.403	yaw:	4.103	yaw rate:	55.985	Roll:	8.050	Pitch:	-26.848	Yaw:	-0.965	Thrust:	34.699
Time:	0.440	Roll Set Point:	-0.066	Pitch Set Point:	1.775	Yaw Set Point:	-0.079	X_WP:	0.000	Y_WP:	0.000	Y_WP:	0.750	X:	0.068	Y:	-0.886	Z:	0.403	yaw:	4.522	yaw rate:	-41.908	Roll:	-5.833	Pitch:	-26.330	Yaw:	12.397	Thrust:	35.904
Time:	0.460	Roll Set Point:	-0.064	Pitch Set Point:	1.775	Yaw Set Point:	-0.080	X_WP:	0.000	Y_WP:	0.000	Y_WP:	0.750	X:	0.068	Y:	-0.886	Z:	0.403	yaw:	4.598	yaw rate:	-7.555	Roll:	-1.347	Pitch:	-26.385	Yaw:	8.065	Thrust:	36.453
Time:	0.480	Roll Set Point:	-0.063	Pitch Set Point:	1.775	Yaw Set Point:	-0.081	X_WP:	0.000	Y_WP:	0.000	Y_WP:	0.750	X:	0.068	Y:	-0.886	Z:	0.403	yaw:	4.657	yaw rate:	-5.939	Roll:	-0.898	Pitch:	-26.516	Yaw:	7.960	Thrust:	37.658
Time:	0.501	Roll Set Point:	-0.073	Pitch Set Point:	1.775	Yaw Set Point:	-0.070	X_WP:	0.000	Y_WP:	0.000	Y_WP:	0.750	X:	0.068	Y:	-0.886	Z:	0.403	yaw:	4.027	yaw rate:	63.013	Roll:	8.681	Pitch:	-26.673	Yaw:	-1.552	Thrust:	38.895
Time:	0.522	Roll Set Point:	-0.065	Pitch Set Point:	1.775	Yaw Set Point:	-0.079	X_WP:	0.000	Y_WP:	0.000	Y_WP:	0.750	X:	0.068	Y:	-0.886	Z:	0.403	yaw:	4.552	yaw rate:	-52.520	Roll:	-6.471	Pitch:	-26.643	Yaw:	13.636	Thrust:	40.138
Time:	0.542	Roll Set Point:	-0.073	Pitch Set Point:	1.775	Yaw Set Point:	-0.072	X_WP:	0.000	Y_WP:	0.000	Y_WP:	0.750	X:	0.068	Y:	-0.886	Z:	0.403	yaw:	4.113	yaw rate:	43.927	Roll:	5.929	Pitch:	-26.654	Yaw:	0.873	Thrust:	40.266
Time:	0.560	Roll Set Point:	-0.064	Pitch Set Point:	1.775	Yaw Set Point:	-0.081	X_WP:	0.000	Y_WP:	0.000	Y_WP:	0.750	X:	0.068	Y:	-0.886	Z:	0.403	yaw:	4.619	yaw rate:	-50.638	Roll:	-7.421	Pitch:	-26.316	Yaw:	14.500	Thrust:	38.678
Time:	0.581	Roll Set Point:	-0.065	Pitch Set Point:	1.775	Yaw Set Point:	-0.080	X_WP:	0.000	Y_WP:	0.000	Y_WP:	0.750	X:	0.068	Y:	-0.886	Z:	0.403	yaw:	4.577	yaw rate:	4.235	Roll:	0.443	Pitch:	-26.562	Yaw:	6.711	Thrust:	42.247
Time:	0.600	Roll Set Point:	-0.073	Pitch Set Point:	1.775	Yaw Set Point:	-0.072	X_WP:	0.000	Y_WP:	0.000	Y_WP:	0.750	X:	0.068	Y:	-0.886	Z:	0.403	yaw:	4.105	yaw rate:	47.230	Roll:	6.881	Pitch:	-26.655	Yaw:	-0.018	Thrust:	41.006
Time:	0.620	Roll Set Point:	-0.063	Pitch Set Point:	1.774	Yaw Set Point:	-0.082	X_WP:	0.000	Y_WP:	0.000	Y_WP:	0.750	X:	0.068	Y:	-0.886	Z:	0.403	yaw:	4.678	yaw rate:	-57.297	Roll:	-7.954	Pitch:	-26.162	Yaw:	14.786	Thrust:	44.154
Time:	0.640	Roll Set Point:	-0.063	Pitch Set Point:	1.774	Yaw Set Point:	-0.081	X_WP:	0.000	Y_WP:	0.000	Y_WP:	0.750	X:	0.068	Y:	-0.886	Z:	0.403	yaw:	4.658	yaw rate:	2.013	Roll:	0.155	Pitch:	-26.490	Yaw:	7.113	Thrust:	42.914
Time:	0.661	Roll Set Point:	-0.064	Pitch Set Point:	1.775	Yaw Set Point:	-0.081	X_WP:	0.000	Y_WP:	0.000	Y_WP:	0.750	X:	0.068	Y:	-0.886	Z:	0.403	yaw:	4.623	yaw rate:	3.496	Roll:	0.313	Pitch:	-26.572	Yaw:	7.039	Thrust:	46.475
Time:	0.680	Roll Set Point:	-0.073	Pitch Set Point:	1.775	Yaw Set Point:	-0.071	X_WP:	0.000	Y_WP:	0.000	Y_WP:	0.750	X:	0.068	Y:	-0.886	Z:	0.403	yaw:	4.077	yaw rate:	54.595	Roll:	7.664	Pitch:	-26.882	Yaw:	-0.549	Thrust:	45.112
Time:	0.700	Roll Set Point:	-0.073	Pitch Set Point:	1.775	Yaw Set Point:	-0.072	X_WP:	0.000	Y_WP:	0.000	Y_WP:	0.750	X:	0.068	Y:	-0.886	Z:	0.403	yaw:	4.099	yaw rate:	-2.240	Roll:	-0.183	Pitch:	-26.443	Yaw:	7.026	Thrust:	46.146
Time:	0.720	Roll Set Point:	-0.065	Pitch Set Point:	1.775	Yaw Set Point:	-0.080	X_WP:	0.000	Y_WP:	0.000	Y_WP:	0.750	X:	0.068	Y:	-0.886	Z:	0.403	yaw:	4.598	yaw rate:	-49.923	Roll:	-6.356	Pitch:	-26.455	Yaw:	13.972	Thrust:	47.641
Time:	0.740	Roll Set Point:	-0.073	Pitch Set Point:	1.775	Yaw Set Point:	-0.071	X_WP:	0.000	Y_WP:	0.000	Y_WP:	0.750	X:	0.068	Y:	-0.886	Z:	0.403	yaw:	4.082	yaw rate:	51.630	Roll:	7.193	Pitch:	-26.653	Yaw:	-0.128	Thrust:	47.650
Time:	0.761	Roll Set Point:	-0.065	Pitch Set Point:	1.775	Yaw Set Point:	-0.080	X_WP:	0.000	Y_WP:	0.000	Y_WP:	0.750	X:	0.068	Y:	-0.886	Z:	0.403	yaw:	4.587	yaw rate:	-50.522	Roll:	-6.635	Pitch:	-26.414	Yaw:	13.938	Thrust:	50.263
Time:	0.781	Roll Set Point:	-0.065	Pitch Set Point:	1.775	Yaw Set Point:	-0.080	X_WP:	0.000	Y_WP:	0.000	Y_WP:	0.750	X:	0.068	Y:	-0.886	Z:	0.403	yaw:	4.559	yaw rate:	2.865	Roll:	0.318	Pitch:	-26.501	Yaw:	7.136	Thrust:	49.946
Time:	0.800	Roll Set Point:	-0.072	Pitch Set Point:	1.775	Yaw Set Point:	-0.071	X_WP:	0.000	Y_WP:	0.000	Y_WP:	0.750	X:	0.068	Y:	-0.886	Z:	0.403	yaw:	4.090	yaw rate:	46.885	Roll:	6.070	Pitch:	-26.515	Yaw:	0.505	Thrust:	49.929
Time:	0.821	Roll Set Point:	-0.063	Pitch Set Point:	1.775	Yaw Set Point:	-0.082	X_WP:	0.000	Y_WP:	0.000	Y_WP:	0.750	X:	0.068	Y:	-0.886	Z:	0.403	yaw:	4.677	yaw rate:	-58.695	Roll:	-7.807	Pitch:	-26.361	Yaw:	15.232	Thrust:	52.627
Time:	0.840	Roll Set Point:	-0.066	Pitch Set Point:	1.775	Yaw Set Point:	-0.079	X_WP:	0.000	Y_WP:	0.000	Y_WP:	0.750	X:	0.068	Y:	-0.886	Z:	0.403	yaw:	4.543	yaw rate:	13.371	Roll:	2.015	Pitch:	-26.732	Yaw:	5.790	Thrust:	51.708
Time:	0.860	Roll Set Point:	-0.065	Pitch Set Point:	1.775	Yaw Set Point:	-0.080	X_WP:	0.000	Y_WP:	0.000	Y_WP:	0.750	X:	0.068	Y:	-0.886	Z:	0.403	yaw:	4.578	yaw rate:	-3.463	Roll:	-0.584	Pitch:	-26.473	Yaw:	8.110	Thrust:	53.262
Time:	0.880	Roll Set Point:	-0.063	Pitch Set Point:	1.775	Yaw Set Point:	-0.081	X_WP:	0.000	Y_WP:	0.000	Y_WP:	0.750	X:	0.068	Y:	-0.886	Z:	0.403	yaw:	4.654	yaw rate:	-7.671	Roll:	-1.364	Pitch:	-26.380	Yaw:	8.804	Thrust:	54.594
Time:	0.901	Roll Set Point:	-0.063	Pitch Set Point:	1.775	Yaw Set Point:	-0.081	X_WP:	0.000	Y_WP:	0.000	Y_WP:	0.750	X:	0.068	Y:	-0.886	Z:	0.403	yaw:	4.665	yaw rate:	-1.103	Roll:	-0.300	Pitch:	-26.475	Yaw:	7.934	Thrust:	53.267
Time:	0.921	Roll Set Point:	-0.063	Pitch Set Point:	1.774	Yaw Set Point:	-0.081	X_WP:	0.000	Y_WP:	0.000	Y_WP:	0.750	X:	0.068	Y:	-0.886	Z:	0.403	yaw:	4.641	yaw rate:	2.402	Roll:	0.169	Pitch:	-26.505	Yaw:	7.613	Thrust:	57.643
Time:	0.940	Roll Set Point:	-0.063	Pitch Set Point:	1.774	Yaw Set Point:	-0.081	X_WP:	0.000	Y_WP:	0.000	Y_WP:	0.750	X:	0.068	Y:	-0.886	Z:	0.403	yaw:	4.668	yaw rate:	-2.671	Roll:	-0.485	Pitch:	-26.533	Yaw:	8.239	Thrust:	55.664
Time:	0.961	Roll Set Point:	-0.065	Pitch Set Point:	1.775	Yaw Set Point:	-0.080	X_WP:	0.000	Y_WP:	0.000	Y_WP:	0.750	X:	0.068	Y:	-0.886	Z:	0.403	yaw:	4.573	yaw rate:	9.478	Roll:	1.467	Pitch:	-26.753	Yaw:	6.651	Thrust:	58.319
Time:	0.982	Roll Set Point:	-0.073	Pitch Set Point:	1.775	Yaw Set Point:	-0.072	X_WP:	0.000	Y_WP:	0.000	Y_WP:	0.750	X:	0.068	Y:	-0.886	Z:	0.403	yaw:	4.111	yaw rate:	46.197	Roll:	5.962	Pitch:	-26.732	Yaw:	1.766	Thrust:	61.566
Time:	1.001	Roll Set Point:	-0.073	Pitch Set Point:	1.775	Yaw Set Point:	-0.071	X_WP:	0.000	Y_WP:	0.000	Y_WP:	0.750	X:	0.068	Y:	-0.886	Z:	0.403	yaw:	4.053	yaw rate:	5.822	Roll:	0.924	Pitch:	-26.436	Yaw:	6.222	Thrust:	56.285
Time:	1.020	Roll Set Point:	-0.066	Pitch Set Point:	1.775	Yaw Set Point:	-0.079	X_WP:	0.000	Y_WP:	0.000	Y_WP:	0.750	X:	0.068	Y:	-0.886	Z:	0.403	yaw:	4.532	yaw rate:	-47.866	Roll:	-6.856	Pitch:	-26.387	Yaw:	14.261	Thrust:	57.667
Time:	1.040	Roll Set Point:	-0.073	Pitch Set Point:	1.775	Yaw Set Point:	-0.071	X_WP:	0.000	Y_WP:	0.000	Y_WP:	0.750	X:	0.068	Y:	-0.886	Z:	0.403	yaw:	4.066	yaw rate:	46.613	Roll:	6.287	Pitch:	-26.685	Yaw:	1.095	Thrust:	61.607
Time:	1.061	Roll Set Point:	-0.065	Pitch Set Point:	1.775	Yaw Set Point:	-0.080	X_WP:	0.000	Y_WP:	0.000	Y_WP:	0.750	X:	0.068	Y:	-0.886	Z:	0.403	yaw:	4.578	yaw rate:	-51.246	Roll:	-7.043	Pitch:	-26.371	Yaw:	14.607	Thrust:	62.246
Time:	1.081	Roll Set Point:	-0.066	Pitch Set Point:	1.775	Yaw Set Point:	-0.079	X_WP:	0.000	Y_WP:	0.000	Y_WP:	0.750	X:	0.068	Y:	-0.886	Z:	0.403	yaw:	4.531	yaw rate:	4.744	Roll:	0.550	Pitch:	-26.489	Yaw:	7.334	Thrust:	62.735
Time:	1.100	Roll Set Point:	-0.063	Pitch Set Point:	1.775	Yaw Set Point:	-0.081	X_WP:	0.000	Y_WP:	0.000	Y_WP:	0.750	X:	0.068	Y:	-0.886	Z:	0.403	yaw:	4.651	yaw rate:	-12.059	Roll:	-1.977	Pitch:	-26.353	Yaw:	9.715	Thrust:	61.474
Time:	1.121	Roll Set Point:	-0.065	Pitch Set Point:	1.775	Yaw Set Point:	-0.080	X_WP:	0.000	Y_WP:	0.000	Y_WP:	0.750	X:	0.068	Y:	-0.886	Z:	0.403	yaw:	4.568	yaw rate:	8.325	Roll:	1.269	Pitch:	-26.735	Yaw:	7.066	Thrust:	65.584
Time:	1.141	Roll Set Point:	-0.065	Pitch Set Point:	1.775	Yaw Set Point:	-0.080	X_WP:	0.000	Y_WP:	0.000	Y_WP:	0.750	X:	0.068	Y:	-0.886	Z:	0.403	yaw:	4.579	yaw rate:	-1.160	Roll:	-0.252	Pitch:	-26.492	Yaw:	8.249	Thrust:	64.829
Time:	1.160	Roll Set Point:	-0.073	Pitch Set Point:	1.775	Yaw Set Point:	-0.072	X_WP:	0.000	Y_WP:	0.000	Y_WP:	0.750	X:	0.068	Y:	-0.886	Z:	0.403	yaw:	4.106	yaw rate:	47.398	Roll:	6.392	Pitch:	-26.687	Yaw:	1.219	Thrust:	65.345
Time:	1.182	Roll Set Point:	-0.073	Pitch Set Point:	1.775	Yaw Set Point:	-0.072	X_WP:	0.000	Y_WP:	0.000	Y_WP:	0.750	X:	0.068	Y:	-0.886	Z:	0.403	yaw:	4.102	yaw rate:	0.401	Roll:	0.175	Pitch:	-26.545	Yaw:	7.550	Thrust:	69.542
Time:	1.200	Roll Set Point:	-0.065	Pitch Set Point:	1.775	Yaw Set Point:	-0.080	X_WP:	0.000	Y_WP:	0.000	Y_WP:	0.750	X:	0.068	Y:	-0.886	Z:	0.403	yaw:	4.595	yaw rate:	-49.398	Roll:	-7.094	Pitch:	-26.332	Yaw:	15.239	Thrust:	62.417
Time:	1.223	Roll Set Point:	-0.065	Pitch Set Point:	1.775	Yaw Set Point:	-0.080	X_WP:	0.000	Y_WP:	0.000	Y_WP:	0.750	X:	0.068	Y:	-0.886	Z:	0.403	yaw:	4.583	yaw rate:	1.241	Roll:	0.046	Pitch:	-26.613	Yaw:	8.364	Thrust:	75.787
Time:	1.239	Roll Set Point:	-0.065	Pitch Set Point:	1.775	Yaw Set Point:	-0.081	X_WP:	0.000	Y_WP:	0.000	Y_WP:	0.750	X:	0.068	Y:	-0.886	Z:	0.403	yaw:	4.613	yaw rate:	-2.995	Roll:	-0.542	Pitch:	-26.430	Yaw:	8.459	Thrust:	60.657
Time:	1.260	Roll Set Point:	-0.065	Pitch Set Point:	1.775	Yaw Set Point:	-0.080	X_WP:	0.000	Y_WP:	0.000	Y_WP:	0.750	X:	0.068	Y:	-0.886	Z:	0.403	yaw:	4.570	yaw rate:	4.273	Roll:	0.450	Pitch:	-26.546	Yaw:	7.829	Thrust:	72.370
Time:	1.279	Roll Set Point:	-0.064	Pitch Set Point:	1.775	Yaw Set Point:	-0.081	X_WP:	0.000	Y_WP:	0.000	Y_WP:	0.750	X:	0.068	Y:	-0.886	Z:	0.403	yaw:	4.618	yaw rate:	-4.728	Roll:	-0.742	Pitch:	-26.476	Yaw:	8.940	Thrust:	68.795
Time:	1.300	Roll Set Point:	-0.063	Pitch Set Point:	1.775	Yaw Set Point:	-0.081	X_WP:	0.000	Y_WP:	0.000	Y_WP:	0.750	X:	0.068	Y:	-0.886	Z:	0.403	yaw:	4.643	yaw rate:	-2.525	Roll:	-0.730	Pitch:	-26.350	Yaw:	8.802	Thrust:	72.904
Time:	1.319	Roll Set Point:	-0.064	Pitch Set Point:	1.775	Yaw Set Point:	-0.081	X_WP:	0.000	Y_WP:	0.000	Y_WP:	0.750	X:	0.068	Y:	-0.886	Z:	0.403	yaw:	4.622	yaw rate:	2.051	Roll:	0.161	Pitch:	-26.518	Yaw:	8.133	Thrust:	71.501
Time:	1.340	Roll Set Point:	-0.063	Pitch Set Point:	1.775	Yaw Set Point:	-0.081	X_WP:	0.000	Y_WP:	0.000	Y_WP:	0.750	X:	0.068	Y:	-0.886	Z:	0.403	yaw:	4.635	yaw rate:	-1.237	Roll:	-0.281	Pitch:	-26.503	Yaw:	8.577	Thrust:	71.521
Time:	1.360	Roll Set Point:	-0.073	Pitch Set Point:	1.775	Yaw Set Point:	-0.071	X_WP:	0.000	Y_WP:	0.000	Y_WP:	0.750	X:	0.068	Y:	-0.886	Z:	0.403	yaw:	4.041	yaw rate:	59.331	Roll:	7.632	Pitch:	-26.723	Yaw:	0.499	Thrust:	77.641
Time:	1.380	Roll Set Point:	-0.073	Pitch Set Point:	1.775	Yaw Set Point:	-0.071	X_WP:	0.000	Y_WP:	0.000	Y_WP:	0.750	X:	0.068	Y:	-0.886	Z:	0.403	yaw:	4.071	yaw rate:	-3.009	Roll:	-0.278	Pitch:	-26.516	Yaw:	8.029	Thrust:	73.238
Time:	1.400	Roll Set Point:	-0.065	Pitch Set Point:	1.775	Yaw Set Point:	-0.080	X_WP:	0.000	Y_WP:	0.000	Y_WP:	0.750	X:	0.068	Y:	-0.886	Z:	0.403	yaw:	4.607	yaw rate:	-53.520	Roll:	-6.896	Pitch:	-26.551	Yaw:	15.333	Thrust:	76.816
Time:	1.422	Roll Set Point:	-0.073	Pitch Set Point:	1.775	Yaw Set Point:	-0.071	X_WP:	0.000	Y_WP:	0.000	Y_WP:	0.750	X:	0.068	Y:	-0.886	Z:	0.403	yaw:	4.061	yaw rate:	54.537	Roll:	6.701	Pitch:	-26.568	Yaw:	1.205	Thrust:	81.135
Time:	1.440	Roll Set Point:	-0.065	Pitch Set Point:	1.775	Yaw Set Point:	-0.080	X_WP:	0.000	Y_WP:	0.000	Y_WP:	0.750	X:	0.068	Y:	-0.886	Z:	0.403	yaw:	4.566	yaw rate:	-50.493	Roll:	-7.341	Pitch:	-26.459	Yaw:	15.503	Thrust:	71.730
Time:	1.461	Roll Set Point:	-0.072	Pitch Set Point:	1.775	Yaw Set Point:	-0.071	X_WP:	0.000	Y_WP:	0.000	Y_WP:	0.750	X:	0.068	Y:	-0.886	Z:	0.403	yaw:	4.093	yaw rate:	47.308	Roll:	6.130	Pitch:	-26.544	Yaw:	1.695	Thrust:	79.569
Time:	1.481	Roll Set Point:	-0.063	Pitch Set Point:	1.775	Yaw Set Point:	-0.081	X_WP:	0.000	Y_WP:	0.000	Y_WP:	0.750	X:	0.068	Y:	-0.886	Z:	0.403	yaw:	4.638	yaw rate:	-54.519	Roll:	-7.508	Pitch:	-26.327	Yaw:	15.390	Thrust:	78.983
Time:	1.501	Roll Set Point:	-0.073	Pitch Set Point:	1.775	Yaw Set Point:	-0.071	X_WP:	0.000	Y_WP:	0.000	Y_WP:	0.750	X:	0.068	Y:	-0.886	Z:	0.403	yaw:	4.070	yaw rate:	56.829	Roll:	7.460	Pitch:	-26.710	Yaw:	0.167	Thrust:	82.373
Time:	1.521	Roll Set Point:	-0.063	Pitch Set Point:	1.775	Yaw Set Point:	-0.081	X_WP:	0.000	Y_WP:	0.000	Y_WP:	0.750	X:	0.068	Y:	-0.886	Z:	0.403	yaw:	4.650	yaw rate:	-57.998	Roll:	-8.104	Pitch:	-26.335	Yaw:	16.213	Thrust:	79.526
Time:	1.540	Roll Set Point:	-0.063	Pitch Set Point:	1.775	Yaw Set Point:	-0.082	X_WP:	0.000	Y_WP:	0.000	Y_WP:	0.750	X:	0.068	Y:	-0.886	Z:	0.403	yaw:	4.674	yaw rate:	-2.373	Roll:	-0.461	Pitch:	-26.511	Yaw:	8.846	Thrust:	81.933
Time:	1.561	Roll Set Point:	-0.074	Pitch Set Point:	1.775	Yaw Set Point:	-0.070	X_WP:	0.000	Y_WP:	0.000	Y_WP:	0.750	X:	0.068	Y:	-0.886	Z:	0.403	yaw:	3.986	yaw rate:	68.794	Roll:	9.576	Pitch:	-26.717	Yaw:	-1.358	Thrust:	82.661
Time:	1.580	Roll Set Point:	-0.063	Pitch Set Point:	1.774	Yaw Set Point:	-0.082	X_WP:	0.000	Y_WP:	0.000	Y_WP:	0.750	X:	0.068	Y:	-0.886	Z:	0.403	yaw:	4.676	yaw rate:	-69.000	Roll:	-9.336	Pitch:	-26.303	Yaw:	17.677	Thrust:	82.478
Time:	1.602	Roll Set Point:	-0.063	Pitch Set Point:	1.775	Yaw Set Point:	-0.081	X_WP:	0.000	Y_WP:	0.000	Y_WP:	0.750	X:	0.068	Y:	-0.886	Z:	0.403	yaw:	4.646	yaw rate:	2.949	Roll:	0.271	Pitch:	-26.589	Yaw:	8.245	Thrust:	87.973
Time:	1.622	Roll Set Point:	-0.063	Pitch Set Point:	1.775	Yaw Set Point:	-0.081	X_WP:	0.000	Y_WP:	0.000	Y_WP:	0.750	X:	0.068	Y:	-0.886	Z:	0.403	yaw:	4.657	yaw rate:	-1.054	Roll:	-0.266	Pitch:	-26.511	Yaw:	8.693	Thrust:	86.801
Time:	1.642	Roll Set Point:	-0.063	Pitch Set Point:	1.774	Yaw Set Point:	-0.082	X_WP:	0.000	Y_WP:	0.000	Y_WP:	0.750	X:	0.068	Y:	-0.886	Z:	0.403	yaw:	4.676	yaw rate:	-1.885	Roll:	-0.421	Pitch:	-26.458	Yaw:	8.658	Thrust:	81.270
Time:	1.662	Roll Set Point:	-0.073	Pitch Set Point:	1.775	Yaw Set Point:	-0.071	X_WP:	0.000	Y_WP:	0.000	Y_WP:	0.750	X:	0.068	Y:	-0.886	Z:	0.403	yaw:	4.066	yaw rate:	60.938	Roll:	8.388	Pitch:	-26.911	Yaw:	0.438	Thrust:	91.532
Time:	1.684	Roll Set Point:	-0.065	Pitch Set Point:	1.775	Yaw Set Point:	-0.080	X_WP:	0.000	Y_WP:	0.000	Y_WP:	0.750	X:	0.068	Y:	-0.886	Z:	0.403	yaw:	4.560	yaw rate:	-49.398	Roll:	-6.538	Pitch:	-26.448	Yaw:	14.612	Thrust:	89.301
Time:	1.702	Roll Set Point:	-0.065	Pitch Set Point:	1.775	Yaw Set Point:	-0.080	X_WP:	0.000	Y_WP:	0.000	Y_WP:	0.750	X:	0.068	Y:	-0.886	Z:	0.403	yaw:	4.594	yaw rate:	-3.390	Roll:	-0.583	Pitch:	-26.409	Yaw:	8.727	Thrust:	84.132
Time:	1.721	Roll Set Point:	-0.065	Pitch Set Point:	1.775	Yaw Set Point:	-0.080	X_WP:	0.000	Y_WP:	0.000	Y_WP:	0.750	X:	0.068	Y:	-0.886	Z:	0.403	yaw:	4.611	yaw rate:	-1.700	Roll:	-0.316	Pitch:	-26.529	Yaw:	8.630	Thrust:	87.793
Time:	1.741	Roll Set Point:	-0.065	Pitch Set Point:	1.775	Yaw Set Point:	-0.080	X_WP:	0.000	Y_WP:	0.000	Y_WP:	0.750	X:	0.068	Y:	-0.886	Z:	0.403	yaw:	4.606	yaw rate:	0.485	Roll:	-0.035	Pitch:	-26.543	Yaw:	8.289	Thrust:	87.164
Time:	1.761	Roll Set Point:	-0.065	Pitch Set Point:	1.775	Yaw Set Point:	-0.080	X_WP:	0.000	Y_WP:	0.000	Y_WP:	0.750	X:	0.068	Y:	-0.886	Z:	0.403	yaw:	4.555	yaw rate:	5.120	Roll:	0.601	Pitch:	-26.564	Yaw:	7.799	Thrust:	93.708
Time:	1.782	Roll Set Point:	-0.065	Pitch Set Point:	1.775	Yaw Set Point:	-0.080	X_WP:	0.000	Y_WP:	0.000	Y_WP:	0.750	X:	0.068	Y:	-0.886	Z:	0.403	yaw:	4.584	yaw rate:	-2.892	Roll:	-0.495	Pitch:	-26.512	Yaw:	8.794	Thrust:	92.249
Time:	1.802	Roll Set Point:	-0.072	Pitch Set Point:	1.775	Yaw Set Point:	-0.072	X_WP:	0.000	Y_WP:	0.000	Y_WP:	0.750	X:	0.068	Y:	-0.886	Z:	0.403	yaw:	4.135	yaw rate:	44.950	Roll:	6.078	Pitch:	-26.642	Yaw:	1.990	Thrust:	93.324
Time:	1.821	Roll Set Point:	-0.073	Pitch Set Point:	1.775	Yaw Set Point:	-0.072	X_WP:	0.000	Y_WP:	0.000	Y_WP:	0.750	X:	0.068	Y:	-0.886	Z:	0.403	yaw:	4.108	yaw rate:	2.664	Roll:	0.478	Pitch:	-26.529	Yaw:	7.299	Thrust:	90.530
Time:	1.842	Roll Set Point:	-0.065	Pitch Set Point:	1.775	Yaw Set Point:	-0.080	X_WP:	0.000	Y_WP:	0.000	Y_WP:	0.750	X:	0.068	Y:	-0.886	Z:	0.403	yaw:	4.590	yaw rate:	-48.172	Roll:	-6.387	Pitch:	-26.394	Yaw:	14.502	Thrust:	94.307
Time:	1.862	Roll Set Point:	-0.073	Pitch Set Point:	1.775	Yaw Set Point:	-0.071	X_WP:	0.000	Y_WP:	0.000	Y_WP:	0.750	X:	0.068	Y:	-0.886	Z:	0.403	yaw:	4.090	yaw rate:	50.001	Roll:	6.840	Pitch:	-26.682	Yaw:	0.973	Thrust:	96.988
Time:	1.881	Roll Set Point:	-0.065	Pitch Set Point:	1.775	Yaw Set Point:	-0.080	X_WP:	0.000	Y_WP:	0.000	Y_WP:	0.750	X:	0.068	Y:	-0.886	Z:	0.403	yaw:	4.577	yaw rate:	-48.786	Roll:	-6.569	Pitch:	-26.406	Yaw:	14.833	Thrust:	94.799
Time:	1.901	Roll Set Point:	-0.065	Pitch Set Point:	1.775	Yaw Set Point:	-0.080	X_WP:	0.000	Y_WP:	0.000	Y_WP:	0.750	X:	0.068	Y:	-0.886	Z:	0.403	yaw:	4.578	yaw rate:	-0.021	Roll:	-0.099	Pitch:	-26.506	Yaw:	8.351	Thrust:	94.964
Time:	1.921	Roll Set Point:	-0.065	Pitch Set Point:	1.775	Yaw Set Point:	-0.080	X_WP:	0.000	Y_WP:	0.000	Y_WP:	0.750	X:	0.068	Y:	-0.886	Z:	0.403	yaw:	4.582	yaw rate:	-0.422	Roll:	-0.146	Pitch:	-26.503	Yaw:	8.466	Thrust:	97.835
Time:	1.941	Roll Set Point:	-0.065	Pitch Set Point:	1.775	Yaw Set Point:	-0.080	X_WP:	0.000	Y_WP:	0.000	Y_WP:	0.750	X:	0.068	Y:	-0.886	Z:	0.403	yaw:	4.566	yaw rate:	1.567	Roll:	0.129	Pitch:	-26.523	Yaw:	8.122	Thrust:	96.543
Time:	1.961	Roll Set Point:	-0.073	Pitch Set Point:	1.775	Yaw Set Point:	-0.071	X_WP:	0.000	Y_WP:	0.000	Y_WP:	0.750	X:	0.068	Y:	-0.886	Z:	0.403	yaw:	4.076	yaw rate:	49.059	Roll:	6.817	Pitch:	-26.690	Yaw:	1.379	Thrust:	100.000
Time:	1.981	Roll Set Point:	-0.065	Pitch Set Point:	1.775	Yaw Set Point:	-0.080	X_WP:	0.000	Y_WP:	0.000	Y_WP:	0.750	X:	0.068	Y:	-0.886	Z:	0.403	yaw:	4.564	yaw rate:	-48.843	Roll:	-6.599	Pitch:	-26.349	Yaw:	14.838	Thrust:	98.770
Time:	2.001	Roll Set Point:	-0.073	Pitch Set Point:	1.775	Yaw Set Point:	-0.071	X_WP:	0.000	Y_WP:	0.000	Y_WP:	0.750	X:	0.068	Y:	-0.886	Z:	0.403	yaw:	4.041	yaw rate:	52.318	Roll:	6.867	Pitch:	-26.521	Yaw:	0.854	Thrust:	100.000
Time:	2.021	Roll Set Point:	-0.073	Pitch Set Point:	1.775	Yaw Set Point:	-0.070	X_WP:	0.000	Y_WP:	0.000	Y_WP:	0.750	X:	0.068	Y:	-0.886	Z:	0.403	yaw:	4.037	yaw rate:	0.377	Roll:	0.211	Pitch:	-26.544	Yaw:	7.646	Thrust:	100.000
Time:	2.041	Roll Set Point:	-0.065	Pitch Set Point:	1.775	Yaw Set Point:	-0.080	X_WP:	0.000	Y_WP:	0.000	Y_WP:	0.750	X:	0.068	Y:	-0.886	Z:	0.403	yaw:	4.583	yaw rate:	-54.550	Roll:	-7.320	Pitch:	-26.523	Yaw:	15.532	Thrust:	98.179
Time:	2.063	Roll Set Point:	-0.066	Pitch Set Point:	1.775	Yaw Set Point:	-0.079	X_WP:	0.000	Y_WP:	0.000	Y_WP:	0.750	X:	0.068	Y:	-0.886	Z:	0.403	yaw:	4.520	yaw rate:	6.305	Roll:	0.709	Pitch:	-26.577	Yaw:	7.651	Thrust:	100.000
Time:	2.084	Roll Set Point:	-0.065	Pitch Set Point:	1.775	Yaw Set Point:	-0.080	X_WP:	0.000	Y_WP:	0.000	Y_WP:	0.750	X:	0.068	Y:	-0.886	Z:	0.403	yaw:	4.590	yaw rate:	-6.999	Roll:	-0.986	Pitch:	-26.553	Yaw:	9.330	Thrust:	100.000
Time:	2.102	Roll Set Point:	-0.065	Pitch Set Point:	1.775	Yaw Set Point:	-0.079	X_WP:	0.000	Y_WP:	0.000	Y_WP:	0.750	X:	0.068	Y:	-0.886	Z:	0.403	yaw:	4.555	yaw rate:	3.502	Roll:	0.449	Pitch:	-26.458	Yaw:	7.799	Thrust:	100.000
Time:	2.122	Roll Set Point:	-0.063	Pitch Set Point:	1.775	Yaw Set Point:	-0.081	X_WP:	0.000	Y_WP:	0.000	Y_WP:	0.750	X:	0.068	Y:	-0.886	Z:	0.403	yaw:	4.637	yaw rate:	-8.262	Roll:	-1.490	Pitch:	-26.347	Yaw:	9.561	Thrust:	100.000
Time:	2.141	Roll Set Point:	-0.063	Pitch Set Point:	1.774	Yaw Set Point:	-0.081	X_WP:	0.000	Y_WP:	0.000	Y_WP:	0.750	X:	0.068	Y:	-0.886	Z:	0.403	yaw:	4.669	yaw rate:	-3.147	Roll:	-0.597	Pitch:	-26.448	Yaw:	8.868	Thrust:	100.000
Time:	2.162	Roll Set Point:	-0.063	Pitch Set Point:	1.774	Yaw Set Point:	-0.081	X_WP:	0.000	Y_WP:	0.000	Y_WP:	0.750	X:	0.068	Y:	-0.886	Z:	0.403	yaw:	4.653	yaw rate:	1.520	Roll:	0.042	Pitch:	-26.560	Yaw:	8.359	Thrust:	100.000
Time:	2.184	Roll Set Point:	-0.063	Pitch Set Point:	1.775	Yaw Set Point:	-0.082	X_WP:	0.000	Y_WP:	0.000	Y_WP:	0.750	X:	0.068	Y:	-0.886	Z:	0.403	yaw:	4.678	yaw rate:	-2.413	Roll:	-0.398	Pitch:	-26.645	Yaw:	9.073	Thrust:	100.000
Time:	2.202	Roll Set Point:	-0.062	Pitch Set Point:	1.774	Yaw Set Point:	-0.082	X_WP:	0.000	Y_WP:	0.000	Y_WP:	0.750	X:	0.068	Y:	-0.886	Z:	0.403	yaw:	4.711	yaw rate:	-3.317	Roll:	-0.687	Pitch:	-26.333	Yaw:	8.805	Thrust:	96.687
Time:	2.221	Roll Set Point:	-0.063	Pitch Set Point:	1.775	Yaw Set Point:	-0.081	X_WP:	0.000	Y_WP:	0.000	Y_WP:	0.750	X:	0.068	Y:	-0.886	Z:	0.403	yaw:	4.643	yaw rate:	6.763	Roll:	0.748	Pitch:	-26.552	Yaw:	7.582	Thrust:	100.000
Time:	2.241	Roll Set Point:	-0.064	Pitch Set Point:	1.775	Yaw Set Point:	-0.081	X_WP:	0.000	Y_WP:	0.000	Y_WP:	0.750	X:	0.068	Y:	-0.886	Z:	0.403	yaw:	4.632	yaw rate:	1.145	Roll:	0.040	Pitch:	-26.526	Yaw:	8.318	Thrust:	100.000
Time:	2.264	Roll Set Point:	-0.062	Pitch Set Point:	1.775	Yaw Set Point:	-0.082	X_WP:	0.000	Y_WP:	0.000	Y_WP:	0.750	X:	0.068	Y:	-0.886	Z:	0.403	yaw:	4.695	yaw rate:	-6.370	Roll:	-0.913	Pitch:	-26.610	Yaw:	9.553	Thrust:	100.000
Time:	2.283	Roll Set Point:	-0.072	Pitch Set Point:	1.775	Yaw Set Point:	-0.072	X_WP:	0.000	Y_WP:	0.000	Y_WP:	0.750	X:	0.068	Y:	-0.886	Z:	0.403	yaw:	4.126	yaw rate:	56.905	Roll:	8.906	Pitch:	-26.813	Yaw:	-1.000	Thrust:	100.000
Time:	2.301	Roll Set Point:	-0.066	Pitch Set Point:	1.775	Yaw Set Point:	-0.079	X_WP:	0.000	Y_WP:	0.000	Y_WP:	0.750	X:	0.068	Y:	-0.886	Z:	0.403	yaw:	4.541	yaw rate:	-41.439	Roll:	-5.860	Pitch:	-26.400	Yaw:	13.900	Thrust:	100.000
Time:	2.322	Roll Set Point:	-0.066	Pitch Set Point:	1.775	Yaw Set Point:	-0.079	X_WP:	0.000	Y_WP:	0.000	Y_WP:	0.750	X:	0.068	Y:	-0.886	Z:	0.403	yaw:	4.547	yaw rate:	-0.628	Roll:	-0.158	Pitch:	-26.533	Yaw:	8.533	Thrust:	100.000
Time:	2.341	Roll Set Point:	-0.065	Pitch Set Point:	1.775	Yaw Set Point:	-0.080	X_WP:	0.000	Y_WP:	0.000	Y_WP:	0.750	X:	0.068	Y:	-0.886	Z:	0.403	yaw:	4.572	yaw rate:	-2.537	Roll:	-0.450	Pitch:	-26.474	Yaw:	8.679	Thrust:	100.000
Time:	2.361	Roll Set Point:	-0.065	Pitch Set Point:	1.775	Yaw Set Point:	-0.080	X_WP:	0.000	Y_WP:	0.000	Y_WP:	0.750	X:	0.068	Y:	-0.886	Z:	0.403	yaw:	4.555	yaw rate:	1.691	Roll:	0.149	Pitch:	-26.567	Yaw:	8.144	Thrust:	100.000
Time:	2.381	Roll Set Point:	-0.072	Pitch Set Point:	1.775	Yaw Set Point:	-0.072	X_WP:	0.000	Y_WP:	0.000	Y_WP:	0.750	X:	0.068	Y:	-0.886	Z:	0.403	yaw:	4.104	yaw rate:	45.131	Roll:	6.029	Pitch:	-26.469	Yaw:	1.286	Thrust:	100.000
Time:	2.401	Roll Set Point:	-0.065	Pitch Set Point:	1.775	Yaw Set Point:	-0.080	X_WP:	0.000	Y_WP:	0.000	Y_WP:	0.750	X:	0.068	Y:	-0.886	Z:	0.403	yaw:	4.586	yaw rate:	-48.157	Roll:	-6.413	Pitch:	-26.566	Yaw:	14.554	Thrust:	100.000
Time:	2.421	Roll Set Point:	-0.074	Pitch Set Point:	1.775	Yaw Set Point:	-0.071	X_WP:	0.000	Y_WP:	0.000	Y_WP:	0.750	X:	0.068	Y:	-0.886	Z:	0.403	yaw:	4.040	yaw rate:	54.573	Roll:	7.131	Pitch:	-26.665	Yaw:	0.468	Thrust:	100.000
Time:	2.440	Roll Set Point:	-0.065	Pitch Set Point:	1.775	Yaw Set Point:	-0.080	X_WP:	0.000	Y_WP:	0.000	Y_WP:	0.750	X:	0.068	Y:	-0.886	Z:	0.403	yaw:	4.586	yaw rate:	-54.636	Roll:	-7.741	Pitch:	-26.340	Yaw:	15.776	Thrust:	100.000
Time:	2.460	Roll Set Point:	-0.073	Pitch Set Point:	1.775	Yaw Set Point:	-0.071	X_WP:	0.000	Y_WP:	0.000	Y_WP:	0.750	X:	0.068	Y:	-0.886	Z:	0.403	yaw:	4.092	yaw rate:	49.457	Roll:	6.728	Pitch:	-26.700	Yaw:	1.331	Thrust:	100.000
Time:	2.486	Roll Set Point:	-0.065	Pitch Set Point:	1.775	Yaw Set Point:	-0.080	X_WP:	0.000	Y_WP:	0.000	Y_WP:	0.750	X:	0.068	Y:	-0.886	Z:	0.403	yaw:	4.560	yaw rate:	-46.822	Roll:	-5.346	Pitch:	-26.569	Yaw:	13.721	Thrust:	100.000
Time:	2.500	Roll Set Point:	-0.063	Pitch Set Point:	1.775	Yaw Set Point:	-0.081	X_WP:	0.000	Y_WP:	0.000	Y_WP:	0.750	X:	0.068	Y:	-0.886	Z:	0.403	yaw:	4.638	yaw rate:	-7.806	Roll:	-1.753	Pitch:	-26.098	Yaw:	9.335	Thrust:	96.437
Time:	2.520	Roll Set Point:	-0.073	Pitch Set Point:	1.775	Yaw Set Point:	-0.071	X_WP:	0.000	Y_WP:	0.000	Y_WP:	0.750	X:	0.068	Y:	-0.886	Z:	0.403	yaw:	4.066	yaw rate:	57.183	Roll:	8.094	Pitch:	-26.858	Yaw:	0.171	Thrust:	100.000
Time:	2.540	Roll Set Point:	-0.073	Pitch Set Point:	1.775	Yaw Set Point:	-0.072	X_WP:	0.000	Y_WP:	0.000	Y_WP:	0.750	X:	0.068	Y:	-0.886	Z:	0.403	yaw:	4.099	yaw rate:	-3.307	Roll:	-0.311	Pitch:	-26.537	Yaw:	8.140	Thrust:	100.000
Time:	2.562	Roll Set Point:	-0.065	Pitch Set Point:	1.775	Yaw Set Point:	-0.080	X_WP:	0.000	Y_WP:	0.000	Y_WP:	0.750	X:	0.068	Y:	-0.886	Z:	0.403	yaw:	4.578	yaw rate:	-47.886	Roll:	-6.189	Pitch:	-26.419	Yaw:	14.358	Thrust:	100.000
Time:	2.580	Roll Set Point:	-0.063	Pitch Set Point:	1.774	Yaw Set Point:	-0.081	X_WP:	0.000	Y_WP:	0.000	Y_WP:	0.750	X:	0.068	Y:	-0.886	Z:	0.403	yaw:	4.637	yaw rate:	-5.902	Roll:	-1.248	Pitch:	-26.267	Yaw:	9.172	Thrust:	100.000
Time:	2.601	Roll Set Point:	-0.064	Pitch Set Point:	1.775	Yaw Set Point:	-0.081	X_WP:	0.000	Y_WP:	0.000	Y_WP:	0.750	X:	0.068	Y:	-0.886	Z:	0.403	yaw:	4.628	yaw rate:	0.956	Roll:	0.006	Pitch:	-26.567	Yaw:	8.386	Thrust:	100.000
Time:	2.621	Roll Set Point:	-0.065	Pitch Set Point:	1.775	Yaw Set Point:	-0.080	X_WP:	0.000	Y_WP:	0.000	Y_WP:	0.750	X:	0.068	Y:	-0.886	Z:	0.403	yaw:	4.584	yaw rate:	4.331	Roll:	0.780	Pitch:	-26.705	Yaw:	7.848	Thrust:	100.000
Time:	2.641	Roll Set Point:	-0.073	Pitch Set Point:	1.775	Yaw Set Point:	-0.072	X_WP:	0.000	Y_WP:	0.000	Y_WP:	0.750	X:	0.068	Y:	-0.886	Z:	0.403	yaw:	4.099	yaw rate:	48.565	Roll:	6.635	Pitch:	-26.655	Yaw:	1.188	Thrust:	100.000
Time:	2.662	Roll Set Point:	-0.066	Pitch Set Point:	1.775	Yaw Set Point:	-0.079	X_WP:	0.000	Y_WP:	0.000	Y_WP:	0.750	X:	0.068	Y:	-0.886	Z:	0.403	yaw:	4.526	yaw rate:	-42.697	Roll:	-5.714	Pitch:	-26.463	Yaw:	13.755	Thrust:	100.000
Time:	2.682	Roll Set Point:	-0.065	Pitch Set Point:	1.775	Yaw Set Point:	-0.080	X_WP:	0.000	Y_WP:	0.000	Y_WP:	0.750	X:	0.068	Y:	-0.886	Z:	0.403	yaw:	4.601	yaw rate:	-7.535	Roll:	-1.119	Pitch:	-26.513	Yaw:	9.420	Thrust:	100.000
Time:	2.702	Roll Set Point:	-0.065	Pitch Set Point:	1.775	Yaw Set Point:	-0.080	X_WP:	0.000	Y_WP:	0.000	Y_WP:	0.750	X:	0.068	Y:	-0.886	Z:	0.403	yaw:	4.560	yaw rate:	4.063	Roll:	0.451	Pitch:	-26.495	Yaw:	7.870	Thrust:	100.000
Time:	2.722	Roll Set Point:	-0.063	Pitch Set Point:	1.774	Yaw Set Point:	-0.081	X_WP:	0.000	Y_WP:	0.000	Y_WP:	0.750	X:	0.068	Y:	-0.886	Z:	0.403	yaw:	4.649	yaw rate:	-8.843	Roll:	-1.612	Pitch:	-26.288	Yaw:	9.632	Thrust:	100.000
Time:	2.741	Roll Set Point:	-0.073	Pitch Set Point:	1.775	Yaw Set Point:	-0.071	X_WP:	0.000	Y_WP:	0.000	Y_WP:	0.750	X:	0.068	Y:	-0.886	Z:	0.403	yaw:	4.073	yaw rate:	57.605	Roll:	7.828	Pitch:	-26.763	Yaw:	0.015	Thrust:	100.000
Time:	2.762	Roll Set Point:	-0.065	Pitch Set Point:	1.775	Yaw Set Point:	-0.079	X_WP:	0.000	Y_WP:	0.000	Y_WP:	0.750	X:	0.068	Y:	-0.886	Z:	0.403	yaw:	4.548	yaw rate:	-47.559	Roll:	-6.218	Pitch:	-26.530	Yaw:	14.459	Thrust:	100.000
Time:	2.781	Roll Set Point:	-0.066	Pitch Set Point:	1.775	Yaw Set Point:	-0.079	X_WP:	0.000	Y_WP:	0.000	Y_WP:	0.750	X:	0.068	Y:	-0.886	Z:	0.403	yaw:	4.544	yaw rate:	0.382	Roll:	-0.027	Pitch:	-26.520	Yaw:	8.256	Thrust:	100.000
Time:	2.801	Roll Set Point:	-0.072	Pitch Set Point:	1.775	Yaw Set Point:	-0.072	X_WP:	0.000	Y_WP:	0.000	Y_WP:	0.750	X:	0.068	Y:	-0.886	Z:	0.403	yaw:	4.134	yaw rate:	40.997	Roll:	5.755	Pitch:	-26.667	Yaw:	2.283	Thrust:	100.000
Time:	2.822	Roll Set Point:	-0.065	Pitch Set Point:	1.775	Yaw Set Point:	-0.080	X_WP:	0.000	Y_WP:	0.000	Y_WP:	0.750	X:	0.068	Y:	-0.886	Z:	0.403	yaw:	4.555	yaw rate:	-42.063	Roll:	-5.631	Pitch:	-26.375	Yaw:	13.871	Thrust:	100.000
Time:	2.841	Roll Set Point:	-0.065	Pitch Set Point:	1.775	Yaw Set Point:	-0.080	X_WP:	0.000	Y_WP:	0.000	Y_WP:	0.750	X:	0.068	Y:	-0.886	Z:	0.403	yaw:	4.562	yaw rate:	-0.688	Roll:	-0.160	Pitch:	-26.505	Yaw:	8.489	Thrust:	100.000
Time:	2.862	Roll Set Point:	-0.073	Pitch Set Point:	1.775	Yaw Set Point:	-0.072	X_WP:	0.000	Y_WP:	0.000	Y_WP:	0.750	X:	0.068	Y:	-0.886	Z:	0.403	yaw:	4.112	yaw rate:	44.979	Roll:	6.080	Pitch:	-26.686	Yaw:	1.780	Thrust:	100.000
Time:	2.883	Roll Set Point:	-0.072	Pitch Set Point:	1.775	Yaw Set Point:	-0.072	X_WP:	0.000	Y_WP:	0.000	Y_WP:	0.750	X:	0.068	Y:	-0.886	Z:	0.403	yaw:	4.134	yaw rate:	-2.195	Roll:	-0.150	Pitch:	-26.600	Yaw:	8.240	Thrust:	100.000
Time:	2.901	Roll Set Point:	-0.063	Pitch Set Point:	1.774	Yaw Set Point:	-0.081	X_WP:	0.000	Y_WP:	0.000	Y_WP:	0.750	X:	0.068	Y:	-0.886	Z:	0.403	yaw:	4.652	yaw rate:	-51.805	Roll:	-8.462	Pitch:	-26.063	Yaw:	15.857	Thrust:	100.000
Time:	2.922	Roll Set Point:	-0.063	Pitch Set Point:	1.775	Yaw Set Point:	-0.081	X_WP:	0.000	Y_WP:	0.000	Y_WP:	0.750	X:	0.068	Y:	-0.886	Z:	0.403	yaw:	4.663	yaw rate:	-1.090	Roll:	-0.286	Pitch:	-26.530	Yaw:	8.703	Thrust:	100.000
Time:	2.941	Roll Set Point:	-0.072	Pitch Set Point:	1.775	Yaw Set Point:	-0.072	X_WP:	0.000	Y_WP:	0.000	Y_WP:	0.750	X:	0.068	Y:	-0.886	Z:	0.403	yaw:	4.118	yaw rate:	54.464	Roll:	7.883	Pitch:	-26.863	Yaw:	0.447	Thrust:	100.000
Time:	2.962	Roll Set Point:	-0.063	Pitch Set Point:	1.775	Yaw Set Point:	-0.081	X_WP:	0.000	Y_WP:	0.000	Y_WP:	0.750	X:	0.068	Y:	-0.886	Z:	0.403	yaw:	4.650	yaw rate:	-53.184	Roll:	-7.415	Pitch:	-26.227	Yaw:	15.480	Thrust:	100.000
Time:	2.984	Roll Set Point:	-0.065	Pitch Set Point:	1.775	Yaw Set Point:	-0.080	X_WP:	0.000	Y_WP:	0.000	Y_WP:	0.750	X:	0.068	Y:	-0.886	Z:	0.403	yaw:	4.585	yaw rate:	6.543	Roll:	0.998	Pitch:	-26.780	Yaw:	7.905	Thrust:	100.000
Time:	3.002	Roll Set Point:	-0.065	Pitch Set Point:	1.775	Yaw Set Point:	-0.080	X_WP:	0.000	Y_WP:	0.000	Y_WP:	0.750	X:	0.068	Y:	-0.886	Z:	0.403	yaw:	4.571	yaw rate:	1.355	Roll:	0.104	Pitch:	-26.462	Yaw:	7.906	Thrust:	100.000
Time:	3.021	Roll Set Point:	-0.065	Pitch Set Point:	1.775	Yaw Set Point:	-0.080	X_WP:	0.000	Y_WP:	0.000	Y_WP:	0.750	X:	0.068	Y:	-0.886	Z:	0.403	yaw:	4.570	yaw rate:	0.141	Roll:	-0.088	Pitch:	-26.503	Yaw:	8.320	Thrust:	100.000
Time:	3.041	Roll Set Point:	-0.063	Pitch Set Point:	1.775	Yaw Set Point:	-0.081	X_WP:	0.000	Y_WP:	0.000	Y_WP:	0.750	X:	0.068	Y:	-0.886	Z:	0.403	yaw:	4.656	yaw rate:	-8.609	Roll:	-1.607	Pitch:	-26.320	Yaw:	9.624	Thrust:	100.000
Time:	3.061	Roll Set Point:	-0.064	Pitch Set Point:	1.775	Yaw Set Point:	-0.081	X_WP:	0.000	Y_WP:	0.000	Y_WP:	0.750	X:	0.068	Y:	-0.886	Z:	0.403	yaw:	4.630	yaw rate:	2.600	Roll:	0.207	Pitch:	-26.512	Yaw:	8.173	Thrust:	100.000
Time:	3.081	Roll Set Point:	-0.063	Pitch Set Point:	1.774	Yaw Set Point:	-0.082	X_WP:	0.000	Y_WP:	0.000	Y_WP:	0.750	X:	0.068	Y:	-0.886	Z:	0.403	yaw:	4.676	yaw rate:	-4.563	Roll:	-0.740	Pitch:	-26.523	Yaw:	9.143	Thrust:	100.000
Time:	3.101	Roll Set Point:	-0.063	Pitch Set Point:	1.775	Yaw Set Point:	-0.081	X_WP:	0.000	Y_WP:	0.000	Y_WP:	0.750	X:	0.068	Y:	-0.886	Z:	0.403	yaw:	4.669	yaw rate:	0.705	Roll:	-0.031	Pitch:	-26.516	Yaw:	8.357	Thrust:	100.000
Time:	3.122	Roll Set Point:	-0.063	Pitch Set Point:	1.775	Yaw Set Point:	-0.081	X_WP:	0.000	Y_WP:	0.000	Y_WP:	0.750	X:	0.068	Y:	-0.886	Z:	0.403	yaw:	4.654	yaw rate:	1.494	Roll:	0.045	Pitch:	-26.509	Yaw:	8.376	Thrust:	100.000
Time:	3.141	Roll Set Point:	-0.063	Pitch Set Point:	1.775	Yaw Set Point:	-0.081	X_WP:	0.000	Y_WP:	0.000	Y_WP:	0.750	X:	0.068	Y:	-0.886	Z:	0.403	yaw:	4.666	yaw rate:	-1.216	Roll:	-0.297	Pitch:	-26.536	Yaw:	8.677	Thrust:	100.000
Time:	3.162	Roll Set Point:	-0.063	Pitch Set Point:	1.774	Yaw Set Point:	-0.082	X_WP:	0.000	Y_WP:	0.000	Y_WP:	0.750	X:	0.068	Y:	-0.886	Z:	0.403	yaw:	4.681	yaw rate:	-1.567	Roll:	-0.366	Pitch:	-26.518	Yaw:	8.754	Thrust:	100.000
Time:	3.182	Roll Set Point:	-0.063	Pitch Set Point:	1.775	Yaw Set Point:	-0.081	X_WP:	0.000	Y_WP:	0.000	Y_WP:	0.750	X:	0.068	Y:	-0.886	Z:	0.403	yaw:	4.643	yaw rate:	3.893	Roll:	0.382	Pitch:	-26.514	Yaw:	7.920	Thrust:	100.000
Time:	3.201	Roll Set Point:	-0.063	Pitch Set Point:	1.775	Yaw Set Point:	-0.081	X_WP:	0.000	Y_WP:	0.000	Y_WP:	0.750	X:	0.068	Y:	-0.886	Z:	0.403	yaw:	4.651	yaw rate:	-0.802	Roll:	-0.228	Pitch:	-26.521	Yaw:	8.575	Thrust:	100.000
Time:	3.221	Roll Set Point:	-0.063	Pitch Set Point:	1.775	Yaw Set Point:	-0.081	X_WP:	0.000	Y_WP:	0.000	Y_WP:	0.750	X:	0.068	Y:	-0.886	Z:	0.403	yaw:	4.666	yaw rate:	-1.564	Roll:	-0.376	Pitch:	-26.484	Yaw:	8.733	Thrust:	100.000
Time:	3.241	Roll Set Point:	-0.065	Pitch Set Point:	1.775	Yaw Set Point:	-0.080	X_WP:	0.000	Y_WP:	0.000	Y_WP:	0.750	X:	0.068	Y:	-0.886	Z:	0.403	yaw:	4.581	yaw rate:	8.507	Roll:	1.312	Pitch:	-26.738	Yaw:	7.221	Thrust:	100.000
Time:	3.261	Roll Set Point:	-0.073	Pitch Set Point:	1.775	Yaw Set Point:	-0.070	X_WP:	0.000	Y_WP:	0.000	Y_WP:	0.750	X:	0.068	Y:	-0.886	Z:	0.403	yaw:	4.023	yaw rate:	55.787	Roll:	7.556	Pitch:	-26.522	Yaw:	0.325	Thrust:	100.000
Time:	3.281	Roll Set Point:	-0.064	Pitch Set Point:	1.775	Yaw Set Point:	-0.081	X_WP:	0.000	Y_WP:	0.000	Y_WP:	0.750	X:	0.068	Y:	-0.886	Z:	0.403	yaw:	4.626	yaw rate:	-60.310	Roll:	-7.875	Pitch:	-26.337	Yaw:	16.226	Thrust:	100.000
Time:	3.301	Roll Set Point:	-0.062	Pitch Set Point:	1.775	Yaw Set Point:	-0.082	X_WP:	0.000	Y_WP:	0.000	Y_WP:	0.750	X:	0.068	Y:	-0.886	Z:	0.403	yaw:	4.706	yaw rate:	-7.948	Roll:	-1.241	Pitch:	-26.499	Yaw:	9.596	Thrust:	100.000
Time:	3.321	Roll Set Point:	-0.074	Pitch Set Point:	1.775	Yaw Set Point:	-0.070	X_WP:	0.000	Y_WP:	0.000	Y_WP:	0.750	X:	0.068	Y:	-0.886	Z:	0.403	yaw:	4.037	yaw rate:	66.894	Roll:	9.356	Pitch:	-26.890	Yaw:	-1.073	Thrust:	100.000
Time:	3.341	Roll Set Point:	-0.065	Pitch Set Point:	1.775	Yaw Set Point:	-0.080	X_WP:	0.000	Y_WP:	0.000	Y_WP:	0.750	X:	0.068	Y:	-0.886	Z:	0.403	yaw:	4.601	yaw rate:	-56.391	Roll:	-7.873	Pitch:	-26.361	Yaw:	15.680	Thrust:	100.000
Time:	3.361	Roll Set Point:	-0.065	Pitch Set Point:	1.775	Yaw Set Point:	-0.080	X_WP:	0.000	Y_WP:	0.000	Y_WP:	0.750	X:	0.068	Y:	-0.886	Z:	0.403	yaw:	4.593	yaw rate:	0.795	Roll:	-0.021	Pitch:	-26.512	Yaw:	8.317	Thrust:	100.000
Time:	3.382	Roll Set Point:	-0.073	Pitch Set Point:	1.775	Yaw Set Point:	-0.071	X_WP:	0.000	Y_WP:	0.000	Y_WP:	0.750	X:	0.068	Y:	-0.886	Z:	0.403	yaw:	4.053	yaw rate:	54.010	Roll:	7.273	Pitch:	-26.567	Yaw:	0.676	Thrust:	100.000
Time:	3.401	Roll Set Point:	-0.063	Pitch Set Point:	1.775	Yaw Set Point:	-0.081	X_WP:	0.000	Y_WP:	0.000	Y_WP:	0.750	X:	0.068	Y:	-0.886	Z:	0.403	yaw:	4.666	yaw rate:	-61.284	Roll:	-8.710	Pitch:	-26.293	Yaw:	16.774	Thrust:	100.000
Time:	3.421	Roll Set Point:	-0.072	Pitch Set Point:	1.775	Yaw Set Point:	-0.072	X_WP:	0.000	Y_WP:	0.000	Y_WP:	0.750	X:	0.068	Y:	-0.886	Z:	0.403	yaw:	4.146	yaw rate:	51.997	Roll:	6.855	Pitch:	-26.874	Yaw:	1.223	Thrust:	100.000
Time:	3.440	Roll Set Point:	-0.065	Pitch Set Point:	1.775	Yaw Set Point:	-0.080	X_WP:	0.000	Y_WP:	0.000	Y_WP:	0.750	X:	0.068	Y:	-0.886	Z:	0.403	yaw:	4.558	yaw rate:	-41.276	Roll:	-5.911	Pitch:	-26.365	Yaw:	13.937	Thrust:	100.000
Time:	3.461	Roll Set Point:	-0.066	Pitch Set Point:	1.775	Yaw Set Point:	-0.079	X_WP:	0.000	Y_WP:	0.000	Y_WP:	0.750	X:	0.068	Y:	-0.886	Z:	0.403	yaw:	4.546	yaw rate:	1.190	Roll:	0.064	Pitch:	-26.546	Yaw:	8.242	Thrust:	100.000
Time:	3.486	Roll Set Point:	-0.066	Pitch Set Point:	1.775	Yaw Set Point:	-0.079	X_WP:	0.000	Y_WP:	0.000	Y_WP:	0.750	X:	0.068	Y:	-0.886	Z:	0.403	yaw:	4.545	yaw rate:	0.191	Roll:	-0.067	Pitch:	-26.712	Yaw:	8.857	Thrust:	100.000
Time:	3.501	Roll Set Point:	-0.064	Pitch Set Point:	1.775	Yaw Set Point:	-0.080	X_WP:	0.000	Y_WP:	0.000	Y_WP:	0.750	X:	0.068	Y:	-0.886	Z:	0.403	yaw:	4.608	yaw rate:	-6.307	Roll:	-1.748	Pitch:	-25.990	Yaw:	9.031	Thrust:	100.000
Time:	3.521	Roll Set Point:	-0.063	Pitch Set Point:	1.775	Yaw Set Point:	-0.081	X_WP:	0.000	Y_WP:	0.000	Y_WP:	0.750	X:	0.068	Y:	-0.886	Z:	0.403	yaw:	4.668	yaw rate:	-6.043	Roll:	-0.936	Pitch:	-26.543	Yaw:	9.287	Thrust:	100.000
Time:	3.541	Roll Set Point:	-0.063	Pitch Set Point:	1.775	Yaw Set Point:	-0.081	X_WP:	0.000	Y_WP:	0.000	Y_WP:	0.750	X:	0.068	Y:	-0.886	Z:	0.403	yaw:	4.646	yaw rate:	2.242	Roll:	0.175	Pitch:	-26.501	Yaw:	8.220	Thrust:	100.000
Time:	3.562	Roll Set Point:	-0.063	Pitch Set Point:	1.775	Yaw Set Point:	-0.081	X_WP:	0.000	Y_WP:	0.000	Y_WP:	0.750	X:	0.068	Y:	-0.886	Z:	0.403	yaw:	4.668	yaw rate:	-2.192	Roll:	-0.422	Pitch:	-26.559	Yaw:	8.838	Thrust:	100.000
Time:	3.581	Roll Set Point:	-0.073	Pitch Set Point:	1.775	Yaw Set Point:	-0.072	X_WP:	0.000	Y_WP:	0.000	Y_WP:	0.750	X:	0.068	Y:	-0.886	Z:	0.403	yaw:	4.107	yaw rate:	56.087	Roll:	8.293	Pitch:	-26.863	Yaw:	0.195	Thrust:	100.000
Time:	3.601	Roll Set Point:	-0.065	Pitch Set Point:	1.775	Yaw Set Point:	-0.080	X_WP:	0.000	Y_WP:	0.000	Y_WP:	0.750	X:	0.068	Y:	-0.886	Z:	0.403	yaw:	4.566	yaw rate:	-45.947	Roll:	-5.996	Pitch:	-26.402	Yaw:	14.407	Thrust:	100.000
Time:	3.621	Roll Set Point:	-0.065	Pitch Set Point:	1.775	Yaw Set Point:	-0.080	X_WP:	0.000	Y_WP:	0.000	Y_WP:	0.750	X:	0.068	Y:	-0.886	Z:	0.403	yaw:	4.570	yaw rate:	-0.389	Roll:	-0.141	Pitch:	-26.503	Yaw:	8.443	Thrust:	100.000
Time:	3.640	Roll Set Point:	-0.065	Pitch Set Point:	1.775	Yaw Set Point:	-0.080	X_WP:	0.000	Y_WP:	0.000	Y_WP:	0.750	X:	0.068	Y:	-0.886	Z:	0.403	yaw:	4.575	yaw rate:	-0.519	Roll:	-0.168	Pitch:	-26.507	Yaw:	8.374	Thrust:	100.000
Time:	3.661	Roll Set Point:	-0.065	Pitch Set Point:	1.775	Yaw Set Point:	-0.080	X_WP:	0.000	Y_WP:	0.000	Y_WP:	0.750	X:	0.068	Y:	-0.886	Z:	0.403	yaw:	4.560	yaw rate:	1.524	Roll:	0.105	Pitch:	-26.532	Yaw:	8.232	Thrust:	100.000
Time:	3.681	Roll Set Point:	-0.065	Pitch Set Point:	1.775	Yaw Set Point:	-0.080	X_WP:	0.000	Y_WP:	0.000	Y_WP:	0.750	X:	0.068	Y:	-0.886	Z:	0.403	yaw:	4.561	yaw rate:	-0.052	Roll:	-0.084	Pitch:	-26.561	Yaw:	8.384	Thrust:	100.000
Time:	3.701	Roll Set Point:	-0.072	Pitch Set Point:	1.775	Yaw Set Point:	-0.072	X_WP:	0.000	Y_WP:	0.000	Y_WP:	0.750	X:	0.068	Y:	-0.886	Z:	0.403	yaw:	4.125	yaw rate:	43.547	Roll:	6.058	Pitch:	-26.636	Yaw:	1.939	Thrust:	100.000
Time:	3.721	Roll Set Point:	-0.065	Pitch Set Point:	1.775	Yaw Set Point:	-0.080	X_WP:	0.000	Y_WP:	0.000	Y_WP:	0.750	X:	0.068	Y:	-0.886	Z:	0.403	yaw:	4.581	yaw rate:	-45.560	Roll:	-6.235	Pitch:	-26.393	Yaw:	14.256	Thrust:	100.000
Time:	3.741	Roll Set Point:	-0.072	Pitch Set Point:	1.775	Yaw Set Point:	-0.072	X_WP:	0.000	Y_WP:	0.000	Y_WP:	0.750	X:	0.068	Y:	-0.886	Z:	0.403	yaw:	4.128	yaw rate:	45.265	Roll:	6.506	Pitch:	-26.655	Yaw:	1.669	Thrust:	100.000
Time:	3.761	Roll Set Point:	-0.073	Pitch Set Point:	1.775	Yaw Set Point:	-0.071	X_WP:	0.000	Y_WP:	0.000	Y_WP:	0.750	X:	0.068	Y:	-0.886	Z:	0.403	yaw:	4.096	yaw rate:	3.153	Roll:	0.530	Pitch:	-26.548	Yaw:	7.317	Thrust:	100.000
Time:	3.782	Roll Set Point:	-0.065	Pitch Set Point:	1.775	Yaw Set Point:	-0.080	X_WP:	0.000	Y_WP:	0.000	Y_WP:	0.750	X:	0.068	Y:	-0.886	Z:	0.403	yaw:	4.566	yaw rate:	-46.993	Roll:	-6.078	Pitch:	-26.435	Yaw:	14.226	Thrust:	100.000
Time:	3.801	Roll Set Point:	-0.064	Pitch Set Point:	1.775	Yaw Set Point:	-0.081	X_WP:	0.000	Y_WP:	0.000	Y_WP:	0.750	X:	0.068	Y:	-0.886	Z:	0.403	yaw:	4.614	yaw rate:	-4.732	Roll:	-1.120	Pitch:	-26.229	Yaw:	8.966	Thrust:	100.000
Time:	3.821	Roll Set Point:	-0.073	Pitch Set Point:	1.775	Yaw Set Point:	-0.072	X_WP:	0.000	Y_WP:	0.000	Y_WP:	0.750	X:	0.068	Y:	-0.886	Z:	0.403	yaw:	4.104	yaw rate:	50.924	Roll:	7.206	Pitch:	-26.905	Yaw:	0.906	Thrust:	100.000
Time:	3.841	Roll Set Point:	-0.063	Pitch Set Point:	1.775	Yaw Set Point:	-0.081	X_WP:	0.000	Y_WP:	0.000	Y_WP:	0.750	X:	0.068	Y:	-0.886	Z:	0.403	yaw:	4.653	yaw rate:	-54.866	Roll:	-7.704	Pitch:	-26.159	Yaw:	15.493	Thrust:	100.000
Time:	3.861	Roll Set Point:	-0.063	Pitch Set Point:	1.774	Yaw Set Point:	-0.081	X_WP:	0.000	Y_WP:	0.000	Y_WP:	0.750	X:	0.068	Y:	-0.886	Z:	0.403	yaw:	4.650	yaw rate:	0.351	Roll:	-0.104	Pitch:	-26.508	Yaw:	8.387	Thrust:	100.000
Time:	3.882	Roll Set Point:	-0.063	Pitch Set Point:	1.775	Yaw Set Point:	-0.081	X_WP:	0.000	Y_WP:	0.000	Y_WP:	0.750	X:	0.068	Y:	-0.886	Z:	0.403	yaw:	4.648	yaw rate:	0.132	Roll:	-0.112	Pitch:	-26.586	Yaw:	8.579	Thrust:	100.000
Time:	3.900	Roll Set Point:	-0.073	Pitch Set Point:	1.775	Yaw Set Point:	-0.072	X_WP:	0.000	Y_WP:	0.000	Y_WP:	0.750	X:	0.068	Y:	-0.886	Z:	0.403	yaw:	4.109	yaw rate:	53.925	Roll:	8.182	Pitch:	-26.859	Yaw:	0.048	Thrust:	100.000
Time:	3.921	Roll Set Point:	-0.072	Pitch Set Point:	1.775	Yaw Set Point:	-0.071	X_WP:	0.000	Y_WP:	0.000	Y_WP:	0.750	X:	0.068	Y:	-0.886	Z:	0.403	yaw:	4.084	yaw rate:	2.467	Roll:	0.172	Pitch:	-26.333	Yaw:	7.430	Thrust:	100.000
Time:	3.941	Roll Set Point:	-0.063	Pitch Set Point:	1.775	Yaw Set Point:	-0.081	X_WP:	0.000	Y_WP:	0.000	Y_WP:	0.750	X:	0.068	Y:	-0.886	Z:	0.403	yaw:	4.669	yaw rate:	-58.441	Roll:	-8.083	Pitch:	-26.320	Yaw:	16.074	Thrust:	100.000
Time:	3.961	Roll Set Point:	-0.065	Pitch Set Point:	1.775	Yaw Set Point:	-0.080	X_WP:	0.000	Y_WP:	0.000	Y_WP:	0.750	X:	0.068	Y:	-0.886	Z:	0.403	yaw:	4.580	yaw rate:	8.879	Roll:	1.379	Pitch:	-26.781	Yaw:	7.088	Thrust:	100.000
Time:	3.980	Roll Set Point:	-0.065	Pitch Set Point:	1.775	Yaw Set Point:	-0.080	X_WP:	0.000	Y_WP:	0.000	Y_WP:	0.750	X:	0.068	Y:	-0.886	Z:	0.403	yaw:	4.570	yaw rate:	1.024	Roll:	0.029	Pitch:	-26.483	Yaw:	8.233	Thrust:	100.000
Time:	4.001	Roll Set Point:	-0.063	Pitch Set Point:	1.774	Yaw Set Point:	-0.081	X_WP:	0.000	Y_WP:	0.000	Y_WP:	0.750	X:	0.068	Y:	-0.886	Z:	0.403	yaw:	4.665	yaw rate:	-9.544	Roll:	-1.725	Pitch:	-26.285	Yaw:	9.797	Thrust:	100.000
Time:	4.021	Roll Set Point:	-0.064	Pitch Set Point:	1.775	Yaw Set Point:	-0.080	X_WP:	0.000	Y_WP:	0.000	Y_WP:	0.750	X:	0.068	Y:	-0.886	Z:	0.403	yaw:	4.612	yaw rate:	5.328	Roll:	0.583	Pitch:	-26.564	Yaw:	7.713	Thrust:	100.000
Time:	4.041	Roll Set Point:	-0.065	Pitch Set Point:	1.775	Yaw Set Point:	-0.080	X_WP:	0.000	Y_WP:	0.000	Y_WP:	0.750	X:	0.068	Y:	-0.886	Z:	0.403	yaw:	4.593	yaw rate:	1.846	Roll:	0.409	Pitch:	-26.749	Yaw:	8.224	Thrust:	100.000
Time:	4.060	Roll Set Point:	-0.065	Pitch Set Point:	1.775	Yaw Set Point:	-0.079	X_WP:	0.000	Y_WP:	0.000	Y_WP:	0.750	X:	0.068	Y:	-0.886	Z:	0.403	yaw:	4.551	yaw rate:	4.252	Roll:	0.508	Pitch:	-26.462	Yaw:	7.631	Thrust:	100.000
Time:	4.082	Roll Set Point:	-0.066	Pitch Set Point:	1.775	Yaw Set Point:	-0.079	X_WP:	0.000	Y_WP:	0.000	Y_WP:	0.750	X:	0.068	Y:	-0.886	Z:	0.403	yaw:	4.547	yaw rate:	0.428	Roll:	-0.030	Pitch:	-26.578	Yaw:	8.453	Thrust:	100.000
Time:	4.101	Roll Set Point:	-0.064	Pitch Set Point:	1.775	Yaw Set Point:	-0.081	X_WP:	0.000	Y_WP:	0.000	Y_WP:	0.750	X:	0.068	Y:	-0.886	Z:	0.403	yaw:	4.617	yaw rate:	-6.984	Roll:	-1.076	Pitch:	-26.499	Yaw:	9.309	Thrust:	100.000
Time:	4.120	Roll Set Point:	-0.073	Pitch Set Point:	1.775	Yaw Set Point:	-0.071	X_WP:	0.000	Y_WP:	0.000	Y_WP:	0.750	X:	0.068	Y:	-0.886	Z:	0.403	yaw:	4.084	yaw rate:	53.282	Roll:	7.044	Pitch:	-26.652	Yaw:	0.579	Thrust:	100.000
Time:	4.140	Roll Set Point:	-0.063	Pitch Set Point:	1.775	Yaw Set Point:	-0.081	X_WP:	0.000	Y_WP:	0.000	Y_WP:	0.750	X:	0.068	Y:	-0.886	Z:	0.403	yaw:	4.638	yaw rate:	-55.440	Roll:	-8.130	Pitch:	-26.136	Yaw:	15.913	Thrust:	100.000
Time:	4.161	Roll Set Point:	-0.073	Pitch Set Point:	1.775	Yaw Set Point:	-0.071	X_WP:	0.000	Y_WP:	0.000	Y_WP:	0.750	X:	0.068	Y:	-0.886	Z:	0.403	yaw:	4.061	yaw rate:	57.751	Roll:	7.774	Pitch:	-26.735	Yaw:	0.528	Thrust:	100.000
Time:	4.181	Roll Set Point:	-0.064	Pitch Set Point:	1.775	Yaw Set Point:	-0.081	X_WP:	0.000	Y_WP:	0.000	Y_WP:	0.750	X:	0.068	Y:	-0.886	Z:	0.403	yaw:	4.630	yaw rate:	-56.913	Roll:	-7.510	Pitch:	-26.364	Yaw:	15.841	Thrust:	100.000
Time:	4.201	Roll Set Point:	-0.073	Pitch Set Point:	1.775	Yaw Set Point:	-0.072	X_WP:	0.000	Y_WP:	0.000	Y_WP:	0.750	X:	0.068	Y:	-0.886	Z:	0.403	yaw:	4.116	yaw rate:	51.405	Roll:	7.728	Pitch:	-26.878	Yaw:	0.975	Thrust:	100.000
Time:	4.221	Roll Set Point:	-0.065	Pitch Set Point:	1.775	Yaw Set Point:	-0.080	X_WP:	0.000	Y_WP:	0.000	Y_WP:	0.750	X:	0.068	Y:	-0.886	Z:	0.403	yaw:	4.584	yaw rate:	-46.873	Roll:	-6.260	Pitch:	-26.357	Yaw:	14.639	Thrust:	100.000
Time:	4.240	Roll Set Point:	-0.065	Pitch Set Point:	1.775	Yaw Set Point:	-0.080	X_WP:	0.000	Y_WP:	0.000	Y_WP:	0.750	X:	0.068	Y:	-0.886	Z:	0.403	yaw:	4.594	yaw rate:	-0.983	Roll:	-0.236	Pitch:	-26.520	Yaw:	8.523	Thrust:	100.000
Time:	4.261	Roll Set Point:	-0.063	Pitch Set Point:	1.775	Yaw Set Point:	-0.081	X_WP:	0.000	Y_WP:	0.000	Y_WP:	0.750	X:	0.068	Y:	-0.886	Z:	0.403	yaw:	4.641	yaw rate:	-4.638	Roll:	-1.002	Pitch:	-26.356	Yaw:	9.134	Thrust:	100.000
Time:	4.280	Roll Set Point:	-0.063	Pitch Set Point:	1.775	Yaw Set Point:	-0.082	X_WP:	0.000	Y_WP:	0.000	Y_WP:	0.750	X:	0.068	Y:	-0.886	Z:	0.403	yaw:	4.681	yaw rate:	-4.052	Roll:	-0.693	Pitch:	-26.501	Yaw:	9.046	Thrust:	100.000
Time:	4.300	Roll Set Point:	-0.073	Pitch Set Point:	1.775	Yaw Set Point:	-0.071	X_WP:	0.000	Y_WP:	0.000	Y_WP:	0.750	X:	0.068	Y:	-0.886	Z:	0.403	yaw:	4.096	yaw rate:	58.502	Roll:	8.493	Pitch:	-26.849	Yaw:	-0.233	Thrust:	100.000
Time:	4.321	Roll Set Point:	-0.065	Pitch Set Point:	1.775	Yaw Set Point:	-0.080	X_WP:	0.000	Y_WP:	0.000	Y_WP:	0.750	X:	0.068	Y:	-0.886	Z:	0.403	yaw:	4.563	yaw rate:	-46.643	Roll:	-6.173	Pitch:	-26.429	Yaw:	14.261	Thrust:	100.000
Time:	4.340	Roll Set Point:	-0.065	Pitch Set Point:	1.775	Yaw Set Point:	-0.080	X_WP:	0.000	Y_WP:	0.000	Y_WP:	0.750	X:	0.068	Y:	-0.886	Z:	0.403	yaw:	4.589	yaw rate:	-2.609	Roll:	-0.447	Pitch:	-26.510	Yaw:	8.681	Thrust:	100.000
Time:	4.361	Roll Set Point:	-0.064	Pitch Set Point:	1.775	Yaw Set Point:	-0.081	X_WP:	0.000	Y_WP:	0.000	Y_WP:	0.750	X:	0.068	Y:	-0.886	Z:	0.403	yaw:	4.621	yaw rate:	-3.250	Roll:	-0.561	Pitch:	-26.502	Yaw:	8.885	Thrust:	100.000
Time:	4.381	Roll Set Point:	-0.065	Pitch Set Point:	1.775	Yaw Set Point:	-0.080	X_WP:	0.000	Y_WP:	0.000	Y_WP:	0.750	X:	0.068	Y:	-0.886	Z:	0.403	yaw:	4.563	yaw rate:	5.803	Roll:	0.664	Pitch:	-26.561	Yaw:	7.653	Thrust:	100.000
Time:	4.400	Roll Set Point:	-0.065	Pitch Set Point:	1.775	Yaw Set Point:	-0.080	X_WP:	0.000	Y_WP:	0.000	Y_WP:	0.750	X:	0.068	Y:	-0.886	Z:	0.403	yaw:	4.559	yaw rate:	0.382	Roll:	-0.026	Pitch:	-26.541	Yaw:	8.311	Thrust:	100.000
Time:	4.421	Roll Set Point:	-0.065	Pitch Set Point:	1.775	Yaw Set Point:	-0.080	X_WP:	0.000	Y_WP:	0.000	Y_WP:	0.750	X:	0.068	Y:	-0.886	Z:	0.403	yaw:	4.569	yaw rate:	-0.965	Roll:	-0.246	Pitch:	-26.492	Yaw:	8.512	Thrust:	100.000
Time:	4.441	Roll Set Point:	-0.073	Pitch Set Point:	1.775	Yaw Set Point:	-0.071	X_WP:	0.000	Y_WP:	0.000	Y_WP:	0.750	X:	0.068	Y:	-0.886	Z:	0.403	yaw:	4.082	yaw rate:	48.679	Roll:	6.620	Pitch:	-26.677	Yaw:	1.611	Thrust:	100.000
Time:	4.460	Roll Set Point:	-0.065	Pitch Set Point:	1.775	Yaw Set Point:	-0.080	X_WP:	0.000	Y_WP:	0.000	Y_WP:	0.750	X:	0.068	Y:	-0.886	Z:	0.403	yaw:	4.593	yaw rate:	-51.057	Roll:	-6.976	Pitch:	-26.394	Yaw:	15.361	Thrust:	100.000
Time:	4.482	Roll Set Point:	-0.063	Pitch Set Point:	1.775	Yaw Set Point:	-0.082	X_WP:	0.000	Y_WP:	0.000	Y_WP:	0.750	X:	0.068	Y:	-0.886	Z:	0.403	yaw:	4.673	yaw rate:	-8.051	Roll:	-1.472	Pitch:	-26.317	Yaw:	9.663	Thrust:	100.000
Time:	4.500	Roll Set Point:	-0.073	Pitch Set Point:	1.775	Yaw Set Point:	-0.071	X_WP:	0.000	Y_WP:	0.000	Y_WP:	0.750	X:	0.068	Y:	-0.886	Z:	0.403	yaw:	4.054	yaw rate:	61.926	Roll:	8.694	Pitch:	-26.695	Yaw:	-1.316	Thrust:	100.000
Time:	4.521	Roll Set Point:	-0.073	Pitch Set Point:	1.775	Yaw Set Point:	-0.072	X_WP:	0.000	Y_WP:	0.000	Y_WP:	0.750	X:	0.068	Y:	-0.886	Z:	0.403	yaw:	4.101	yaw rate:	-4.702	Roll:	-0.236	Pitch:	-26.703	Yaw:	8.371	Thrust:	100.000
Time:	4.541	Roll Set Point:	-0.065	Pitch Set Point:	1.775	Yaw Set Point:	-0.080	X_WP:	0.000	Y_WP:	0.000	Y_WP:	0.750	X:	0.068	Y:	-0.886	Z:	0.403	yaw:	4.579	yaw rate:	-47.783	Roll:	-6.639	Pitch:	-26.376	Yaw:	14.608	Thrust:	100.000
Time:	4.560	Roll Set Point:	-0.065	Pitch Set Point:	1.775	Yaw Set Point:	-0.080	X_WP:	0.000	Y_WP:	0.000	Y_WP:	0.750	X:	0.068	Y:	-0.886	Z:	0.403	yaw:	4.574	yaw rate:	0.479	Roll:	-0.054	Pitch:	-26.519	Yaw:	8.288	Thrust:	100.000
Time:	4.581	Roll Set Point:	-0.066	Pitch Set Point:	1.775	Yaw Set Point:	-0.079	X_WP:	0.000	Y_WP:	0.000	Y_WP:	0.750	X:	0.068	Y:	-0.886	Z:	0.403	yaw:	4.545	yaw rate:	2.905	Roll:	0.309	Pitch:	-26.556	Yaw:	7.985	Thrust:	100.000
Time:	4.601	Roll Set Point:	-0.065	Pitch Set Point:	1.775	Yaw Set Point:	-0.080	X_WP:	0.000	Y_WP:	0.000	Y_WP:	0.750	X:	0.068	Y:	-0.886	Z:	0.403	yaw:	4.564	yaw rate:	-1.923	Roll:	-0.350	Pitch:	-26.537	Yaw:	8.636	Thrust:	100.000
Time:	4.628	Roll Set Point:	-0.065	Pitch Set Point:	1.775	Yaw Set Point:	-0.080	X_WP:	0.000	Y_WP:	0.000	Y_WP:	0.750	X:	0.068	Y:	-0.886	Z:	0.403	yaw:	4.596	yaw rate:	-3.162	Roll:	-0.426	Pitch:	-26.758	Yaw:	9.399	Thrust:	100.000
Time:	4.640	Roll Set Point:	-0.065	Pitch Set Point:	1.775	Yaw Set Point:	-0.080	X_WP:	0.000	Y_WP:	0.000	Y_WP:	0.750	X:	0.068	Y:	-0.886	Z:	0.403	yaw:	4.596	yaw rate:	-0.012	Roll:	-0.098	Pitch:	-26.271	Yaw:	7.685	Thrust:	100.000
Time:	4.661	Roll Set Point:	-0.072	Pitch Set Point:	1.775	Yaw Set Point:	-0.072	X_WP:	0.000	Y_WP:	0.000	Y_WP:	0.750	X:	0.068	Y:	-0.886	Z:	0.403	yaw:	4.123	yaw rate:	47.264	Roll:	6.426	Pitch:	-26.694	Yaw:	1.818	Thrust:	100.000
Time:	4.681	Roll Set Point:	-0.065	Pitch Set Point:	1.775	Yaw Set Point:	-0.080	X_WP:	0.000	Y_WP:	0.000	Y_WP:	0.750	X:	0.068	Y:	-0.886	Z:	0.403	yaw:	4.583	yaw rate:	-46.011	Roll:	-6.132	Pitch:	-26.369	Yaw:	14.406	Thrust:	100.000
Time:	4.701	Roll Set Point:	-0.065	Pitch Set Point:	1.775	Yaw Set Point:	-0.080	X_WP:	0.000	Y_WP:	0.000	Y_WP:	0.750	X:	0.068	Y:	-0.886	Z:	0.403	yaw:	4.591	yaw rate:	-0.760	Roll:	-0.185	Pitch:	-26.544	Yaw:	8.499	Thrust:	100.000
Time:	4.720	Roll Set Point:	-0.065	Pitch Set Point:	1.775	Yaw Set Point:	-0.080	X_WP:	0.000	Y_WP:	0.000	Y_WP:	0.750	X:	0.068	Y:	-0.886	Z:	0.403	yaw:	4.602	yaw rate:	-1.136	Roll:	-0.275	Pitch:	-26.487	Yaw:	8.534	Thrust:	100.000
Time:	4.740	Roll Set Point:	-0.065	Pitch Set Point:	1.775	Yaw Set Point:	-0.080	X_WP:	0.000	Y_WP:	0.000	Y_WP:	0.750	X:	0.068	Y:	-0.886	Z:	0.403	yaw:	4.581	yaw rate:	2.185	Roll:	0.173	Pitch:	-26.521	Yaw:	8.095	Thrust:	100.000
Time:	4.765	Roll Set Point:	-0.065	Pitch Set Point:	1.775	Yaw Set Point:	-0.079	X_WP:	0.000	Y_WP:	0.000	Y_WP:	0.750	X:	0.068	Y:	-0.886	Z:	0.403	yaw:	4.553	yaw rate:	2.780	Roll:	0.298	Pitch:	-26.560	Yaw:	8.532	Thrust:	100.000
Time:	4.781	Roll Set Point:	-0.064	Pitch Set Point:	1.775	Yaw Set Point:	-0.080	X_WP:	0.000	Y_WP:	0.000	Y_WP:	0.750	X:	0.068	Y:	-0.886	Z:	0.403	yaw:	4.589	yaw rate:	-3.660	Roll:	-0.905	Pitch:	-26.276	Yaw:	8.608	Thrust:	100.000
Time:	4.800	Roll Set Point:	-0.063	Pitch Set Point:	1.775	Yaw Set Point:	-0.081	X_WP:	0.000	Y_WP:	0.000	Y_WP:	0.750	X:	0.068	Y:	-0.886	Z:	0.403	yaw:	4.637	yaw rate:	-4.718	Roll:	-0.804	Pitch:	-26.442	Yaw:	8.958	Thrust:	100.000
Time:	4.820	Roll Set Point:	-0.063	Pitch Set Point:	1.775	Yaw Set Point:	-0.081	X_WP:	0.000	Y_WP:	0.000	Y_WP:	0.750	X:	0.068	Y:	-0.886	Z:	0.403	yaw:	4.652	yaw rate:	-1.527	Roll:	-0.329	Pitch:	-26.568	Yaw:	8.807	Thrust:	100.000
Time:	4.839	Roll Set Point:	-0.064	Pitch Set Point:	1.775	Yaw Set Point:	-0.081	X_WP:	0.000	Y_WP:	0.000	Y_WP:	0.750	X:	0.068	Y:	-0.886	Z:	0.403	yaw:	4.616	yaw rate:	3.534	Roll:	0.670	Pitch:	-26.688	Yaw:	7.877	Thrust:	100.000
Time:	4.860	Roll Set Point:	-0.065	Pitch Set Point:	1.775	Yaw Set Point:	-0.080	X_WP:	0.000	Y_WP:	0.000	Y_WP:	0.750	X:	0.068	Y:	-0.886	Z:	0.403	yaw:	4.556	yaw rate:	6.094	Roll:	0.700	Pitch:	-26.544	Yaw:	7.656	Thrust:	100.000
Time:	4.880	Roll Set Point:	-0.066	Pitch Set Point:	1.775	Yaw Set Point:	-0.079	X_WP:	0.000	Y_WP:	0.000	Y_WP:	0.750	X:	0.068	Y:	-0.886	Z:	0.403	yaw:	4.546	yaw rate:	0.928	Roll:	0.035	Pitch:	-26.558	Yaw:	8.288	Thrust:	100.000
Time:	4.900	Roll Set Point:	-0.065	Pitch Set Point:	1.775	Yaw Set Point:	-0.079	X_WP:	0.000	Y_WP:	0.000	Y_WP:	0.750	X:	0.068	Y:	-0.886	Z:	0.403	yaw:	4.554	yaw rate:	-0.794	Roll:	-0.186	Pitch:	-26.522	Yaw:	8.423	Thrust:	100.000
Time:	4.920	Roll Set Point:	-0.065	Pitch Set Point:	1.775	Yaw Set Point:	-0.080	X_WP:	0.000	Y_WP:	0.000	Y_WP:	0.750	X:	0.068	Y:	-0.886	Z:	0.403	yaw:	4.576	yaw rate:	-2.146	Roll:	-0.386	Pitch:	-26.511	Yaw:	8.689	Thrust:	100.000
Time:	4.940	Roll Set Point:	-0.063	Pitch Set Point:	1.775	Yaw Set Point:	-0.081	X_WP:	0.000	Y_WP:	0.000	Y_WP:	0.750	X:	0.068	Y:	-0.886	Z:	0.403	yaw:	4.657	yaw rate:	-8.090	Roll:	-1.572	Pitch:	-26.270	Yaw:	9.553	Thrust:	100.000
Time:	4.961	Roll Set Point:	-0.064	Pitch Set Point:	1.775	Yaw Set Point:	-0.081	X_WP:	0.000	Y_WP:	0.000	Y_WP:	0.750	X:	0.068	Y:	-0.886	Z:	0.403	yaw:	4.614	yaw rate:	4.230	Roll:	0.392	Pitch:	-26.590	Yaw:	7.963	Thrust:	100.000
Time:	4.981	Roll Set Point:	-0.066	Pitch Set Point:	1.775	Yaw Set Point:	-0.079	X_WP:	0.000	Y_WP:	0.000	Y_WP:	0.750	X:	0.068	Y:	-0.886	Z:	0.403	yaw:	4.530	yaw rate:	8.401	Roll:	1.411	Pitch:	-26.712	Yaw:	7.222	Thrust:	100.000
Time:	5.000	Roll Set Point:	-0.065	Pitch Set Point:	1.775	Yaw Set Point:	-0.080	X_WP:	0.000	Y_WP:	0.000	Y_WP:	0.750	X:	0.068	Y:	-0.886	Z:	0.403	yaw:	4.556	yaw rate:	-2.573	Roll:	-0.428	Pitch:	-26.515	Yaw:	8.618	Thrust:	100.000
Time:	5.020	Roll Set Point:	-0.065	Pitch Set Point:	1.775	Yaw Set Point:	-0.080	X_WP:	0.000	Y_WP:	0.000	Y_WP:	0.750	X:	0.068	Y:	-0.886	Z:	0.403	yaw:	4.587	yaw rate:	-3.104	Roll:	-0.523	Pitch:	-26.541	Yaw:	8.825	Thrust:	100.000
Time:	5.041	Roll Set Point:	-0.065	Pitch Set Point:	1.775	Yaw Set Point:	-0.080	X_WP:	0.000	Y_WP:	0.000	Y_WP:	0.750	X:	0.068	Y:	-0.886	Z:	0.403	yaw:	4.598	yaw rate:	-1.062	Roll:	-0.257	Pitch:	-26.507	Yaw:	8.660	Thrust:	100.000
Time:	5.061	Roll Set Point:	-0.066	Pitch Set Point:	1.775	Yaw Set Point:	-0.079	X_WP:	0.000	Y_WP:	0.000	Y_WP:	0.750	X:	0.068	Y:	-0.886	Z:	0.403	yaw:	4.548	yaw rate:	4.941	Roll:	0.566	Pitch:	-26.549	Yaw:	7.672	Thrust:	100.000
Time:	5.086	Roll Set Point:	-0.065	Pitch Set Point:	1.775	Yaw Set Point:	-0.080	X_WP:	0.000	Y_WP:	0.000	Y_WP:	0.750	X:	0.068	Y:	-0.886	Z:	0.403	yaw:	4.579	yaw rate:	-3.050	Roll:	-0.471	Pitch:	-26.666	Yaw:	9.196	Thrust:	100.000
Time:	5.101	Roll Set Point:	-0.066	Pitch Set Point:	1.775	Yaw Set Point:	-0.079	X_WP:	0.000	Y_WP:	0.000	Y_WP:	0.750	X:	0.068	Y:	-0.886	Z:	0.403	yaw:	4.543	yaw rate:	3.551	Roll:	0.461	Pitch:	-26.387	Yaw:	7.131	Thrust:	100.000
Time:	5.122	Roll Set Point:	-0.065	Pitch Set Point:	1.775	Yaw Set Point:	-0.080	X_WP:	0.000	Y_WP:	0.000	Y_WP:	0.750	X:	0.068	Y:	-0.886	Z:	0.403	yaw:	4.561	yaw rate:	-1.806	Roll:	-0.337	Pitch:	-26.540	Yaw:	8.752	Thrust:	100.000
Time:	5.141	Roll Set Point:	-0.063	Pitch Set Point:	1.775	Yaw Set Point:	-0.081	X_WP:	0.000	Y_WP:	0.000	Y_WP:	0.750	X:	0.068	Y:	-0.886	Z:	0.403	yaw:	4.638	yaw rate:	-7.681	Roll:	-1.474	Pitch:	-26.312	Yaw:	9.438	Thrust:	100.000
Time:	5.161	Roll Set Point:	-0.063	Pitch Set Point:	1.775	Yaw Set Point:	-0.081	X_WP:	0.000	Y_WP:	0.000	Y_WP:	0.750	X:	0.068	Y:	-0.886	Z:	0.403	yaw:	4.636	yaw rate:	0.238	Roll:	-0.120	Pitch:	-26.496	Yaw:	8.462	Thrust:	100.000
Time:	5.184	Roll Set Point:	-0.072	Pitch Set Point:	1.775	Yaw Set Point:	-0.072	X_WP:	0.000	Y_WP:	0.000	Y_WP:	0.750	X:	0.068	Y:	-0.886	Z:	0.403	yaw:	4.122	yaw rate:	51.353	Roll:	7.038	Pitch:	-26.921	Yaw:	2.118	Thrust:	100.000
Time:	5.201	Roll Set Point:	-0.065	Pitch Set Point:	1.775	Yaw Set Point:	-0.080	X_WP:	0.000	Y_WP:	0.000	Y_WP:	0.750	X:	0.068	Y:	-0.886	Z:	0.403	yaw:	4.561	yaw rate:	-43.926	Roll:	-6.260	Pitch:	-26.285	Yaw:	14.742	Thrust:	100.000
Time:	5.221	Roll Set Point:	-0.066	Pitch Set Point:	1.775	Yaw Set Point:	-0.079	X_WP:	0.000	Y_WP:	0.000	Y_WP:	0.750	X:	0.068	Y:	-0.886	Z:	0.403	yaw:	4.537	yaw rate:	2.490	Roll:	0.257	Pitch:	-26.555	Yaw:	8.021	Thrust:	100.000
Time:	5.240	Roll Set Point:	-0.064	Pitch Set Point:	1.775	Yaw Set Point:	-0.081	X_WP:	0.000	Y_WP:	0.000	Y_WP:	0.750	X:	0.068	Y:	-0.886	Z:	0.403	yaw:	4.618	yaw rate:	-8.137	Roll:	-1.245	Pitch:	-26.522	Yaw:	9.481	Thrust:	100.000
Time:	5.261	Roll Set Point:	-0.063	Pitch Set Point:	1.775	Yaw Set Point:	-0.081	X_WP:	0.000	Y_WP:	0.000	Y_WP:	0.750	X:	0.068	Y:	-0.886	Z:	0.403	yaw:	4.661	yaw rate:	-4.318	Roll:	-0.992	Pitch:	-26.295	Yaw:	9.062	Thrust:	100.000
Time:	5.281	Roll Set Point:	-0.063	Pitch Set Point:	1.775	Yaw Set Point:	-0.081	X_WP:	0.000	Y_WP:	0.000	Y_WP:	0.750	X:	0.068	Y:	-0.886	Z:	0.403	yaw:	4.642	yaw rate:	1.860	Roll:	0.108	Pitch:	-26.551	Yaw:	8.332	Thrust:	100.000
Time:	5.302	Roll Set Point:	-0.073	Pitch Set Point:	1.775	Yaw Set Point:	-0.071	X_WP:	0.000	Y_WP:	0.000	Y_WP:	0.750	X:	0.068	Y:	-0.886	Z:	0.403	yaw:	4.083	yaw rate:	55.914	Roll:	7.365	Pitch:	-26.900	Yaw:	1.029	Thrust:	100.000
Time:	5.321	Roll Set Point:	-0.064	Pitch Set Point:	1.775	Yaw Set Point:	-0.081	X_WP:	0.000	Y_WP:	0.000	Y_WP:	0.750	X:	0.068	Y:	-0.886	Z:	0.403	yaw:	4.617	yaw rate:	-53.337	Roll:	-7.806	Pitch:	-26.320	Yaw:	15.968	Thrust:	100.000
