Time:	0.032	Roll Set Point:	-0.060	Pitch Set Point:	-0.039	Yaw Set Point:	0.015	X_WP:	0.000	Y_WP:	0.000	Y_WP:	-0.100	X:	0.030	Y:	0.019	Z:	0.048	yaw:	-0.857	yaw rate:	1.021	Roll:	0.301	Pitch:	0.195	Yaw:	-1.197	Thrust:	0.000
Time:	0.042	Roll Set Point:	-0.060	Pitch Set Point:	-0.039	Yaw Set Point:	0.017	X_WP:	0.000	Y_WP:	0.000	Y_WP:	-0.100	X:	0.030	Y:	0.019	Z:	0.048	yaw:	-0.994	yaw rate:	13.726	Roll:	0.156	Pitch:	0.206	Yaw:	-4.803	Thrust:	0.000
Time:	0.053	Roll Set Point:	-0.061	Pitch Set Point:	-0.038	Yaw Set Point:	0.015	X_WP:	0.000	Y_WP:	0.000	Y_WP:	-0.100	X:	0.030	Y:	0.019	Z:	0.048	yaw:	-0.854	yaw rate:	-14.056	Roll:	0.624	Pitch:	0.126	Yaw:	2.295	Thrust:	0.000
Time:	0.066	Roll Set Point:	-0.060	Pitch Set Point:	-0.039	Yaw Set Point:	0.015	X_WP:	0.000	Y_WP:	0.000	Y_WP:	-0.100	X:	0.030	Y:	0.019	Z:	0.048	yaw:	-0.850	yaw rate:	-0.411	Roll:	0.181	Pitch:	0.247	Yaw:	-1.113	Thrust:	0.000
Time:	0.090	Roll Set Point:	-0.060	Pitch Set Point:	-0.038	Yaw Set Point:	0.019	X_WP:	0.000	Y_WP:	0.000	Y_WP:	-0.100	X:	0.030	Y:	0.019	Z:	0.048	yaw:	-1.061	yaw rate:	4.289	Roll:	0.349	Pitch:	0.237	Yaw:	-3.763	Thrust:	0.000
Time:	0.101	Roll Set Point:	-0.061	Pitch Set Point:	-0.038	Yaw Set Point:	0.015	X_WP:	0.000	Y_WP:	0.000	Y_WP:	-0.100	X:	0.030	Y:	0.019	Z:	0.048	yaw:	-0.880	yaw rate:	-18.112	Roll:	0.449	Pitch:	0.155	Yaw:	3.016	Thrust:	0.000
Time:	0.112	Roll Set Point:	-0.060	Pitch Set Point:	-0.039	Yaw Set Point:	0.015	X_WP:	0.000	Y_WP:	0.000	Y_WP:	-0.100	X:	0.030	Y:	0.019	Z:	0.048	yaw:	-0.848	yaw rate:	-3.179	Roll:	0.221	Pitch:	0.267	Yaw:	-0.374	Thrust:	0.000
Time:	0.123	Roll Set Point:	-0.060	Pitch Set Point:	-0.038	Yaw Set Point:	0.016	X_WP:	0.000	Y_WP:	0.000	Y_WP:	-0.100	X:	0.030	Y:	0.019	Z:	0.048	yaw:	-0.917	yaw rate:	6.868	Roll:	0.217	Pitch:	0.191	Yaw:	-2.851	Thrust:	0.000
Time:	0.134	Roll Set Point:	-0.060	Pitch Set Point:	-0.038	Yaw Set Point:	0.017	X_WP:	0.000	Y_WP:	0.000	Y_WP:	-0.100	X:	0.030	Y:	0.019	Z:	0.048	yaw:	-0.978	yaw rate:	6.086	Roll:	0.475	Pitch:	0.216	Yaw:	-2.887	Thrust:	0.000
Time:	0.144	Roll Set Point:	-0.060	Pitch Set Point:	-0.038	Yaw Set Point:	0.018	X_WP:	0.000	Y_WP:	0.000	Y_WP:	-0.100	X:	0.030	Y:	0.019	Z:	0.048	yaw:	-1.032	yaw rate:	5.393	Roll:	0.361	Pitch:	0.278	Yaw:	-2.751	Thrust:	0.000
Time:	0.159	Roll Set Point:	-0.060	Pitch Set Point:	-0.038	Yaw Set Point:	0.018	X_WP:	0.000	Y_WP:	0.000	Y_WP:	-0.100	X:	0.030	Y:	0.019	Z:	0.048	yaw:	-1.045	yaw rate:	1.348	Roll:	0.394	Pitch:	0.263	Yaw:	-1.749	Thrust:	0.000
Time:	0.170	Roll Set Point:	-0.060	Pitch Set Point:	-0.038	Yaw Set Point:	0.019	X_WP:	0.000	Y_WP:	0.000	Y_WP:	-0.100	X:	0.030	Y:	0.019	Z:	0.048	yaw:	-1.066	yaw rate:	2.050	Roll:	0.360	Pitch:	0.256	Yaw:	-2.005	Thrust:	0.000
Time:	0.181	Roll Set Point:	-0.061	Pitch Set Point:	-0.038	Yaw Set Point:	0.015	X_WP:	0.000	Y_WP:	0.000	Y_WP:	-0.100	X:	0.030	Y:	0.019	Z:	0.048	yaw:	-0.879	yaw rate:	-18.686	Roll:	0.518	Pitch:	0.159	Yaw:	3.375	Thrust:	0.000
Time:	0.191	Roll Set Point:	-0.060	Pitch Set Point:	-0.039	Yaw Set Point:	0.015	X_WP:	0.000	Y_WP:	0.000	Y_WP:	-0.100	X:	0.030	Y:	0.019	Z:	0.048	yaw:	-0.855	yaw rate:	-2.390	Roll:	0.275	Pitch:	0.313	Yaw:	-0.645	Thrust:	0.000
Time:	0.205	Roll Set Point:	-0.060	Pitch Set Point:	-0.039	Yaw Set Point:	0.015	X_WP:	0.000	Y_WP:	0.000	Y_WP:	-0.100	X:	0.030	Y:	0.019	Z:	0.048	yaw:	-0.854	yaw rate:	-0.092	Roll:	0.396	Pitch:	0.266	Yaw:	-1.232	Thrust:	0.000
Time:	0.226	Roll Set Point:	-0.060	Pitch Set Point:	-0.039	Yaw Set Point:	0.015	X_WP:	0.000	Y_WP:	0.000	Y_WP:	-0.100	X:	0.030	Y:	0.019	Z:	0.048	yaw:	-0.846	yaw rate:	-0.812	Roll:	0.486	Pitch:	0.314	Yaw:	-1.188	Thrust:	0.000
Time:	0.237	Roll Set Point:	-0.060	Pitch Set Point:	-0.039	Yaw Set Point:	0.014	X_WP:	0.000	Y_WP:	0.000	Y_WP:	-0.100	X:	0.030	Y:	0.019	Z:	0.048	yaw:	-0.830	yaw rate:	-0.787	Roll:	0.425	Pitch:	0.264	Yaw:	-0.858	Thrust:	0.000
Time:	0.248	Roll Set Point:	-0.060	Pitch Set Point:	-0.039	Yaw Set Point:	0.015	X_WP:	0.000	Y_WP:	0.000	Y_WP:	-0.100	X:	0.030	Y:	0.019	Z:	0.048	yaw:	-0.838	yaw rate:	0.882	Roll:	0.415	Pitch:	0.281	Yaw:	-1.454	Thrust:	0.000
Time:	0.258	Roll Set Point:	-0.060	Pitch Set Point:	-0.039	Yaw Set Point:	0.017	X_WP:	0.000	Y_WP:	0.000	Y_WP:	-0.100	X:	0.030	Y:	0.019	Z:	0.048	yaw:	-0.989	yaw rate:	15.052	Roll:	0.289	Pitch:	0.311	Yaw:	-5.192	Thrust:	0.000
Time:	0.270	Roll Set Point:	-0.060	Pitch Set Point:	-0.039	Yaw Set Point:	0.015	X_WP:	0.000	Y_WP:	0.000	Y_WP:	-0.100	X:	0.030	Y:	0.019	Z:	0.048	yaw:	-0.869	yaw rate:	-12.012	Roll:	0.555	Pitch:	0.272	Yaw:	1.235	Thrust:	0.000
Time:	0.288	Roll Set Point:	-0.060	Pitch Set Point:	-0.039	Yaw Set Point:	0.015	X_WP:	0.000	Y_WP:	0.000	Y_WP:	-0.100	X:	0.030	Y:	0.019	Z:	0.048	yaw:	-0.840	yaw rate:	-2.924	Roll:	0.518	Pitch:	0.311	Yaw:	-0.850	Thrust:	0.000
Time:	0.299	Roll Set Point:	-0.060	Pitch Set Point:	-0.038	Yaw Set Point:	0.017	X_WP:	0.000	Y_WP:	0.000	Y_WP:	-0.100	X:	0.030	Y:	0.019	Z:	0.048	yaw:	-0.969	yaw rate:	12.939	Roll:	0.324	Pitch:	0.273	Yaw:	-4.477	Thrust:	0.000
Time:	0.309	Roll Set Point:	-0.060	Pitch Set Point:	-0.039	Yaw Set Point:	0.015	X_WP:	0.000	Y_WP:	0.000	Y_WP:	-0.100	X:	0.030	Y:	0.019	Z:	0.048	yaw:	-0.844	yaw rate:	-12.485	Roll:	0.562	Pitch:	0.300	Yaw:	2.012	Thrust:	0.000
Time:	0.320	Roll Set Point:	-0.060	Pitch Set Point:	-0.039	Yaw Set Point:	0.014	X_WP:	0.000	Y_WP:	0.000	Y_WP:	-0.100	X:	0.030	Y:	0.019	Z:	0.048	yaw:	-0.828	yaw rate:	-1.612	Roll:	0.428	Pitch:	0.294	Yaw:	-0.838	Thrust:	0.000
Time:	0.331	Roll Set Point:	-0.061	Pitch Set Point:	-0.038	Yaw Set Point:	0.015	X_WP:	0.000	Y_WP:	0.000	Y_WP:	-0.100	X:	0.030	Y:	0.019	Z:	0.048	yaw:	-0.880	yaw rate:	5.227	Roll:	0.597	Pitch:	0.247	Yaw:	-2.532	Thrust:	0.000
Time:	0.343	Roll Set Point:	-0.060	Pitch Set Point:	-0.039	Yaw Set Point:	0.015	X_WP:	0.000	Y_WP:	0.000	Y_WP:	-0.100	X:	0.030	Y:	0.019	Z:	0.048	yaw:	-0.845	yaw rate:	-3.540	Roll:	0.366	Pitch:	0.370	Yaw:	-0.515	Thrust:	0.000
Time:	0.358	Roll Set Point:	-0.060	Pitch Set Point:	-0.039	Yaw Set Point:	0.018	X_WP:	0.000	Y_WP:	0.000	Y_WP:	-0.100	X:	0.030	Y:	0.019	Z:	0.048	yaw:	-1.022	yaw rate:	17.681	Roll:	0.432	Pitch:	0.389	Yaw:	-4.833	Thrust:	0.000
Time:	0.369	Roll Set Point:	-0.060	Pitch Set Point:	-0.038	Yaw Set Point:	0.018	X_WP:	0.000	Y_WP:	0.000	Y_WP:	-0.100	X:	0.030	Y:	0.019	Z:	0.048	yaw:	-1.033	yaw rate:	-2.389	Roll:	0.580	Pitch:	0.223	Yaw:	-1.809	Thrust:	0.000
Time:	0.379	Roll Set Point:	-0.061	Pitch Set Point:	-0.038	Yaw Set Point:	0.016	X_WP:	0.000	Y_WP:	0.000	Y_WP:	-0.100	X:	0.030	Y:	0.019	Z:	0.048	yaw:	-0.890	yaw rate:	-14.265	Roll:	0.631	Pitch:	0.288	Yaw:	2.046	Thrust:	0.000
Time:	0.390	Roll Set Point:	-0.060	Pitch Set Point:	-0.039	Yaw Set Point:	0.015	X_WP:	0.000	Y_WP:	0.000	Y_WP:	-0.100	X:	0.030	Y:	0.019	Z:	0.048	yaw:	-0.832	yaw rate:	-5.799	Roll:	0.386	Pitch:	0.341	Yaw:	0.051	Thrust:	0.000
Time:	0.408	Roll Set Point:	-0.060	Pitch Set Point:	-0.038	Yaw Set Point:	0.016	X_WP:	0.000	Y_WP:	0.000	Y_WP:	-0.100	X:	0.030	Y:	0.019	Z:	0.048	yaw:	-0.926	yaw rate:	9.391	Roll:	0.440	Pitch:	0.383	Yaw:	-2.872	Thrust:	0.000
Time:	0.432	Roll Set Point:	-0.060	Pitch Set Point:	-0.038	Yaw Set Point:	0.018	X_WP:	0.000	Y_WP:	0.000	Y_WP:	-0.100	X:	0.030	Y:	0.019	Z:	0.048	yaw:	-1.041	yaw rate:	11.534	Roll:	0.862	Pitch:	0.514	Yaw:	-2.945	Thrust:	0.000
Time:	0.442	Roll Set Point:	-0.060	Pitch Set Point:	-0.038	Yaw Set Point:	0.019	X_WP:	0.000	Y_WP:	0.000	Y_WP:	-0.100	X:	0.030	Y:	0.019	Z:	0.048	yaw:	-1.060	yaw rate:	3.482	Roll:	0.515	Pitch:	0.343	Yaw:	-2.052	Thrust:	0.000
Time:	0.453	Roll Set Point:	-0.060	Pitch Set Point:	-0.039	Yaw Set Point:	0.015	X_WP:	0.000	Y_WP:	0.000	Y_WP:	-0.100	X:	0.030	Y:	0.019	Z:	0.048	yaw:	-0.849	yaw rate:	-21.117	Roll:	0.535	Pitch:	0.315	Yaw:	3.957	Thrust:	0.000
Time:	0.464	Roll Set Point:	-0.060	Pitch Set Point:	-0.039	Yaw Set Point:	0.015	X_WP:	0.000	Y_WP:	0.000	Y_WP:	-0.100	X:	0.030	Y:	0.019	Z:	0.048	yaw:	-0.832	yaw rate:	-1.674	Roll:	0.515	Pitch:	0.324	Yaw:	-0.855	Thrust:	0.000
Time:	0.476	Roll Set Point:	-0.060	Pitch Set Point:	-0.039	Yaw Set Point:	0.015	X_WP:	0.000	Y_WP:	0.000	Y_WP:	-0.100	X:	0.030	Y:	0.019	Z:	0.048	yaw:	-0.837	yaw rate:	0.456	Roll:	0.531	Pitch:	0.373	Yaw:	-1.402	Thrust:	0.000
Time:	0.492	Roll Set Point:	-0.060	Pitch Set Point:	-0.039	Yaw Set Point:	0.018	X_WP:	0.000	Y_WP:	0.000	Y_WP:	-0.100	X:	0.030	Y:	0.019	Z:	0.048	yaw:	-1.008	yaw rate:	17.121	Roll:	0.587	Pitch:	0.460	Yaw:	-4.375	Thrust:	0.000
Time:	0.503	Roll Set Point:	-0.060	Pitch Set Point:	-0.038	Yaw Set Point:	0.018	X_WP:	0.000	Y_WP:	0.000	Y_WP:	-0.100	X:	0.030	Y:	0.019	Z:	0.048	yaw:	-1.058	yaw rate:	5.034	Roll:	0.641	Pitch:	0.311	Yaw:	-2.788	Thrust:	0.000
Time:	0.513	Roll Set Point:	-0.060	Pitch Set Point:	-0.038	Yaw Set Point:	0.018	X_WP:	0.000	Y_WP:	0.000	Y_WP:	-0.100	X:	0.030	Y:	0.019	Z:	0.048	yaw:	-1.048	yaw rate:	-1.032	Roll:	0.532	Pitch:	0.353	Yaw:	-1.335	Thrust:	0.000
Time:	0.524	Roll Set Point:	-0.061	Pitch Set Point:	-0.038	Yaw Set Point:	0.016	X_WP:	0.000	Y_WP:	0.000	Y_WP:	-0.100	X:	0.030	Y:	0.019	Z:	0.048	yaw:	-0.902	yaw rate:	-14.617	Roll:	0.678	Pitch:	0.284	Yaw:	2.246	Thrust:	0.000
Time:	0.537	Roll Set Point:	-0.060	Pitch Set Point:	-0.038	Yaw Set Point:	0.016	X_WP:	0.000	Y_WP:	0.000	Y_WP:	-0.100	X:	0.030	Y:	0.019	Z:	0.048	yaw:	-0.921	yaw rate:	1.901	Roll:	0.440	Pitch:	0.411	Yaw:	-1.835	Thrust:	0.000
Time:	0.556	Roll Set Point:	-0.061	Pitch Set Point:	-0.038	Yaw Set Point:	0.015	X_WP:	0.000	Y_WP:	0.000	Y_WP:	-0.100	X:	0.030	Y:	0.019	Z:	0.048	yaw:	-0.870	yaw rate:	-5.062	Roll:	0.916	Pitch:	0.498	Yaw:	-0.789	Thrust:	0.000
Time:	0.567	Roll Set Point:	-0.060	Pitch Set Point:	-0.039	Yaw Set Point:	0.014	X_WP:	0.000	Y_WP:	0.000	Y_WP:	-0.100	X:	0.030	Y:	0.019	Z:	0.048	yaw:	-0.826	yaw rate:	-22.315	Roll:	0.455	Pitch:	0.420	Yaw:	-0.205	Thrust:	0.000
Time:	0.579	Roll Set Point:	-0.060	Pitch Set Point:	-0.039	Yaw Set Point:	0.015	X_WP:	0.000	Y_WP:	0.000	Y_WP:	-0.100	X:	0.030	Y:	0.019	Z:	0.048	yaw:	-0.850	yaw rate:	2.392	Roll:	0.555	Pitch:	0.384	Yaw:	-1.907	Thrust:	0.000
Time:	0.590	Roll Set Point:	-0.060	Pitch Set Point:	-0.039	Yaw Set Point:	0.014	X_WP:	0.000	Y_WP:	0.000	Y_WP:	-0.100	X:	0.030	Y:	0.019	Z:	0.048	yaw:	-0.831	yaw rate:	-1.926	Roll:	0.639	Pitch:	0.369	Yaw:	-0.920	Thrust:	0.000
Time:	0.603	Roll Set Point:	-0.060	Pitch Set Point:	-0.039	Yaw Set Point:	0.015	X_WP:	0.000	Y_WP:	0.000	Y_WP:	-0.100	X:	0.030	Y:	0.019	Z:	0.048	yaw:	-0.841	yaw rate:	1.024	Roll:	0.655	Pitch:	0.447	Yaw:	-1.568	Thrust:	0.000
Time:	0.625	Roll Set Point:	-0.060	Pitch Set Point:	-0.039	Yaw Set Point:	0.015	X_WP:	0.000	Y_WP:	0.000	Y_WP:	-0.100	X:	0.030	Y:	0.019	Z:	0.048	yaw:	-0.853	yaw rate:	1.212	Roll:	0.898	Pitch:	0.602	Yaw:	-1.663	Thrust:	0.000
Time:	0.636	Roll Set Point:	-0.060	Pitch Set Point:	-0.039	Yaw Set Point:	0.015	X_WP:	0.000	Y_WP:	0.000	Y_WP:	-0.100	X:	0.030	Y:	0.019	Z:	0.048	yaw:	-0.852	yaw rate:	-0.080	Roll:	0.649	Pitch:	0.394	Yaw:	-1.336	Thrust:	0.000
Time:	0.648	Roll Set Point:	-0.060	Pitch Set Point:	-0.038	Yaw Set Point:	0.018	X_WP:	0.000	Y_WP:	0.000	Y_WP:	-0.100	X:	0.030	Y:	0.019	Z:	0.048	yaw:	-1.041	yaw rate:	3.039	Roll:	0.585	Pitch:	0.409	Yaw:	-5.918	Thrust:	0.000
Time:	0.658	Roll Set Point:	-0.060	Pitch Set Point:	-0.039	Yaw Set Point:	0.015	X_WP:	0.000	Y_WP:	0.000	Y_WP:	-0.100	X:	0.030	Y:	0.019	Z:	0.048	yaw:	-0.879	yaw rate:	-16.222	Roll:	0.638	Pitch:	0.410	Yaw:	2.643	Thrust:	0.000
Time:	0.671	Roll Set Point:	-0.060	Pitch Set Point:	-0.039	Yaw Set Point:	0.015	X_WP:	0.000	Y_WP:	0.000	Y_WP:	-0.100	X:	0.030	Y:	0.019	Z:	0.048	yaw:	-0.858	yaw rate:	-2.084	Roll:	0.656	Pitch:	0.400	Yaw:	-0.937	Thrust:	0.000
Time:	0.691	Roll Set Point:	-0.060	Pitch Set Point:	-0.039	Yaw Set Point:	0.015	X_WP:	0.000	Y_WP:	0.000	Y_WP:	-0.100	X:	0.030	Y:	0.019	Z:	0.048	yaw:	-0.835	yaw rate:	-2.331	Roll:	0.954	Pitch:	0.616	Yaw:	-1.203	Thrust:	0.000
Time:	0.702	Roll Set Point:	-0.060	Pitch Set Point:	-0.039	Yaw Set Point:	0.015	X_WP:	0.000	Y_WP:	0.000	Y_WP:	-0.100	X:	0.030	Y:	0.019	Z:	0.048	yaw:	-0.845	yaw rate:	0.992	Roll:	0.677	Pitch:	0.431	Yaw:	-1.597	Thrust:	0.000
Time:	0.712	Roll Set Point:	-0.060	Pitch Set Point:	-0.039	Yaw Set Point:	0.017	X_WP:	0.000	Y_WP:	0.000	Y_WP:	-0.100	X:	0.030	Y:	0.019	Z:	0.048	yaw:	-1.000	yaw rate:	15.577	Roll:	0.462	Pitch:	0.471	Yaw:	-5.633	Thrust:	0.000
Time:	0.723	Roll Set Point:	-0.060	Pitch Set Point:	-0.038	Yaw Set Point:	0.017	X_WP:	0.000	Y_WP:	0.000	Y_WP:	-0.100	X:	0.030	Y:	0.019	Z:	0.048	yaw:	-0.970	yaw rate:	-3.074	Roll:	0.732	Pitch:	0.259	Yaw:	-0.785	Thrust:	0.000
Time:	0.734	Roll Set Point:	-0.060	Pitch Set Point:	-0.039	Yaw Set Point:	0.015	X_WP:	0.000	Y_WP:	0.000	Y_WP:	-0.100	X:	0.030	Y:	0.019	Z:	0.048	yaw:	-0.858	yaw rate:	-11.209	Roll:	0.672	Pitch:	0.510	Yaw:	1.411	Thrust:	0.000
Time:	0.748	Roll Set Point:	-0.060	Pitch Set Point:	-0.039	Yaw Set Point:	0.017	X_WP:	0.000	Y_WP:	0.000	Y_WP:	-0.100	X:	0.030	Y:	0.019	Z:	0.048	yaw:	-1.002	yaw rate:	14.420	Roll:	0.591	Pitch:	0.510	Yaw:	-4.309	Thrust:	0.000
Time:	0.761	Roll Set Point:	-0.060	Pitch Set Point:	-0.039	Yaw Set Point:	0.015	X_WP:	0.000	Y_WP:	0.000	Y_WP:	-0.100	X:	0.030	Y:	0.019	Z:	0.048	yaw:	-0.845	yaw rate:	-15.724	Roll:	0.927	Pitch:	0.497	Yaw:	1.619	Thrust:	0.000
Time:	0.772	Roll Set Point:	-0.060	Pitch Set Point:	-0.039	Yaw Set Point:	0.015	X_WP:	0.000	Y_WP:	0.000	Y_WP:	-0.100	X:	0.030	Y:	0.019	Z:	0.048	yaw:	-0.853	yaw rate:	0.835	Roll:	0.692	Pitch:	0.446	Yaw:	-1.593	Thrust:	0.000
Time:	0.783	Roll Set Point:	-0.060	Pitch Set Point:	-0.039	Yaw Set Point:	0.015	X_WP:	0.000	Y_WP:	0.000	Y_WP:	-0.100	X:	0.030	Y:	0.019	Z:	0.048	yaw:	-0.857	yaw rate:	0.362	Roll:	0.627	Pitch:	0.419	Yaw:	-1.483	Thrust:	0.000
Time:	0.793	Roll Set Point:	-0.060	Pitch Set Point:	-0.039	Yaw Set Point:	0.017	X_WP:	0.000	Y_WP:	0.000	Y_WP:	-0.100	X:	0.030	Y:	0.019	Z:	0.048	yaw:	-0.992	yaw rate:	13.536	Roll:	0.600	Pitch:	0.511	Yaw:	-4.953	Thrust:	0.000
Time:	0.806	Roll Set Point:	-0.060	Pitch Set Point:	-0.039	Yaw Set Point:	0.015	X_WP:	0.000	Y_WP:	0.000	Y_WP:	-0.100	X:	0.030	Y:	0.019	Z:	0.048	yaw:	-0.843	yaw rate:	-14.852	Roll:	0.821	Pitch:	0.383	Yaw:	1.812	Thrust:	0.000
Time:	0.825	Roll Set Point:	-0.060	Pitch Set Point:	-0.039	Yaw Set Point:	0.018	X_WP:	0.000	Y_WP:	0.000	Y_WP:	-0.100	X:	0.030	Y:	0.019	Z:	0.048	yaw:	-1.010	yaw rate:	16.644	Roll:	0.990	Pitch:	0.728	Yaw:	-4.021	Thrust:	0.000
Time:	0.837	Roll Set Point:	-0.060	Pitch Set Point:	-0.039	Yaw Set Point:	0.017	X_WP:	0.000	Y_WP:	0.000	Y_WP:	-0.100	X:	0.030	Y:	0.019	Z:	0.048	yaw:	-0.982	yaw rate:	14.610	Roll:	0.763	Pitch:	0.474	Yaw:	-1.013	Thrust:	0.000
Time:	0.848	Roll Set Point:	-0.060	Pitch Set Point:	-0.038	Yaw Set Point:	0.018	X_WP:	0.000	Y_WP:	0.000	Y_WP:	-0.100	X:	0.030	Y:	0.019	Z:	0.048	yaw:	-1.054	yaw rate:	7.140	Roll:	0.836	Pitch:	0.447	Yaw:	-3.323	Thrust:	0.000
Time:	0.859	Roll Set Point:	-0.061	Pitch Set Point:	-0.038	Yaw Set Point:	0.016	X_WP:	0.000	Y_WP:	0.000	Y_WP:	-0.100	X:	0.030	Y:	0.019	Z:	0.048	yaw:	-0.898	yaw rate:	-15.607	Roll:	0.831	Pitch:	0.431	Yaw:	2.200	Thrust:	0.000
Time:	0.877	Roll Set Point:	-0.060	Pitch Set Point:	-0.039	Yaw Set Point:	0.018	X_WP:	0.000	Y_WP:	0.000	Y_WP:	-0.100	X:	0.030	Y:	0.019	Z:	0.048	yaw:	-1.006	yaw rate:	10.832	Roll:	0.680	Pitch:	0.631	Yaw:	-3.504	Thrust:	0.000
Time:	0.892	Roll Set Point:	-0.060	Pitch Set Point:	-0.039	Yaw Set Point:	0.015	X_WP:	0.000	Y_WP:	0.000	Y_WP:	-0.100	X:	0.030	Y:	0.019	Z:	0.048	yaw:	-0.840	yaw rate:	-16.584	Roll:	1.124	Pitch:	0.647	Yaw:	1.184	Thrust:	0.000
Time:	0.903	Roll Set Point:	-0.060	Pitch Set Point:	-0.039	Yaw Set Point:	0.015	X_WP:	0.000	Y_WP:	0.000	Y_WP:	-0.100	X:	0.030	Y:	0.019	Z:	0.048	yaw:	-0.848	yaw rate:	0.025	Roll:	0.784	Pitch:	0.521	Yaw:	-1.598	Thrust:	0.000
Time:	0.913	Roll Set Point:	-0.060	Pitch Set Point:	-0.039	Yaw Set Point:	0.015	X_WP:	0.000	Y_WP:	0.000	Y_WP:	-0.100	X:	0.030	Y:	0.019	Z:	0.048	yaw:	-0.840	yaw rate:	-0.736	Roll:	0.716	Pitch:	0.464	Yaw:	-1.222	Thrust:	0.000
Time:	0.924	Roll Set Point:	-0.060	Pitch Set Point:	-0.039	Yaw Set Point:	0.018	X_WP:	0.000	Y_WP:	0.000	Y_WP:	-0.100	X:	0.030	Y:	0.019	Z:	0.048	yaw:	-1.021	yaw rate:	18.061	Roll:	0.611	Pitch:	0.536	Yaw:	-6.020	Thrust:	0.000
Time:	0.937	Roll Set Point:	-0.060	Pitch Set Point:	-0.038	Yaw Set Point:	0.018	X_WP:	0.000	Y_WP:	0.000	Y_WP:	-0.100	X:	0.030	Y:	0.019	Z:	0.048	yaw:	-1.034	yaw rate:	1.363	Roll:	0.919	Pitch:	0.516	Yaw:	-2.013	Thrust:	0.000
Time:	0.957	Roll Set Point:	-0.060	Pitch Set Point:	-0.039	Yaw Set Point:	0.015	X_WP:	0.000	Y_WP:	0.000	Y_WP:	-0.100	X:	0.030	Y:	0.019	Z:	0.048	yaw:	-0.855	yaw rate:	-17.908	Roll:	1.174	Pitch:	0.742	Yaw:	0.700	Thrust:	0.000
Time:	0.967	Roll Set Point:	-0.060	Pitch Set Point:	-0.039	Yaw Set Point:	0.015	X_WP:	0.000	Y_WP:	0.000	Y_WP:	-0.100	X:	0.030	Y:	0.019	Z:	0.048	yaw:	-0.844	yaw rate:	0.322	Roll:	0.783	Pitch:	0.498	Yaw:	-1.118	Thrust:	0.000
Time:	0.978	Roll Set Point:	-0.060	Pitch Set Point:	-0.039	Yaw Set Point:	0.017	X_WP:	0.000	Y_WP:	0.000	Y_WP:	-0.100	X:	0.030	Y:	0.019	Z:	0.048	yaw:	-0.999	yaw rate:	15.481	Roll:	0.632	Pitch:	0.558	Yaw:	-5.330	Thrust:	0.000
Time:	0.989	Roll Set Point:	-0.060	Pitch Set Point:	-0.039	Yaw Set Point:	0.018	X_WP:	0.000	Y_WP:	0.000	Y_WP:	-0.100	X:	0.030	Y:	0.019	Z:	0.048	yaw:	-1.008	yaw rate:	0.948	Roll:	0.783	Pitch:	0.501	Yaw:	-1.897	Thrust:	0.000
Time:	1.002	Roll Set Point:	-0.060	Pitch Set Point:	-0.038	Yaw Set Point:	0.019	X_WP:	0.000	Y_WP:	0.000	Y_WP:	-0.100	X:	0.030	Y:	0.019	Z:	0.048	yaw:	-1.072	yaw rate:	6.396	Roll:	0.956	Pitch:	0.534	Yaw:	-3.096	Thrust:	0.000
Time:	1.024	Roll Set Point:	-0.061	Pitch Set Point:	-0.038	Yaw Set Point:	0.015	X_WP:	0.000	Y_WP:	0.000	Y_WP:	-0.100	X:	0.030	Y:	0.019	Z:	0.048	yaw:	-0.884	yaw rate:	-18.783	Roll:	1.271	Pitch:	0.784	Yaw:	0.573	Thrust:	0.000
Time:	1.035	Roll Set Point:	-0.060	Pitch Set Point:	-0.039	Yaw Set Point:	0.015	X_WP:	0.000	Y_WP:	0.000	Y_WP:	-0.100	X:	0.030	Y:	0.019	Z:	0.048	yaw:	-0.841	yaw rate:	-4.369	Roll:	0.938	Pitch:	0.647	Yaw:	-0.569	Thrust:	0.000
Time:	1.047	Roll Set Point:	-0.060	Pitch Set Point:	-0.039	Yaw Set Point:	0.015	X_WP:	0.000	Y_WP:	0.000	Y_WP:	-0.100	X:	0.030	Y:	0.019	Z:	0.048	yaw:	-0.851	yaw rate:	1.832	Roll:	0.822	Pitch:	0.556	Yaw:	-1.721	Thrust:	0.000
Time:	1.058	Roll Set Point:	-0.060	Pitch Set Point:	-0.039	Yaw Set Point:	0.018	X_WP:	0.000	Y_WP:	0.000	Y_WP:	-0.100	X:	0.030	Y:	0.019	Z:	0.048	yaw:	-1.028	yaw rate:	17.640	Roll:	0.719	Pitch:	0.575	Yaw:	-5.909	Thrust:	0.000
Time:	1.069	Roll Set Point:	-0.060	Pitch Set Point:	-0.038	Yaw Set Point:	0.017	X_WP:	0.000	Y_WP:	0.000	Y_WP:	-0.100	X:	0.030	Y:	0.019	Z:	0.048	yaw:	-0.959	yaw rate:	-6.881	Roll:	0.799	Pitch:	0.464	Yaw:	0.168	Thrust:	0.000
Time:	1.089	Roll Set Point:	-0.061	Pitch Set Point:	-0.038	Yaw Set Point:	0.015	X_WP:	0.000	Y_WP:	0.000	Y_WP:	-0.100	X:	0.030	Y:	0.019	Z:	0.048	yaw:	-0.880	yaw rate:	-7.847	Roll:	1.378	Pitch:	0.795	Yaw:	-0.809	Thrust:	0.000
Time:	1.099	Roll Set Point:	-0.060	Pitch Set Point:	-0.039	Yaw Set Point:	0.015	X_WP:	0.000	Y_WP:	0.000	Y_WP:	-0.100	X:	0.030	Y:	0.019	Z:	0.048	yaw:	-0.847	yaw rate:	-3.346	Roll:	0.814	Pitch:	0.620	Yaw:	-0.577	Thrust:	0.000
Time:	1.109	Roll Set Point:	-0.060	Pitch Set Point:	-0.039	Yaw Set Point:	0.015	X_WP:	0.000	Y_WP:	0.000	Y_WP:	-0.100	X:	0.030	Y:	0.019	Z:	0.048	yaw:	-0.847	yaw rate:	-0.051	Roll:	0.795	Pitch:	0.500	Yaw:	-1.438	Thrust:	0.000
Time:	1.120	Roll Set Point:	-0.060	Pitch Set Point:	-0.039	Yaw Set Point:	0.017	X_WP:	0.000	Y_WP:	0.000	Y_WP:	-0.100	X:	0.030	Y:	0.019	Z:	0.048	yaw:	-0.989	yaw rate:	14.251	Roll:	0.714	Pitch:	0.629	Yaw:	-5.106	Thrust:	0.000
Time:	1.133	Roll Set Point:	-0.060	Pitch Set Point:	-0.039	Yaw Set Point:	0.015	X_WP:	0.000	Y_WP:	0.000	Y_WP:	-0.100	X:	0.030	Y:	0.019	Z:	0.048	yaw:	-0.840	yaw rate:	-14.898	Roll:	1.021	Pitch:	0.558	Yaw:	1.614	Thrust:	0.000
Time:	1.145	Roll Set Point:	-0.060	Pitch Set Point:	-0.039	Yaw Set Point:	0.015	X_WP:	0.000	Y_WP:	0.000	Y_WP:	-0.100	X:	0.030	Y:	0.019	Z:	0.048	yaw:	-0.849	yaw rate:	0.918	Roll:	0.889	Pitch:	0.590	Yaw:	-1.717	Thrust:	0.000
Time:	1.160	Roll Set Point:	-0.060	Pitch Set Point:	-0.039	Yaw Set Point:	0.015	X_WP:	0.000	Y_WP:	0.000	Y_WP:	-0.100	X:	0.030	Y:	0.019	Z:	0.048	yaw:	-0.842	yaw rate:	0.420	Roll:	1.171	Pitch:	0.718	Yaw:	-1.493	Thrust:	0.000
Time:	1.170	Roll Set Point:	-0.060	Pitch Set Point:	-0.039	Yaw Set Point:	0.014	X_WP:	0.000	Y_WP:	0.000	Y_WP:	-0.100	X:	0.030	Y:	0.019	Z:	0.048	yaw:	-0.826	yaw rate:	-1.633	Roll:	0.878	Pitch:	0.550	Yaw:	-1.012	Thrust:	0.000
Time:	1.180	Roll Set Point:	-0.060	Pitch Set Point:	-0.039	Yaw Set Point:	0.015	X_WP:	0.000	Y_WP:	0.000	Y_WP:	-0.100	X:	0.030	Y:	0.019	Z:	0.048	yaw:	-0.844	yaw rate:	1.867	Roll:	0.826	Pitch:	0.566	Yaw:	-1.945	Thrust:	0.000
Time:	1.191	Roll Set Point:	-0.060	Pitch Set Point:	-0.039	Yaw Set Point:	0.015	X_WP:	0.000	Y_WP:	0.000	Y_WP:	-0.100	X:	0.030	Y:	0.019	Z:	0.048	yaw:	-0.846	yaw rate:	0.209	Roll:	0.863	Pitch:	0.579	Yaw:	-1.527	Thrust:	0.000
Time:	1.206	Roll Set Point:	-0.060	Pitch Set Point:	-0.039	Yaw Set Point:	0.017	X_WP:	0.000	Y_WP:	0.000	Y_WP:	-0.100	X:	0.030	Y:	0.019	Z:	0.048	yaw:	-0.995	yaw rate:	14.842	Roll:	0.960	Pitch:	0.742	Yaw:	-4.485	Thrust:	0.000
Time:	1.225	Roll Set Point:	-0.060	Pitch Set Point:	-0.038	Yaw Set Point:	0.018	X_WP:	0.000	Y_WP:	0.000	Y_WP:	-0.100	X:	0.030	Y:	0.019	Z:	0.048	yaw:	-1.040	yaw rate:	4.489	Roll:	1.499	Pitch:	0.916	Yaw:	-2.632	Thrust:	0.000
Time:	1.237	Roll Set Point:	-0.060	Pitch Set Point:	-0.039	Yaw Set Point:	0.015	X_WP:	0.000	Y_WP:	0.000	Y_WP:	-0.100	X:	0.030	Y:	0.019	Z:	0.048	yaw:	-0.850	yaw rate:	1.678	Roll:	0.984	Pitch:	0.601	Yaw:	2.775	Thrust:	0.000
Time:	1.247	Roll Set Point:	-0.060	Pitch Set Point:	-0.039	Yaw Set Point:	0.015	X_WP:	0.000	Y_WP:	0.000	Y_WP:	-0.100	X:	0.030	Y:	0.019	Z:	0.048	yaw:	-0.847	yaw rate:	-0.292	Roll:	0.900	Pitch:	0.620	Yaw:	-1.434	Thrust:	0.000
Time:	1.258	Roll Set Point:	-0.060	Pitch Set Point:	-0.039	Yaw Set Point:	0.015	X_WP:	0.000	Y_WP:	0.000	Y_WP:	-0.100	X:	0.030	Y:	0.019	Z:	0.048	yaw:	-0.855	yaw rate:	0.793	Roll:	0.951	Pitch:	0.597	Yaw:	-1.720	Thrust:	0.000
Time:	1.271	Roll Set Point:	-0.060	Pitch Set Point:	-0.039	Yaw Set Point:	0.015	X_WP:	0.000	Y_WP:	0.000	Y_WP:	-0.100	X:	0.030	Y:	0.019	Z:	0.048	yaw:	-0.843	yaw rate:	-1.254	Roll:	1.021	Pitch:	0.703	Yaw:	-1.332	Thrust:	0.000
Time:	1.293	Roll Set Point:	-0.060	Pitch Set Point:	-0.039	Yaw Set Point:	0.018	X_WP:	0.000	Y_WP:	0.000	Y_WP:	-0.100	X:	0.030	Y:	0.019	Z:	0.048	yaw:	-1.006	yaw rate:	16.382	Roll:	1.482	Pitch:	1.010	Yaw:	-4.130	Thrust:	0.000
Time:	1.303	Roll Set Point:	-0.060	Pitch Set Point:	-0.039	Yaw Set Point:	0.014	X_WP:	0.000	Y_WP:	0.000	Y_WP:	-0.100	X:	0.030	Y:	0.019	Z:	0.048	yaw:	-0.829	yaw rate:	-17.783	Roll:	1.072	Pitch:	0.511	Yaw:	2.923	Thrust:	0.000
Time:	1.314	Roll Set Point:	-0.060	Pitch Set Point:	-0.039	Yaw Set Point:	0.018	X_WP:	0.000	Y_WP:	0.000	Y_WP:	-0.100	X:	0.030	Y:	0.019	Z:	0.048	yaw:	-1.004	yaw rate:	17.574	Roll:	0.848	Pitch:	0.726	Yaw:	-5.756	Thrust:	0.000
Time:	1.325	Roll Set Point:	-0.061	Pitch Set Point:	-0.038	Yaw Set Point:	0.015	X_WP:	0.000	Y_WP:	0.000	Y_WP:	-0.100	X:	0.030	Y:	0.019	Z:	0.048	yaw:	-0.880	yaw rate:	-12.471	Roll:	1.198	Pitch:	0.516	Yaw:	1.385	Thrust:	0.000
Time:	1.338	Roll Set Point:	-0.060	Pitch Set Point:	-0.039	Yaw Set Point:	0.015	X_WP:	0.000	Y_WP:	0.000	Y_WP:	-0.100	X:	0.030	Y:	0.019	Z:	0.048	yaw:	-0.863	yaw rate:	-1.618	Roll:	0.971	Pitch:	0.719	Yaw:	-1.275	Thrust:	0.000
Time:	1.357	Roll Set Point:	-0.060	Pitch Set Point:	-0.039	Yaw Set Point:	0.017	X_WP:	0.000	Y_WP:	0.000	Y_WP:	-0.100	X:	0.030	Y:	0.019	Z:	0.048	yaw:	-1.000	yaw rate:	13.639	Roll:	1.380	Pitch:	1.019	Yaw:	-3.888	Thrust:	0.000
Time:	1.367	Roll Set Point:	-0.060	Pitch Set Point:	-0.039	Yaw Set Point:	0.017	X_WP:	0.000	Y_WP:	0.000	Y_WP:	-0.100	X:	0.030	Y:	0.019	Z:	0.048	yaw:	-0.995	yaw rate:	-0.589	Roll:	1.031	Pitch:	0.595	Yaw:	-1.633	Thrust:	0.000
Time:	1.378	Roll Set Point:	-0.060	Pitch Set Point:	-0.039	Yaw Set Point:	0.015	X_WP:	0.000	Y_WP:	0.000	Y_WP:	-0.100	X:	0.030	Y:	0.019	Z:	0.048	yaw:	-0.842	yaw rate:	-15.385	Roll:	1.119	Pitch:	0.603	Yaw:	2.108	Thrust:	0.000
Time:	1.389	Roll Set Point:	-0.060	Pitch Set Point:	-0.039	Yaw Set Point:	0.015	X_WP:	0.000	Y_WP:	0.000	Y_WP:	-0.100	X:	0.030	Y:	0.019	Z:	0.048	yaw:	-0.851	yaw rate:	0.950	Roll:	0.928	Pitch:	0.634	Yaw:	-1.780	Thrust:	0.000
Time:	1.400	Roll Set Point:	-0.060	Pitch Set Point:	-0.039	Yaw Set Point:	0.015	X_WP:	0.000	Y_WP:	0.000	Y_WP:	-0.100	X:	0.030	Y:	0.019	Z:	0.048	yaw:	-0.845	yaw rate:	-0.615	Roll:	1.005	Pitch:	0.620	Yaw:	-1.412	Thrust:	0.000
Time:	1.423	Roll Set Point:	-0.060	Pitch Set Point:	-0.039	Yaw Set Point:	0.015	X_WP:	0.000	Y_WP:	0.000	Y_WP:	-0.100	X:	0.030	Y:	0.019	Z:	0.048	yaw:	-0.836	yaw rate:	-0.921	Roll:	1.237	Pitch:	0.841	Yaw:	-1.816	Thrust:	0.000
Time:	1.434	Roll Set Point:	-0.060	Pitch Set Point:	-0.039	Yaw Set Point:	0.015	X_WP:	0.000	Y_WP:	0.000	Y_WP:	-0.100	X:	0.030	Y:	0.019	Z:	0.048	yaw:	-0.868	yaw rate:	-14.740	Roll:	1.574	Pitch:	1.021	Yaw:	-2.336	Thrust:	0.000
Time:	1.444	Roll Set Point:	-0.060	Pitch Set Point:	-0.039	Yaw Set Point:	0.017	X_WP:	0.000	Y_WP:	0.000	Y_WP:	-0.100	X:	0.030	Y:	0.019	Z:	0.048	yaw:	-1.001	yaw rate:	13.319	Roll:	0.916	Pitch:	0.684	Yaw:	-5.066	Thrust:	0.000
Time:	1.455	Roll Set Point:	-0.060	Pitch Set Point:	-0.039	Yaw Set Point:	0.015	X_WP:	0.000	Y_WP:	0.000	Y_WP:	-0.100	X:	0.030	Y:	0.019	Z:	0.048	yaw:	-0.854	yaw rate:	-14.669	Roll:	1.107	Pitch:	0.601	Yaw:	1.966	Thrust:	0.000
Time:	1.469	Roll Set Point:	-0.060	Pitch Set Point:	-0.039	Yaw Set Point:	0.015	X_WP:	0.000	Y_WP:	0.000	Y_WP:	-0.100	X:	0.030	Y:	0.019	Z:	0.048	yaw:	-0.859	yaw rate:	0.490	Roll:	1.107	Pitch:	0.777	Yaw:	-1.750	Thrust:	0.000
Time:	1.489	Roll Set Point:	-0.060	Pitch Set Point:	-0.039	Yaw Set Point:	0.015	X_WP:	0.000	Y_WP:	0.000	Y_WP:	-0.100	X:	0.030	Y:	0.019	Z:	0.048	yaw:	-0.857	yaw rate:	-0.171	Roll:	1.210	Pitch:	0.939	Yaw:	-1.896	Thrust:	0.000
Time:	1.502	Roll Set Point:	-0.060	Pitch Set Point:	-0.039	Yaw Set Point:	0.015	X_WP:	0.000	Y_WP:	0.000	Y_WP:	-0.100	X:	0.030	Y:	0.019	Z:	0.048	yaw:	-0.833	yaw rate:	-19.957	Roll:	1.825	Pitch:	0.964	Yaw:	-1.230	Thrust:	0.000
Time:	1.513	Roll Set Point:	-0.060	Pitch Set Point:	-0.039	Yaw Set Point:	0.015	X_WP:	0.000	Y_WP:	0.000	Y_WP:	-0.100	X:	0.030	Y:	0.019	Z:	0.048	yaw:	-0.844	yaw rate:	1.008	Roll:	1.013	Pitch:	0.657	Yaw:	-1.819	Thrust:	0.000
Time:	1.524	Roll Set Point:	-0.060	Pitch Set Point:	-0.039	Yaw Set Point:	0.014	X_WP:	0.000	Y_WP:	0.000	Y_WP:	-0.100	X:	0.030	Y:	0.019	Z:	0.048	yaw:	-0.824	yaw rate:	-1.979	Roll:	1.095	Pitch:	0.707	Yaw:	-1.087	Thrust:	0.000
Time:	1.538	Roll Set Point:	-0.060	Pitch Set Point:	-0.039	Yaw Set Point:	0.015	X_WP:	0.000	Y_WP:	0.000	Y_WP:	-0.100	X:	0.030	Y:	0.019	Z:	0.048	yaw:	-0.832	yaw rate:	0.782	Roll:	1.201	Pitch:	0.811	Yaw:	-1.814	Thrust:	0.000
Time:	1.557	Roll Set Point:	-0.060	Pitch Set Point:	-0.039	Yaw Set Point:	0.015	X_WP:	0.000	Y_WP:	0.000	Y_WP:	-0.100	X:	0.030	Y:	0.019	Z:	0.048	yaw:	-0.838	yaw rate:	0.638	Roll:	1.735	Pitch:	1.095	Yaw:	-1.987	Thrust:	0.000
Time:	1.568	Roll Set Point:	-0.060	Pitch Set Point:	-0.039	Yaw Set Point:	0.017	X_WP:	0.000	Y_WP:	0.000	Y_WP:	-0.100	X:	0.030	Y:	0.019	Z:	0.048	yaw:	-0.992	yaw rate:	-1.548	Roll:	0.918	Pitch:	0.755	Yaw:	-5.534	Thrust:	0.000
Time:	1.579	Roll Set Point:	-0.060	Pitch Set Point:	-0.039	Yaw Set Point:	0.015	X_WP:	0.000	Y_WP:	0.000	Y_WP:	-0.100	X:	0.030	Y:	0.019	Z:	0.048	yaw:	-0.850	yaw rate:	-14.183	Roll:	1.209	Pitch:	0.638	Yaw:	1.761	Thrust:	0.000
Time:	1.590	Roll Set Point:	-0.060	Pitch Set Point:	-0.039	Yaw Set Point:	0.015	X_WP:	0.000	Y_WP:	0.000	Y_WP:	-0.100	X:	0.030	Y:	0.019	Z:	0.048	yaw:	-0.836	yaw rate:	-1.427	Roll:	1.113	Pitch:	0.727	Yaw:	-1.253	Thrust:	0.000
Time:	1.604	Roll Set Point:	-0.060	Pitch Set Point:	-0.039	Yaw Set Point:	0.015	X_WP:	0.000	Y_WP:	0.000	Y_WP:	-0.100	X:	0.030	Y:	0.019	Z:	0.048	yaw:	-0.841	yaw rate:	0.500	Roll:	1.288	Pitch:	0.831	Yaw:	-1.810	Thrust:	0.000
Time:	1.624	Roll Set Point:	-0.060	Pitch Set Point:	-0.039	Yaw Set Point:	0.017	X_WP:	0.000	Y_WP:	0.000	Y_WP:	-0.100	X:	0.030	Y:	0.019	Z:	0.048	yaw:	-0.996	yaw rate:	15.522	Roll:	1.679	Pitch:	1.182	Yaw:	-4.227	Thrust:	0.000
Time:	1.634	Roll Set Point:	-0.060	Pitch Set Point:	-0.039	Yaw Set Point:	0.017	X_WP:	0.000	Y_WP:	0.000	Y_WP:	-0.100	X:	0.030	Y:	0.019	Z:	0.048	yaw:	-0.997	yaw rate:	16.091	Roll:	1.097	Pitch:	0.717	Yaw:	-1.825	Thrust:	0.000
Time:	1.645	Roll Set Point:	-0.060	Pitch Set Point:	-0.039	Yaw Set Point:	0.014	X_WP:	0.000	Y_WP:	0.000	Y_WP:	-0.100	X:	0.030	Y:	0.019	Z:	0.048	yaw:	-0.823	yaw rate:	-17.340	Roll:	1.282	Pitch:	0.664	Yaw:	2.738	Thrust:	0.000
Time:	1.656	Roll Set Point:	-0.060	Pitch Set Point:	-0.039	Yaw Set Point:	0.017	X_WP:	0.000	Y_WP:	0.000	Y_WP:	-0.100	X:	0.030	Y:	0.019	Z:	0.048	yaw:	-0.982	yaw rate:	15.865	Roll:	0.931	Pitch:	0.778	Yaw:	-5.576	Thrust:	0.000
Time:	1.668	Roll Set Point:	-0.060	Pitch Set Point:	-0.039	Yaw Set Point:	0.018	X_WP:	0.000	Y_WP:	0.000	Y_WP:	-0.100	X:	0.030	Y:	0.019	Z:	0.048	yaw:	-1.023	yaw rate:	4.125	Roll:	1.176	Pitch:	0.817	Yaw:	-2.810	Thrust:	0.000
Time:	1.690	Roll Set Point:	-0.060	Pitch Set Point:	-0.039	Yaw Set Point:	0.017	X_WP:	0.000	Y_WP:	0.000	Y_WP:	-0.100	X:	0.030	Y:	0.019	Z:	0.048	yaw:	-0.994	yaw rate:	-2.935	Roll:	1.440	Pitch:	1.164	Yaw:	-1.935	Thrust:	0.000
Time:	1.702	Roll Set Point:	-0.060	Pitch Set Point:	-0.039	Yaw Set Point:	0.015	X_WP:	0.000	Y_WP:	0.000	Y_WP:	-0.100	X:	0.030	Y:	0.019	Z:	0.048	yaw:	-0.834	yaw rate:	-15.969	Roll:	1.968	Pitch:	0.885	Yaw:	1.752	Thrust:	0.000
Time:	1.712	Roll Set Point:	-0.060	Pitch Set Point:	-0.039	Yaw Set Point:	0.017	X_WP:	0.000	Y_WP:	0.000	Y_WP:	-0.100	X:	0.030	Y:	0.019	Z:	0.048	yaw:	-1.000	yaw rate:	16.527	Roll:	0.932	Pitch:	0.770	Yaw:	-6.128	Thrust:	0.000
Time:	1.723	Roll Set Point:	-0.060	Pitch Set Point:	-0.039	Yaw Set Point:	0.015	X_WP:	0.000	Y_WP:	0.000	Y_WP:	-0.100	X:	0.030	Y:	0.019	Z:	0.048	yaw:	-0.840	yaw rate:	-15.928	Roll:	1.269	Pitch:	0.675	Yaw:	2.256	Thrust:	0.000
Time:	1.734	Roll Set Point:	-0.060	Pitch Set Point:	-0.039	Yaw Set Point:	0.015	X_WP:	0.000	Y_WP:	0.000	Y_WP:	-0.100	X:	0.030	Y:	0.019	Z:	0.048	yaw:	-0.835	yaw rate:	-0.494	Roll:	1.150	Pitch:	0.744	Yaw:	-1.511	Thrust:	0.000
Time:	1.758	Roll Set Point:	-0.060	Pitch Set Point:	-0.039	Yaw Set Point:	0.017	X_WP:	0.000	Y_WP:	0.000	Y_WP:	-0.100	X:	0.030	Y:	0.019	Z:	0.048	yaw:	-0.978	yaw rate:	-1.736	Roll:	1.793	Pitch:	1.401	Yaw:	-3.955	Thrust:	0.000
Time:	1.769	Roll Set Point:	-0.060	Pitch Set Point:	-0.039	Yaw Set Point:	0.014	X_WP:	0.000	Y_WP:	0.000	Y_WP:	-0.100	X:	0.030	Y:	0.019	Z:	0.048	yaw:	-0.831	yaw rate:	-17.789	Roll:	1.682	Pitch:	0.807	Yaw:	1.615	Thrust:	0.000
Time:	1.781	Roll Set Point:	-0.060	Pitch Set Point:	-0.039	Yaw Set Point:	0.015	X_WP:	0.000	Y_WP:	0.000	Y_WP:	-0.100	X:	0.030	Y:	0.019	Z:	0.048	yaw:	-0.846	yaw rate:	1.499	Roll:	1.203	Pitch:	0.807	Yaw:	-2.015	Thrust:	0.000
Time:	1.792	Roll Set Point:	-0.060	Pitch Set Point:	-0.039	Yaw Set Point:	0.014	X_WP:	0.000	Y_WP:	0.000	Y_WP:	-0.100	X:	0.030	Y:	0.019	Z:	0.048	yaw:	-0.829	yaw rate:	-1.705	Roll:	1.197	Pitch:	0.758	Yaw:	-1.229	Thrust:	0.000
Time:	1.804	Roll Set Point:	-0.060	Pitch Set Point:	-0.039	Yaw Set Point:	0.018	X_WP:	0.000	Y_WP:	0.000	Y_WP:	-0.100	X:	0.030	Y:	0.019	Z:	0.048	yaw:	-1.011	yaw rate:	18.241	Roll:	1.169	Pitch:	0.900	Yaw:	-5.744	Thrust:	0.000
Time:	1.824	Roll Set Point:	-0.060	Pitch Set Point:	-0.039	Yaw Set Point:	0.014	X_WP:	0.000	Y_WP:	0.000	Y_WP:	-0.100	X:	0.030	Y:	0.019	Z:	0.048	yaw:	-0.825	yaw rate:	-18.583	Roll:	2.032	Pitch:	1.272	Yaw:	0.474	Thrust:	0.000
Time:	1.835	Roll Set Point:	-0.060	Pitch Set Point:	-0.039	Yaw Set Point:	0.017	X_WP:	0.000	Y_WP:	0.000	Y_WP:	-0.100	X:	0.030	Y:	0.019	Z:	0.048	yaw:	-0.991	yaw rate:	-2.222	Roll:	1.112	Pitch:	0.831	Yaw:	-5.798	Thrust:	0.000
Time:	1.846	Roll Set Point:	-0.060	Pitch Set Point:	-0.039	Yaw Set Point:	0.015	X_WP:	0.000	Y_WP:	0.000	Y_WP:	-0.100	X:	0.030	Y:	0.019	Z:	0.048	yaw:	-0.859	yaw rate:	-13.162	Roll:	1.330	Pitch:	0.793	Yaw:	1.384	Thrust:	0.000
Time:	1.857	Roll Set Point:	-0.060	Pitch Set Point:	-0.039	Yaw Set Point:	0.018	X_WP:	0.000	Y_WP:	0.000	Y_WP:	-0.100	X:	0.030	Y:	0.019	Z:	0.048	yaw:	-1.007	yaw rate:	14.786	Roll:	1.088	Pitch:	0.820	Yaw:	-5.555	Thrust:	0.000
Time:	1.870	Roll Set Point:	-0.060	Pitch Set Point:	-0.039	Yaw Set Point:	0.017	X_WP:	0.000	Y_WP:	0.000	Y_WP:	-0.100	X:	0.030	Y:	0.019	Z:	0.048	yaw:	-1.002	yaw rate:	-0.527	Roll:	1.466	Pitch:	0.919	Yaw:	-1.881	Thrust:	0.000
Time:	1.891	Roll Set Point:	-0.060	Pitch Set Point:	-0.039	Yaw Set Point:	0.015	X_WP:	0.000	Y_WP:	0.000	Y_WP:	-0.100	X:	0.030	Y:	0.019	Z:	0.048	yaw:	-0.840	yaw rate:	-16.168	Roll:	2.181	Pitch:	1.346	Yaw:	-0.121	Thrust:	0.000
Time:	1.902	Roll Set Point:	-0.060	Pitch Set Point:	-0.039	Yaw Set Point:	0.015	X_WP:	0.000	Y_WP:	0.000	Y_WP:	-0.100	X:	0.030	Y:	0.019	Z:	0.048	yaw:	-0.849	yaw rate:	0.903	Roll:	1.283	Pitch:	0.826	Yaw:	-1.910	Thrust:	0.000
Time:	1.912	Roll Set Point:	-0.060	Pitch Set Point:	-0.038	Yaw Set Point:	0.014	X_WP:	0.000	Y_WP:	0.000	Y_WP:	-0.100	X:	0.030	Y:	0.019	Z:	0.048	yaw:	-0.789	yaw rate:	-6.006	Roll:	1.197	Pitch:	0.674	Yaw:	0.006	Thrust:	0.000
Time:	1.923	Roll Set Point:	-0.060	Pitch Set Point:	-0.039	Yaw Set Point:	0.015	X_WP:	0.000	Y_WP:	0.000	Y_WP:	-0.100	X:	0.030	Y:	0.019	Z:	0.048	yaw:	-0.852	yaw rate:	6.277	Roll:	1.234	Pitch:	0.938	Yaw:	-3.148	Thrust:	0.000
Time:	1.936	Roll Set Point:	-0.060	Pitch Set Point:	-0.039	Yaw Set Point:	0.015	X_WP:	0.000	Y_WP:	0.000	Y_WP:	-0.100	X:	0.030	Y:	0.019	Z:	0.048	yaw:	-0.834	yaw rate:	-1.750	Roll:	1.356	Pitch:	0.817	Yaw:	-1.345	Thrust:	0.000
Time:	1.958	Roll Set Point:	-0.060	Pitch Set Point:	-0.039	Yaw Set Point:	0.015	X_WP:	0.000	Y_WP:	0.000	Y_WP:	-0.100	X:	0.030	Y:	0.019	Z:	0.048	yaw:	-0.839	yaw rate:	0.525	Roll:	2.157	Pitch:	1.466	Yaw:	-2.253	Thrust:	0.000
Time:	1.968	Roll Set Point:	-0.060	Pitch Set Point:	-0.039	Yaw Set Point:	0.015	X_WP:	0.000	Y_WP:	0.000	Y_WP:	-0.100	X:	0.030	Y:	0.019	Z:	0.048	yaw:	-0.840	yaw rate:	-15.954	Roll:	1.368	Pitch:	0.821	Yaw:	-1.684	Thrust:	0.000
Time:	1.979	Roll Set Point:	-0.060	Pitch Set Point:	-0.039	Yaw Set Point:	0.017	X_WP:	0.000	Y_WP:	0.000	Y_WP:	-0.100	X:	0.030	Y:	0.019	Z:	0.048	yaw:	-0.999	yaw rate:	15.855	Roll:	1.188	Pitch:	0.913	Yaw:	-5.690	Thrust:	0.000
Time:	1.990	Roll Set Point:	-0.060	Pitch Set Point:	-0.039	Yaw Set Point:	0.017	X_WP:	0.000	Y_WP:	0.000	Y_WP:	-0.100	X:	0.030	Y:	0.019	Z:	0.048	yaw:	-0.997	yaw rate:	-0.156	Roll:	1.245	Pitch:	0.817	Yaw:	-1.855	Thrust:	0.000
Time:	2.000	Roll Set Point:	-0.060	Pitch Set Point:	-0.039	Yaw Set Point:	0.018	X_WP:	0.000	Y_WP:	0.000	Y_WP:	-0.100	X:	0.030	Y:	0.019	Z:	0.048	yaw:	-1.016	yaw rate:	1.932	Roll:	1.252	Pitch:	0.818	Yaw:	-2.406	Thrust:	0.000
Time:	2.019	Roll Set Point:	-0.060	Pitch Set Point:	-0.039	Yaw Set Point:	0.017	X_WP:	0.000	Y_WP:	0.000	Y_WP:	-0.100	X:	0.030	Y:	0.019	Z:	0.048	yaw:	-0.968	yaw rate:	-4.810	Roll:	1.413	Pitch:	0.941	Yaw:	-1.575	Thrust:	0.000
Time:	2.031	Roll Set Point:	-0.060	Pitch Set Point:	-0.039	Yaw Set Point:	0.017	X_WP:	0.000	Y_WP:	0.000	Y_WP:	-0.100	X:	0.030	Y:	0.019	Z:	0.048	yaw:	-0.974	yaw rate:	13.425	Roll:	2.002	Pitch:	1.253	Yaw:	-2.082	Thrust:	0.000
Time:	2.041	Roll Set Point:	-0.060	Pitch Set Point:	-0.039	Yaw Set Point:	0.017	X_WP:	0.000	Y_WP:	0.000	Y_WP:	-0.100	X:	0.030	Y:	0.019	Z:	0.048	yaw:	-0.984	yaw rate:	0.935	Roll:	1.248	Pitch:	0.809	Yaw:	-2.123	Thrust:	0.000
Time:	2.052	Roll Set Point:	-0.060	Pitch Set Point:	-0.039	Yaw Set Point:	0.015	X_WP:	0.000	Y_WP:	0.000	Y_WP:	-0.100	X:	0.030	Y:	0.019	Z:	0.048	yaw:	-0.854	yaw rate:	-12.927	Roll:	1.414	Pitch:	0.820	Yaw:	1.634	Thrust:	0.000
Time:	2.062	Roll Set Point:	-0.060	Pitch Set Point:	-0.039	Yaw Set Point:	0.018	X_WP:	0.000	Y_WP:	0.000	Y_WP:	-0.100	X:	0.030	Y:	0.019	Z:	0.048	yaw:	-1.020	yaw rate:	16.592	Roll:	1.216	Pitch:	0.936	Yaw:	-5.899	Thrust:	0.000
Time:	2.074	Roll Set Point:	-0.060	Pitch Set Point:	-0.039	Yaw Set Point:	0.017	X_WP:	0.000	Y_WP:	0.000	Y_WP:	-0.100	X:	0.030	Y:	0.019	Z:	0.048	yaw:	-0.990	yaw rate:	-3.051	Roll:	1.373	Pitch:	0.859	Yaw:	-1.321	Thrust:	0.000
Time:	2.091	Roll Set Point:	-0.060	Pitch Set Point:	-0.039	Yaw Set Point:	0.018	X_WP:	0.000	Y_WP:	0.000	Y_WP:	-0.100	X:	0.030	Y:	0.019	Z:	0.048	yaw:	-1.007	yaw rate:	1.702	Roll:	1.886	Pitch:	1.254	Yaw:	-2.494	Thrust:	0.000
Time:	2.101	Roll Set Point:	-0.060	Pitch Set Point:	-0.039	Yaw Set Point:	0.014	X_WP:	0.000	Y_WP:	0.000	Y_WP:	-0.100	X:	0.030	Y:	0.019	Z:	0.048	yaw:	-0.829	yaw rate:	-17.721	Roll:	1.494	Pitch:	0.794	Yaw:	2.660	Thrust:	0.000
Time:	2.111	Roll Set Point:	-0.060	Pitch Set Point:	-0.039	Yaw Set Point:	0.017	X_WP:	0.000	Y_WP:	0.000	Y_WP:	-0.100	X:	0.030	Y:	0.019	Z:	0.048	yaw:	-0.994	yaw rate:	16.473	Roll:	1.134	Pitch:	0.885	Yaw:	-6.201	Thrust:	0.000
Time:	2.122	Roll Set Point:	-0.060	Pitch Set Point:	-0.039	Yaw Set Point:	0.018	X_WP:	0.000	Y_WP:	0.000	Y_WP:	-0.100	X:	0.030	Y:	0.019	Z:	0.048	yaw:	-1.016	yaw rate:	2.167	Roll:	1.247	Pitch:	0.854	Yaw:	-2.499	Thrust:	0.000
Time:	2.133	Roll Set Point:	-0.060	Pitch Set Point:	-0.039	Yaw Set Point:	0.015	X_WP:	0.000	Y_WP:	0.000	Y_WP:	-0.100	X:	0.030	Y:	0.019	Z:	0.048	yaw:	-0.832	yaw rate:	-18.368	Roll:	1.512	Pitch:	0.808	Yaw:	2.640	Thrust:	0.000
Time:	2.149	Roll Set Point:	-0.060	Pitch Set Point:	-0.039	Yaw Set Point:	0.015	X_WP:	0.000	Y_WP:	0.000	Y_WP:	-0.100	X:	0.030	Y:	0.019	Z:	0.048	yaw:	-0.853	yaw rate:	2.037	Roll:	1.547	Pitch:	1.076	Yaw:	-2.330	Thrust:	0.000
Time:	2.161	Roll Set Point:	-0.060	Pitch Set Point:	-0.039	Yaw Set Point:	0.015	X_WP:	0.000	Y_WP:	0.000	Y_WP:	-0.100	X:	0.030	Y:	0.019	Z:	0.048	yaw:	-0.838	yaw rate:	-1.465	Roll:	1.879	Pitch:	1.190	Yaw:	-1.595	Thrust:	0.000
Time:	2.173	Roll Set Point:	-0.060	Pitch Set Point:	-0.039	Yaw Set Point:	0.015	X_WP:	0.000	Y_WP:	0.000	Y_WP:	-0.100	X:	0.030	Y:	0.019	Z:	0.048	yaw:	-0.832	yaw rate:	-0.543	Roll:	1.464	Pitch:	0.950	Yaw:	-1.649	Thrust:	0.000
Time:	2.183	Roll Set Point:	-0.060	Pitch Set Point:	-0.039	Yaw Set Point:	0.017	X_WP:	0.000	Y_WP:	0.000	Y_WP:	-0.100	X:	0.030	Y:	0.019	Z:	0.048	yaw:	-0.993	yaw rate:	16.017	Roll:	1.202	Pitch:	0.888	Yaw:	-5.933	Thrust:	0.000
Time:	2.194	Roll Set Point:	-0.060	Pitch Set Point:	-0.039	Yaw Set Point:	0.018	X_WP:	0.000	Y_WP:	0.000	Y_WP:	-0.100	X:	0.030	Y:	0.019	Z:	0.048	yaw:	-1.014	yaw rate:	2.114	Roll:	1.425	Pitch:	0.967	Yaw:	-2.504	Thrust:	0.000
Time:	2.208	Roll Set Point:	-0.061	Pitch Set Point:	-0.038	Yaw Set Point:	0.015	X_WP:	0.000	Y_WP:	0.000	Y_WP:	-0.100	X:	0.030	Y:	0.019	Z:	0.048	yaw:	-0.876	yaw rate:	-13.730	Roll:	1.752	Pitch:	0.862	Yaw:	0.916	Thrust:	0.000
Time:	2.223	Roll Set Point:	-0.060	Pitch Set Point:	-0.039	Yaw Set Point:	0.017	X_WP:	0.000	Y_WP:	0.000	Y_WP:	-0.100	X:	0.030	Y:	0.019	Z:	0.048	yaw:	-0.980	yaw rate:	10.387	Roll:	1.837	Pitch:	1.369	Yaw:	-3.929	Thrust:	0.000
Time:	2.234	Roll Set Point:	-0.060	Pitch Set Point:	-0.039	Yaw Set Point:	0.015	X_WP:	0.000	Y_WP:	0.000	Y_WP:	-0.100	X:	0.030	Y:	0.019	Z:	0.048	yaw:	-0.855	yaw rate:	-0.243	Roll:	1.503	Pitch:	0.871	Yaw:	1.177	Thrust:	0.000
Time:	2.245	Roll Set Point:	-0.060	Pitch Set Point:	-0.039	Yaw Set Point:	0.018	X_WP:	0.000	Y_WP:	0.000	Y_WP:	-0.100	X:	0.030	Y:	0.019	Z:	0.048	yaw:	-1.005	yaw rate:	14.935	Roll:	1.333	Pitch:	0.986	Yaw:	-5.721	Thrust:	0.000
Time:	2.256	Roll Set Point:	-0.060	Pitch Set Point:	-0.039	Yaw Set Point:	0.015	X_WP:	0.000	Y_WP:	0.000	Y_WP:	-0.100	X:	0.030	Y:	0.019	Z:	0.048	yaw:	-0.853	yaw rate:	-15.148	Roll:	1.596	Pitch:	0.886	Yaw:	1.580	Thrust:	0.000
Time:	2.272	Roll Set Point:	-0.060	Pitch Set Point:	-0.039	Yaw Set Point:	0.018	X_WP:	0.000	Y_WP:	0.000	Y_WP:	-0.100	X:	0.030	Y:	0.019	Z:	0.048	yaw:	-1.021	yaw rate:	16.841	Roll:	1.635	Pitch:	1.238	Yaw:	-5.188	Thrust:	0.000
Time:	2.291	Roll Set Point:	-0.060	Pitch Set Point:	-0.039	Yaw Set Point:	0.017	X_WP:	0.000	Y_WP:	0.000	Y_WP:	-0.100	X:	0.030	Y:	0.019	Z:	0.048	yaw:	-0.985	yaw rate:	-3.618	Roll:	2.547	Pitch:	1.616	Yaw:	-2.021	Thrust:	0.000
Time:	2.303	Roll Set Point:	-0.060	Pitch Set Point:	-0.039	Yaw Set Point:	0.015	X_WP:	0.000	Y_WP:	0.000	Y_WP:	-0.100	X:	0.030	Y:	0.019	Z:	0.048	yaw:	-0.844	yaw rate:	0.704	Roll:	1.672	Pitch:	0.912	Yaw:	1.488	Thrust:	0.000
Time:	2.313	Roll Set Point:	-0.060	Pitch Set Point:	-0.039	Yaw Set Point:	0.018	X_WP:	0.000	Y_WP:	0.000	Y_WP:	-0.100	X:	0.030	Y:	0.019	Z:	0.048	yaw:	-1.008	yaw rate:	16.432	Roll:	1.241	Pitch:	0.980	Yaw:	-6.086	Thrust:	0.000
Time:	2.324	Roll Set Point:	-0.060	Pitch Set Point:	-0.039	Yaw Set Point:	0.017	X_WP:	0.000	Y_WP:	0.000	Y_WP:	-0.100	X:	0.030	Y:	0.019	Z:	0.048	yaw:	-0.990	yaw rate:	-1.827	Roll:	1.413	Pitch:	0.896	Yaw:	-1.524	Thrust:	0.000
Time:	2.336	Roll Set Point:	-0.060	Pitch Set Point:	-0.039	Yaw Set Point:	0.017	X_WP:	0.000	Y_WP:	0.000	Y_WP:	-0.100	X:	0.030	Y:	0.019	Z:	0.048	yaw:	-0.985	yaw rate:	-0.492	Roll:	1.530	Pitch:	1.026	Yaw:	-1.943	Thrust:	0.000
Time:	2.357	Roll Set Point:	-0.060	Pitch Set Point:	-0.039	Yaw Set Point:	0.018	X_WP:	0.000	Y_WP:	0.000	Y_WP:	-0.100	X:	0.030	Y:	0.019	Z:	0.048	yaw:	-1.015	yaw rate:	2.941	Roll:	2.462	Pitch:	1.612	Yaw:	-2.986	Thrust:	0.000
Time:	2.369	Roll Set Point:	-0.060	Pitch Set Point:	-0.039	Yaw Set Point:	0.015	X_WP:	0.000	Y_WP:	0.000	Y_WP:	-0.100	X:	0.030	Y:	0.019	Z:	0.048	yaw:	-0.831	yaw rate:	-1.856	Roll:	1.911	Pitch:	1.072	Yaw:	2.120	Thrust:	0.000
Time:	2.379	Roll Set Point:	-0.060	Pitch Set Point:	-0.039	Yaw Set Point:	0.018	X_WP:	0.000	Y_WP:	0.000	Y_WP:	-0.100	X:	0.030	Y:	0.019	Z:	0.048	yaw:	-1.015	yaw rate:	18.348	Roll:	1.270	Pitch:	1.010	Yaw:	-6.789	Thrust:	0.000
Time:	2.390	Roll Set Point:	-0.060	Pitch Set Point:	-0.039	Yaw Set Point:	0.015	X_WP:	0.000	Y_WP:	0.000	Y_WP:	-0.100	X:	0.030	Y:	0.019	Z:	0.048	yaw:	-0.843	yaw rate:	-17.147	Roll:	1.569	Pitch:	0.863	Yaw:	2.481	Thrust:	0.000
Time:	2.403	Roll Set Point:	-0.060	Pitch Set Point:	-0.039	Yaw Set Point:	0.018	X_WP:	0.000	Y_WP:	0.000	Y_WP:	-0.100	X:	0.030	Y:	0.019	Z:	0.048	yaw:	-1.005	yaw rate:	16.202	Roll:	1.595	Pitch:	1.230	Yaw:	-5.301	Thrust:	0.000
Time:	2.423	Roll Set Point:	-0.060	Pitch Set Point:	-0.039	Yaw Set Point:	0.017	X_WP:	0.000	Y_WP:	0.000	Y_WP:	-0.100	X:	0.030	Y:	0.019	Z:	0.048	yaw:	-1.002	yaw rate:	-0.322	Roll:	2.600	Pitch:	1.612	Yaw:	-2.540	Thrust:	0.000
Time:	2.434	Roll Set Point:	-0.060	Pitch Set Point:	-0.039	Yaw Set Point:	0.015	X_WP:	0.000	Y_WP:	0.000	Y_WP:	-0.100	X:	0.030	Y:	0.019	Z:	0.048	yaw:	-0.848	yaw rate:	-16.224	Roll:	1.638	Pitch:	0.938	Yaw:	1.815	Thrust:	0.000
Time:	2.444	Roll Set Point:	-0.060	Pitch Set Point:	-0.039	Yaw Set Point:	0.015	X_WP:	0.000	Y_WP:	0.000	Y_WP:	-0.100	X:	0.030	Y:	0.019	Z:	0.048	yaw:	-0.851	yaw rate:	0.227	Roll:	1.457	Pitch:	0.956	Yaw:	-1.848	Thrust:	0.000
Time:	2.455	Roll Set Point:	-0.060	Pitch Set Point:	-0.039	Yaw Set Point:	0.015	X_WP:	0.000	Y_WP:	0.000	Y_WP:	-0.100	X:	0.030	Y:	0.019	Z:	0.048	yaw:	-0.851	yaw rate:	0.050	Roll:	1.590	Pitch:	1.021	Yaw:	-1.859	Thrust:	0.000
Time:	2.469	Roll Set Point:	-0.060	Pitch Set Point:	-0.039	Yaw Set Point:	0.015	X_WP:	0.000	Y_WP:	0.000	Y_WP:	-0.100	X:	0.030	Y:	0.019	Z:	0.048	yaw:	-0.836	yaw rate:	-1.481	Roll:	1.726	Pitch:	1.186	Yaw:	-1.710	Thrust:	0.000
Time:	2.491	Roll Set Point:	-0.060	Pitch Set Point:	-0.039	Yaw Set Point:	0.015	X_WP:	0.000	Y_WP:	0.000	Y_WP:	-0.100	X:	0.030	Y:	0.019	Z:	0.048	yaw:	-0.842	yaw rate:	0.543	Roll:	2.721	Pitch:	1.837	Yaw:	-2.605	Thrust:	0.000
Time:	2.503	Roll Set Point:	-0.060	Pitch Set Point:	-0.039	Yaw Set Point:	0.014	X_WP:	0.000	Y_WP:	0.000	Y_WP:	-0.100	X:	0.030	Y:	0.019	Z:	0.048	yaw:	-0.821	yaw rate:	-18.402	Roll:	1.908	Pitch:	1.078	Yaw:	-1.377	Thrust:	0.000
Time:	2.513	Roll Set Point:	-0.060	Pitch Set Point:	-0.039	Yaw Set Point:	0.015	X_WP:	0.000	Y_WP:	0.000	Y_WP:	-0.100	X:	0.030	Y:	0.019	Z:	0.048	yaw:	-0.843	yaw rate:	2.199	Roll:	1.444	Pitch:	0.957	Yaw:	-2.367	Thrust:	0.000
Time:	2.524	Roll Set Point:	-0.060	Pitch Set Point:	-0.039	Yaw Set Point:	0.015	X_WP:	0.000	Y_WP:	0.000	Y_WP:	-0.100	X:	0.030	Y:	0.019	Z:	0.048	yaw:	-0.852	yaw rate:	0.864	Roll:	1.504	Pitch:	1.000	Yaw:	-2.049	Thrust:	0.000
Time:	2.536	Roll Set Point:	-0.060	Pitch Set Point:	-0.039	Yaw Set Point:	0.014	X_WP:	0.000	Y_WP:	0.000	Y_WP:	-0.100	X:	0.030	Y:	0.019	Z:	0.048	yaw:	-0.825	yaw rate:	-2.651	Roll:	1.706	Pitch:	1.170	Yaw:	-1.372	Thrust:	0.000
Time:	2.557	Roll Set Point:	-0.060	Pitch Set Point:	-0.039	Yaw Set Point:	0.018	X_WP:	0.000	Y_WP:	0.000	Y_WP:	-0.100	X:	0.030	Y:	0.019	Z:	0.048	yaw:	-1.018	yaw rate:	19.338	Roll:	2.512	Pitch:	1.761	Yaw:	-5.156	Thrust:	0.000
Time:	2.568	Roll Set Point:	-0.060	Pitch Set Point:	-0.038	Yaw Set Point:	0.016	X_WP:	0.000	Y_WP:	0.000	Y_WP:	-0.100	X:	0.030	Y:	0.019	Z:	0.048	yaw:	-0.940	yaw rate:	-7.801	Roll:	1.794	Pitch:	0.952	Yaw:	-0.049	Thrust:	0.000
Time:	2.580	Roll Set Point:	-0.061	Pitch Set Point:	-0.038	Yaw Set Point:	0.015	X_WP:	0.000	Y_WP:	0.000	Y_WP:	-0.100	X:	0.030	Y:	0.019	Z:	0.048	yaw:	-0.882	yaw rate:	-5.866	Roll:	1.844	Pitch:	1.021	Yaw:	-0.530	Thrust:	0.000
Time:	2.591	Roll Set Point:	-0.060	Pitch Set Point:	-0.039	Yaw Set Point:	0.015	X_WP:	0.000	Y_WP:	0.000	Y_WP:	-0.100	X:	0.030	Y:	0.019	Z:	0.048	yaw:	-0.853	yaw rate:	1.660	Roll:	1.578	Pitch:	1.152	Yaw:	-1.316	Thrust:	0.000
Time:	2.604	Roll Set Point:	-0.060	Pitch Set Point:	-0.039	Yaw Set Point:	0.015	X_WP:	0.000	Y_WP:	0.000	Y_WP:	-0.100	X:	0.030	Y:	0.019	Z:	0.048	yaw:	-0.832	yaw rate:	-2.048	Roll:	1.713	Pitch:	1.176	Yaw:	-1.508	Thrust:	0.000
Time:	2.623	Roll Set Point:	-0.060	Pitch Set Point:	-0.039	Yaw Set Point:	0.015	X_WP:	0.000	Y_WP:	0.000	Y_WP:	-0.100	X:	0.030	Y:	0.019	Z:	0.048	yaw:	-0.841	yaw rate:	0.866	Roll:	2.779	Pitch:	1.720	Yaw:	-2.534	Thrust:	0.000
Time:	2.634	Roll Set Point:	-0.060	Pitch Set Point:	-0.039	Yaw Set Point:	0.017	X_WP:	0.000	Y_WP:	0.000	Y_WP:	-0.100	X:	0.030	Y:	0.019	Z:	0.048	yaw:	-0.994	yaw rate:	14.442	Roll:	1.429	Pitch:	1.068	Yaw:	-5.710	Thrust:	0.000
Time:	2.644	Roll Set Point:	-0.060	Pitch Set Point:	-0.039	Yaw Set Point:	0.014	X_WP:	0.000	Y_WP:	0.000	Y_WP:	-0.100	X:	0.030	Y:	0.019	Z:	0.048	yaw:	-0.820	yaw rate:	-17.390	Roll:	1.791	Pitch:	1.011	Yaw:	2.492	Thrust:	0.000
Time:	2.656	Roll Set Point:	-0.060	Pitch Set Point:	-0.039	Yaw Set Point:	0.015	X_WP:	0.000	Y_WP:	0.000	Y_WP:	-0.100	X:	0.030	Y:	0.019	Z:	0.048	yaw:	-0.835	yaw rate:	1.581	Roll:	1.684	Pitch:	1.127	Yaw:	-2.283	Thrust:	0.000
Time:	2.669	Roll Set Point:	-0.060	Pitch Set Point:	-0.039	Yaw Set Point:	0.015	X_WP:	0.000	Y_WP:	0.000	Y_WP:	-0.100	X:	0.030	Y:	0.019	Z:	0.048	yaw:	-0.836	yaw rate:	0.049	Roll:	1.772	Pitch:	1.220	Yaw:	-1.991	Thrust:	0.000
Time:	2.692	Roll Set Point:	-0.060	Pitch Set Point:	-0.039	Yaw Set Point:	0.015	X_WP:	0.000	Y_WP:	0.000	Y_WP:	-0.100	X:	0.030	Y:	0.019	Z:	0.048	yaw:	-0.842	yaw rate:	0.574	Roll:	3.024	Pitch:	1.882	Yaw:	-2.710	Thrust:	0.000
Time:	2.702	Roll Set Point:	-0.060	Pitch Set Point:	-0.039	Yaw Set Point:	0.015	X_WP:	0.000	Y_WP:	0.000	Y_WP:	-0.100	X:	0.030	Y:	0.019	Z:	0.048	yaw:	-0.849	yaw rate:	0.764	Roll:	1.868	Pitch:	1.224	Yaw:	-2.089	Thrust:	0.000
Time:	2.712	Roll Set Point:	-0.060	Pitch Set Point:	-0.039	Yaw Set Point:	0.017	X_WP:	0.000	Y_WP:	0.000	Y_WP:	-0.100	X:	0.030	Y:	0.019	Z:	0.048	yaw:	-0.993	yaw rate:	14.343	Roll:	1.381	Pitch:	1.065	Yaw:	-5.788	Thrust:	0.000
Time:	2.723	Roll Set Point:	-0.060	Pitch Set Point:	-0.039	Yaw Set Point:	0.015	X_WP:	0.000	Y_WP:	0.000	Y_WP:	-0.100	X:	0.030	Y:	0.019	Z:	0.048	yaw:	-0.844	yaw rate:	-14.865	Roll:	1.669	Pitch:	0.974	Yaw:	1.825	Thrust:	0.000
Time:	2.740	Roll Set Point:	-0.060	Pitch Set Point:	-0.039	Yaw Set Point:	0.017	X_WP:	0.000	Y_WP:	0.000	Y_WP:	-0.100	X:	0.030	Y:	0.019	Z:	0.048	yaw:	-0.972	yaw rate:	14.366	Roll:	1.966	Pitch:	1.450	Yaw:	-4.476	Thrust:	0.000
Time:	2.757	Roll Set Point:	-0.060	Pitch Set Point:	-0.039	Yaw Set Point:	0.015	X_WP:	0.000	Y_WP:	0.000	Y_WP:	-0.100	X:	0.030	Y:	0.019	Z:	0.048	yaw:	-0.839	yaw rate:	-13.240	Roll:	2.915	Pitch:	1.690	Yaw:	-0.375	Thrust:	0.000
Time:	2.768	Roll Set Point:	-0.061	Pitch Set Point:	-0.038	Yaw Set Point:	0.015	X_WP:	0.000	Y_WP:	0.000	Y_WP:	-0.100	X:	0.030	Y:	0.019	Z:	0.048	yaw:	-0.878	yaw rate:	3.856	Roll:	1.830	Pitch:	1.084	Yaw:	-2.878	Thrust:	0.000
Time:	2.779	Roll Set Point:	-0.060	Pitch Set Point:	-0.039	Yaw Set Point:	0.017	X_WP:	0.000	Y_WP:	0.000	Y_WP:	-0.100	X:	0.030	Y:	0.019	Z:	0.048	yaw:	-0.985	yaw rate:	10.758	Roll:	1.470	Pitch:	1.223	Yaw:	-4.670	Thrust:	0.000
Time:	2.791	Roll Set Point:	-0.060	Pitch Set Point:	-0.039	Yaw Set Point:	0.017	X_WP:	0.000	Y_WP:	0.000	Y_WP:	-0.100	X:	0.030	Y:	0.019	Z:	0.048	yaw:	-0.980	yaw rate:	-0.503	Roll:	1.766	Pitch:	1.156	Yaw:	-1.993	Thrust:	0.000
Time:	2.803	Roll Set Point:	-0.060	Pitch Set Point:	-0.039	Yaw Set Point:	0.015	X_WP:	0.000	Y_WP:	0.000	Y_WP:	-0.100	X:	0.030	Y:	0.019	Z:	0.048	yaw:	-0.839	yaw rate:	-14.090	Roll:	1.879	Pitch:	1.154	Yaw:	0.870	Thrust:	0.000
Time:	2.823	Roll Set Point:	-0.060	Pitch Set Point:	-0.039	Yaw Set Point:	0.015	X_WP:	0.000	Y_WP:	0.000	Y_WP:	-0.100	X:	0.030	Y:	0.019	Z:	0.048	yaw:	-0.838	yaw rate:	-0.171	Roll:	2.905	Pitch:	1.846	Yaw:	-2.481	Thrust:	0.000
Time:	2.833	Roll Set Point:	-0.060	Pitch Set Point:	-0.039	Yaw Set Point:	0.017	X_WP:	0.000	Y_WP:	0.000	Y_WP:	-0.100	X:	0.030	Y:	0.019	Z:	0.048	yaw:	-0.996	yaw rate:	3.490	Roll:	1.612	Pitch:	1.143	Yaw:	-6.057	Thrust:	0.000
Time:	2.844	Roll Set Point:	-0.061	Pitch Set Point:	-0.038	Yaw Set Point:	0.015	X_WP:	0.000	Y_WP:	0.000	Y_WP:	-0.100	X:	0.030	Y:	0.019	Z:	0.048	yaw:	-0.872	yaw rate:	-12.389	Roll:	1.948	Pitch:	1.025	Yaw:	0.965	Thrust:	0.000
Time:	2.854	Roll Set Point:	-0.060	Pitch Set Point:	-0.039	Yaw Set Point:	0.014	X_WP:	0.000	Y_WP:	0.000	Y_WP:	-0.100	X:	0.030	Y:	0.019	Z:	0.048	yaw:	-0.823	yaw rate:	-4.886	Roll:	1.508	Pitch:	1.082	Yaw:	-0.565	Thrust:	0.000
Time:	2.865	Roll Set Point:	-0.060	Pitch Set Point:	-0.039	Yaw Set Point:	0.015	X_WP:	0.000	Y_WP:	0.000	Y_WP:	-0.100	X:	0.030	Y:	0.019	Z:	0.048	yaw:	-0.845	yaw rate:	2.109	Roll:	1.664	Pitch:	1.116	Yaw:	-2.435	Thrust:	0.000
Time:	2.889	Roll Set Point:	-0.060	Pitch Set Point:	-0.039	Yaw Set Point:	0.015	X_WP:	0.000	Y_WP:	0.000	Y_WP:	-0.100	X:	0.030	Y:	0.019	Z:	0.048	yaw:	-0.846	yaw rate:	0.136	Roll:	3.482	Pitch:	2.264	Yaw:	-2.910	Thrust:	0.000
Time:	2.900	Roll Set Point:	-0.060	Pitch Set Point:	-0.039	Yaw Set Point:	0.015	X_WP:	0.000	Y_WP:	0.000	Y_WP:	-0.100	X:	0.030	Y:	0.019	Z:	0.048	yaw:	-0.840	yaw rate:	-3.479	Roll:	1.820	Pitch:	1.157	Yaw:	-1.796	Thrust:	0.000
Time:	2.911	Roll Set Point:	-0.060	Pitch Set Point:	-0.039	Yaw Set Point:	0.015	X_WP:	0.000	Y_WP:	0.000	Y_WP:	-0.100	X:	0.030	Y:	0.019	Z:	0.048	yaw:	-0.832	yaw rate:	-0.860	Roll:	1.778	Pitch:	1.168	Yaw:	-1.732	Thrust:	0.000
Time:	2.923	Roll Set Point:	-0.060	Pitch Set Point:	-0.039	Yaw Set Point:	0.017	X_WP:	0.000	Y_WP:	0.000	Y_WP:	-0.100	X:	0.030	Y:	0.019	Z:	0.048	yaw:	-0.977	yaw rate:	14.578	Roll:	1.669	Pitch:	1.215	Yaw:	-5.461	Thrust:	0.000
Time:	2.934	Roll Set Point:	-0.060	Pitch Set Point:	-0.039	Yaw Set Point:	0.015	X_WP:	0.000	Y_WP:	0.000	Y_WP:	-0.100	X:	0.030	Y:	0.019	Z:	0.048	yaw:	-0.835	yaw rate:	-14.206	Roll:	1.810	Pitch:	1.066	Yaw:	1.423	Thrust:	0.000
Time:	2.957	Roll Set Point:	-0.060	Pitch Set Point:	-0.039	Yaw Set Point:	0.015	X_WP:	0.000	Y_WP:	0.000	Y_WP:	-0.100	X:	0.030	Y:	0.019	Z:	0.048	yaw:	-0.848	yaw rate:	1.252	Roll:	2.137	Pitch:	1.880	Yaw:	-3.004	Thrust:	0.000
Time:	2.968	Roll Set Point:	-0.060	Pitch Set Point:	-0.039	Yaw Set Point:	0.017	X_WP:	0.000	Y_WP:	0.000	Y_WP:	-0.100	X:	0.030	Y:	0.019	Z:	0.048	yaw:	-0.995	yaw rate:	15.755	Roll:	3.165	Pitch:	1.612	Yaw:	-5.798	Thrust:	0.000
Time:	2.980	Roll Set Point:	-0.061	Pitch Set Point:	-0.038	Yaw Set Point:	0.015	X_WP:	0.000	Y_WP:	0.000	Y_WP:	-0.100	X:	0.030	Y:	0.019	Z:	0.048	yaw:	-0.882	yaw rate:	-11.260	Roll:	2.056	Pitch:	1.100	Yaw:	0.647	Thrust:	0.000
Time:	2.991	Roll Set Point:	-0.060	Pitch Set Point:	-0.039	Yaw Set Point:	0.015	X_WP:	0.000	Y_WP:	0.000	Y_WP:	-0.100	X:	0.030	Y:	0.019	Z:	0.048	yaw:	-0.843	yaw rate:	-3.904	Roll:	1.766	Pitch:	1.251	Yaw:	-1.176	Thrust:	0.000
Time:	3.003	Roll Set Point:	-0.060	Pitch Set Point:	-0.039	Yaw Set Point:	0.017	X_WP:	0.000	Y_WP:	0.000	Y_WP:	1.000	X:	0.030	Y:	0.019	Z:	0.048	yaw:	-0.986	yaw rate:	14.312	Roll:	1.779	Pitch:	1.270	Yaw:	-5.329	Thrust:	100.000
Time:	3.024	Roll Set Point:	-0.060	Pitch Set Point:	-0.039	Yaw Set Point:	0.015	X_WP:	0.000	Y_WP:	0.000	Y_WP:	1.000	X:	0.030	Y:	0.019	Z:	0.048	yaw:	-0.837	yaw rate:	-14.965	Roll:	3.339	Pitch:	2.103	Yaw:	-0.763	Thrust:	54.088
Time:	3.035	Roll Set Point:	-0.060	Pitch Set Point:	-0.038	Yaw Set Point:	0.028	X_WP:	0.000	Y_WP:	0.000	Y_WP:	1.000	X:	0.031	Y:	0.019	Z:	0.048	yaw:	-1.582	yaw rate:	70.192	Roll:	1.684	Pitch:	1.286	Yaw:	-20.518	Thrust:	53.497
Time:	3.045	Roll Set Point:	-0.060	Pitch Set Point:	-0.039	Yaw Set Point:	0.029	X_WP:	0.000	Y_WP:	0.000	Y_WP:	1.000	X:	0.031	Y:	0.019	Z:	0.048	yaw:	-1.661	yaw rate:	7.914	Roll:	1.733	Pitch:	1.383	Yaw:	-5.112	Thrust:	55.141
Time:	3.055	Roll Set Point:	-0.060	Pitch Set Point:	-0.038	Yaw Set Point:	0.030	X_WP:	0.000	Y_WP:	0.000	Y_WP:	1.000	X:	0.030	Y:	0.019	Z:	0.048	yaw:	-1.708	yaw rate:	4.718	Roll:	1.627	Pitch:	0.957	Yaw:	-4.336	Thrust:	56.963
Time:	3.067	Roll Set Point:	-0.060	Pitch Set Point:	-0.039	Yaw Set Point:	0.029	X_WP:	0.000	Y_WP:	0.000	Y_WP:	1.000	X:	0.030	Y:	0.019	Z:	0.049	yaw:	-1.658	yaw rate:	-5.042	Roll:	1.820	Pitch:	1.505	Yaw:	-2.003	Thrust:	57.545
Time:	3.089	Roll Set Point:	-0.060	Pitch Set Point:	-0.039	Yaw Set Point:	0.029	X_WP:	0.000	Y_WP:	0.000	Y_WP:	1.000	X:	0.030	Y:	0.019	Z:	0.049	yaw:	-1.641	yaw rate:	-1.663	Roll:	3.097	Pitch:	2.004	Yaw:	-3.632	Thrust:	65.712
Time:	3.100	Roll Set Point:	-0.060	Pitch Set Point:	-0.039	Yaw Set Point:	0.030	X_WP:	0.000	Y_WP:	0.000	Y_WP:	1.000	X:	0.030	Y:	0.019	Z:	0.048	yaw:	-1.727	yaw rate:	23.783	Roll:	2.328	Pitch:	1.327	Yaw:	-5.161	Thrust:	62.704
Time:	3.115	Roll Set Point:	-0.061	Pitch Set Point:	-0.038	Yaw Set Point:	0.024	X_WP:	0.000	Y_WP:	0.000	Y_WP:	1.000	X:	0.031	Y:	0.019	Z:	0.048	yaw:	-1.374	yaw rate:	-35.317	Roll:	2.100	Pitch:	0.897	Yaw:	2.841	Thrust:	60.587
Time:	3.126	Roll Set Point:	-0.060	Pitch Set Point:	-0.038	Yaw Set Point:	0.028	X_WP:	0.000	Y_WP:	0.000	Y_WP:	1.000	X:	0.030	Y:	0.019	Z:	0.048	yaw:	-1.625	yaw rate:	25.069	Roll:	2.320	Pitch:	1.731	Yaw:	-9.301	Thrust:	68.643
Time:	3.141	Roll Set Point:	-0.060	Pitch Set Point:	-0.038	Yaw Set Point:	0.024	X_WP:	0.000	Y_WP:	0.000	Y_WP:	1.000	X:	0.030	Y:	0.019	Z:	0.048	yaw:	-1.385	yaw rate:	-24.028	Roll:	2.094	Pitch:	1.351	Yaw:	1.253	Thrust:	66.590
Time:	3.158	Roll Set Point:	-0.061	Pitch Set Point:	-0.038	Yaw Set Point:	0.027	X_WP:	0.000	Y_WP:	0.000	Y_WP:	1.000	X:	0.031	Y:	0.019	Z:	0.049	yaw:	-1.556	yaw rate:	6.598	Roll:	3.117	Pitch:	1.896	Yaw:	-6.129	Thrust:	74.228
Time:	3.168	Roll Set Point:	-0.061	Pitch Set Point:	-0.038	Yaw Set Point:	0.027	X_WP:	0.000	Y_WP:	0.000	Y_WP:	1.000	X:	0.031	Y:	0.019	Z:	0.049	yaw:	-1.535	yaw rate:	-2.064	Roll:	1.843	Pitch:	1.159	Yaw:	-2.459	Thrust:	66.550
Time:	3.178	Roll Set Point:	-0.061	Pitch Set Point:	-0.038	Yaw Set Point:	0.030	X_WP:	0.000	Y_WP:	0.000	Y_WP:	1.000	X:	0.031	Y:	0.019	Z:	0.049	yaw:	-1.695	yaw rate:	16.007	Roll:	1.806	Pitch:	1.226	Yaw:	-7.340	Thrust:	66.260
Time:	3.189	Roll Set Point:	-0.060	Pitch Set Point:	-0.038	Yaw Set Point:	0.033	X_WP:	0.000	Y_WP:	0.000	Y_WP:	1.000	X:	0.030	Y:	0.019	Z:	0.049	yaw:	-1.893	yaw rate:	19.798	Roll:	1.590	Pitch:	1.206	Yaw:	-8.225	Thrust:	69.289
Time:	3.202	Roll Set Point:	-0.061	Pitch Set Point:	-0.038	Yaw Set Point:	0.034	X_WP:	0.000	Y_WP:	0.000	Y_WP:	1.000	X:	0.031	Y:	0.019	Z:	0.050	yaw:	-1.920	yaw rate:	2.690	Roll:	2.344	Pitch:	1.574	Yaw:	-4.268	Thrust:	71.778
Time:	3.222	Roll Set Point:	-0.061	Pitch Set Point:	-0.038	Yaw Set Point:	0.033	X_WP:	0.000	Y_WP:	0.000	Y_WP:	1.000	X:	0.031	Y:	0.018	Z:	0.050	yaw:	-1.868	yaw rate:	-5.229	Roll:	3.203	Pitch:	1.670	Yaw:	-3.439	Thrust:	85.665
Time:	3.233	Roll Set Point:	-0.061	Pitch Set Point:	-0.037	Yaw Set Point:	0.024	X_WP:	0.000	Y_WP:	0.000	Y_WP:	1.000	X:	0.031	Y:	0.018	Z:	0.052	yaw:	-1.375	yaw rate:	-21.917	Roll:	2.304	Pitch:	0.960	Yaw:	8.332	Thrust:	65.906
Time:	3.243	Roll Set Point:	-0.061	Pitch Set Point:	-0.037	Yaw Set Point:	0.032	X_WP:	0.000	Y_WP:	0.000	Y_WP:	1.000	X:	0.031	Y:	0.018	Z:	0.053	yaw:	-1.808	yaw rate:	43.293	Roll:	1.993	Pitch:	1.395	Yaw:	-14.287	Thrust:	67.160
Time:	3.254	Roll Set Point:	-0.062	Pitch Set Point:	-0.037	Yaw Set Point:	0.025	X_WP:	0.000	Y_WP:	0.000	Y_WP:	1.000	X:	0.031	Y:	0.018	Z:	0.055	yaw:	-1.459	yaw rate:	-34.910	Roll:	2.256	Pitch:	0.810	Yaw:	5.746	Thrust:	67.222
Time:	3.265	Roll Set Point:	-0.062	Pitch Set Point:	-0.037	Yaw Set Point:	0.026	X_WP:	0.000	Y_WP:	0.000	Y_WP:	1.000	X:	0.031	Y:	0.018	Z:	0.057	yaw:	-1.470	yaw rate:	1.094	Roll:	1.733	Pitch:	1.137	Yaw:	-3.262	Thrust:	69.743
Time:	3.289	Roll Set Point:	-0.062	Pitch Set Point:	-0.036	Yaw Set Point:	0.016	X_WP:	0.000	Y_WP:	0.000	Y_WP:	1.000	X:	0.031	Y:	0.018	Z:	0.059	yaw:	-0.928	yaw rate:	-54.210	Roll:	2.656	Pitch:	1.335	Yaw:	3.869	Thrust:	91.431
Time:	3.302	Roll Set Point:	-0.063	Pitch Set Point:	-0.035	Yaw Set Point:	0.013	X_WP:	0.000	Y_WP:	0.000	Y_WP:	1.000	X:	0.032	Y:	0.017	Z:	0.068	yaw:	-0.765	yaw rate:	-55.814	Roll:	4.089	Pitch:	1.786	Yaw:	0.438	Thrust:	69.927
Time:	3.315	Roll Set Point:	-0.063	Pitch Set Point:	-0.035	Yaw Set Point:	0.007	X_WP:	0.000	Y_WP:	0.000	Y_WP:	1.000	X:	0.031	Y:	0.017	Z:	0.071	yaw:	-0.407	yaw rate:	-35.820	Roll:	2.222	Pitch:	1.020	Yaw:	5.529	Thrust:	72.279
Time:	3.326	Roll Set Point:	-0.063	Pitch Set Point:	-0.034	Yaw Set Point:	0.002	X_WP:	0.000	Y_WP:	0.000	Y_WP:	1.000	X:	0.032	Y:	0.017	Z:	0.075	yaw:	-0.134	yaw rate:	-27.282	Roll:	2.428	Pitch:	0.568	Yaw:	5.356	Thrust:	64.894
Time:	3.339	Roll Set Point:	-0.063	Pitch Set Point:	-0.034	Yaw Set Point:	0.008	X_WP:	0.000	Y_WP:	0.000	Y_WP:	1.000	X:	0.032	Y:	0.017	Z:	0.079	yaw:	-0.481	yaw rate:	34.772	Roll:	2.118	Pitch:	1.543	Yaw:	-8.997	Thrust:	69.272
Time:	3.359	Roll Set Point:	-0.063	Pitch Set Point:	-0.034	Yaw Set Point:	0.012	X_WP:	0.000	Y_WP:	0.000	Y_WP:	1.000	X:	0.032	Y:	0.017	Z:	0.084	yaw:	-0.683	yaw rate:	20.131	Roll:	3.186	Pitch:	2.187	Yaw:	-5.250	Thrust:	100.000
Time:	3.370	Roll Set Point:	-0.063	Pitch Set Point:	-0.031	Yaw Set Point:	0.003	X_WP:	0.000	Y_WP:	0.000	Y_WP:	1.000	X:	0.031	Y:	0.016	Z:	0.098	yaw:	-0.198	yaw rate:	10.287	Roll:	2.345	Pitch:	-0.243	Yaw:	10.768	Thrust:	24.424
Time:	3.382	Roll Set Point:	-0.063	Pitch Set Point:	-0.031	Yaw Set Point:	0.001	X_WP:	0.000	Y_WP:	0.000	Y_WP:	1.000	X:	0.032	Y:	0.015	Z:	0.104	yaw:	-0.068	yaw rate:	-13.012	Roll:	2.169	Pitch:	0.959	Yaw:	1.555	Thrust:	68.866
Time:	3.394	Roll Set Point:	-0.063	Pitch Set Point:	-0.030	Yaw Set Point:	-0.005	X_WP:	0.000	Y_WP:	0.000	Y_WP:	1.000	X:	0.032	Y:	0.015	Z:	0.110	yaw:	0.263	yaw rate:	-33.117	Roll:	2.321	Pitch:	0.780	Yaw:	6.217	Thrust:	66.474
Time:	3.412	Roll Set Point:	-0.063	Pitch Set Point:	-0.029	Yaw Set Point:	-0.007	X_WP:	0.000	Y_WP:	0.000	Y_WP:	1.000	X:	0.031	Y:	0.015	Z:	0.116	yaw:	0.404	yaw rate:	-14.106	Roll:	2.085	Pitch:	1.327	Yaw:	1.074	Thrust:	92.052
Time:	3.431	Roll Set Point:	-0.063	Pitch Set Point:	-0.028	Yaw Set Point:	-0.013	X_WP:	0.000	Y_WP:	0.000	Y_WP:	1.000	X:	0.031	Y:	0.014	Z:	0.122	yaw:	0.724	yaw rate:	-32.000	Roll:	3.817	Pitch:	1.695	Yaw:	4.116	Thrust:	97.639
Time:	3.443	Roll Set Point:	-0.062	Pitch Set Point:	-0.026	Yaw Set Point:	-0.018	X_WP:	0.000	Y_WP:	0.000	Y_WP:	1.000	X:	0.031	Y:	0.013	Z:	0.142	yaw:	1.052	yaw rate:	-54.840	Roll:	2.046	Pitch:	0.055	Yaw:	7.104	Thrust:	15.486
Time:	3.454	Roll Set Point:	-0.062	Pitch Set Point:	-0.025	Yaw Set Point:	-0.019	X_WP:	0.000	Y_WP:	0.000	Y_WP:	1.000	X:	0.031	Y:	0.013	Z:	0.148	yaw:	1.064	yaw rate:	-1.156	Roll:	2.047	Pitch:	0.639	Yaw:	0.881	Thrust:	65.106
Time:	3.466	Roll Set Point:	-0.061	Pitch Set Point:	-0.024	Yaw Set Point:	-0.015	X_WP:	0.000	Y_WP:	0.000	Y_WP:	1.000	X:	0.030	Y:	0.012	Z:	0.155	yaw:	0.838	yaw rate:	22.554	Roll:	1.681	Pitch:	0.649	Yaw:	-4.741	Thrust:	65.652
Time:	3.490	Roll Set Point:	-0.061	Pitch Set Point:	-0.023	Yaw Set Point:	-0.019	X_WP:	0.000	Y_WP:	0.000	Y_WP:	1.000	X:	0.030	Y:	0.012	Z:	0.163	yaw:	1.085	yaw rate:	-24.613	Roll:	2.099	Pitch:	1.334	Yaw:	2.368	Thrust:	100.000
Time:	3.504	Roll Set Point:	-0.059	Pitch Set Point:	-0.020	Yaw Set Point:	-0.028	X_WP:	0.000	Y_WP:	0.000	Y_WP:	1.000	X:	0.029	Y:	0.011	Z:	0.185	yaw:	1.607	yaw rate:	5.133	Roll:	3.547	Pitch:	1.106	Yaw:	10.667	Thrust:	46.723
Time:	3.515	Roll Set Point:	-0.059	Pitch Set Point:	-0.019	Yaw Set Point:	-0.034	X_WP:	0.000	Y_WP:	0.000	Y_WP:	1.000	X:	0.029	Y:	0.010	Z:	0.194	yaw:	1.959	yaw rate:	-35.239	Roll:	2.335	Pitch:	0.690	Yaw:	9.410	Thrust:	65.536
Time:	3.528	Roll Set Point:	-0.058	Pitch Set Point:	-0.019	Yaw Set Point:	-0.035	X_WP:	0.000	Y_WP:	0.000	Y_WP:	1.000	X:	0.029	Y:	0.010	Z:	0.202	yaw:	2.021	yaw rate:	-6.165	Roll:	1.719	Pitch:	0.863	Yaw:	3.197	Thrust:	66.075
