Time:	0.040	Roll Set Point:	-0.126	Pitch Set Point:	2.452	Yaw Set Point:	0.081	X_WP:	0.000	Y_WP:	0.000	Y_WP:	0.750	X:	0.013	Y:	-1.229	Z:	0.112	yaw:	-4.627	yaw rate:	23.244	Roll:	3.262	Pitch:	-30.000	Yaw:	-6.461	Thrust:	35.115
Time:	0.058	Roll Set Point:	-0.131	Pitch Set Point:	2.453	Yaw Set Point:	0.086	X_WP:	0.000	Y_WP:	0.000	Y_WP:	0.750	X:	0.013	Y:	-1.229	Z:	0.104	yaw:	-4.904	yaw rate:	27.667	Roll:	8.441	Pitch:	-30.000	Yaw:	-10.889	Thrust:	55.939
Time:	0.078	Roll Set Point:	-0.117	Pitch Set Point:	2.455	Yaw Set Point:	0.075	X_WP:	0.000	Y_WP:	0.000	Y_WP:	0.750	X:	0.013	Y:	-1.230	Z:	0.097	yaw:	-4.281	yaw rate:	-62.296	Roll:	-8.234	Pitch:	-30.000	Yaw:	2.053	Thrust:	54.352
Time:	0.098	Roll Set Point:	-0.130	Pitch Set Point:	2.456	Yaw Set Point:	0.085	X_WP:	0.000	Y_WP:	0.000	Y_WP:	0.750	X:	0.013	Y:	-1.231	Z:	0.091	yaw:	-4.891	yaw rate:	61.007	Roll:	14.549	Pitch:	-30.000	Yaw:	-14.886	Thrust:	54.653
Time:	0.117	Roll Set Point:	-0.124	Pitch Set Point:	2.457	Yaw Set Point:	0.080	X_WP:	0.000	Y_WP:	0.000	Y_WP:	0.750	X:	0.013	Y:	-1.231	Z:	0.086	yaw:	-4.558	yaw rate:	-33.268	Roll:	-2.310	Pitch:	-30.000	Yaw:	-2.042	Thrust:	54.406
Time:	0.137	Roll Set Point:	-0.170	Pitch Set Point:	2.453	Yaw Set Point:	0.118	X_WP:	0.000	Y_WP:	0.000	Y_WP:	0.750	X:	0.013	Y:	-1.232	Z:	0.080	yaw:	-6.761	yaw rate:	220.269	Roll:	30.000	Pitch:	-30.000	Yaw:	-38.581	Thrust:	57.310
Time:	0.157	Roll Set Point:	-0.155	Pitch Set Point:	2.456	Yaw Set Point:	0.105	X_WP:	0.000	Y_WP:	0.000	Y_WP:	0.750	X:	0.013	Y:	-1.232	Z:	0.075	yaw:	-6.038	yaw rate:	-72.252	Roll:	-9.004	Pitch:	-30.000	Yaw:	0.795	Thrust:	58.138
Time:	0.177	Roll Set Point:	-0.096	Pitch Set Point:	2.462	Yaw Set Point:	0.057	X_WP:	0.000	Y_WP:	0.000	Y_WP:	0.750	X:	0.013	Y:	-1.232	Z:	0.071	yaw:	-3.242	yaw rate:	-279.651	Roll:	-30.000	Pitch:	-30.000	Yaw:	31.672	Thrust:	58.291
Time:	0.200	Roll Set Point:	-0.085	Pitch Set Point:	2.463	Yaw Set Point:	0.047	X_WP:	0.000	Y_WP:	0.000	Y_WP:	0.750	X:	0.013	Y:	-1.233	Z:	0.067	yaw:	-2.714	yaw rate:	-52.781	Roll:	-6.723	Pitch:	-30.000	Yaw:	2.447	Thrust:	59.121
Time:	0.217	Roll Set Point:	-0.106	Pitch Set Point:	2.462	Yaw Set Point:	0.065	X_WP:	0.000	Y_WP:	0.000	Y_WP:	0.750	X:	0.013	Y:	-1.233	Z:	0.064	yaw:	-3.720	yaw rate:	100.580	Roll:	22.047	Pitch:	-30.000	Yaw:	-19.574	Thrust:	58.227
Time:	0.238	Roll Set Point:	-0.059	Pitch Set Point:	2.465	Yaw Set Point:	0.027	X_WP:	0.000	Y_WP:	0.000	Y_WP:	0.750	X:	0.013	Y:	-1.233	Z:	0.062	yaw:	-1.551	yaw rate:	-216.855	Roll:	-30.000	Pitch:	-30.000	Yaw:	25.535	Thrust:	58.394
Time:	0.258	Roll Set Point:	-0.046	Pitch Set Point:	2.467	Yaw Set Point:	0.017	X_WP:	0.000	Y_WP:	0.000	Y_WP:	0.750	X:	0.012	Y:	-1.233	Z:	0.060	yaw:	-0.998	yaw rate:	-55.323	Roll:	-9.053	Pitch:	-30.000	Yaw:	5.272	Thrust:	59.567
Time:	0.278	Roll Set Point:	-0.125	Pitch Set Point:	2.467	Yaw Set Point:	0.084	X_WP:	0.000	Y_WP:	0.000	Y_WP:	0.750	X:	0.011	Y:	-1.236	Z:	0.058	yaw:	-4.835	yaw rate:	383.730	Roll:	30.000	Pitch:	-30.000	Yaw:	-59.745	Thrust:	61.814
Time:	0.298	Roll Set Point:	0.969	Pitch Set Point:	0.494	Yaw Set Point:	-2.226	X_WP:	0.000	Y_WP:	0.000	Y_WP:	0.750	X:	0.016	Y:	-1.229	Z:	0.047	yaw:	127.512	yaw rate:	-13234.778	Roll:	-30.000	Pitch:	30.000	Yaw:	1844.054	Thrust:	84.890
Time:	0.318	Roll Set Point:	0.970	Pitch Set Point:	0.492	Yaw Set Point:	-2.226	X_WP:	0.000	Y_WP:	0.000	Y_WP:	0.750	X:	0.014	Y:	-1.230	Z:	0.045	yaw:	127.527	yaw rate:	-1.426	Roll:	-27.549	Pitch:	22.218	Yaw:	178.759	Thrust:	65.079
Time:	0.337	Roll Set Point:	-0.165	Pitch Set Point:	2.456	Yaw Set Point:	0.119	X_WP:	0.000	Y_WP:	0.000	Y_WP:	0.750	X:	0.010	Y:	-1.233	Z:	0.054	yaw:	-6.825	yaw rate:	13435.202	Roll:	30.000	Pitch:	-30.000	Yaw:	-1786.775	Thrust:	42.328
Time:	0.358	Roll Set Point:	-0.125	Pitch Set Point:	2.460	Yaw Set Point:	0.087	X_WP:	0.000	Y_WP:	0.000	Y_WP:	0.750	X:	0.009	Y:	-1.233	Z:	0.053	yaw:	-5.002	yaw rate:	-182.325	Roll:	-29.251	Pitch:	-30.000	Yaw:	18.028	Thrust:	65.873
Time:	0.378	Roll Set Point:	-0.099	Pitch Set Point:	2.467	Yaw Set Point:	0.065	X_WP:	0.000	Y_WP:	0.000	Y_WP:	0.750	X:	0.009	Y:	-1.235	Z:	0.052	yaw:	-3.742	yaw rate:	-126.043	Roll:	-19.369	Pitch:	-30.000	Yaw:	12.270	Thrust:	69.207
Time:	0.399	Roll Set Point:	-0.074	Pitch Set Point:	2.468	Yaw Set Point:	0.046	X_WP:	0.000	Y_WP:	0.000	Y_WP:	0.750	X:	0.009	Y:	-1.235	Z:	0.052	yaw:	-2.619	yaw rate:	-112.296	Roll:	-18.368	Pitch:	-30.000	Yaw:	11.630	Thrust:	69.819
Time:	0.418	Roll Set Point:	-0.044	Pitch Set Point:	2.465	Yaw Set Point:	0.019	X_WP:	0.000	Y_WP:	0.000	Y_WP:	0.750	X:	0.010	Y:	-1.233	Z:	0.056	yaw:	-1.100	yaw rate:	-151.878	Roll:	-27.410	Pitch:	-30.000	Yaw:	21.209	Thrust:	57.883
Time:	0.438	Roll Set Point:	-0.540	Pitch Set Point:	2.330	Yaw Set Point:	0.443	X_WP:	0.000	Y_WP:	0.000	Y_WP:	0.750	X:	0.007	Y:	-1.226	Z:	0.040	yaw:	-25.384	yaw rate:	2428.404	Roll:	30.000	Pitch:	30.000	Yaw:	-368.128	Thrust:	100.000
Time:	0.458	Roll Set Point:	0.286	Pitch Set Point:	0.038	Yaw Set Point:	-2.912	X_WP:	0.000	Y_WP:	0.000	Y_WP:	0.750	X:	0.022	Y:	-1.261	Z:	0.048	yaw:	166.841	yaw rate:	-19222.542	Roll:	-30.000	Pitch:	30.000	Yaw:	2643.317	Thrust:	57.030
Time:	0.478	Roll Set Point:	0.291	Pitch Set Point:	0.039	Yaw Set Point:	-2.908	X_WP:	0.000	Y_WP:	0.000	Y_WP:	0.750	X:	0.022	Y:	-1.260	Z:	0.047	yaw:	166.629	yaw rate:	21.203	Roll:	-12.515	Pitch:	30.000	Yaw:	232.002	Thrust:	77.747
Time:	0.498	Roll Set Point:	0.272	Pitch Set Point:	0.034	Yaw Set Point:	-2.924	X_WP:	0.000	Y_WP:	0.000	Y_WP:	0.750	X:	0.022	Y:	-1.259	Z:	0.046	yaw:	167.520	yaw rate:	-89.111	Roll:	8.636	Pitch:	30.000	Yaw:	247.545	Thrust:	78.403
Time:	0.518	Roll Set Point:	-0.022	Pitch Set Point:	2.462	Yaw Set Point:	0.007	X_WP:	0.000	Y_WP:	0.000	Y_WP:	0.750	X:	0.007	Y:	-1.231	Z:	0.050	yaw:	-0.375	yaw rate:	16789.525	Roll:	30.000	Pitch:	-30.000	Yaw:	-2223.776	Thrust:	68.028
Time:	0.537	Roll Set Point:	-0.010	Pitch Set Point:	2.461	Yaw Set Point:	-0.002	X_WP:	0.000	Y_WP:	0.000	Y_WP:	0.750	X:	0.006	Y:	-1.231	Z:	0.050	yaw:	0.111	yaw rate:	-48.570	Roll:	-9.679	Pitch:	-30.000	Yaw:	8.773	Thrust:	79.227
Time:	0.558	Roll Set Point:	-0.014	Pitch Set Point:	2.461	Yaw Set Point:	0.003	X_WP:	0.000	Y_WP:	0.000	Y_WP:	0.750	X:	0.005	Y:	-1.231	Z:	0.049	yaw:	-0.149	yaw rate:	26.007	Roll:	4.067	Pitch:	-30.000	Yaw:	-1.261	Thrust:	83.761
Time:	0.578	Roll Set Point:	-0.021	Pitch Set Point:	2.461	Yaw Set Point:	0.010	X_WP:	0.000	Y_WP:	0.000	Y_WP:	0.750	X:	0.004	Y:	-1.230	Z:	0.049	yaw:	-0.575	yaw rate:	42.561	Roll:	7.617	Pitch:	-30.000	Yaw:	-4.519	Thrust:	83.624
Time:	0.601	Roll Set Point:	-0.012	Pitch Set Point:	2.460	Yaw Set Point:	0.004	X_WP:	0.000	Y_WP:	0.000	Y_WP:	0.750	X:	0.004	Y:	-1.230	Z:	0.049	yaw:	-0.215	yaw rate:	-35.945	Roll:	-6.843	Pitch:	-30.000	Yaw:	6.177	Thrust:	90.139
Time:	0.617	Roll Set Point:	0.006	Pitch Set Point:	2.459	Yaw Set Point:	-0.010	X_WP:	0.000	Y_WP:	0.000	Y_WP:	0.750	X:	0.003	Y:	-1.230	Z:	0.048	yaw:	0.553	yaw rate:	-76.794	Roll:	-15.218	Pitch:	-30.000	Yaw:	13.936	Thrust:	82.428
Time:	0.638	Roll Set Point:	0.006	Pitch Set Point:	2.459	Yaw Set Point:	-0.009	X_WP:	0.000	Y_WP:	0.000	Y_WP:	0.750	X:	0.002	Y:	-1.229	Z:	0.047	yaw:	0.511	yaw rate:	4.113	Roll:	-0.119	Pitch:	-30.000	Yaw:	2.198	Thrust:	90.235
Time:	0.658	Roll Set Point:	-0.013	Pitch Set Point:	2.458	Yaw Set Point:	0.007	X_WP:	0.000	Y_WP:	0.000	Y_WP:	0.750	X:	0.002	Y:	-1.229	Z:	0.047	yaw:	-0.403	yaw rate:	91.397	Roll:	16.080	Pitch:	-30.000	Yaw:	-10.228	Thrust:	92.732
Time:	0.677	Roll Set Point:	-0.024	Pitch Set Point:	2.457	Yaw Set Point:	0.016	X_WP:	0.000	Y_WP:	0.000	Y_WP:	0.750	X:	0.002	Y:	-1.229	Z:	0.046	yaw:	-0.943	yaw rate:	54.061	Roll:	10.587	Pitch:	-30.000	Yaw:	-6.638	Thrust:	90.991
Time:	0.698	Roll Set Point:	-0.022	Pitch Set Point:	2.457	Yaw Set Point:	0.015	X_WP:	0.000	Y_WP:	0.000	Y_WP:	0.750	X:	0.002	Y:	-1.229	Z:	0.046	yaw:	-0.884	yaw rate:	-5.886	Roll:	-0.622	Pitch:	-30.000	Yaw:	1.539	Thrust:	94.657
Time:	0.718	Roll Set Point:	-0.022	Pitch Set Point:	2.457	Yaw Set Point:	0.015	X_WP:	0.000	Y_WP:	0.000	Y_WP:	0.750	X:	0.002	Y:	-1.229	Z:	0.045	yaw:	-0.876	yaw rate:	-0.830	Roll:	0.236	Pitch:	-30.000	Yaw:	0.882	Thrust:	97.465
Time:	0.738	Roll Set Point:	-0.017	Pitch Set Point:	2.458	Yaw Set Point:	0.012	X_WP:	0.000	Y_WP:	0.000	Y_WP:	0.750	X:	0.001	Y:	-1.229	Z:	0.045	yaw:	-0.686	yaw rate:	-18.981	Roll:	-3.740	Pitch:	-30.000	Yaw:	3.511	Thrust:	96.705
Time:	0.758	Roll Set Point:	-0.012	Pitch Set Point:	2.458	Yaw Set Point:	0.008	X_WP:	0.000	Y_WP:	0.000	Y_WP:	0.750	X:	0.001	Y:	-1.229	Z:	0.045	yaw:	-0.470	yaw rate:	-21.603	Roll:	-3.477	Pitch:	-30.000	Yaw:	4.133	Thrust:	99.597
Time:	0.778	Roll Set Point:	-0.012	Pitch Set Point:	2.459	Yaw Set Point:	0.008	X_WP:	0.000	Y_WP:	0.000	Y_WP:	0.750	X:	0.001	Y:	-1.229	Z:	0.045	yaw:	-0.477	yaw rate:	0.642	Roll:	0.421	Pitch:	-30.000	Yaw:	1.242	Thrust:	99.063
Time:	0.799	Roll Set Point:	-0.008	Pitch Set Point:	2.459	Yaw Set Point:	0.005	X_WP:	0.000	Y_WP:	0.000	Y_WP:	0.750	X:	0.001	Y:	-1.230	Z:	0.045	yaw:	-0.287	yaw rate:	-18.961	Roll:	-3.442	Pitch:	-30.000	Yaw:	4.035	Thrust:	100.000
Time:	0.817	Roll Set Point:	-0.008	Pitch Set Point:	2.459	Yaw Set Point:	0.005	X_WP:	0.000	Y_WP:	0.000	Y_WP:	0.750	X:	0.001	Y:	-1.230	Z:	0.045	yaw:	-0.285	yaw rate:	-0.199	Roll:	0.240	Pitch:	-30.000	Yaw:	1.485	Thrust:	100.000
Time:	0.837	Roll Set Point:	-0.025	Pitch Set Point:	2.459	Yaw Set Point:	0.019	X_WP:	0.000	Y_WP:	0.000	Y_WP:	0.750	X:	0.001	Y:	-1.230	Z:	0.045	yaw:	-1.070	yaw rate:	78.483	Roll:	15.116	Pitch:	-30.000	Yaw:	-9.936	Thrust:	100.000
Time:	0.858	Roll Set Point:	-0.029	Pitch Set Point:	2.459	Yaw Set Point:	0.022	X_WP:	0.000	Y_WP:	0.000	Y_WP:	0.750	X:	0.001	Y:	-1.229	Z:	0.045	yaw:	-1.270	yaw rate:	19.991	Roll:	4.484	Pitch:	-30.000	Yaw:	-2.322	Thrust:	100.000
Time:	0.877	Roll Set Point:	-0.081	Pitch Set Point:	2.453	Yaw Set Point:	0.067	X_WP:	0.000	Y_WP:	0.000	Y_WP:	0.750	X:	-0.000	Y:	-1.228	Z:	0.044	yaw:	-3.836	yaw rate:	256.643	Roll:	30.000	Pitch:	-30.000	Yaw:	-37.796	Thrust:	100.000
Time:	0.899	Roll Set Point:	-0.091	Pitch Set Point:	2.452	Yaw Set Point:	0.075	X_WP:	0.000	Y_WP:	0.000	Y_WP:	0.750	X:	-0.000	Y:	-1.228	Z:	0.044	yaw:	-4.270	yaw rate:	43.417	Roll:	10.625	Pitch:	-30.000	Yaw:	-9.212	Thrust:	100.000
Time:	0.918	Roll Set Point:	-0.005	Pitch Set Point:	2.459	Yaw Set Point:	0.002	X_WP:	0.000	Y_WP:	0.000	Y_WP:	0.750	X:	0.001	Y:	-1.230	Z:	0.045	yaw:	-0.141	yaw rate:	-412.934	Roll:	-30.000	Pitch:	-30.000	Yaw:	57.737	Thrust:	100.000
Time:	0.937	Roll Set Point:	-0.004	Pitch Set Point:	2.459	Yaw Set Point:	0.002	X_WP:	0.000	Y_WP:	0.000	Y_WP:	0.750	X:	0.001	Y:	-1.230	Z:	0.045	yaw:	-0.127	yaw rate:	-1.424	Roll:	-0.160	Pitch:	-30.000	Yaw:	1.834	Thrust:	100.000
Time:	0.958	Roll Set Point:	-0.005	Pitch Set Point:	2.459	Yaw Set Point:	0.003	X_WP:	0.000	Y_WP:	0.000	Y_WP:	0.750	X:	0.001	Y:	-1.229	Z:	0.045	yaw:	-0.165	yaw rate:	3.859	Roll:	0.705	Pitch:	-30.000	Yaw:	1.228	Thrust:	100.000
Time:	0.978	Roll Set Point:	-0.005	Pitch Set Point:	2.459	Yaw Set Point:	0.003	X_WP:	0.000	Y_WP:	0.000	Y_WP:	0.750	X:	0.001	Y:	-1.229	Z:	0.045	yaw:	-0.173	yaw rate:	0.728	Roll:	0.248	Pitch:	-30.000	Yaw:	1.544	Thrust:	100.000
Time:	1.000	Roll Set Point:	-0.009	Pitch Set Point:	2.459	Yaw Set Point:	0.006	X_WP:	0.000	Y_WP:	0.000	Y_WP:	0.750	X:	0.001	Y:	-1.229	Z:	0.045	yaw:	-0.328	yaw rate:	15.564	Roll:	2.909	Pitch:	-30.000	Yaw:	-0.385	Thrust:	100.000
Time:	1.020	Roll Set Point:	-0.011	Pitch Set Point:	2.459	Yaw Set Point:	0.007	X_WP:	0.000	Y_WP:	0.000	Y_WP:	0.750	X:	0.001	Y:	-1.229	Z:	0.045	yaw:	-0.424	yaw rate:	9.618	Roll:	2.072	Pitch:	-30.000	Yaw:	0.054	Thrust:	100.000
Time:	1.038	Roll Set Point:	-0.010	Pitch Set Point:	2.459	Yaw Set Point:	0.007	X_WP:	0.000	Y_WP:	0.000	Y_WP:	0.750	X:	0.001	Y:	-1.229	Z:	0.045	yaw:	-0.412	yaw rate:	-1.282	Roll:	0.016	Pitch:	-30.000	Yaw:	1.397	Thrust:	100.000
Time:	1.059	Roll Set Point:	-0.009	Pitch Set Point:	2.459	Yaw Set Point:	0.006	X_WP:	0.000	Y_WP:	0.000	Y_WP:	0.750	X:	0.001	Y:	-1.229	Z:	0.045	yaw:	-0.337	yaw rate:	-7.455	Roll:	-1.057	Pitch:	-30.000	Yaw:	2.408	Thrust:	100.000
Time:	1.079	Roll Set Point:	-0.006	Pitch Set Point:	2.459	Yaw Set Point:	0.003	X_WP:	0.000	Y_WP:	0.000	Y_WP:	0.750	X:	0.001	Y:	-1.229	Z:	0.045	yaw:	-0.173	yaw rate:	-16.379	Roll:	-2.646	Pitch:	-30.000	Yaw:	3.777	Thrust:	100.000
Time:	1.099	Roll Set Point:	-0.009	Pitch Set Point:	2.459	Yaw Set Point:	0.006	X_WP:	0.000	Y_WP:	0.000	Y_WP:	0.750	X:	0.001	Y:	-1.229	Z:	0.045	yaw:	-0.327	yaw rate:	15.400	Roll:	2.840	Pitch:	-30.000	Yaw:	-0.620	Thrust:	100.000
Time:	1.119	Roll Set Point:	-0.010	Pitch Set Point:	2.459	Yaw Set Point:	0.007	X_WP:	0.000	Y_WP:	0.000	Y_WP:	0.750	X:	0.001	Y:	-1.229	Z:	0.045	yaw:	-0.416	yaw rate:	8.888	Roll:	1.882	Pitch:	-30.000	Yaw:	0.137	Thrust:	100.000
Time:	1.139	Roll Set Point:	-0.010	Pitch Set Point:	2.459	Yaw Set Point:	0.007	X_WP:	0.000	Y_WP:	0.000	Y_WP:	0.750	X:	0.001	Y:	-1.229	Z:	0.045	yaw:	-0.400	yaw rate:	-1.611	Roll:	-0.033	Pitch:	-30.000	Yaw:	1.521	Thrust:	100.000
Time:	1.158	Roll Set Point:	-0.009	Pitch Set Point:	2.459	Yaw Set Point:	0.006	X_WP:	0.000	Y_WP:	0.000	Y_WP:	0.750	X:	0.001	Y:	-1.229	Z:	0.045	yaw:	-0.327	yaw rate:	-7.301	Roll:	-1.056	Pitch:	-30.000	Yaw:	2.346	Thrust:	100.000
Time:	1.179	Roll Set Point:	-0.008	Pitch Set Point:	2.459	Yaw Set Point:	0.005	X_WP:	0.000	Y_WP:	0.000	Y_WP:	0.750	X:	0.001	Y:	-1.229	Z:	0.045	yaw:	-0.309	yaw rate:	-1.813	Roll:	-0.116	Pitch:	-30.000	Yaw:	1.716	Thrust:	100.000
Time:	1.201	Roll Set Point:	-0.001	Pitch Set Point:	2.459	Yaw Set Point:	-0.001	X_WP:	0.000	Y_WP:	0.000	Y_WP:	0.750	X:	0.001	Y:	-1.229	Z:	0.045	yaw:	0.053	yaw rate:	-36.210	Roll:	-6.170	Pitch:	-30.000	Yaw:	6.598	Thrust:	100.000
Time:	1.218	Roll Set Point:	-0.009	Pitch Set Point:	2.459	Yaw Set Point:	0.006	X_WP:	0.000	Y_WP:	0.000	Y_WP:	0.750	X:	0.001	Y:	-1.229	Z:	0.045	yaw:	-0.357	yaw rate:	41.073	Roll:	8.528	Pitch:	-30.000	Yaw:	-4.478	Thrust:	100.000
Time:	1.238	Roll Set Point:	-0.008	Pitch Set Point:	2.459	Yaw Set Point:	0.006	X_WP:	0.000	Y_WP:	0.000	Y_WP:	0.750	X:	0.001	Y:	-1.229	Z:	0.045	yaw:	-0.316	yaw rate:	-4.185	Roll:	-0.567	Pitch:	-30.000	Yaw:	1.926	Thrust:	100.000
Time:	1.258	Roll Set Point:	-0.000	Pitch Set Point:	2.459	Yaw Set Point:	-0.001	X_WP:	0.000	Y_WP:	0.000	Y_WP:	0.750	X:	0.001	Y:	-1.229	Z:	0.045	yaw:	0.074	yaw rate:	-39.007	Roll:	-6.745	Pitch:	-30.000	Yaw:	7.028	Thrust:	100.000
Time:	1.278	Roll Set Point:	-0.009	Pitch Set Point:	2.459	Yaw Set Point:	0.006	X_WP:	0.000	Y_WP:	0.000	Y_WP:	0.750	X:	0.001	Y:	-1.229	Z:	0.045	yaw:	-0.334	yaw rate:	40.825	Roll:	7.642	Pitch:	-30.000	Yaw:	-3.859	Thrust:	100.000
Time:	1.299	Roll Set Point:	-0.008	Pitch Set Point:	2.459	Yaw Set Point:	0.006	X_WP:	0.000	Y_WP:	0.000	Y_WP:	0.750	X:	0.001	Y:	-1.229	Z:	0.045	yaw:	-0.317	yaw rate:	-1.636	Roll:	-0.074	Pitch:	-30.000	Yaw:	1.603	Thrust:	100.000
Time:	1.318	Roll Set Point:	-0.010	Pitch Set Point:	2.459	Yaw Set Point:	0.007	X_WP:	0.000	Y_WP:	0.000	Y_WP:	0.750	X:	0.001	Y:	-1.229	Z:	0.045	yaw:	-0.413	yaw rate:	9.565	Roll:	2.075	Pitch:	-30.000	Yaw:	-0.024	Thrust:	100.000
Time:	1.338	Roll Set Point:	-0.001	Pitch Set Point:	2.459	Yaw Set Point:	-0.001	X_WP:	0.000	Y_WP:	0.000	Y_WP:	0.750	X:	0.001	Y:	-1.229	Z:	0.045	yaw:	0.044	yaw rate:	-45.679	Roll:	-8.227	Pitch:	-30.000	Yaw:	7.799	Thrust:	100.000
Time:	1.358	Roll Set Point:	-0.000	Pitch Set Point:	2.459	Yaw Set Point:	-0.001	X_WP:	0.000	Y_WP:	0.000	Y_WP:	0.750	X:	0.001	Y:	-1.229	Z:	0.045	yaw:	0.076	yaw rate:	-3.199	Roll:	-0.572	Pitch:	-30.000	Yaw:	2.374	Thrust:	100.000
Time:	1.378	Roll Set Point:	-0.009	Pitch Set Point:	2.459	Yaw Set Point:	0.006	X_WP:	0.000	Y_WP:	0.000	Y_WP:	0.750	X:	0.001	Y:	-1.229	Z:	0.045	yaw:	-0.343	yaw rate:	41.904	Roll:	7.708	Pitch:	-30.000	Yaw:	-4.061	Thrust:	100.000
Time:	1.400	Roll Set Point:	-0.010	Pitch Set Point:	2.459	Yaw Set Point:	0.007	X_WP:	0.000	Y_WP:	0.000	Y_WP:	0.750	X:	0.001	Y:	-1.229	Z:	0.045	yaw:	-0.413	yaw rate:	7.011	Roll:	1.499	Pitch:	-30.000	Yaw:	0.593	Thrust:	100.000
Time:	1.418	Roll Set Point:	-0.009	Pitch Set Point:	2.459	Yaw Set Point:	0.006	X_WP:	0.000	Y_WP:	0.000	Y_WP:	0.750	X:	0.001	Y:	-1.229	Z:	0.045	yaw:	-0.336	yaw rate:	-7.750	Roll:	-1.216	Pitch:	-30.000	Yaw:	2.320	Thrust:	100.000
Time:	1.438	Roll Set Point:	-0.012	Pitch Set Point:	2.459	Yaw Set Point:	0.009	X_WP:	0.000	Y_WP:	0.000	Y_WP:	0.750	X:	0.001	Y:	-1.229	Z:	0.045	yaw:	-0.502	yaw rate:	16.618	Roll:	3.498	Pitch:	-30.000	Yaw:	-0.997	Thrust:	100.000
Time:	1.458	Roll Set Point:	-0.009	Pitch Set Point:	2.459	Yaw Set Point:	0.006	X_WP:	0.000	Y_WP:	0.000	Y_WP:	0.750	X:	0.001	Y:	-1.229	Z:	0.045	yaw:	-0.351	yaw rate:	-15.097	Roll:	-2.547	Pitch:	-30.000	Yaw:	3.328	Thrust:	100.000
Time:	1.478	Roll Set Point:	-0.001	Pitch Set Point:	2.459	Yaw Set Point:	-0.001	X_WP:	0.000	Y_WP:	0.000	Y_WP:	0.750	X:	0.001	Y:	-1.229	Z:	0.045	yaw:	0.036	yaw rate:	-38.743	Roll:	-6.798	Pitch:	-30.000	Yaw:	6.895	Thrust:	100.000
Time:	1.498	Roll Set Point:	-0.001	Pitch Set Point:	2.459	Yaw Set Point:	-0.001	X_WP:	0.000	Y_WP:	0.000	Y_WP:	0.750	X:	0.001	Y:	-1.229	Z:	0.045	yaw:	0.061	yaw rate:	-2.431	Roll:	-0.442	Pitch:	-30.000	Yaw:	2.219	Thrust:	100.000
Time:	1.518	Roll Set Point:	-0.009	Pitch Set Point:	2.459	Yaw Set Point:	0.006	X_WP:	0.000	Y_WP:	0.000	Y_WP:	0.750	X:	0.001	Y:	-1.229	Z:	0.045	yaw:	-0.327	yaw rate:	38.776	Roll:	7.302	Pitch:	-30.000	Yaw:	-3.650	Thrust:	100.000
Time:	1.538	Roll Set Point:	-0.010	Pitch Set Point:	2.459	Yaw Set Point:	0.007	X_WP:	0.000	Y_WP:	0.000	Y_WP:	0.750	X:	0.001	Y:	-1.229	Z:	0.045	yaw:	-0.409	yaw rate:	8.132	Roll:	1.740	Pitch:	-30.000	Yaw:	0.113	Thrust:	100.000
Time:	1.558	Roll Set Point:	-0.001	Pitch Set Point:	2.459	Yaw Set Point:	-0.001	X_WP:	0.000	Y_WP:	0.000	Y_WP:	0.750	X:	0.001	Y:	-1.229	Z:	0.045	yaw:	0.048	yaw rate:	-45.634	Roll:	-8.139	Pitch:	-30.000	Yaw:	7.744	Thrust:	100.000
Time:	1.578	Roll Set Point:	-0.010	Pitch Set Point:	2.459	Yaw Set Point:	0.007	X_WP:	0.000	Y_WP:	0.000	Y_WP:	0.750	X:	0.001	Y:	-1.229	Z:	0.045	yaw:	-0.409	yaw rate:	45.699	Roll:	8.453	Pitch:	-30.000	Yaw:	-4.669	Thrust:	100.000
Time:	1.600	Roll Set Point:	-0.000	Pitch Set Point:	2.459	Yaw Set Point:	-0.001	X_WP:	0.000	Y_WP:	0.000	Y_WP:	0.750	X:	0.001	Y:	-1.229	Z:	0.045	yaw:	0.081	yaw rate:	-48.969	Roll:	-8.394	Pitch:	-30.000	Yaw:	8.043	Thrust:	100.000
Time:	1.618	Roll Set Point:	-0.010	Pitch Set Point:	2.459	Yaw Set Point:	0.007	X_WP:	0.000	Y_WP:	0.000	Y_WP:	0.750	X:	0.001	Y:	-1.229	Z:	0.045	yaw:	-0.411	yaw rate:	49.166	Roll:	9.528	Pitch:	-30.000	Yaw:	-5.818	Thrust:	100.000
Time:	1.637	Roll Set Point:	-0.001	Pitch Set Point:	2.459	Yaw Set Point:	-0.001	X_WP:	0.000	Y_WP:	0.000	Y_WP:	0.750	X:	0.001	Y:	-1.229	Z:	0.045	yaw:	0.058	yaw rate:	-46.910	Roll:	-8.571	Pitch:	-30.000	Yaw:	8.251	Thrust:	100.000
Time:	1.658	Roll Set Point:	-0.010	Pitch Set Point:	2.459	Yaw Set Point:	0.007	X_WP:	0.000	Y_WP:	0.000	Y_WP:	0.750	X:	0.001	Y:	-1.229	Z:	0.045	yaw:	-0.414	yaw rate:	47.169	Roll:	8.846	Pitch:	-30.000	Yaw:	-4.847	Thrust:	100.000
Time:	1.678	Roll Set Point:	-0.001	Pitch Set Point:	2.459	Yaw Set Point:	-0.001	X_WP:	0.000	Y_WP:	0.000	Y_WP:	0.750	X:	0.001	Y:	-1.229	Z:	0.045	yaw:	0.057	yaw rate:	-47.045	Roll:	-8.348	Pitch:	-30.000	Yaw:	8.013	Thrust:	100.000
Time:	1.699	Roll Set Point:	-0.008	Pitch Set Point:	2.459	Yaw Set Point:	0.005	X_WP:	0.000	Y_WP:	0.000	Y_WP:	0.750	X:	0.001	Y:	-1.229	Z:	0.045	yaw:	-0.312	yaw rate:	36.846	Roll:	6.704	Pitch:	-30.000	Yaw:	-3.163	Thrust:	100.000
Time:	1.718	Roll Set Point:	-0.013	Pitch Set Point:	2.459	Yaw Set Point:	0.009	X_WP:	0.000	Y_WP:	0.000	Y_WP:	0.750	X:	0.001	Y:	-1.229	Z:	0.045	yaw:	-0.517	yaw rate:	20.490	Roll:	4.150	Pitch:	-30.000	Yaw:	-1.721	Thrust:	100.000
Time:	1.737	Roll Set Point:	-0.009	Pitch Set Point:	2.459	Yaw Set Point:	0.006	X_WP:	0.000	Y_WP:	0.000	Y_WP:	0.750	X:	0.001	Y:	-1.229	Z:	0.045	yaw:	-0.333	yaw rate:	-18.373	Roll:	-3.207	Pitch:	-30.000	Yaw:	3.781	Thrust:	100.000
Time:	1.758	Roll Set Point:	-0.010	Pitch Set Point:	2.459	Yaw Set Point:	0.007	X_WP:	0.000	Y_WP:	0.000	Y_WP:	0.750	X:	0.001	Y:	-1.229	Z:	0.045	yaw:	-0.411	yaw rate:	7.813	Roll:	1.668	Pitch:	-30.000	Yaw:	0.331	Thrust:	100.000
Time:	1.778	Roll Set Point:	-0.008	Pitch Set Point:	2.459	Yaw Set Point:	0.005	X_WP:	0.000	Y_WP:	0.000	Y_WP:	0.750	X:	0.001	Y:	-1.229	Z:	0.045	yaw:	-0.312	yaw rate:	-9.895	Roll:	-1.586	Pitch:	-30.000	Yaw:	2.667	Thrust:	100.000
Time:	1.800	Roll Set Point:	-0.010	Pitch Set Point:	2.459	Yaw Set Point:	0.007	X_WP:	0.000	Y_WP:	0.000	Y_WP:	0.750	X:	0.001	Y:	-1.229	Z:	0.045	yaw:	-0.409	yaw rate:	9.680	Roll:	2.000	Pitch:	-30.000	Yaw:	0.097	Thrust:	100.000
Time:	1.818	Roll Set Point:	-0.012	Pitch Set Point:	2.459	Yaw Set Point:	0.009	X_WP:	0.000	Y_WP:	0.000	Y_WP:	0.750	X:	0.001	Y:	-1.229	Z:	0.045	yaw:	-0.495	yaw rate:	8.571	Roll:	2.001	Pitch:	-30.000	Yaw:	-0.145	Thrust:	100.000
Time:	1.838	Roll Set Point:	-0.009	Pitch Set Point:	2.459	Yaw Set Point:	0.006	X_WP:	0.000	Y_WP:	0.000	Y_WP:	0.750	X:	0.001	Y:	-1.229	Z:	0.045	yaw:	-0.326	yaw rate:	-16.883	Roll:	-2.922	Pitch:	-30.000	Yaw:	3.556	Thrust:	100.000
Time:	1.858	Roll Set Point:	-0.006	Pitch Set Point:	2.459	Yaw Set Point:	0.003	X_WP:	0.000	Y_WP:	0.000	Y_WP:	0.750	X:	0.001	Y:	-1.229	Z:	0.045	yaw:	-0.181	yaw rate:	-14.457	Roll:	-2.321	Pitch:	-30.000	Yaw:	3.444	Thrust:	100.000
Time:	1.878	Roll Set Point:	-0.009	Pitch Set Point:	2.459	Yaw Set Point:	0.006	X_WP:	0.000	Y_WP:	0.000	Y_WP:	0.750	X:	0.001	Y:	-1.229	Z:	0.045	yaw:	-0.330	yaw rate:	14.906	Roll:	2.808	Pitch:	-30.000	Yaw:	-0.601	Thrust:	100.000
Time:	1.899	Roll Set Point:	-0.009	Pitch Set Point:	2.459	Yaw Set Point:	0.006	X_WP:	0.000	Y_WP:	0.000	Y_WP:	0.750	X:	0.001	Y:	-1.229	Z:	0.045	yaw:	-0.335	yaw rate:	0.472	Roll:	0.321	Pitch:	-30.000	Yaw:	1.348	Thrust:	100.000
Time:	1.918	Roll Set Point:	-0.000	Pitch Set Point:	2.459	Yaw Set Point:	-0.001	X_WP:	0.000	Y_WP:	0.000	Y_WP:	0.750	X:	0.001	Y:	-1.229	Z:	0.045	yaw:	0.076	yaw rate:	-41.111	Roll:	-7.510	Pitch:	-30.000	Yaw:	7.550	Thrust:	100.000
Time:	1.938	Roll Set Point:	-0.009	Pitch Set Point:	2.459	Yaw Set Point:	0.006	X_WP:	0.000	Y_WP:	0.000	Y_WP:	0.750	X:	0.001	Y:	-1.229	Z:	0.045	yaw:	-0.335	yaw rate:	41.119	Roll:	7.847	Pitch:	-30.000	Yaw:	-3.936	Thrust:	100.000
Time:	1.958	Roll Set Point:	-0.010	Pitch Set Point:	2.459	Yaw Set Point:	0.007	X_WP:	0.000	Y_WP:	0.000	Y_WP:	0.750	X:	0.001	Y:	-1.229	Z:	0.045	yaw:	-0.416	yaw rate:	8.128	Roll:	1.697	Pitch:	-30.000	Yaw:	0.214	Thrust:	100.000
Time:	1.978	Roll Set Point:	-0.008	Pitch Set Point:	2.459	Yaw Set Point:	0.005	X_WP:	0.000	Y_WP:	0.000	Y_WP:	0.750	X:	0.001	Y:	-1.229	Z:	0.045	yaw:	-0.310	yaw rate:	-10.681	Roll:	-1.699	Pitch:	-30.000	Yaw:	2.760	Thrust:	100.000
Time:	1.998	Roll Set Point:	-0.011	Pitch Set Point:	2.459	Yaw Set Point:	0.007	X_WP:	0.000	Y_WP:	0.000	Y_WP:	0.750	X:	0.001	Y:	-1.229	Z:	0.045	yaw:	-0.428	yaw rate:	11.821	Roll:	2.484	Pitch:	-30.000	Yaw:	-0.362	Thrust:	100.000
Time:	2.018	Roll Set Point:	-0.003	Pitch Set Point:	2.459	Yaw Set Point:	0.001	X_WP:	0.000	Y_WP:	0.000	Y_WP:	0.750	X:	0.001	Y:	-1.229	Z:	0.045	yaw:	-0.075	yaw rate:	-35.240	Roll:	-5.999	Pitch:	-30.000	Yaw:	6.332	Thrust:	100.000
Time:	2.038	Roll Set Point:	-0.009	Pitch Set Point:	2.459	Yaw Set Point:	0.006	X_WP:	0.000	Y_WP:	0.000	Y_WP:	0.750	X:	0.001	Y:	-1.229	Z:	0.045	yaw:	-0.343	yaw rate:	26.717	Roll:	5.114	Pitch:	-30.000	Yaw:	-2.283	Thrust:	100.000
Time:	2.058	Roll Set Point:	-0.005	Pitch Set Point:	2.459	Yaw Set Point:	0.003	X_WP:	0.000	Y_WP:	0.000	Y_WP:	0.750	X:	0.001	Y:	-1.229	Z:	0.045	yaw:	-0.149	yaw rate:	-19.381	Roll:	-3.302	Pitch:	-30.000	Yaw:	4.107	Thrust:	100.000
Time:	2.079	Roll Set Point:	-0.003	Pitch Set Point:	2.459	Yaw Set Point:	0.001	X_WP:	0.000	Y_WP:	0.000	Y_WP:	0.750	X:	0.001	Y:	-1.229	Z:	0.045	yaw:	-0.070	yaw rate:	-7.912	Roll:	-1.376	Pitch:	-30.000	Yaw:	2.751	Thrust:	100.000
Time:	2.100	Roll Set Point:	-0.013	Pitch Set Point:	2.459	Yaw Set Point:	0.009	X_WP:	0.000	Y_WP:	0.000	Y_WP:	0.750	X:	0.001	Y:	-1.229	Z:	0.045	yaw:	-0.526	yaw rate:	45.612	Roll:	8.629	Pitch:	-30.000	Yaw:	-4.367	Thrust:	100.000
Time:	2.118	Roll Set Point:	0.000	Pitch Set Point:	2.459	Yaw Set Point:	-0.002	X_WP:	0.000	Y_WP:	0.000	Y_WP:	0.750	X:	0.001	Y:	-1.229	Z:	0.045	yaw:	0.095	yaw rate:	-62.040	Roll:	-11.720	Pitch:	-30.000	Yaw:	10.874	Thrust:	100.000
Time:	2.137	Roll Set Point:	-0.003	Pitch Set Point:	2.459	Yaw Set Point:	0.001	X_WP:	0.000	Y_WP:	0.000	Y_WP:	0.750	X:	0.001	Y:	-1.229	Z:	0.045	yaw:	-0.064	yaw rate:	15.871	Roll:	2.921	Pitch:	-30.000	Yaw:	-0.479	Thrust:	100.000
Time:	2.158	Roll Set Point:	-0.006	Pitch Set Point:	2.459	Yaw Set Point:	0.003	X_WP:	0.000	Y_WP:	0.000	Y_WP:	0.750	X:	0.001	Y:	-1.229	Z:	0.045	yaw:	-0.189	yaw rate:	12.530	Roll:	2.472	Pitch:	-30.000	Yaw:	0.050	Thrust:	100.000
Time:	2.178	Roll Set Point:	-0.001	Pitch Set Point:	2.459	Yaw Set Point:	-0.001	X_WP:	0.000	Y_WP:	0.000	Y_WP:	0.750	X:	0.001	Y:	-1.229	Z:	0.045	yaw:	0.058	yaw rate:	-24.780	Roll:	-4.621	Pitch:	-30.000	Yaw:	5.124	Thrust:	100.000
Time:	2.198	Roll Set Point:	-0.001	Pitch Set Point:	2.459	Yaw Set Point:	-0.001	X_WP:	0.000	Y_WP:	0.000	Y_WP:	0.750	X:	0.001	Y:	-1.229	Z:	0.045	yaw:	0.036	yaw rate:	2.243	Roll:	0.401	Pitch:	-30.000	Yaw:	1.531	Thrust:	100.000
Time:	2.218	Roll Set Point:	-0.004	Pitch Set Point:	2.459	Yaw Set Point:	0.002	X_WP:	0.000	Y_WP:	0.000	Y_WP:	0.750	X:	0.001	Y:	-1.229	Z:	0.045	yaw:	-0.088	yaw rate:	12.396	Roll:	2.381	Pitch:	-30.000	Yaw:	0.013	Thrust:	100.000
Time:	2.238	Roll Set Point:	-0.011	Pitch Set Point:	2.459	Yaw Set Point:	0.007	X_WP:	0.000	Y_WP:	0.000	Y_WP:	0.750	X:	0.001	Y:	-1.229	Z:	0.045	yaw:	-0.421	yaw rate:	33.291	Roll:	6.082	Pitch:	-30.000	Yaw:	-3.142	Thrust:	100.000
Time:	2.258	Roll Set Point:	-0.010	Pitch Set Point:	2.459	Yaw Set Point:	0.007	X_WP:	0.000	Y_WP:	0.000	Y_WP:	0.750	X:	0.001	Y:	-1.229	Z:	0.045	yaw:	-0.409	yaw rate:	-1.232	Roll:	0.044	Pitch:	-30.000	Yaw:	1.370	Thrust:	100.000
Time:	2.278	Roll Set Point:	-0.009	Pitch Set Point:	2.459	Yaw Set Point:	0.006	X_WP:	0.000	Y_WP:	0.000	Y_WP:	0.750	X:	0.001	Y:	-1.229	Z:	0.045	yaw:	-0.339	yaw rate:	-6.977	Roll:	-0.990	Pitch:	-30.000	Yaw:	2.210	Thrust:	100.000
Time:	2.298	Roll Set Point:	0.015	Pitch Set Point:	2.458	Yaw Set Point:	-0.015	X_WP:	0.000	Y_WP:	0.000	Y_WP:	0.750	X:	0.001	Y:	-1.229	Z:	0.045	yaw:	0.832	yaw rate:	-117.038	Roll:	-20.896	Pitch:	-30.000	Yaw:	18.223	Thrust:	100.000
Time:	2.318	Roll Set Point:	-0.009	Pitch Set Point:	2.459	Yaw Set Point:	0.006	X_WP:	0.000	Y_WP:	0.000	Y_WP:	0.750	X:	0.001	Y:	-1.229	Z:	0.045	yaw:	-0.356	yaw rate:	118.790	Roll:	21.806	Pitch:	-30.000	Yaw:	-14.478	Thrust:	100.000
Time:	2.338	Roll Set Point:	-0.009	Pitch Set Point:	2.459	Yaw Set Point:	0.006	X_WP:	0.000	Y_WP:	0.000	Y_WP:	0.750	X:	0.001	Y:	-1.229	Z:	0.045	yaw:	-0.329	yaw rate:	-2.713	Roll:	-0.277	Pitch:	-30.000	Yaw:	1.664	Thrust:	100.000
Time:	2.359	Roll Set Point:	-0.009	Pitch Set Point:	2.459	Yaw Set Point:	0.006	X_WP:	0.000	Y_WP:	0.000	Y_WP:	0.750	X:	0.001	Y:	-1.229	Z:	0.045	yaw:	-0.335	yaw rate:	0.580	Roll:	0.328	Pitch:	-30.000	Yaw:	1.271	Thrust:	100.000
Time:	2.378	Roll Set Point:	-0.000	Pitch Set Point:	2.459	Yaw Set Point:	-0.001	X_WP:	0.000	Y_WP:	0.000	Y_WP:	0.750	X:	0.001	Y:	-1.229	Z:	0.045	yaw:	0.072	yaw rate:	-40.648	Roll:	-7.394	Pitch:	-30.000	Yaw:	7.257	Thrust:	100.000
Time:	2.398	Roll Set Point:	-0.013	Pitch Set Point:	2.459	Yaw Set Point:	0.009	X_WP:	0.000	Y_WP:	0.000	Y_WP:	0.750	X:	0.001	Y:	-1.229	Z:	0.045	yaw:	-0.508	yaw rate:	57.984	Roll:	10.392	Pitch:	-30.000	Yaw:	-6.355	Thrust:	100.000
Time:	2.418	Roll Set Point:	-0.011	Pitch Set Point:	2.459	Yaw Set Point:	0.007	X_WP:	0.000	Y_WP:	0.000	Y_WP:	0.750	X:	0.001	Y:	-1.229	Z:	0.045	yaw:	-0.427	yaw rate:	-8.169	Roll:	-1.344	Pitch:	-30.000	Yaw:	2.244	Thrust:	100.000
Time:	2.437	Roll Set Point:	-0.013	Pitch Set Point:	2.459	Yaw Set Point:	0.009	X_WP:	0.000	Y_WP:	0.000	Y_WP:	0.750	X:	0.001	Y:	-1.229	Z:	0.045	yaw:	-0.515	yaw rate:	8.873	Roll:	2.047	Pitch:	-30.000	Yaw:	-0.257	Thrust:	100.000
Time:	2.458	Roll Set Point:	-0.009	Pitch Set Point:	2.459	Yaw Set Point:	0.006	X_WP:	0.000	Y_WP:	0.000	Y_WP:	0.750	X:	0.001	Y:	-1.229	Z:	0.045	yaw:	-0.338	yaw rate:	-17.690	Roll:	-2.962	Pitch:	-30.000	Yaw:	3.583	Thrust:	100.000
Time:	2.478	Roll Set Point:	-0.008	Pitch Set Point:	2.459	Yaw Set Point:	0.006	X_WP:	0.000	Y_WP:	0.000	Y_WP:	0.750	X:	0.001	Y:	-1.229	Z:	0.045	yaw:	-0.317	yaw rate:	-2.132	Roll:	-0.148	Pitch:	-30.000	Yaw:	1.602	Thrust:	100.000
Time:	2.499	Roll Set Point:	-0.005	Pitch Set Point:	2.459	Yaw Set Point:	0.002	X_WP:	0.000	Y_WP:	0.000	Y_WP:	0.750	X:	0.001	Y:	-1.229	Z:	0.045	yaw:	-0.116	yaw rate:	-20.135	Roll:	-3.231	Pitch:	-30.000	Yaw:	4.196	Thrust:	100.000
Time:	2.518	Roll Set Point:	-0.010	Pitch Set Point:	2.459	Yaw Set Point:	0.007	X_WP:	0.000	Y_WP:	0.000	Y_WP:	0.750	X:	0.001	Y:	-1.229	Z:	0.045	yaw:	-0.379	yaw rate:	26.284	Roll:	4.901	Pitch:	-30.000	Yaw:	-2.456	Thrust:	100.000
Time:	2.538	Roll Set Point:	-0.013	Pitch Set Point:	2.459	Yaw Set Point:	0.009	X_WP:	0.000	Y_WP:	0.000	Y_WP:	0.750	X:	0.001	Y:	-1.229	Z:	0.045	yaw:	-0.522	yaw rate:	14.329	Roll:	3.092	Pitch:	-30.000	Yaw:	-1.054	Thrust:	100.000
Time:	2.558	Roll Set Point:	-0.009	Pitch Set Point:	2.459	Yaw Set Point:	0.006	X_WP:	0.000	Y_WP:	0.000	Y_WP:	0.750	X:	0.001	Y:	-1.229	Z:	0.045	yaw:	-0.329	yaw rate:	-19.297	Roll:	-3.289	Pitch:	-30.000	Yaw:	3.790	Thrust:	100.000
Time:	2.578	Roll Set Point:	-0.008	Pitch Set Point:	2.459	Yaw Set Point:	0.006	X_WP:	0.000	Y_WP:	0.000	Y_WP:	0.750	X:	0.001	Y:	-1.229	Z:	0.045	yaw:	-0.318	yaw rate:	-1.095	Roll:	0.053	Pitch:	-30.000	Yaw:	1.455	Thrust:	100.000
Time:	2.600	Roll Set Point:	-0.008	Pitch Set Point:	2.459	Yaw Set Point:	0.006	X_WP:	0.000	Y_WP:	0.000	Y_WP:	0.750	X:	0.001	Y:	-1.229	Z:	0.045	yaw:	-0.315	yaw rate:	-0.269	Roll:	0.198	Pitch:	-30.000	Yaw:	1.420	Thrust:	100.000
Time:	2.618	Roll Set Point:	-0.001	Pitch Set Point:	2.459	Yaw Set Point:	-0.001	X_WP:	0.000	Y_WP:	0.000	Y_WP:	0.750	X:	0.001	Y:	-1.229	Z:	0.045	yaw:	0.038	yaw rate:	-35.320	Roll:	-6.933	Pitch:	-30.000	Yaw:	6.625	Thrust:	100.000
Time:	2.638	Roll Set Point:	-0.006	Pitch Set Point:	2.459	Yaw Set Point:	0.003	X_WP:	0.000	Y_WP:	0.000	Y_WP:	0.750	X:	0.001	Y:	-1.229	Z:	0.045	yaw:	-0.181	yaw rate:	21.861	Roll:	4.141	Pitch:	-30.000	Yaw:	-1.444	Thrust:	100.000
Time:	2.658	Roll Set Point:	-0.011	Pitch Set Point:	2.459	Yaw Set Point:	0.007	X_WP:	0.000	Y_WP:	0.000	Y_WP:	0.750	X:	0.001	Y:	-1.229	Z:	0.045	yaw:	-0.427	yaw rate:	24.622	Roll:	4.567	Pitch:	-30.000	Yaw:	-1.910	Thrust:	100.000
Time:	2.678	Roll Set Point:	-0.005	Pitch Set Point:	2.459	Yaw Set Point:	0.003	X_WP:	0.000	Y_WP:	0.000	Y_WP:	0.750	X:	0.001	Y:	-1.229	Z:	0.045	yaw:	-0.153	yaw rate:	-27.437	Roll:	-4.748	Pitch:	-30.000	Yaw:	5.095	Thrust:	100.000
Time:	2.699	Roll Set Point:	-0.005	Pitch Set Point:	2.459	Yaw Set Point:	0.002	X_WP:	0.000	Y_WP:	0.000	Y_WP:	0.750	X:	0.001	Y:	-1.229	Z:	0.045	yaw:	-0.132	yaw rate:	-2.081	Roll:	-0.239	Pitch:	-30.000	Yaw:	1.803	Thrust:	100.000
Time:	2.719	Roll Set Point:	-0.012	Pitch Set Point:	2.459	Yaw Set Point:	0.009	X_WP:	0.000	Y_WP:	0.000	Y_WP:	0.750	X:	0.001	Y:	-1.229	Z:	0.045	yaw:	-0.498	yaw rate:	36.578	Roll:	6.895	Pitch:	-30.000	Yaw:	-3.540	Thrust:	100.000
Time:	2.739	Roll Set Point:	-0.012	Pitch Set Point:	2.459	Yaw Set Point:	0.008	X_WP:	0.000	Y_WP:	0.000	Y_WP:	0.750	X:	0.001	Y:	-1.229	Z:	0.045	yaw:	-0.485	yaw rate:	-1.272	Roll:	0.108	Pitch:	-30.000	Yaw:	1.135	Thrust:	100.000
Time:	2.758	Roll Set Point:	-0.013	Pitch Set Point:	2.459	Yaw Set Point:	0.009	X_WP:	0.000	Y_WP:	0.000	Y_WP:	0.750	X:	0.001	Y:	-1.229	Z:	0.044	yaw:	-0.506	yaw rate:	2.075	Roll:	0.719	Pitch:	-30.000	Yaw:	0.836	Thrust:	100.000
Time:	2.778	Roll Set Point:	-0.005	Pitch Set Point:	2.459	Yaw Set Point:	0.003	X_WP:	0.000	Y_WP:	0.000	Y_WP:	0.750	X:	0.001	Y:	-1.229	Z:	0.044	yaw:	-0.147	yaw rate:	-35.865	Roll:	-6.422	Pitch:	-30.000	Yaw:	6.269	Thrust:	100.000
Time:	2.800	Roll Set Point:	-0.012	Pitch Set Point:	2.459	Yaw Set Point:	0.009	X_WP:	0.000	Y_WP:	0.000	Y_WP:	0.750	X:	0.001	Y:	-1.229	Z:	0.044	yaw:	-0.495	yaw rate:	34.797	Roll:	6.233	Pitch:	-30.000	Yaw:	-3.010	Thrust:	100.000
Time:	2.818	Roll Set Point:	-0.005	Pitch Set Point:	2.459	Yaw Set Point:	0.003	X_WP:	0.000	Y_WP:	0.000	Y_WP:	0.750	X:	0.001	Y:	-1.229	Z:	0.044	yaw:	-0.157	yaw rate:	-33.801	Roll:	-6.328	Pitch:	-30.000	Yaw:	6.223	Thrust:	100.000
Time:	2.840	Roll Set Point:	-0.005	Pitch Set Point:	2.459	Yaw Set Point:	0.003	X_WP:	0.000	Y_WP:	0.000	Y_WP:	0.750	X:	0.001	Y:	-1.229	Z:	0.044	yaw:	-0.155	yaw rate:	-0.151	Roll:	0.101	Pitch:	-30.000	Yaw:	1.720	Thrust:	100.000
Time:	2.858	Roll Set Point:	-0.004	Pitch Set Point:	2.458	Yaw Set Point:	0.002	X_WP:	0.000	Y_WP:	0.000	Y_WP:	0.750	X:	0.001	Y:	-1.229	Z:	0.044	yaw:	-0.098	yaw rate:	-5.692	Roll:	-1.033	Pitch:	-30.000	Yaw:	2.218	Thrust:	100.000
Time:	2.879	Roll Set Point:	-0.013	Pitch Set Point:	2.459	Yaw Set Point:	0.009	X_WP:	0.000	Y_WP:	0.000	Y_WP:	0.750	X:	0.001	Y:	-1.229	Z:	0.044	yaw:	-0.510	yaw rate:	41.170	Roll:	7.458	Pitch:	-30.000	Yaw:	-4.087	Thrust:	100.000
Time:	2.898	Roll Set Point:	0.008	Pitch Set Point:	2.458	Yaw Set Point:	-0.008	X_WP:	0.000	Y_WP:	0.000	Y_WP:	0.750	X:	0.001	Y:	-1.229	Z:	0.045	yaw:	0.481	yaw rate:	-99.158	Roll:	-18.115	Pitch:	-30.000	Yaw:	15.717	Thrust:	100.000
Time:	2.918	Roll Set Point:	-0.012	Pitch Set Point:	2.459	Yaw Set Point:	0.008	X_WP:	0.000	Y_WP:	0.000	Y_WP:	0.750	X:	0.001	Y:	-1.229	Z:	0.044	yaw:	-0.479	yaw rate:	96.030	Roll:	18.375	Pitch:	-30.000	Yaw:	-11.817	Thrust:	100.000
Time:	2.937	Roll Set Point:	-0.004	Pitch Set Point:	2.458	Yaw Set Point:	0.002	X_WP:	0.000	Y_WP:	0.000	Y_WP:	0.750	X:	0.001	Y:	-1.229	Z:	0.044	yaw:	-0.106	yaw rate:	-37.277	Roll:	-6.561	Pitch:	-30.000	Yaw:	6.522	Thrust:	100.000
Time:	2.958	Roll Set Point:	-0.012	Pitch Set Point:	2.459	Yaw Set Point:	0.008	X_WP:	0.000	Y_WP:	0.000	Y_WP:	0.750	X:	0.001	Y:	-1.229	Z:	0.044	yaw:	-0.480	yaw rate:	37.389	Roll:	7.063	Pitch:	-30.000	Yaw:	-3.692	Thrust:	100.000
Time:	2.978	Roll Set Point:	-0.006	Pitch Set Point:	2.459	Yaw Set Point:	0.003	X_WP:	0.000	Y_WP:	0.000	Y_WP:	0.750	X:	0.001	Y:	-1.229	Z:	0.044	yaw:	-0.162	yaw rate:	-31.750	Roll:	-5.464	Pitch:	-30.000	Yaw:	5.606	Thrust:	100.000
Time:	3.000	Roll Set Point:	-0.005	Pitch Set Point:	2.458	Yaw Set Point:	0.002	X_WP:	0.000	Y_WP:	0.000	Y_WP:	0.750	X:	0.001	Y:	-1.229	Z:	0.044	yaw:	-0.115	yaw rate:	-4.718	Roll:	-0.724	Pitch:	-30.000	Yaw:	2.222	Thrust:	100.000
Time:	3.019	Roll Set Point:	-0.004	Pitch Set Point:	2.458	Yaw Set Point:	0.002	X_WP:	0.000	Y_WP:	0.000	Y_WP:	0.750	X:	0.001	Y:	-1.229	Z:	0.044	yaw:	-0.103	yaw rate:	-1.253	Roll:	-0.107	Pitch:	-30.000	Yaw:	1.660	Thrust:	100.000
Time:	3.038	Roll Set Point:	-0.004	Pitch Set Point:	2.458	Yaw Set Point:	0.002	X_WP:	0.000	Y_WP:	0.000	Y_WP:	0.750	X:	0.001	Y:	-1.229	Z:	0.044	yaw:	-0.092	yaw rate:	-1.046	Roll:	-0.074	Pitch:	-30.000	Yaw:	1.688	Thrust:	100.000
Time:	3.058	Roll Set Point:	-0.004	Pitch Set Point:	2.458	Yaw Set Point:	0.002	X_WP:	0.000	Y_WP:	0.000	Y_WP:	0.750	X:	0.001	Y:	-1.229	Z:	0.044	yaw:	-0.111	yaw rate:	1.872	Roll:	0.446	Pitch:	-30.000	Yaw:	1.347	Thrust:	100.000
Time:	3.078	Roll Set Point:	0.008	Pitch Set Point:	2.458	Yaw Set Point:	-0.008	X_WP:	0.000	Y_WP:	0.000	Y_WP:	0.750	X:	0.001	Y:	-1.229	Z:	0.045	yaw:	0.479	yaw rate:	-58.971	Roll:	-10.875	Pitch:	-30.000	Yaw:	10.132	Thrust:	100.000
Time:	3.100	Roll Set Point:	-0.012	Pitch Set Point:	2.459	Yaw Set Point:	0.008	X_WP:	0.000	Y_WP:	0.000	Y_WP:	0.750	X:	0.001	Y:	-1.229	Z:	0.044	yaw:	-0.485	yaw rate:	96.372	Roll:	17.464	Pitch:	-30.000	Yaw:	-10.420	Thrust:	100.000
Time:	3.118	Roll Set Point:	-0.013	Pitch Set Point:	2.459	Yaw Set Point:	0.009	X_WP:	0.000	Y_WP:	0.000	Y_WP:	0.750	X:	0.001	Y:	-1.229	Z:	0.045	yaw:	-0.500	yaw rate:	1.492	Roll:	0.619	Pitch:	-30.000	Yaw:	0.673	Thrust:	100.000
Time:	3.138	Roll Set Point:	-0.012	Pitch Set Point:	2.459	Yaw Set Point:	0.008	X_WP:	0.000	Y_WP:	0.000	Y_WP:	0.750	X:	0.001	Y:	-1.229	Z:	0.044	yaw:	-0.472	yaw rate:	-2.824	Roll:	-0.178	Pitch:	-30.000	Yaw:	1.362	Thrust:	100.000
Time:	3.158	Roll Set Point:	-0.012	Pitch Set Point:	2.459	Yaw Set Point:	0.009	X_WP:	0.000	Y_WP:	0.000	Y_WP:	0.750	X:	0.001	Y:	-1.229	Z:	0.044	yaw:	-0.494	yaw rate:	2.184	Roll:	0.763	Pitch:	-30.000	Yaw:	0.789	Thrust:	100.000
Time:	3.178	Roll Set Point:	-0.012	Pitch Set Point:	2.459	Yaw Set Point:	0.009	X_WP:	0.000	Y_WP:	0.000	Y_WP:	0.750	X:	0.001	Y:	-1.229	Z:	0.044	yaw:	-0.494	yaw rate:	0.009	Roll:	0.369	Pitch:	-30.000	Yaw:	1.016	Thrust:	100.000
Time:	3.199	Roll Set Point:	-0.013	Pitch Set Point:	2.458	Yaw Set Point:	0.009	X_WP:	0.000	Y_WP:	0.000	Y_WP:	0.750	X:	0.001	Y:	-1.229	Z:	0.044	yaw:	-0.507	yaw rate:	1.293	Roll:	0.561	Pitch:	-30.000	Yaw:	0.912	Thrust:	100.000
Time:	3.218	Roll Set Point:	-0.013	Pitch Set Point:	2.459	Yaw Set Point:	0.009	X_WP:	0.000	Y_WP:	0.000	Y_WP:	0.750	X:	0.001	Y:	-1.229	Z:	0.044	yaw:	-0.501	yaw rate:	-0.570	Roll:	0.286	Pitch:	-30.000	Yaw:	0.938	Thrust:	100.000
Time:	3.238	Roll Set Point:	-0.012	Pitch Set Point:	2.459	Yaw Set Point:	0.008	X_WP:	0.000	Y_WP:	0.000	Y_WP:	0.750	X:	0.001	Y:	-1.229	Z:	0.044	yaw:	-0.471	yaw rate:	-2.951	Roll:	-0.195	Pitch:	-30.000	Yaw:	1.425	Thrust:	100.000
Time:	3.258	Roll Set Point:	-0.012	Pitch Set Point:	2.459	Yaw Set Point:	0.008	X_WP:	0.000	Y_WP:	0.000	Y_WP:	0.750	X:	0.001	Y:	-1.229	Z:	0.044	yaw:	-0.483	yaw rate:	1.201	Roll:	0.560	Pitch:	-30.000	Yaw:	0.867	Thrust:	100.000
Time:	3.278	Roll Set Point:	-0.013	Pitch Set Point:	2.458	Yaw Set Point:	0.009	X_WP:	0.000	Y_WP:	0.000	Y_WP:	0.750	X:	0.001	Y:	-1.229	Z:	0.044	yaw:	-0.499	yaw rate:	1.517	Roll:	0.620	Pitch:	-30.000	Yaw:	0.767	Thrust:	100.000
Time:	3.300	Roll Set Point:	-0.012	Pitch Set Point:	2.459	Yaw Set Point:	0.008	X_WP:	0.000	Y_WP:	0.000	Y_WP:	0.750	X:	0.001	Y:	-1.229	Z:	0.044	yaw:	-0.471	yaw rate:	-2.752	Roll:	-0.105	Pitch:	-30.000	Yaw:	1.438	Thrust:	100.000
Time:	3.318	Roll Set Point:	-0.004	Pitch Set Point:	2.458	Yaw Set Point:	0.002	X_WP:	0.000	Y_WP:	0.000	Y_WP:	0.750	X:	0.001	Y:	-1.229	Z:	0.044	yaw:	-0.096	yaw rate:	-37.521	Roll:	-7.097	Pitch:	-30.000	Yaw:	6.590	Thrust:	100.000
Time:	3.338	Roll Set Point:	-0.004	Pitch Set Point:	2.458	Yaw Set Point:	0.002	X_WP:	0.000	Y_WP:	0.000	Y_WP:	0.750	X:	0.001	Y:	-1.229	Z:	0.044	yaw:	-0.099	yaw rate:	0.281	Roll:	0.166	Pitch:	-30.000	Yaw:	1.480	Thrust:	100.000
Time:	3.359	Roll Set Point:	-0.012	Pitch Set Point:	2.458	Yaw Set Point:	0.008	X_WP:	0.000	Y_WP:	0.000	Y_WP:	0.750	X:	0.001	Y:	-1.229	Z:	0.044	yaw:	-0.471	yaw rate:	37.233	Roll:	6.764	Pitch:	-30.000	Yaw:	-3.593	Thrust:	100.000
Time:	3.378	Roll Set Point:	-0.013	Pitch Set Point:	2.459	Yaw Set Point:	0.009	X_WP:	0.000	Y_WP:	0.000	Y_WP:	0.750	X:	0.001	Y:	-1.229	Z:	0.044	yaw:	-0.496	yaw rate:	2.504	Roll:	0.831	Pitch:	-30.000	Yaw:	0.552	Thrust:	100.000
Time:	3.398	Roll Set Point:	-0.004	Pitch Set Point:	2.458	Yaw Set Point:	0.001	X_WP:	0.000	Y_WP:	0.000	Y_WP:	0.750	X:	0.001	Y:	-1.229	Z:	0.045	yaw:	-0.085	yaw rate:	-41.145	Roll:	-7.057	Pitch:	-30.000	Yaw:	6.917	Thrust:	100.000
Time:	3.418	Roll Set Point:	-0.012	Pitch Set Point:	2.459	Yaw Set Point:	0.009	X_WP:	0.000	Y_WP:	0.000	Y_WP:	0.750	X:	0.001	Y:	-1.229	Z:	0.044	yaw:	-0.492	yaw rate:	40.738	Roll:	7.810	Pitch:	-30.000	Yaw:	-4.304	Thrust:	100.000
Time:	3.437	Roll Set Point:	-0.012	Pitch Set Point:	2.458	Yaw Set Point:	0.008	X_WP:	0.000	Y_WP:	0.000	Y_WP:	0.750	X:	0.001	Y:	-1.229	Z:	0.044	yaw:	-0.486	yaw rate:	-0.572	Roll:	0.231	Pitch:	-30.000	Yaw:	1.010	Thrust:	100.000
Time:	3.458	Roll Set Point:	-0.012	Pitch Set Point:	2.459	Yaw Set Point:	0.008	X_WP:	0.000	Y_WP:	0.000	Y_WP:	0.750	X:	0.001	Y:	-1.229	Z:	0.044	yaw:	-0.478	yaw rate:	-0.772	Roll:	0.235	Pitch:	-30.000	Yaw:	1.076	Thrust:	100.000
Time:	3.487	Roll Set Point:	-0.012	Pitch Set Point:	2.459	Yaw Set Point:	0.008	X_WP:	0.000	Y_WP:	0.000	Y_WP:	0.750	X:	0.001	Y:	-1.229	Z:	0.044	yaw:	-0.472	yaw rate:	-0.671	Roll:	0.281	Pitch:	-30.000	Yaw:	1.843	Thrust:	100.000
Time:	3.499	Roll Set Point:	-0.013	Pitch Set Point:	2.458	Yaw Set Point:	0.009	X_WP:	0.000	Y_WP:	0.000	Y_WP:	0.750	X:	0.001	Y:	-1.229	Z:	0.044	yaw:	-0.498	yaw rate:	2.589	Roll:	1.120	Pitch:	-30.000	Yaw:	-0.229	Thrust:	100.000
Time:	3.518	Roll Set Point:	-0.012	Pitch Set Point:	2.458	Yaw Set Point:	0.008	X_WP:	0.000	Y_WP:	0.000	Y_WP:	0.750	X:	0.001	Y:	-1.229	Z:	0.044	yaw:	-0.470	yaw rate:	-2.749	Roll:	-0.168	Pitch:	-30.000	Yaw:	1.258	Thrust:	100.000
Time:	3.538	Roll Set Point:	-0.012	Pitch Set Point:	2.459	Yaw Set Point:	0.008	X_WP:	0.000	Y_WP:	0.000	Y_WP:	0.750	X:	0.001	Y:	-1.229	Z:	0.044	yaw:	-0.461	yaw rate:	-0.962	Roll:	0.196	Pitch:	-30.000	Yaw:	1.117	Thrust:	100.000
Time:	3.559	Roll Set Point:	-0.012	Pitch Set Point:	2.459	Yaw Set Point:	0.009	X_WP:	0.000	Y_WP:	0.000	Y_WP:	0.750	X:	0.001	Y:	-1.229	Z:	0.044	yaw:	-0.493	yaw rate:	3.232	Roll:	0.939	Pitch:	-30.000	Yaw:	0.585	Thrust:	100.000
Time:	3.578	Roll Set Point:	-0.012	Pitch Set Point:	2.458	Yaw Set Point:	0.008	X_WP:	0.000	Y_WP:	0.000	Y_WP:	0.750	X:	0.001	Y:	-1.229	Z:	0.044	yaw:	-0.487	yaw rate:	-0.625	Roll:	0.227	Pitch:	-30.000	Yaw:	1.049	Thrust:	100.000
Time:	3.598	Roll Set Point:	-0.013	Pitch Set Point:	2.459	Yaw Set Point:	0.009	X_WP:	0.000	Y_WP:	0.000	Y_WP:	0.750	X:	0.001	Y:	-1.229	Z:	0.044	yaw:	-0.510	yaw rate:	2.382	Roll:	0.845	Pitch:	-30.000	Yaw:	0.577	Thrust:	100.000
Time:	3.619	Roll Set Point:	-0.012	Pitch Set Point:	2.458	Yaw Set Point:	0.008	X_WP:	0.000	Y_WP:	0.000	Y_WP:	0.750	X:	0.001	Y:	-1.229	Z:	0.044	yaw:	-0.486	yaw rate:	-2.470	Roll:	-0.078	Pitch:	-30.000	Yaw:	1.281	Thrust:	100.000
Time:	3.638	Roll Set Point:	-0.012	Pitch Set Point:	2.458	Yaw Set Point:	0.009	X_WP:	0.000	Y_WP:	0.000	Y_WP:	0.750	X:	0.001	Y:	-1.229	Z:	0.044	yaw:	-0.487	yaw rate:	0.134	Roll:	0.383	Pitch:	-30.000	Yaw:	0.904	Thrust:	100.000
Time:	3.658	Roll Set Point:	-0.012	Pitch Set Point:	2.459	Yaw Set Point:	0.009	X_WP:	0.000	Y_WP:	0.000	Y_WP:	0.750	X:	0.001	Y:	-1.229	Z:	0.044	yaw:	-0.494	yaw rate:	0.651	Roll:	0.495	Pitch:	-30.000	Yaw:	0.794	Thrust:	100.000
Time:	3.678	Roll Set Point:	-0.004	Pitch Set Point:	2.458	Yaw Set Point:	0.002	X_WP:	0.000	Y_WP:	0.000	Y_WP:	0.750	X:	0.001	Y:	-1.229	Z:	0.045	yaw:	-0.097	yaw rate:	-39.694	Roll:	-6.764	Pitch:	-30.000	Yaw:	6.492	Thrust:	100.000
Time:	3.698	Roll Set Point:	-0.012	Pitch Set Point:	2.458	Yaw Set Point:	0.009	X_WP:	0.000	Y_WP:	0.000	Y_WP:	0.750	X:	0.001	Y:	-1.229	Z:	0.044	yaw:	-0.488	yaw rate:	39.100	Roll:	7.326	Pitch:	-30.000	Yaw:	-4.303	Thrust:	100.000
Time:	3.717	Roll Set Point:	-0.012	Pitch Set Point:	2.458	Yaw Set Point:	0.008	X_WP:	0.000	Y_WP:	0.000	Y_WP:	0.750	X:	0.001	Y:	-1.229	Z:	0.044	yaw:	-0.471	yaw rate:	-1.636	Roll:	0.027	Pitch:	-30.000	Yaw:	1.114	Thrust:	100.000
Time:	3.737	Roll Set Point:	-0.012	Pitch Set Point:	2.459	Yaw Set Point:	0.008	X_WP:	0.000	Y_WP:	0.000	Y_WP:	0.750	X:	0.001	Y:	-1.229	Z:	0.044	yaw:	-0.476	yaw rate:	0.482	Roll:	0.468	Pitch:	-30.000	Yaw:	0.872	Thrust:	100.000
Time:	3.757	Roll Set Point:	-0.012	Pitch Set Point:	2.459	Yaw Set Point:	0.008	X_WP:	0.000	Y_WP:	0.000	Y_WP:	0.750	X:	0.001	Y:	-1.229	Z:	0.044	yaw:	-0.478	yaw rate:	0.176	Roll:	0.404	Pitch:	-30.000	Yaw:	0.929	Thrust:	100.000
Time:	3.777	Roll Set Point:	-0.012	Pitch Set Point:	2.459	Yaw Set Point:	0.009	X_WP:	0.000	Y_WP:	0.000	Y_WP:	0.750	X:	0.001	Y:	-1.229	Z:	0.044	yaw:	-0.490	yaw rate:	1.220	Roll:	0.582	Pitch:	-30.000	Yaw:	0.774	Thrust:	100.000
Time:	3.798	Roll Set Point:	-0.012	Pitch Set Point:	2.459	Yaw Set Point:	0.008	X_WP:	0.000	Y_WP:	0.000	Y_WP:	0.750	X:	0.001	Y:	-1.229	Z:	0.044	yaw:	-0.470	yaw rate:	-2.018	Roll:	0.016	Pitch:	-30.000	Yaw:	1.245	Thrust:	100.000
Time:	3.817	Roll Set Point:	-0.012	Pitch Set Point:	2.459	Yaw Set Point:	0.009	X_WP:	0.000	Y_WP:	0.000	Y_WP:	0.750	X:	0.001	Y:	-1.229	Z:	0.044	yaw:	-0.493	yaw rate:	2.331	Roll:	0.788	Pitch:	-30.000	Yaw:	0.533	Thrust:	100.000
Time:	3.837	Roll Set Point:	-0.004	Pitch Set Point:	2.458	Yaw Set Point:	0.002	X_WP:	0.000	Y_WP:	0.000	Y_WP:	0.750	X:	0.001	Y:	-1.229	Z:	0.044	yaw:	-0.100	yaw rate:	-39.283	Roll:	-7.170	Pitch:	-30.000	Yaw:	6.622	Thrust:	100.000
Time:	3.858	Roll Set Point:	-0.012	Pitch Set Point:	2.459	Yaw Set Point:	0.008	X_WP:	0.000	Y_WP:	0.000	Y_WP:	0.750	X:	0.001	Y:	-1.229	Z:	0.044	yaw:	-0.473	yaw rate:	37.239	Roll:	6.683	Pitch:	-30.000	Yaw:	-3.724	Thrust:	100.000
Time:	3.878	Roll Set Point:	-0.012	Pitch Set Point:	2.459	Yaw Set Point:	0.008	X_WP:	0.000	Y_WP:	0.000	Y_WP:	0.750	X:	0.001	Y:	-1.229	Z:	0.044	yaw:	-0.476	yaw rate:	0.313	Roll:	0.423	Pitch:	-30.000	Yaw:	0.893	Thrust:	100.000
Time:	3.899	Roll Set Point:	-0.012	Pitch Set Point:	2.459	Yaw Set Point:	0.009	X_WP:	0.000	Y_WP:	0.000	Y_WP:	0.750	X:	0.001	Y:	-1.229	Z:	0.044	yaw:	-0.487	yaw rate:	1.133	Roll:	0.593	Pitch:	-30.000	Yaw:	0.888	Thrust:	100.000
Time:	3.918	Roll Set Point:	-0.012	Pitch Set Point:	2.459	Yaw Set Point:	0.008	X_WP:	0.000	Y_WP:	0.000	Y_WP:	0.750	X:	0.001	Y:	-1.229	Z:	0.044	yaw:	-0.482	yaw rate:	-0.565	Roll:	0.258	Pitch:	-30.000	Yaw:	0.871	Thrust:	100.000
Time:	3.938	Roll Set Point:	-0.012	Pitch Set Point:	2.459	Yaw Set Point:	0.008	X_WP:	0.000	Y_WP:	0.000	Y_WP:	0.750	X:	0.001	Y:	-1.229	Z:	0.044	yaw:	-0.474	yaw rate:	-0.728	Roll:	0.230	Pitch:	-30.000	Yaw:	1.026	Thrust:	100.000
Time:	3.958	Roll Set Point:	-0.012	Pitch Set Point:	2.459	Yaw Set Point:	0.009	X_WP:	0.000	Y_WP:	0.000	Y_WP:	0.750	X:	0.001	Y:	-1.229	Z:	0.044	yaw:	-0.490	yaw rate:	1.588	Roll:	0.661	Pitch:	-30.000	Yaw:	0.656	Thrust:	100.000
Time:	3.978	Roll Set Point:	-0.013	Pitch Set Point:	2.459	Yaw Set Point:	0.009	X_WP:	0.000	Y_WP:	0.000	Y_WP:	0.750	X:	0.001	Y:	-1.229	Z:	0.044	yaw:	-0.497	yaw rate:	0.710	Roll:	0.516	Pitch:	-30.000	Yaw:	0.857	Thrust:	100.000
Time:	3.999	Roll Set Point:	-0.013	Pitch Set Point:	2.459	Yaw Set Point:	0.009	X_WP:	0.000	Y_WP:	0.000	Y_WP:	0.750	X:	0.001	Y:	-1.229	Z:	0.044	yaw:	-0.502	yaw rate:	0.503	Roll:	0.469	Pitch:	-30.000	Yaw:	0.834	Thrust:	100.000
Time:	4.018	Roll Set Point:	-0.004	Pitch Set Point:	2.458	Yaw Set Point:	0.002	X_WP:	0.000	Y_WP:	0.000	Y_WP:	0.750	X:	0.001	Y:	-1.229	Z:	0.044	yaw:	-0.107	yaw rate:	-39.484	Roll:	-7.095	Pitch:	-30.000	Yaw:	6.753	Thrust:	100.000
Time:	4.038	Roll Set Point:	-0.012	Pitch Set Point:	2.459	Yaw Set Point:	0.009	X_WP:	0.000	Y_WP:	0.000	Y_WP:	0.750	X:	0.001	Y:	-1.229	Z:	0.044	yaw:	-0.489	yaw rate:	38.176	Roll:	7.462	Pitch:	-30.000	Yaw:	-4.149	Thrust:	100.000
Time:	4.058	Roll Set Point:	-0.012	Pitch Set Point:	2.459	Yaw Set Point:	0.008	X_WP:	0.000	Y_WP:	0.000	Y_WP:	0.750	X:	0.001	Y:	-1.229	Z:	0.044	yaw:	-0.487	yaw rate:	-0.231	Roll:	0.331	Pitch:	-30.000	Yaw:	0.888	Thrust:	100.000
Time:	4.078	Roll Set Point:	-0.012	Pitch Set Point:	2.459	Yaw Set Point:	0.008	X_WP:	0.000	Y_WP:	0.000	Y_WP:	0.750	X:	0.001	Y:	-1.229	Z:	0.044	yaw:	-0.487	yaw rate:	-0.028	Roll:	0.376	Pitch:	-30.000	Yaw:	0.951	Thrust:	100.000
Time:	4.099	Roll Set Point:	-0.012	Pitch Set Point:	2.458	Yaw Set Point:	0.008	X_WP:	0.000	Y_WP:	0.000	Y_WP:	0.750	X:	0.001	Y:	-1.229	Z:	0.044	yaw:	-0.469	yaw rate:	-1.718	Roll:	0.054	Pitch:	-30.000	Yaw:	1.183	Thrust:	100.000
Time:	4.118	Roll Set Point:	-0.012	Pitch Set Point:	2.459	Yaw Set Point:	0.009	X_WP:	0.000	Y_WP:	0.000	Y_WP:	0.750	X:	0.001	Y:	-1.229	Z:	0.044	yaw:	-0.493	yaw rate:	2.363	Roll:	0.824	Pitch:	-30.000	Yaw:	0.423	Thrust:	100.000
Time:	4.138	Roll Set Point:	-0.012	Pitch Set Point:	2.459	Yaw Set Point:	0.008	X_WP:	0.000	Y_WP:	0.000	Y_WP:	0.750	X:	0.001	Y:	-1.229	Z:	0.044	yaw:	-0.474	yaw rate:	-1.881	Roll:	0.025	Pitch:	-30.000	Yaw:	1.100	Thrust:	100.000
Time:	4.158	Roll Set Point:	-0.005	Pitch Set Point:	2.458	Yaw Set Point:	0.002	X_WP:	0.000	Y_WP:	0.000	Y_WP:	0.750	X:	0.001	Y:	-1.229	Z:	0.044	yaw:	-0.116	yaw rate:	-35.834	Roll:	-6.279	Pitch:	-30.000	Yaw:	5.988	Thrust:	100.000
Time:	4.179	Roll Set Point:	-0.004	Pitch Set Point:	2.458	Yaw Set Point:	0.002	X_WP:	0.000	Y_WP:	0.000	Y_WP:	0.750	X:	0.001	Y:	-1.229	Z:	0.045	yaw:	-0.108	yaw rate:	-0.793	Roll:	0.038	Pitch:	-30.000	Yaw:	1.558	Thrust:	100.000
Time:	4.198	Roll Set Point:	-0.012	Pitch Set Point:	2.459	Yaw Set Point:	0.008	X_WP:	0.000	Y_WP:	0.000	Y_WP:	0.750	X:	0.001	Y:	-1.229	Z:	0.044	yaw:	-0.463	yaw rate:	35.508	Roll:	7.037	Pitch:	-30.000	Yaw:	-3.889	Thrust:	100.000
Time:	4.218	Roll Set Point:	-0.012	Pitch Set Point:	2.458	Yaw Set Point:	0.008	X_WP:	0.000	Y_WP:	0.000	Y_WP:	0.750	X:	0.001	Y:	-1.229	Z:	0.044	yaw:	-0.484	yaw rate:	2.065	Roll:	0.758	Pitch:	-30.000	Yaw:	0.531	Thrust:	100.000
Time:	4.237	Roll Set Point:	-0.012	Pitch Set Point:	2.459	Yaw Set Point:	0.009	X_WP:	0.000	Y_WP:	0.000	Y_WP:	0.750	X:	0.001	Y:	-1.229	Z:	0.044	yaw:	-0.494	yaw rate:	1.051	Roll:	0.577	Pitch:	-30.000	Yaw:	0.673	Thrust:	100.000
Time:	4.258	Roll Set Point:	-0.012	Pitch Set Point:	2.459	Yaw Set Point:	0.008	X_WP:	0.000	Y_WP:	0.000	Y_WP:	0.750	X:	0.001	Y:	-1.229	Z:	0.044	yaw:	-0.463	yaw rate:	-3.083	Roll:	-0.173	Pitch:	-30.000	Yaw:	1.343	Thrust:	100.000
Time:	4.278	Roll Set Point:	-0.004	Pitch Set Point:	2.458	Yaw Set Point:	0.002	X_WP:	0.000	Y_WP:	0.000	Y_WP:	0.750	X:	0.001	Y:	-1.229	Z:	0.045	yaw:	-0.105	yaw rate:	-35.839	Roll:	-6.213	Pitch:	-30.000	Yaw:	6.037	Thrust:	100.000
Time:	4.298	Roll Set Point:	-0.008	Pitch Set Point:	2.458	Yaw Set Point:	0.005	X_WP:	0.000	Y_WP:	0.000	Y_WP:	0.750	X:	0.001	Y:	-1.229	Z:	0.044	yaw:	-0.306	yaw rate:	20.053	Roll:	3.797	Pitch:	-30.000	Yaw:	-1.654	Thrust:	100.000
Time:	4.318	Roll Set Point:	-0.012	Pitch Set Point:	2.459	Yaw Set Point:	0.009	X_WP:	0.000	Y_WP:	0.000	Y_WP:	0.750	X:	0.001	Y:	-1.229	Z:	0.044	yaw:	-0.494	yaw rate:	18.805	Roll:	3.814	Pitch:	-30.000	Yaw:	-1.474	Thrust:	100.000
Time:	4.338	Roll Set Point:	-0.013	Pitch Set Point:	2.459	Yaw Set Point:	0.009	X_WP:	0.000	Y_WP:	0.000	Y_WP:	0.750	X:	0.001	Y:	-1.229	Z:	0.044	yaw:	-0.499	yaw rate:	0.505	Roll:	0.483	Pitch:	-30.000	Yaw:	0.708	Thrust:	100.000
Time:	4.358	Roll Set Point:	-0.012	Pitch Set Point:	2.459	Yaw Set Point:	0.009	X_WP:	0.000	Y_WP:	0.000	Y_WP:	0.750	X:	0.001	Y:	-1.229	Z:	0.044	yaw:	-0.493	yaw rate:	-0.530	Roll:	0.305	Pitch:	-30.000	Yaw:	0.914	Thrust:	100.000
Time:	4.378	Roll Set Point:	-0.004	Pitch Set Point:	2.458	Yaw Set Point:	0.002	X_WP:	0.000	Y_WP:	0.000	Y_WP:	0.750	X:	0.001	Y:	-1.229	Z:	0.044	yaw:	-0.096	yaw rate:	-39.740	Roll:	-7.028	Pitch:	-30.000	Yaw:	6.507	Thrust:	100.000
Time:	4.399	Roll Set Point:	-0.013	Pitch Set Point:	2.459	Yaw Set Point:	0.009	X_WP:	0.000	Y_WP:	0.000	Y_WP:	0.750	X:	0.001	Y:	-1.229	Z:	0.044	yaw:	-0.506	yaw rate:	40.977	Roll:	7.630	Pitch:	-30.000	Yaw:	-4.406	Thrust:	100.000
Time:	4.418	Roll Set Point:	-0.012	Pitch Set Point:	2.459	Yaw Set Point:	0.008	X_WP:	0.000	Y_WP:	0.000	Y_WP:	0.750	X:	0.001	Y:	-1.229	Z:	0.044	yaw:	-0.473	yaw rate:	-3.285	Roll:	-0.237	Pitch:	-30.000	Yaw:	1.236	Thrust:	100.000
Time:	4.437	Roll Set Point:	-0.012	Pitch Set Point:	2.458	Yaw Set Point:	0.008	X_WP:	0.000	Y_WP:	0.000	Y_WP:	0.750	X:	0.001	Y:	-1.229	Z:	0.044	yaw:	-0.477	yaw rate:	0.444	Roll:	0.448	Pitch:	-30.000	Yaw:	0.732	Thrust:	100.000
Time:	4.458	Roll Set Point:	-0.012	Pitch Set Point:	2.459	Yaw Set Point:	0.008	X_WP:	0.000	Y_WP:	0.000	Y_WP:	0.750	X:	0.001	Y:	-1.229	Z:	0.044	yaw:	-0.485	yaw rate:	0.783	Roll:	0.535	Pitch:	-30.000	Yaw:	0.781	Thrust:	100.000
Time:	4.478	Roll Set Point:	-0.004	Pitch Set Point:	2.458	Yaw Set Point:	0.001	X_WP:	0.000	Y_WP:	0.000	Y_WP:	0.750	X:	0.001	Y:	-1.229	Z:	0.045	yaw:	-0.084	yaw rate:	-40.143	Roll:	-6.999	Pitch:	-30.000	Yaw:	6.597	Thrust:	100.000
Time:	4.498	Roll Set Point:	-0.012	Pitch Set Point:	2.459	Yaw Set Point:	0.008	X_WP:	0.000	Y_WP:	0.000	Y_WP:	0.750	X:	0.001	Y:	-1.229	Z:	0.044	yaw:	-0.479	yaw rate:	39.491	Roll:	7.434	Pitch:	-30.000	Yaw:	-4.471	Thrust:	100.000
Time:	4.518	Roll Set Point:	-0.012	Pitch Set Point:	2.459	Yaw Set Point:	0.008	X_WP:	0.000	Y_WP:	0.000	Y_WP:	0.750	X:	0.001	Y:	-1.229	Z:	0.044	yaw:	-0.473	yaw rate:	-0.613	Roll:	0.268	Pitch:	-30.000	Yaw:	0.930	Thrust:	100.000
Time:	4.538	Roll Set Point:	-0.012	Pitch Set Point:	2.459	Yaw Set Point:	0.008	X_WP:	0.000	Y_WP:	0.000	Y_WP:	0.750	X:	0.001	Y:	-1.229	Z:	0.044	yaw:	-0.470	yaw rate:	-0.222	Roll:	0.336	Pitch:	-30.000	Yaw:	0.850	Thrust:	100.000
Time:	4.558	Roll Set Point:	-0.004	Pitch Set Point:	2.458	Yaw Set Point:	0.002	X_WP:	0.000	Y_WP:	0.000	Y_WP:	0.750	X:	0.001	Y:	-1.229	Z:	0.045	yaw:	-0.086	yaw rate:	-38.386	Roll:	-6.378	Pitch:	-30.000	Yaw:	6.283	Thrust:	100.000
Time:	4.578	Roll Set Point:	-0.012	Pitch Set Point:	2.459	Yaw Set Point:	0.008	X_WP:	0.000	Y_WP:	0.000	Y_WP:	0.750	X:	0.001	Y:	-1.229	Z:	0.044	yaw:	-0.482	yaw rate:	39.575	Roll:	7.536	Pitch:	-30.000	Yaw:	-4.390	Thrust:	100.000
Time:	4.599	Roll Set Point:	-0.012	Pitch Set Point:	2.459	Yaw Set Point:	0.009	X_WP:	0.000	Y_WP:	0.000	Y_WP:	0.750	X:	0.001	Y:	-1.229	Z:	0.044	yaw:	-0.489	yaw rate:	0.665	Roll:	0.510	Pitch:	-30.000	Yaw:	0.800	Thrust:	100.000
Time:	4.626	Roll Set Point:	-0.012	Pitch Set Point:	2.459	Yaw Set Point:	0.009	X_WP:	0.000	Y_WP:	0.000	Y_WP:	0.750	X:	0.001	Y:	-1.229	Z:	0.044	yaw:	-0.490	yaw rate:	0.074	Roll:	0.426	Pitch:	-30.000	Yaw:	1.319	Thrust:	100.000
Time:	4.637	Roll Set Point:	-0.012	Pitch Set Point:	2.459	Yaw Set Point:	0.008	X_WP:	0.000	Y_WP:	0.000	Y_WP:	0.750	X:	0.001	Y:	-1.229	Z:	0.044	yaw:	-0.473	yaw rate:	-1.684	Roll:	-0.169	Pitch:	-30.000	Yaw:	0.563	Thrust:	100.000
Time:	4.666	Roll Set Point:	-0.012	Pitch Set Point:	2.459	Yaw Set Point:	0.008	X_WP:	0.000	Y_WP:	0.000	Y_WP:	0.750	X:	0.001	Y:	-1.229	Z:	0.044	yaw:	-0.469	yaw rate:	-0.359	Roll:	0.364	Pitch:	-30.000	Yaw:	1.469	Thrust:	100.000
Time:	4.678	Roll Set Point:	-0.012	Pitch Set Point:	2.459	Yaw Set Point:	0.008	X_WP:	0.000	Y_WP:	0.000	Y_WP:	0.750	X:	0.001	Y:	-1.229	Z:	0.044	yaw:	-0.474	yaw rate:	0.458	Roll:	0.488	Pitch:	-30.000	Yaw:	0.169	Thrust:	100.000
Time:	4.699	Roll Set Point:	-0.012	Pitch Set Point:	2.459	Yaw Set Point:	0.009	X_WP:	0.000	Y_WP:	0.000	Y_WP:	0.750	X:	0.001	Y:	-1.229	Z:	0.044	yaw:	-0.495	yaw rate:	2.178	Roll:	0.793	Pitch:	-30.000	Yaw:	0.556	Thrust:	100.000
Time:	4.718	Roll Set Point:	-0.012	Pitch Set Point:	2.459	Yaw Set Point:	0.008	X_WP:	0.000	Y_WP:	0.000	Y_WP:	0.750	X:	0.001	Y:	-1.229	Z:	0.044	yaw:	-0.468	yaw rate:	-2.718	Roll:	-0.148	Pitch:	-30.000	Yaw:	1.119	Thrust:	100.000
Time:	4.738	Roll Set Point:	-0.012	Pitch Set Point:	2.459	Yaw Set Point:	0.008	X_WP:	0.000	Y_WP:	0.000	Y_WP:	0.750	X:	0.001	Y:	-1.229	Z:	0.044	yaw:	-0.478	yaw rate:	0.924	Roll:	0.574	Pitch:	-30.000	Yaw:	0.651	Thrust:	100.000
Time:	4.764	Roll Set Point:	-0.004	Pitch Set Point:	2.458	Yaw Set Point:	0.002	X_WP:	0.000	Y_WP:	0.000	Y_WP:	0.750	X:	0.001	Y:	-1.229	Z:	0.045	yaw:	-0.094	yaw rate:	-38.369	Roll:	-6.590	Pitch:	-30.000	Yaw:	5.620	Thrust:	100.000
Time:	4.777	Roll Set Point:	-0.012	Pitch Set Point:	2.459	Yaw Set Point:	0.008	X_WP:	0.000	Y_WP:	0.000	Y_WP:	0.750	X:	0.001	Y:	-1.229	Z:	0.044	yaw:	-0.471	yaw rate:	37.699	Roll:	7.373	Pitch:	-30.000	Yaw:	-6.933	Thrust:	100.000
Time:	4.799	Roll Set Point:	-0.012	Pitch Set Point:	2.459	Yaw Set Point:	0.009	X_WP:	0.000	Y_WP:	0.000	Y_WP:	0.750	X:	0.001	Y:	-1.229	Z:	0.044	yaw:	-0.495	yaw rate:	2.433	Roll:	0.814	Pitch:	-30.000	Yaw:	0.548	Thrust:	100.000
Time:	4.818	Roll Set Point:	-0.012	Pitch Set Point:	2.459	Yaw Set Point:	0.008	X_WP:	0.000	Y_WP:	0.000	Y_WP:	0.750	X:	0.001	Y:	-1.229	Z:	0.044	yaw:	-0.476	yaw rate:	-1.925	Roll:	0.055	Pitch:	-30.000	Yaw:	1.013	Thrust:	100.000
Time:	4.837	Roll Set Point:	-0.012	Pitch Set Point:	2.459	Yaw Set Point:	0.008	X_WP:	0.000	Y_WP:	0.000	Y_WP:	0.750	X:	0.001	Y:	-1.229	Z:	0.044	yaw:	-0.484	yaw rate:	0.847	Roll:	0.554	Pitch:	-30.000	Yaw:	0.604	Thrust:	100.000
Time:	4.857	Roll Set Point:	-0.012	Pitch Set Point:	2.458	Yaw Set Point:	0.008	X_WP:	0.000	Y_WP:	0.000	Y_WP:	0.750	X:	0.001	Y:	-1.229	Z:	0.044	yaw:	-0.486	yaw rate:	0.138	Roll:	0.398	Pitch:	-30.000	Yaw:	0.755	Thrust:	100.000
Time:	4.878	Roll Set Point:	-0.012	Pitch Set Point:	2.459	Yaw Set Point:	0.009	X_WP:	0.000	Y_WP:	0.000	Y_WP:	0.750	X:	0.001	Y:	-1.229	Z:	0.044	yaw:	-0.493	yaw rate:	0.760	Roll:	0.553	Pitch:	-30.000	Yaw:	0.674	Thrust:	100.000
Time:	4.898	Roll Set Point:	-0.004	Pitch Set Point:	2.458	Yaw Set Point:	0.002	X_WP:	0.000	Y_WP:	0.000	Y_WP:	0.750	X:	0.001	Y:	-1.229	Z:	0.044	yaw:	-0.106	yaw rate:	-38.711	Roll:	-6.485	Pitch:	-30.000	Yaw:	6.290	Thrust:	100.000
Time:	4.918	Roll Set Point:	-0.012	Pitch Set Point:	2.459	Yaw Set Point:	0.008	X_WP:	0.000	Y_WP:	0.000	Y_WP:	0.750	X:	0.001	Y:	-1.229	Z:	0.044	yaw:	-0.478	yaw rate:	37.143	Roll:	7.332	Pitch:	-30.000	Yaw:	-4.184	Thrust:	100.000
Time:	4.938	Roll Set Point:	-0.013	Pitch Set Point:	2.458	Yaw Set Point:	0.009	X_WP:	0.000	Y_WP:	0.000	Y_WP:	0.750	X:	0.001	Y:	-1.229	Z:	0.044	yaw:	-0.514	yaw rate:	3.628	Roll:	1.095	Pitch:	-30.000	Yaw:	0.247	Thrust:	100.000
Time:	4.958	Roll Set Point:	-0.012	Pitch Set Point:	2.459	Yaw Set Point:	0.008	X_WP:	0.000	Y_WP:	0.000	Y_WP:	0.750	X:	0.001	Y:	-1.229	Z:	0.044	yaw:	-0.482	yaw rate:	-3.186	Roll:	-0.140	Pitch:	-30.000	Yaw:	1.200	Thrust:	100.000
Time:	4.979	Roll Set Point:	-0.004	Pitch Set Point:	2.458	Yaw Set Point:	0.002	X_WP:	0.000	Y_WP:	0.000	Y_WP:	0.750	X:	0.001	Y:	-1.229	Z:	0.044	yaw:	-0.089	yaw rate:	-39.329	Roll:	-6.936	Pitch:	-30.000	Yaw:	6.373	Thrust:	100.000
Time:	4.998	Roll Set Point:	-0.013	Pitch Set Point:	2.458	Yaw Set Point:	0.009	X_WP:	0.000	Y_WP:	0.000	Y_WP:	0.750	X:	0.001	Y:	-1.229	Z:	0.044	yaw:	-0.502	yaw rate:	41.292	Roll:	7.728	Pitch:	-30.000	Yaw:	-4.930	Thrust:	100.000
Time:	5.017	Roll Set Point:	-0.012	Pitch Set Point:	2.459	Yaw Set Point:	0.008	X_WP:	0.000	Y_WP:	0.000	Y_WP:	0.750	X:	0.001	Y:	-1.229	Z:	0.044	yaw:	-0.469	yaw rate:	-3.260	Roll:	-0.227	Pitch:	-30.000	Yaw:	1.178	Thrust:	100.000
Time:	5.039	Roll Set Point:	-0.012	Pitch Set Point:	2.459	Yaw Set Point:	0.008	X_WP:	0.000	Y_WP:	0.000	Y_WP:	0.750	X:	0.001	Y:	-1.229	Z:	0.044	yaw:	-0.472	yaw rate:	0.254	Roll:	0.447	Pitch:	-30.000	Yaw:	0.789	Thrust:	100.000
Time:	5.058	Roll Set Point:	-0.012	Pitch Set Point:	2.458	Yaw Set Point:	0.008	X_WP:	0.000	Y_WP:	0.000	Y_WP:	0.750	X:	0.001	Y:	-1.229	Z:	0.044	yaw:	-0.484	yaw rate:	1.250	Roll:	0.607	Pitch:	-30.000	Yaw:	0.595	Thrust:	100.000
Time:	5.079	Roll Set Point:	-0.012	Pitch Set Point:	2.458	Yaw Set Point:	0.008	X_WP:	0.000	Y_WP:	0.000	Y_WP:	0.750	X:	0.001	Y:	-1.229	Z:	0.044	yaw:	-0.484	yaw rate:	-0.025	Roll:	0.399	Pitch:	-30.000	Yaw:	0.757	Thrust:	100.000
Time:	5.100	Roll Set Point:	-0.012	Pitch Set Point:	2.459	Yaw Set Point:	0.008	X_WP:	0.000	Y_WP:	0.000	Y_WP:	0.750	X:	0.001	Y:	-1.229	Z:	0.044	yaw:	-0.463	yaw rate:	-2.082	Roll:	0.035	Pitch:	-30.000	Yaw:	1.100	Thrust:	100.000
Time:	5.119	Roll Set Point:	-0.013	Pitch Set Point:	2.459	Yaw Set Point:	0.009	X_WP:	0.000	Y_WP:	0.000	Y_WP:	0.750	X:	0.001	Y:	-1.229	Z:	0.044	yaw:	-0.505	yaw rate:	4.207	Roll:	1.186	Pitch:	-30.000	Yaw:	0.034	Thrust:	100.000
Time:	5.139	Roll Set Point:	-0.012	Pitch Set Point:	2.458	Yaw Set Point:	0.008	X_WP:	0.000	Y_WP:	0.000	Y_WP:	0.750	X:	0.001	Y:	-1.229	Z:	0.044	yaw:	-0.473	yaw rate:	-3.184	Roll:	-0.204	Pitch:	-30.000	Yaw:	1.180	Thrust:	100.000
Time:	5.159	Roll Set Point:	-0.004	Pitch Set Point:	2.458	Yaw Set Point:	0.002	X_WP:	0.000	Y_WP:	0.000	Y_WP:	0.750	X:	0.001	Y:	-1.229	Z:	0.045	yaw:	-0.091	yaw rate:	-38.219	Roll:	-6.631	Pitch:	-30.000	Yaw:	6.333	Thrust:	100.000
Time:	5.179	Roll Set Point:	-0.013	Pitch Set Point:	2.459	Yaw Set Point:	0.009	X_WP:	0.000	Y_WP:	0.000	Y_WP:	0.750	X:	0.001	Y:	-1.229	Z:	0.044	yaw:	-0.499	yaw rate:	40.825	Roll:	7.521	Pitch:	-30.000	Yaw:	-4.585	Thrust:	100.000
Time:	5.201	Roll Set Point:	-0.012	Pitch Set Point:	2.459	Yaw Set Point:	0.009	X_WP:	0.000	Y_WP:	0.000	Y_WP:	0.750	X:	0.001	Y:	-1.229	Z:	0.044	yaw:	-0.489	yaw rate:	-1.083	Roll:	0.237	Pitch:	-30.000	Yaw:	0.990	Thrust:	100.000
Time:	5.219	Roll Set Point:	-0.013	Pitch Set Point:	2.458	Yaw Set Point:	0.009	X_WP:	0.000	Y_WP:	0.000	Y_WP:	0.750	X:	0.001	Y:	-1.229	Z:	0.044	yaw:	-0.500	yaw rate:	1.142	Roll:	0.600	Pitch:	-30.000	Yaw:	0.404	Thrust:	100.000
Time:	5.239	Roll Set Point:	-0.012	Pitch Set Point:	2.459	Yaw Set Point:	0.008	X_WP:	0.000	Y_WP:	0.000	Y_WP:	0.750	X:	0.001	Y:	-1.229	Z:	0.044	yaw:	-0.476	yaw rate:	-2.385	Roll:	-0.039	Pitch:	-30.000	Yaw:	1.026	Thrust:	100.000
Time:	5.258	Roll Set Point:	-0.012	Pitch Set Point:	2.459	Yaw Set Point:	0.008	X_WP:	0.000	Y_WP:	0.000	Y_WP:	0.750	X:	0.001	Y:	-1.229	Z:	0.044	yaw:	-0.473	yaw rate:	-0.292	Roll:	0.366	Pitch:	-30.000	Yaw:	0.739	Thrust:	100.000
Time:	5.279	Roll Set Point:	-0.012	Pitch Set Point:	2.458	Yaw Set Point:	0.008	X_WP:	0.000	Y_WP:	0.000	Y_WP:	0.750	X:	0.001	Y:	-1.229	Z:	0.044	yaw:	-0.477	yaw rate:	0.336	Roll:	0.439	Pitch:	-30.000	Yaw:	0.675	Thrust:	100.000
Time:	5.302	Roll Set Point:	-0.012	Pitch Set Point:	2.459	Yaw Set Point:	0.008	X_WP:	0.000	Y_WP:	0.000	Y_WP:	0.750	X:	0.001	Y:	-1.229	Z:	0.044	yaw:	-0.468	yaw rate:	-0.881	Roll:	0.235	Pitch:	-30.000	Yaw:	0.997	Thrust:	100.000
