Time:	0.044	Roll Set Point:	-0.019	Pitch Set Point:	-0.006	Yaw Set Point:	-1.611	X_WP:	0.000	Y_WP:	0.000	Z_WP:	0.500	X:	0.007	Y:	0.013	Z:	0.047	yaw:	92.279	yaw rate:	-19.349	Roll:	0.194	Pitch:	-0.106	Yaw:	128.846	Thrust:	24.898
Time:	0.061	Roll Set Point:	-0.019	Pitch Set Point:	-0.007	Yaw Set Point:	-1.608	X_WP:	0.000	Y_WP:	0.000	Z_WP:	0.500	X:	0.006	Y:	0.013	Z:	0.047	yaw:	92.119	yaw rate:	16.000	Roll:	0.411	Pitch:	0.124	Yaw:	126.883	Thrust:	25.524
Time:	0.080	Roll Set Point:	-0.020	Pitch Set Point:	-0.006	Yaw Set Point:	-1.608	X_WP:	0.000	Y_WP:	0.000	Z_WP:	0.500	X:	0.006	Y:	0.013	Z:	0.048	yaw:	92.105	yaw rate:	1.415	Roll:	0.212	Pitch:	-0.230	Yaw:	129.640	Thrust:	26.792
Time:	0.100	Roll Set Point:	-0.019	Pitch Set Point:	-0.007	Yaw Set Point:	-1.598	X_WP:	0.000	Y_WP:	0.000	Z_WP:	0.500	X:	0.006	Y:	0.014	Z:	0.049	yaw:	91.573	yaw rate:	53.199	Roll:	0.469	Pitch:	0.522	Yaw:	122.751	Thrust:	24.764
Time:	0.121	Roll Set Point:	-0.020	Pitch Set Point:	-0.008	Yaw Set Point:	-1.603	X_WP:	0.000	Y_WP:	0.000	Z_WP:	0.500	X:	0.006	Y:	0.014	Z:	0.049	yaw:	91.832	yaw rate:	-25.916	Roll:	0.712	Pitch:	-0.100	Yaw:	133.574	Thrust:	29.926
Time:	0.141	Roll Set Point:	-0.020	Pitch Set Point:	-0.007	Yaw Set Point:	-1.610	X_WP:	0.000	Y_WP:	0.000	Z_WP:	0.500	X:	0.007	Y:	0.014	Z:	0.048	yaw:	92.263	yaw rate:	-43.097	Roll:	-0.371	Pitch:	-0.830	Yaw:	136.452	Thrust:	31.515
Time:	0.160	Roll Set Point:	-0.020	Pitch Set Point:	-0.007	Yaw Set Point:	-1.596	X_WP:	0.000	Y_WP:	0.000	Z_WP:	0.500	X:	0.006	Y:	0.014	Z:	0.048	yaw:	91.423	yaw rate:	84.019	Roll:	0.411	Pitch:	0.265	Yaw:	118.068	Thrust:	30.964
Time:	0.181	Roll Set Point:	-0.019	Pitch Set Point:	-0.006	Yaw Set Point:	-1.607	X_WP:	0.000	Y_WP:	0.000	Z_WP:	0.500	X:	0.006	Y:	0.013	Z:	0.048	yaw:	92.092	yaw rate:	-66.948	Roll:	-0.536	Pitch:	-0.062	Yaw:	139.169	Thrust:	32.878
Time:	0.201	Roll Set Point:	-0.019	Pitch Set Point:	-0.006	Yaw Set Point:	-1.610	X_WP:	0.000	Y_WP:	0.000	Z_WP:	0.500	X:	0.006	Y:	0.013	Z:	0.049	yaw:	92.273	yaw rate:	-18.059	Roll:	0.425	Pitch:	-0.270	Yaw:	133.202	Thrust:	32.375
Time:	0.221	Roll Set Point:	-0.020	Pitch Set Point:	-0.007	Yaw Set Point:	-1.605	X_WP:	0.000	Y_WP:	0.000	Z_WP:	0.500	X:	0.006	Y:	0.014	Z:	0.049	yaw:	91.932	yaw rate:	34.122	Roll:	0.585	Pitch:	0.038	Yaw:	125.921	Thrust:	33.532
Time:	0.242	Roll Set Point:	-0.019	Pitch Set Point:	-0.006	Yaw Set Point:	-1.619	X_WP:	0.000	Y_WP:	0.000	Z_WP:	0.500	X:	0.006	Y:	0.013	Z:	0.048	yaw:	92.753	yaw rate:	-82.134	Roll:	-0.326	Pitch:	-0.472	Yaw:	141.579	Thrust:	38.639
Time:	0.261	Roll Set Point:	-0.020	Pitch Set Point:	-0.006	Yaw Set Point:	-1.622	X_WP:	0.000	Y_WP:	0.000	Z_WP:	0.500	X:	0.007	Y:	0.013	Z:	0.048	yaw:	92.916	yaw rate:	-16.298	Roll:	0.210	Pitch:	-0.340	Yaw:	133.896	Thrust:	35.479
Time:	0.281	Roll Set Point:	-0.020	Pitch Set Point:	-0.008	Yaw Set Point:	-1.577	X_WP:	0.000	Y_WP:	0.000	Z_WP:	0.500	X:	0.006	Y:	0.014	Z:	0.049	yaw:	90.337	yaw rate:	257.902	Roll:	1.366	Pitch:	0.835	Yaw:	93.607	Thrust:	35.888
Time:	0.300	Roll Set Point:	-0.020	Pitch Set Point:	-0.008	Yaw Set Point:	-1.574	X_WP:	0.000	Y_WP:	0.000	Z_WP:	0.500	X:	0.006	Y:	0.014	Z:	0.049	yaw:	90.166	yaw rate:	17.086	Roll:	0.248	Pitch:	0.121	Yaw:	125.676	Thrust:	39.542
Time:	0.321	Roll Set Point:	-0.019	Pitch Set Point:	-0.007	Yaw Set Point:	-1.615	X_WP:	0.000	Y_WP:	0.000	Z_WP:	0.500	X:	0.006	Y:	0.013	Z:	0.049	yaw:	92.515	yaw rate:	-234.894	Roll:	-0.806	Pitch:	-0.744	Yaw:	161.519	Thrust:	39.505
Time:	0.342	Roll Set Point:	-0.020	Pitch Set Point:	-0.007	Yaw Set Point:	-1.617	X_WP:	0.000	Y_WP:	0.000	Z_WP:	0.500	X:	0.006	Y:	0.014	Z:	0.048	yaw:	92.629	yaw rate:	-11.375	Roll:	0.415	Pitch:	-0.199	Yaw:	132.844	Thrust:	43.279
Time:	0.361	Roll Set Point:	-0.020	Pitch Set Point:	-0.008	Yaw Set Point:	-1.609	X_WP:	0.000	Y_WP:	0.000	Z_WP:	0.500	X:	0.006	Y:	0.014	Z:	0.048	yaw:	92.179	yaw rate:	45.026	Roll:	1.017	Pitch:	0.088	Yaw:	124.593	Thrust:	42.704
Time:	0.380	Roll Set Point:	-0.020	Pitch Set Point:	-0.006	Yaw Set Point:	-1.613	X_WP:	0.000	Y_WP:	0.000	Z_WP:	0.500	X:	0.007	Y:	0.013	Z:	0.048	yaw:	92.396	yaw rate:	-21.746	Roll:	-0.716	Pitch:	-0.634	Yaw:	133.868	Thrust:	43.112
Time:	0.401	Roll Set Point:	-0.021	Pitch Set Point:	-0.007	Yaw Set Point:	-1.585	X_WP:	0.000	Y_WP:	0.000	Z_WP:	0.500	X:	0.007	Y:	0.014	Z:	0.048	yaw:	90.797	yaw rate:	159.856	Roll:	0.707	Pitch:	0.018	Yaw:	107.927	Thrust:	43.081
Time:	0.421	Roll Set Point:	-0.020	Pitch Set Point:	-0.006	Yaw Set Point:	-1.591	X_WP:	0.000	Y_WP:	0.000	Z_WP:	0.500	X:	0.007	Y:	0.013	Z:	0.048	yaw:	91.170	yaw rate:	-37.217	Roll:	-0.170	Pitch:	-0.225	Yaw:	134.237	Thrust:	45.068
Time:	0.444	Roll Set Point:	-0.020	Pitch Set Point:	-0.005	Yaw Set Point:	-1.572	X_WP:	0.000	Y_WP:	0.000	Z_WP:	0.500	X:	0.007	Y:	0.013	Z:	0.049	yaw:	90.062	yaw rate:	110.718	Roll:	-0.130	Pitch:	-0.308	Yaw:	115.503	Thrust:	47.927
Time:	0.460	Roll Set Point:	-0.021	Pitch Set Point:	-0.007	Yaw Set Point:	-1.518	X_WP:	0.000	Y_WP:	0.000	Z_WP:	0.500	X:	0.007	Y:	0.013	Z:	0.050	yaw:	86.964	yaw rate:	309.821	Roll:	1.181	Pitch:	0.668	Yaw:	74.581	Thrust:	43.325
Time:	0.481	Roll Set Point:	-0.022	Pitch Set Point:	-0.006	Yaw Set Point:	-1.477	X_WP:	0.000	Y_WP:	0.000	Z_WP:	0.500	X:	0.008	Y:	0.013	Z:	0.049	yaw:	84.635	yaw rate:	232.886	Roll:	0.141	Pitch:	-0.133	Yaw:	91.501	Thrust:	49.649
Time:	0.500	Roll Set Point:	-0.022	Pitch Set Point:	-0.006	Yaw Set Point:	-1.461	X_WP:	0.000	Y_WP:	0.000	Z_WP:	0.500	X:	0.009	Y:	0.013	Z:	0.050	yaw:	83.720	yaw rate:	91.562	Roll:	0.338	Pitch:	-0.512	Yaw:	106.287	Thrust:	49.054
Time:	0.520	Roll Set Point:	-0.007	Pitch Set Point:	-0.054	Yaw Set Point:	0.289	X_WP:	0.000	Y_WP:	0.000	Z_WP:	0.500	X:	0.008	Y:	0.026	Z:	0.054	yaw:	-16.578	yaw rate:	10029.761	Roll:	-12.239	Pitch:	29.627	Yaw:	-1329.838	Thrust:	41.539
Time:	0.542	Roll Set Point:	-0.025	Pitch Set Point:	-0.005	Yaw Set Point:	-1.382	X_WP:	0.000	Y_WP:	0.000	Z_WP:	0.500	X:	0.010	Y:	0.013	Z:	0.049	yaw:	79.168	yaw rate:	-9574.632	Roll:	12.235	Pitch:	-28.459	Yaw:	1301.939	Thrust:	63.583
Time:	0.560	Roll Set Point:	-0.027	Pitch Set Point:	-0.004	Yaw Set Point:	-1.344	X_WP:	0.000	Y_WP:	0.000	Z_WP:	0.500	X:	0.012	Y:	0.013	Z:	0.049	yaw:	76.989	yaw rate:	217.932	Roll:	0.758	Pitch:	-0.833	Yaw:	78.913	Thrust:	49.887
Time:	0.581	Roll Set Point:	-0.028	Pitch Set Point:	-0.005	Yaw Set Point:	-1.325	X_WP:	0.000	Y_WP:	0.000	Z_WP:	0.500	X:	0.012	Y:	0.013	Z:	0.049	yaw:	75.921	yaw rate:	106.772	Roll:	0.670	Pitch:	-0.049	Yaw:	94.574	Thrust:	54.183
Time:	0.600	Roll Set Point:	-0.029	Pitch Set Point:	-0.004	Yaw Set Point:	-1.321	X_WP:	0.000	Y_WP:	0.000	Z_WP:	0.500	X:	0.013	Y:	0.013	Z:	0.049	yaw:	75.716	yaw rate:	20.508	Roll:	0.425	Pitch:	-0.752	Yaw:	104.940	Thrust:	55.293
Time:	0.621	Roll Set Point:	-0.030	Pitch Set Point:	-0.003	Yaw Set Point:	-1.299	X_WP:	0.000	Y_WP:	0.000	Z_WP:	0.500	X:	0.014	Y:	0.013	Z:	0.050	yaw:	74.405	yaw rate:	131.161	Roll:	0.437	Pitch:	-0.586	Yaw:	88.343	Thrust:	54.218
Time:	0.644	Roll Set Point:	-0.032	Pitch Set Point:	-0.004	Yaw Set Point:	-1.238	X_WP:	0.000	Y_WP:	0.000	Z_WP:	0.500	X:	0.014	Y:	0.013	Z:	0.050	yaw:	70.917	yaw rate:	348.747	Roll:	1.260	Pitch:	0.298	Yaw:	62.654	Thrust:	63.070
Time:	0.660	Roll Set Point:	-0.035	Pitch Set Point:	-0.003	Yaw Set Point:	-1.204	X_WP:	0.000	Y_WP:	0.000	Z_WP:	0.500	X:	0.016	Y:	0.013	Z:	0.051	yaw:	68.979	yaw rate:	193.790	Roll:	1.279	Pitch:	-1.383	Yaw:	67.979	Thrust:	49.559
Time:	0.681	Roll Set Point:	-0.037	Pitch Set Point:	-0.003	Yaw Set Point:	-1.154	X_WP:	0.000	Y_WP:	0.000	Z_WP:	0.500	X:	0.017	Y:	0.013	Z:	0.052	yaw:	66.140	yaw rate:	283.908	Roll:	1.067	Pitch:	-0.149	Yaw:	58.268	Thrust:	58.706
Time:	0.700	Roll Set Point:	-0.039	Pitch Set Point:	-0.005	Yaw Set Point:	-1.088	X_WP:	0.000	Y_WP:	0.000	Z_WP:	0.500	X:	0.018	Y:	0.015	Z:	0.054	yaw:	62.325	yaw rate:	381.533	Roll:	1.921	Pitch:	0.942	Yaw:	37.281	Thrust:	53.416
Time:	0.721	Roll Set Point:	-0.042	Pitch Set Point:	-0.005	Yaw Set Point:	-1.038	X_WP:	0.000	Y_WP:	0.000	Z_WP:	0.500	X:	0.019	Y:	0.014	Z:	0.056	yaw:	59.498	yaw rate:	282.655	Roll:	1.252	Pitch:	-0.530	Yaw:	50.080	Thrust:	58.265
Time:	0.742	Roll Set Point:	-0.043	Pitch Set Point:	-0.006	Yaw Set Point:	-0.991	X_WP:	0.000	Y_WP:	0.000	Z_WP:	0.500	X:	0.020	Y:	0.015	Z:	0.058	yaw:	56.753	yaw rate:	274.540	Roll:	1.165	Pitch:	0.472	Yaw:	45.439	Thrust:	59.802
Time:	0.761	Roll Set Point:	-0.047	Pitch Set Point:	-0.008	Yaw Set Point:	-0.911	X_WP:	0.000	Y_WP:	0.000	Z_WP:	0.500	X:	0.021	Y:	0.015	Z:	0.060	yaw:	52.206	yaw rate:	454.713	Roll:	2.207	Pitch:	0.899	Yaw:	12.403	Thrust:	56.071
Time:	0.781	Roll Set Point:	-0.048	Pitch Set Point:	-0.009	Yaw Set Point:	-0.870	X_WP:	0.000	Y_WP:	0.000	Z_WP:	0.500	X:	0.022	Y:	0.016	Z:	0.064	yaw:	49.846	yaw rate:	236.028	Roll:	1.218	Pitch:	0.569	Yaw:	40.798	Thrust:	56.157
Time:	0.801	Roll Set Point:	-0.050	Pitch Set Point:	-0.009	Yaw Set Point:	-0.831	X_WP:	0.000	Y_WP:	0.000	Z_WP:	0.500	X:	0.023	Y:	0.015	Z:	0.067	yaw:	47.606	yaw rate:	223.909	Roll:	1.154	Pitch:	0.106	Yaw:	40.046	Thrust:	59.395
Time:	0.821	Roll Set Point:	-0.053	Pitch Set Point:	-0.010	Yaw Set Point:	-0.776	X_WP:	0.000	Y_WP:	0.000	Z_WP:	0.500	X:	0.024	Y:	0.016	Z:	0.071	yaw:	44.438	yaw rate:	316.813	Roll:	1.661	Pitch:	0.430	Yaw:	22.767	Thrust:	56.392
Time:	0.842	Roll Set Point:	-0.054	Pitch Set Point:	-0.011	Yaw Set Point:	-0.742	X_WP:	0.000	Y_WP:	0.000	Z_WP:	0.500	X:	0.025	Y:	0.016	Z:	0.074	yaw:	42.522	yaw rate:	191.652	Roll:	1.030	Pitch:	0.682	Yaw:	37.659	Thrust:	61.127
Time:	0.861	Roll Set Point:	-0.056	Pitch Set Point:	-0.013	Yaw Set Point:	-0.696	X_WP:	0.000	Y_WP:	0.000	Z_WP:	0.500	X:	0.025	Y:	0.017	Z:	0.079	yaw:	39.875	yaw rate:	264.644	Roll:	1.556	Pitch:	1.228	Yaw:	19.524	Thrust:	51.464
Time:	0.881	Roll Set Point:	-0.057	Pitch Set Point:	-0.014	Yaw Set Point:	-0.666	X_WP:	0.000	Y_WP:	0.000	Z_WP:	0.500	X:	0.026	Y:	0.017	Z:	0.084	yaw:	38.153	yaw rate:	172.208	Roll:	1.184	Pitch:	0.462	Yaw:	33.358	Thrust:	57.269
Time:	0.900	Roll Set Point:	-0.059	Pitch Set Point:	-0.015	Yaw Set Point:	-0.637	X_WP:	0.000	Y_WP:	0.000	Z_WP:	0.500	X:	0.027	Y:	0.017	Z:	0.089	yaw:	36.477	yaw rate:	167.624	Roll:	1.207	Pitch:	0.736	Yaw:	30.050	Thrust:	56.127
Time:	0.922	Roll Set Point:	-0.060	Pitch Set Point:	-0.016	Yaw Set Point:	-0.604	X_WP:	0.000	Y_WP:	0.000	Z_WP:	0.500	X:	0.027	Y:	0.018	Z:	0.094	yaw:	34.620	yaw rate:	185.754	Roll:	1.056	Pitch:	0.704	Yaw:	26.808	Thrust:	59.693
Time:	0.942	Roll Set Point:	-0.060	Pitch Set Point:	-0.017	Yaw Set Point:	-0.581	X_WP:	0.000	Y_WP:	0.000	Z_WP:	0.500	X:	0.028	Y:	0.018	Z:	0.100	yaw:	33.310	yaw rate:	130.955	Roll:	0.795	Pitch:	0.644	Yaw:	31.896	Thrust:	58.243
Time:	0.961	Roll Set Point:	-0.062	Pitch Set Point:	-0.018	Yaw Set Point:	-0.558	X_WP:	0.000	Y_WP:	0.000	Z_WP:	0.500	X:	0.028	Y:	0.018	Z:	0.106	yaw:	31.971	yaw rate:	133.936	Roll:	1.268	Pitch:	0.409	Yaw:	28.987	Thrust:	57.877
Time:	0.981	Roll Set Point:	-0.063	Pitch Set Point:	-0.019	Yaw Set Point:	-0.540	X_WP:	0.000	Y_WP:	0.000	Z_WP:	0.500	X:	0.029	Y:	0.018	Z:	0.112	yaw:	30.922	yaw rate:	104.878	Roll:	1.156	Pitch:	0.516	Yaw:	31.101	Thrust:	56.752
Time:	1.000	Roll Set Point:	-0.064	Pitch Set Point:	-0.020	Yaw Set Point:	-0.522	X_WP:	0.000	Y_WP:	0.000	Z_WP:	0.500	X:	0.030	Y:	0.019	Z:	0.118	yaw:	29.919	yaw rate:	100.279	Roll:	0.993	Pitch:	0.529	Yaw:	30.044	Thrust:	55.373
Time:	1.021	Roll Set Point:	-0.066	Pitch Set Point:	-0.020	Yaw Set Point:	-0.518	X_WP:	0.000	Y_WP:	0.000	Z_WP:	0.500	X:	0.030	Y:	0.019	Z:	0.124	yaw:	29.674	yaw rate:	24.505	Roll:	1.122	Pitch:	-0.091	Yaw:	40.387	Thrust:	60.817
Time:	1.043	Roll Set Point:	-0.067	Pitch Set Point:	-0.022	Yaw Set Point:	-0.484	X_WP:	0.000	Y_WP:	0.000	Z_WP:	0.500	X:	0.031	Y:	0.019	Z:	0.130	yaw:	27.735	yaw rate:	193.879	Roll:	0.944	Pitch:	1.124	Yaw:	18.517	Thrust:	67.466
Time:	1.061	Roll Set Point:	-0.068	Pitch Set Point:	-0.020	Yaw Set Point:	-0.485	X_WP:	0.000	Y_WP:	0.000	Z_WP:	0.500	X:	0.032	Y:	0.019	Z:	0.137	yaw:	27.784	yaw rate:	-4.866	Roll:	1.171	Pitch:	-0.836	Yaw:	41.266	Thrust:	49.372
Time:	1.081	Roll Set Point:	-0.069	Pitch Set Point:	-0.021	Yaw Set Point:	-0.468	X_WP:	0.000	Y_WP:	0.000	Z_WP:	0.500	X:	0.032	Y:	0.019	Z:	0.143	yaw:	26.837	yaw rate:	94.659	Roll:	0.954	Pitch:	0.612	Yaw:	27.143	Thrust:	58.719
Time:	1.101	Roll Set Point:	-0.070	Pitch Set Point:	-0.022	Yaw Set Point:	-0.451	X_WP:	0.000	Y_WP:	0.000	Z_WP:	0.500	X:	0.032	Y:	0.019	Z:	0.150	yaw:	25.860	yaw rate:	97.707	Roll:	1.030	Pitch:	0.489	Yaw:	25.053	Thrust:	59.690
Time:	1.121	Roll Set Point:	-0.071	Pitch Set Point:	-0.023	Yaw Set Point:	-0.415	X_WP:	0.000	Y_WP:	0.000	Z_WP:	0.500	X:	0.033	Y:	0.019	Z:	0.158	yaw:	23.754	yaw rate:	210.652	Roll:	0.853	Pitch:	1.111	Yaw:	7.869	Thrust:	57.688
Time:	1.141	Roll Set Point:	-0.072	Pitch Set Point:	-0.024	Yaw Set Point:	-0.398	X_WP:	0.000	Y_WP:	0.000	Z_WP:	0.500	X:	0.033	Y:	0.019	Z:	0.165	yaw:	22.790	yaw rate:	96.376	Roll:	0.999	Pitch:	0.310	Yaw:	21.624	Thrust:	62.975
Time:	1.160	Roll Set Point:	-0.074	Pitch Set Point:	-0.022	Yaw Set Point:	-0.414	X_WP:	0.000	Y_WP:	0.000	Z_WP:	0.500	X:	0.034	Y:	0.019	Z:	0.171	yaw:	23.702	yaw rate:	-91.248	Roll:	1.483	Pitch:	-1.151	Yaw:	47.787	Thrust:	55.680
Time:	1.181	Roll Set Point:	-0.074	Pitch Set Point:	-0.022	Yaw Set Point:	-0.399	X_WP:	0.000	Y_WP:	0.000	Z_WP:	0.500	X:	0.035	Y:	0.019	Z:	0.178	yaw:	22.881	yaw rate:	82.184	Roll:	0.976	Pitch:	0.227	Yaw:	23.558	Thrust:	62.546
Time:	1.201	Roll Set Point:	-0.075	Pitch Set Point:	-0.023	Yaw Set Point:	-0.362	X_WP:	0.000	Y_WP:	0.000	Z_WP:	0.500	X:	0.035	Y:	0.019	Z:	0.186	yaw:	20.729	yaw rate:	215.135	Roll:	0.787	Pitch:	1.179	Yaw:	2.827	Thrust:	59.970
Time:	1.221	Roll Set Point:	-0.077	Pitch Set Point:	-0.021	Yaw Set Point:	-0.380	X_WP:	0.000	Y_WP:	0.000	Z_WP:	0.500	X:	0.037	Y:	0.018	Z:	0.193	yaw:	21.789	yaw rate:	-106.009	Roll:	1.538	Pitch:	-1.276	Yaw:	46.272	Thrust:	60.293
Time:	1.243	Roll Set Point:	-0.078	Pitch Set Point:	-0.023	Yaw Set Point:	-0.355	X_WP:	0.000	Y_WP:	0.000	Z_WP:	0.500	X:	0.037	Y:	0.018	Z:	0.200	yaw:	20.356	yaw rate:	143.357	Roll:	1.013	Pitch:	0.858	Yaw:	14.026	Thrust:	68.997
Time:	1.261	Roll Set Point:	-0.079	Pitch Set Point:	-0.021	Yaw Set Point:	-0.342	X_WP:	0.000	Y_WP:	0.000	Z_WP:	0.500	X:	0.038	Y:	0.017	Z:	0.209	yaw:	19.616	yaw rate:	73.957	Roll:	1.046	Pitch:	-0.793	Yaw:	17.580	Thrust:	47.955
Time:	1.281	Roll Set Point:	-0.081	Pitch Set Point:	-0.022	Yaw Set Point:	-0.322	X_WP:	0.000	Y_WP:	0.000	Z_WP:	0.500	X:	0.039	Y:	0.018	Z:	0.217	yaw:	18.423	yaw rate:	119.349	Roll:	1.231	Pitch:	0.940	Yaw:	12.833	Thrust:	63.846
Time:	1.300	Roll Set Point:	-0.083	Pitch Set Point:	-0.020	Yaw Set Point:	-0.327	X_WP:	0.000	Y_WP:	0.000	Z_WP:	0.500	X:	0.040	Y:	0.017	Z:	0.224	yaw:	18.752	yaw rate:	-32.907	Roll:	1.547	Pitch:	-0.925	Yaw:	32.568	Thrust:	59.067
Time:	1.321	Roll Set Point:	-0.084	Pitch Set Point:	-0.020	Yaw Set Point:	-0.318	X_WP:	0.000	Y_WP:	0.000	Z_WP:	0.500	X:	0.040	Y:	0.017	Z:	0.232	yaw:	18.244	yaw rate:	50.825	Roll:	1.309	Pitch:	0.035	Yaw:	21.288	Thrust:	65.237
Time:	1.341	Roll Set Point:	-0.087	Pitch Set Point:	-0.020	Yaw Set Point:	-0.319	X_WP:	0.000	Y_WP:	0.000	Z_WP:	0.500	X:	0.042	Y:	0.017	Z:	0.240	yaw:	18.257	yaw rate:	-1.327	Roll:	1.712	Pitch:	-0.266	Yaw:	27.627	Thrust:	57.759
Time:	1.361	Roll Set Point:	-0.088	Pitch Set Point:	-0.017	Yaw Set Point:	-0.319	X_WP:	0.000	Y_WP:	0.000	Z_WP:	0.500	X:	0.043	Y:	0.016	Z:	0.249	yaw:	18.297	yaw rate:	-4.015	Roll:	1.205	Pitch:	-1.254	Yaw:	28.101	Thrust:	60.588
Time:	1.381	Roll Set Point:	-0.090	Pitch Set Point:	-0.017	Yaw Set Point:	-0.314	X_WP:	0.000	Y_WP:	0.000	Z_WP:	0.500	X:	0.044	Y:	0.016	Z:	0.257	yaw:	17.988	yaw rate:	30.893	Roll:	1.616	Pitch:	-0.262	Yaw:	22.889	Thrust:	57.429
Time:	1.400	Roll Set Point:	-0.092	Pitch Set Point:	-0.015	Yaw Set Point:	-0.296	X_WP:	0.000	Y_WP:	0.000	Z_WP:	0.500	X:	0.045	Y:	0.014	Z:	0.266	yaw:	16.960	yaw rate:	102.751	Roll:	1.444	Pitch:	-0.640	Yaw:	11.881	Thrust:	57.035
Time:	1.421	Roll Set Point:	-0.094	Pitch Set Point:	-0.014	Yaw Set Point:	-0.290	X_WP:	0.000	Y_WP:	0.000	Z_WP:	0.500	X:	0.046	Y:	0.014	Z:	0.275	yaw:	16.612	yaw rate:	34.886	Roll:	1.736	Pitch:	-0.144	Yaw:	20.816	Thrust:	61.381
Time:	1.443	Roll Set Point:	-0.096	Pitch Set Point:	-0.015	Yaw Set Point:	-0.261	X_WP:	0.000	Y_WP:	0.000	Z_WP:	0.500	X:	0.047	Y:	0.014	Z:	0.284	yaw:	14.947	yaw rate:	166.444	Roll:	1.305	Pitch:	0.727	Yaw:	3.087	Thrust:	66.276
Time:	1.461	Roll Set Point:	-0.098	Pitch Set Point:	-0.014	Yaw Set Point:	-0.270	X_WP:	0.000	Y_WP:	0.000	Z_WP:	0.500	X:	0.048	Y:	0.013	Z:	0.294	yaw:	15.446	yaw rate:	-49.894	Roll:	1.681	Pitch:	-1.066	Yaw:	30.542	Thrust:	50.615
Time:	1.481	Roll Set Point:	-0.099	Pitch Set Point:	-0.012	Yaw Set Point:	-0.263	X_WP:	0.000	Y_WP:	0.000	Z_WP:	0.500	X:	0.049	Y:	0.013	Z:	0.303	yaw:	15.065	yaw rate:	38.082	Roll:	1.361	Pitch:	-0.476	Yaw:	18.003	Thrust:	57.745
Time:	1.500	Roll Set Point:	-0.101	Pitch Set Point:	-0.012	Yaw Set Point:	-0.251	X_WP:	0.000	Y_WP:	0.000	Z_WP:	0.500	X:	0.050	Y:	0.012	Z:	0.313	yaw:	14.400	yaw rate:	66.539	Roll:	1.718	Pitch:	-0.079	Yaw:	13.028	Thrust:	53.661
Time:	1.521	Roll Set Point:	-0.103	Pitch Set Point:	-0.011	Yaw Set Point:	-0.252	X_WP:	0.000	Y_WP:	0.000	Z_WP:	0.500	X:	0.051	Y:	0.012	Z:	0.322	yaw:	14.465	yaw rate:	-6.534	Roll:	1.624	Pitch:	-0.650	Yaw:	23.117	Thrust:	63.042
Time:	1.541	Roll Set Point:	-0.105	Pitch Set Point:	-0.010	Yaw Set Point:	-0.244	X_WP:	0.000	Y_WP:	0.000	Z_WP:	0.500	X:	0.052	Y:	0.011	Z:	0.332	yaw:	13.980	yaw rate:	48.558	Roll:	1.701	Pitch:	-0.308	Yaw:	15.191	Thrust:	56.443
Time:	1.561	Roll Set Point:	-0.107	Pitch Set Point:	-0.008	Yaw Set Point:	-0.242	X_WP:	0.000	Y_WP:	0.000	Z_WP:	0.500	X:	0.053	Y:	0.011	Z:	0.342	yaw:	13.854	yaw rate:	12.617	Roll:	1.849	Pitch:	-0.773	Yaw:	19.544	Thrust:	52.443
Time:	1.581	Roll Set Point:	-0.109	Pitch Set Point:	-0.008	Yaw Set Point:	-0.241	X_WP:	0.000	Y_WP:	0.000	Z_WP:	0.500	X:	0.054	Y:	0.011	Z:	0.352	yaw:	13.785	yaw rate:	6.822	Roll:	1.580	Pitch:	-0.258	Yaw:	20.376	Thrust:	55.327
Time:	1.600	Roll Set Point:	-0.111	Pitch Set Point:	-0.007	Yaw Set Point:	-0.221	X_WP:	0.000	Y_WP:	0.000	Z_WP:	0.500	X:	0.055	Y:	0.010	Z:	0.363	yaw:	12.650	yaw rate:	113.565	Roll:	1.814	Pitch:	-0.122	Yaw:	4.288	Thrust:	52.852
Time:	1.621	Roll Set Point:	-0.113	Pitch Set Point:	-0.006	Yaw Set Point:	-0.217	X_WP:	0.000	Y_WP:	0.000	Z_WP:	0.500	X:	0.056	Y:	0.009	Z:	0.373	yaw:	12.423	yaw rate:	22.656	Roll:	1.706	Pitch:	-0.246	Yaw:	16.516	Thrust:	57.537
Time:	1.643	Roll Set Point:	-0.114	Pitch Set Point:	-0.006	Yaw Set Point:	-0.201	X_WP:	0.000	Y_WP:	0.000	Z_WP:	0.500	X:	0.057	Y:	0.009	Z:	0.382	yaw:	11.543	yaw rate:	88.046	Roll:	1.481	Pitch:	0.010	Yaw:	8.215	Thrust:	68.071
Time:	1.661	Roll Set Point:	-0.117	Pitch Set Point:	-0.005	Yaw Set Point:	-0.196	X_WP:	0.000	Y_WP:	0.000	Z_WP:	0.500	X:	0.058	Y:	0.008	Z:	0.393	yaw:	11.203	yaw rate:	33.985	Roll:	1.989	Pitch:	-0.564	Yaw:	12.169	Thrust:	39.832
Time:	1.681	Roll Set Point:	-0.119	Pitch Set Point:	-0.004	Yaw Set Point:	-0.189	X_WP:	0.000	Y_WP:	0.000	Z_WP:	0.500	X:	0.059	Y:	0.007	Z:	0.402	yaw:	10.832	yaw rate:	37.109	Roll:	1.964	Pitch:	-0.449	Yaw:	12.427	Thrust:	57.904
Time:	1.700	Roll Set Point:	-0.122	Pitch Set Point:	-0.002	Yaw Set Point:	-0.199	X_WP:	0.000	Y_WP:	0.000	Z_WP:	0.500	X:	0.061	Y:	0.007	Z:	0.412	yaw:	11.393	yaw rate:	-56.151	Roll:	2.175	Pitch:	-1.185	Yaw:	25.471	Thrust:	52.050
Time:	1.721	Roll Set Point:	-0.123	Pitch Set Point:	-0.002	Yaw Set Point:	-0.183	X_WP:	0.000	Y_WP:	0.000	Z_WP:	0.500	X:	0.061	Y:	0.007	Z:	0.422	yaw:	10.496	yaw rate:	89.720	Roll:	1.538	Pitch:	0.245	Yaw:	5.279	Thrust:	57.214
Time:	1.741	Roll Set Point:	-0.125	Pitch Set Point:	-0.001	Yaw Set Point:	-0.170	X_WP:	0.000	Y_WP:	0.000	Z_WP:	0.500	X:	0.062	Y:	0.006	Z:	0.430	yaw:	9.756	yaw rate:	73.948	Roll:	1.819	Pitch:	-0.392	Yaw:	6.267	Thrust:	59.455
Time:	1.760	Roll Set Point:	-0.127	Pitch Set Point:	-0.003	Yaw Set Point:	-0.141	X_WP:	0.000	Y_WP:	0.000	Z_WP:	0.500	X:	0.064	Y:	0.006	Z:	0.439	yaw:	8.060	yaw rate:	169.660	Roll:	2.210	Pitch:	1.763	Yaw:	-10.109	Thrust:	51.990
Time:	1.781	Roll Set Point:	-0.129	Pitch Set Point:	0.001	Yaw Set Point:	-0.159	X_WP:	0.000	Y_WP:	0.000	Z_WP:	0.500	X:	0.065	Y:	0.005	Z:	0.448	yaw:	9.136	yaw rate:	-107.651	Roll:	1.733	Pitch:	-2.178	Yaw:	28.505	Thrust:	59.085
Time:	1.800	Roll Set Point:	-0.131	Pitch Set Point:	0.001	Yaw Set Point:	-0.155	X_WP:	0.000	Y_WP:	0.000	Z_WP:	0.500	X:	0.066	Y:	0.004	Z:	0.456	yaw:	8.856	yaw rate:	28.066	Roll:	2.028	Pitch:	-0.320	Yaw:	10.530	Thrust:	54.362
Time:	1.821	Roll Set Point:	-0.132	Pitch Set Point:	0.002	Yaw Set Point:	-0.163	X_WP:	0.000	Y_WP:	0.000	Z_WP:	0.500	X:	0.066	Y:	0.004	Z:	0.464	yaw:	9.315	yaw rate:	-45.912	Roll:	1.624	Pitch:	-0.808	Yaw:	20.852	Thrust:	61.004
Time:	1.844	Roll Set Point:	-0.135	Pitch Set Point:	0.003	Yaw Set Point:	-0.153	X_WP:	0.000	Y_WP:	0.000	Z_WP:	0.500	X:	0.068	Y:	0.004	Z:	0.472	yaw:	8.739	yaw rate:	57.538	Roll:	2.017	Pitch:	-0.236	Yaw:	7.786	Thrust:	68.338
Time:	1.861	Roll Set Point:	-0.137	Pitch Set Point:	0.005	Yaw Set Point:	-0.140	X_WP:	0.000	Y_WP:	0.000	Z_WP:	0.500	X:	0.068	Y:	0.002	Z:	0.479	yaw:	8.012	yaw rate:	72.733	Roll:	2.056	Pitch:	-0.476	Yaw:	1.402	Thrust:	42.058
Time:	1.881	Roll Set Point:	-0.138	Pitch Set Point:	0.005	Yaw Set Point:	-0.141	X_WP:	0.000	Y_WP:	0.000	Z_WP:	0.500	X:	0.069	Y:	0.002	Z:	0.487	yaw:	8.065	yaw rate:	-5.249	Roll:	1.802	Pitch:	-0.286	Yaw:	13.984	Thrust:	58.957
Time:	1.900	Roll Set Point:	-0.140	Pitch Set Point:	0.006	Yaw Set Point:	-0.129	X_WP:	0.000	Y_WP:	0.000	Z_WP:	0.500	X:	0.070	Y:	0.001	Z:	0.494	yaw:	7.370	yaw rate:	69.500	Roll:	2.015	Pitch:	-0.390	Yaw:	2.752	Thrust:	54.081
Time:	1.921	Roll Set Point:	-0.141	Pitch Set Point:	0.007	Yaw Set Point:	-0.125	X_WP:	0.000	Y_WP:	0.000	Z_WP:	0.500	X:	0.071	Y:	0.001	Z:	0.502	yaw:	7.183	yaw rate:	18.699	Roll:	1.633	Pitch:	-0.375	Yaw:	9.718	Thrust:	58.849
Time:	1.942	Roll Set Point:	-0.143	Pitch Set Point:	0.008	Yaw Set Point:	-0.122	X_WP:	0.000	Y_WP:	0.000	Z_WP:	0.500	X:	0.072	Y:	0.000	Z:	0.510	yaw:	6.985	yaw rate:	19.725	Roll:	2.170	Pitch:	-0.560	Yaw:	9.408	Thrust:	57.583
Time:	1.961	Roll Set Point:	-0.145	Pitch Set Point:	0.009	Yaw Set Point:	-0.114	X_WP:	0.000	Y_WP:	0.000	Z_WP:	0.500	X:	0.073	Y:	-0.000	Z:	0.517	yaw:	6.505	yaw rate:	48.006	Roll:	1.829	Pitch:	-0.108	Yaw:	3.868	Thrust:	47.722
Time:	1.981	Roll Set Point:	-0.147	Pitch Set Point:	0.011	Yaw Set Point:	-0.112	X_WP:	0.000	Y_WP:	0.000	Z_WP:	0.500	X:	0.074	Y:	-0.001	Z:	0.525	yaw:	6.391	yaw rate:	11.409	Roll:	2.026	Pitch:	-1.054	Yaw:	9.614	Thrust:	57.504
Time:	2.002	Roll Set Point:	-0.147	Pitch Set Point:	0.011	Yaw Set Point:	-0.120	X_WP:	0.000	Y_WP:	0.000	Z_WP:	0.500	X:	0.074	Y:	-0.001	Z:	0.533	yaw:	6.899	yaw rate:	-50.819	Roll:	1.574	Pitch:	-0.777	Yaw:	18.160	Thrust:	54.027
Time:	2.021	Roll Set Point:	-0.149	Pitch Set Point:	0.013	Yaw Set Point:	-0.113	X_WP:	0.000	Y_WP:	0.000	Z_WP:	0.500	X:	0.075	Y:	-0.002	Z:	0.540	yaw:	6.467	yaw rate:	43.238	Roll:	1.942	Pitch:	-0.451	Yaw:	5.197	Thrust:	56.785
Time:	2.042	Roll Set Point:	-0.151	Pitch Set Point:	0.014	Yaw Set Point:	-0.098	X_WP:	0.000	Y_WP:	0.000	Z_WP:	0.500	X:	0.076	Y:	-0.003	Z:	0.547	yaw:	5.610	yaw rate:	85.757	Roll:	2.220	Pitch:	-0.210	Yaw:	-0.709	Thrust:	58.628
Time:	2.061	Roll Set Point:	-0.152	Pitch Set Point:	0.015	Yaw Set Point:	-0.104	X_WP:	0.000	Y_WP:	0.000	Z_WP:	0.500	X:	0.076	Y:	-0.003	Z:	0.554	yaw:	5.963	yaw rate:	-35.347	Roll:	1.739	Pitch:	-0.878	Yaw:	15.205	Thrust:	46.271
Time:	2.081	Roll Set Point:	-0.153	Pitch Set Point:	0.016	Yaw Set Point:	-0.103	X_WP:	0.000	Y_WP:	0.000	Z_WP:	0.500	X:	0.077	Y:	-0.004	Z:	0.561	yaw:	5.910	yaw rate:	5.319	Roll:	1.838	Pitch:	-0.884	Yaw:	9.610	Thrust:	56.698
Time:	2.100	Roll Set Point:	-0.155	Pitch Set Point:	0.017	Yaw Set Point:	-0.093	X_WP:	0.000	Y_WP:	0.000	Z_WP:	0.500	X:	0.078	Y:	-0.005	Z:	0.568	yaw:	5.344	yaw rate:	56.541	Roll:	1.922	Pitch:	-0.338	Yaw:	1.573	Thrust:	49.589
Time:	2.121	Roll Set Point:	-0.156	Pitch Set Point:	0.018	Yaw Set Point:	-0.094	X_WP:	0.000	Y_WP:	0.000	Z_WP:	0.500	X:	0.078	Y:	-0.005	Z:	0.574	yaw:	5.366	yaw rate:	-2.115	Roll:	1.887	Pitch:	-0.579	Yaw:	9.862	Thrust:	57.638
Time:	2.142	Roll Set Point:	-0.158	Pitch Set Point:	0.018	Yaw Set Point:	-0.080	X_WP:	0.000	Y_WP:	0.000	Z_WP:	0.500	X:	0.079	Y:	-0.006	Z:	0.580	yaw:	4.612	yaw rate:	75.393	Roll:	2.103	Pitch:	0.043	Yaw:	-1.075	Thrust:	56.745
Time:	2.160	Roll Set Point:	-0.158	Pitch Set Point:	0.020	Yaw Set Point:	-0.092	X_WP:	0.000	Y_WP:	0.000	Z_WP:	0.500	X:	0.080	Y:	-0.007	Z:	0.586	yaw:	5.245	yaw rate:	-63.347	Roll:	1.615	Pitch:	-1.529	Yaw:	18.091	Thrust:	48.284
Time:	2.181	Roll Set Point:	-0.160	Pitch Set Point:	0.023	Yaw Set Point:	-0.089	X_WP:	0.000	Y_WP:	0.000	Z_WP:	0.500	X:	0.081	Y:	-0.008	Z:	0.592	yaw:	5.125	yaw rate:	11.963	Roll:	2.024	Pitch:	-1.089	Yaw:	7.664	Thrust:	56.639
Time:	2.200	Roll Set Point:	-0.161	Pitch Set Point:	0.022	Yaw Set Point:	-0.078	X_WP:	0.000	Y_WP:	0.000	Z_WP:	0.500	X:	0.081	Y:	-0.008	Z:	0.597	yaw:	4.478	yaw rate:	64.694	Roll:	1.877	Pitch:	0.491	Yaw:	-0.346	Thrust:	52.004
Time:	2.221	Roll Set Point:	-0.162	Pitch Set Point:	0.023	Yaw Set Point:	-0.076	X_WP:	0.000	Y_WP:	0.000	Z_WP:	0.500	X:	0.081	Y:	-0.009	Z:	0.603	yaw:	4.336	yaw rate:	14.258	Roll:	1.808	Pitch:	-0.824	Yaw:	6.293	Thrust:	56.313
Time:	2.243	Roll Set Point:	-0.163	Pitch Set Point:	0.024	Yaw Set Point:	-0.074	X_WP:	0.000	Y_WP:	0.000	Z_WP:	0.500	X:	0.082	Y:	-0.009	Z:	0.607	yaw:	4.261	yaw rate:	7.447	Roll:	1.767	Pitch:	-0.494	Yaw:	7.274	Thrust:	63.133
Time:	2.261	Roll Set Point:	-0.164	Pitch Set Point:	0.025	Yaw Set Point:	-0.075	X_WP:	0.000	Y_WP:	0.000	Z_WP:	0.500	X:	0.082	Y:	-0.010	Z:	0.612	yaw:	4.296	yaw rate:	-3.485	Roll:	1.848	Pitch:	-0.928	Yaw:	8.280	Thrust:	44.012
Time:	2.281	Roll Set Point:	-0.165	Pitch Set Point:	0.026	Yaw Set Point:	-0.074	X_WP:	0.000	Y_WP:	0.000	Z_WP:	0.500	X:	0.083	Y:	-0.010	Z:	0.616	yaw:	4.233	yaw rate:	6.292	Roll:	2.003	Pitch:	-0.626	Yaw:	7.066	Thrust:	54.431
Time:	2.300	Roll Set Point:	-0.165	Pitch Set Point:	0.027	Yaw Set Point:	-0.067	X_WP:	0.000	Y_WP:	0.000	Z_WP:	0.500	X:	0.083	Y:	-0.011	Z:	0.621	yaw:	3.813	yaw rate:	42.024	Roll:	1.648	Pitch:	-0.479	Yaw:	1.716	Thrust:	52.742
Time:	2.321	Roll Set Point:	-0.167	Pitch Set Point:	0.028	Yaw Set Point:	-0.059	X_WP:	0.000	Y_WP:	0.000	Z_WP:	0.500	X:	0.084	Y:	-0.011	Z:	0.625	yaw:	3.359	yaw rate:	45.375	Roll:	2.196	Pitch:	-0.225	Yaw:	1.172	Thrust:	56.686
Time:	2.341	Roll Set Point:	-0.167	Pitch Set Point:	0.029	Yaw Set Point:	-0.059	X_WP:	0.000	Y_WP:	0.000	Z_WP:	0.500	X:	0.084	Y:	-0.012	Z:	0.629	yaw:	3.366	yaw rate:	-0.680	Roll:	1.672	Pitch:	-0.914	Yaw:	6.760	Thrust:	54.501
Time:	2.361	Roll Set Point:	-0.168	Pitch Set Point:	0.030	Yaw Set Point:	-0.057	X_WP:	0.000	Y_WP:	0.000	Z_WP:	0.500	X:	0.084	Y:	-0.013	Z:	0.632	yaw:	3.261	yaw rate:	10.553	Roll:	1.736	Pitch:	-0.693	Yaw:	5.104	Thrust:	53.447
Time:	2.381	Roll Set Point:	-0.168	Pitch Set Point:	0.031	Yaw Set Point:	-0.051	X_WP:	0.000	Y_WP:	0.000	Z_WP:	0.500	X:	0.085	Y:	-0.013	Z:	0.635	yaw:	2.917	yaw rate:	34.333	Roll:	1.759	Pitch:	-0.201	Yaw:	1.601	Thrust:	55.611
Time:	2.400	Roll Set Point:	-0.169	Pitch Set Point:	0.032	Yaw Set Point:	-0.051	X_WP:	0.000	Y_WP:	0.000	Z_WP:	0.500	X:	0.085	Y:	-0.014	Z:	0.638	yaw:	2.944	yaw rate:	-2.656	Roll:	1.850	Pitch:	-0.892	Yaw:	6.424	Thrust:	52.916
Time:	2.422	Roll Set Point:	-0.169	Pitch Set Point:	0.033	Yaw Set Point:	-0.057	X_WP:	0.000	Y_WP:	0.000	Z_WP:	0.500	X:	0.085	Y:	-0.014	Z:	0.640	yaw:	3.254	yaw rate:	-31.002	Roll:	1.517	Pitch:	-0.999	Yaw:	10.461	Thrust:	61.613
Time:	2.443	Roll Set Point:	-0.170	Pitch Set Point:	0.033	Yaw Set Point:	-0.047	X_WP:	0.000	Y_WP:	0.000	Z_WP:	0.500	X:	0.085	Y:	-0.014	Z:	0.642	yaw:	2.669	yaw rate:	58.516	Roll:	1.887	Pitch:	0.264	Yaw:	-1.878	Thrust:	55.846
Time:	2.461	Roll Set Point:	-0.170	Pitch Set Point:	0.034	Yaw Set Point:	-0.048	X_WP:	0.000	Y_WP:	0.000	Z_WP:	0.500	X:	0.086	Y:	-0.015	Z:	0.644	yaw:	2.768	yaw rate:	-9.889	Roll:	1.698	Pitch:	-1.113	Yaw:	7.114	Thrust:	50.556
Time:	2.482	Roll Set Point:	-0.171	Pitch Set Point:	0.035	Yaw Set Point:	-0.048	X_WP:	0.000	Y_WP:	0.000	Z_WP:	0.500	X:	0.086	Y:	-0.016	Z:	0.646	yaw:	2.724	yaw rate:	4.402	Roll:	1.787	Pitch:	-0.692	Yaw:	5.297	Thrust:	57.356
Time:	2.500	Roll Set Point:	-0.172	Pitch Set Point:	0.035	Yaw Set Point:	-0.039	X_WP:	0.000	Y_WP:	0.000	Z_WP:	0.500	X:	0.086	Y:	-0.016	Z:	0.647	yaw:	2.262	yaw rate:	46.128	Roll:	1.857	Pitch:	-0.163	Yaw:	-1.271	Thrust:	53.007
Time:	2.521	Roll Set Point:	-0.172	Pitch Set Point:	0.036	Yaw Set Point:	-0.041	X_WP:	0.000	Y_WP:	0.000	Z_WP:	0.500	X:	0.086	Y:	-0.016	Z:	0.648	yaw:	2.369	yaw rate:	-10.682	Roll:	1.599	Pitch:	-0.838	Yaw:	6.728	Thrust:	57.975
Time:	2.541	Roll Set Point:	-0.172	Pitch Set Point:	0.036	Yaw Set Point:	-0.033	X_WP:	0.000	Y_WP:	0.000	Z_WP:	0.500	X:	0.086	Y:	-0.017	Z:	0.649	yaw:	1.866	yaw rate:	50.358	Roll:	1.853	Pitch:	0.153	Yaw:	-1.747	Thrust:	57.685
Time:	2.561	Roll Set Point:	-0.172	Pitch Set Point:	0.037	Yaw Set Point:	-0.035	X_WP:	0.000	Y_WP:	0.000	Z_WP:	0.500	X:	0.086	Y:	-0.017	Z:	0.650	yaw:	2.001	yaw rate:	-13.536	Roll:	1.485	Pitch:	-0.811	Yaw:	6.559	Thrust:	52.947
Time:	2.581	Roll Set Point:	-0.172	Pitch Set Point:	0.037	Yaw Set Point:	-0.033	X_WP:	0.000	Y_WP:	0.000	Z_WP:	0.500	X:	0.086	Y:	-0.017	Z:	0.651	yaw:	1.872	yaw rate:	12.880	Roll:	1.685	Pitch:	-0.424	Yaw:	2.985	Thrust:	57.187
Time:	2.601	Roll Set Point:	-0.173	Pitch Set Point:	0.038	Yaw Set Point:	-0.032	X_WP:	0.000	Y_WP:	0.000	Z_WP:	0.500	X:	0.087	Y:	-0.018	Z:	0.651	yaw:	1.841	yaw rate:	3.096	Roll:	1.686	Pitch:	-0.526	Yaw:	4.129	Thrust:	55.232
Time:	2.621	Roll Set Point:	-0.172	Pitch Set Point:	0.039	Yaw Set Point:	-0.040	X_WP:	0.000	Y_WP:	0.000	Z_WP:	0.500	X:	0.086	Y:	-0.018	Z:	0.651	yaw:	2.312	yaw rate:	-47.121	Roll:	1.309	Pitch:	-1.212	Yaw:	11.283	Thrust:	56.975
Time:	2.644	Roll Set Point:	-0.172	Pitch Set Point:	0.038	Yaw Set Point:	-0.032	X_WP:	0.000	Y_WP:	0.000	Z_WP:	0.500	X:	0.087	Y:	-0.018	Z:	0.651	yaw:	1.821	yaw rate:	49.091	Roll:	1.835	Pitch:	0.203	Yaw:	-1.002	Thrust:	62.730
Time:	2.662	Roll Set Point:	-0.173	Pitch Set Point:	0.041	Yaw Set Point:	-0.034	X_WP:	0.000	Y_WP:	0.000	Z_WP:	0.500	X:	0.087	Y:	-0.019	Z:	0.651	yaw:	1.955	yaw rate:	-13.384	Roll:	1.774	Pitch:	-1.486	Yaw:	6.476	Thrust:	53.253
Time:	2.681	Roll Set Point:	-0.173	Pitch Set Point:	0.040	Yaw Set Point:	-0.028	X_WP:	0.000	Y_WP:	0.000	Z_WP:	0.500	X:	0.087	Y:	-0.019	Z:	0.650	yaw:	1.585	yaw rate:	37.003	Roll:	1.623	Pitch:	-0.092	Yaw:	-0.964	Thrust:	54.017
Time:	2.700	Roll Set Point:	-0.173	Pitch Set Point:	0.040	Yaw Set Point:	-0.023	X_WP:	0.000	Y_WP:	0.000	Z_WP:	0.500	X:	0.087	Y:	-0.019	Z:	0.649	yaw:	1.293	yaw rate:	29.186	Roll:	1.606	Pitch:	-0.153	Yaw:	-0.116	Thrust:	55.411
Time:	2.721	Roll Set Point:	-0.173	Pitch Set Point:	0.041	Yaw Set Point:	-0.017	X_WP:	0.000	Y_WP:	0.000	Z_WP:	0.500	X:	0.087	Y:	-0.020	Z:	0.648	yaw:	0.961	yaw rate:	33.243	Roll:	1.956	Pitch:	-0.254	Yaw:	-0.831	Thrust:	59.420
Time:	2.741	Roll Set Point:	-0.173	Pitch Set Point:	0.042	Yaw Set Point:	-0.032	X_WP:	0.000	Y_WP:	0.000	Z_WP:	0.500	X:	0.087	Y:	-0.020	Z:	0.648	yaw:	1.809	yaw rate:	-84.793	Roll:	1.072	Pitch:	-1.482	Yaw:	15.398	Thrust:	57.342
Time:	2.761	Roll Set Point:	-0.173	Pitch Set Point:	0.041	Yaw Set Point:	-0.017	X_WP:	0.000	Y_WP:	0.000	Z_WP:	0.500	X:	0.087	Y:	-0.020	Z:	0.647	yaw:	0.971	yaw rate:	83.842	Roll:	1.889	Pitch:	0.598	Yaw:	-7.935	Thrust:	54.812
Time:	2.780	Roll Set Point:	-0.173	Pitch Set Point:	0.043	Yaw Set Point:	-0.030	X_WP:	0.000	Y_WP:	0.000	Z_WP:	0.500	X:	0.087	Y:	-0.020	Z:	0.646	yaw:	1.710	yaw rate:	-73.997	Roll:	1.687	Pitch:	-1.899	Yaw:	14.245	Thrust:	55.825
Time:	2.801	Roll Set Point:	-0.173	Pitch Set Point:	0.043	Yaw Set Point:	-0.030	X_WP:	0.000	Y_WP:	0.000	Z_WP:	0.500	X:	0.087	Y:	-0.020	Z:	0.645	yaw:	1.691	yaw rate:	1.901	Roll:	1.471	Pitch:	-0.211	Yaw:	4.183	Thrust:	57.390
Time:	2.821	Roll Set Point:	-0.173	Pitch Set Point:	0.042	Yaw Set Point:	-0.012	X_WP:	0.000	Y_WP:	0.000	Z_WP:	0.500	X:	0.086	Y:	-0.021	Z:	0.643	yaw:	0.712	yaw rate:	97.929	Roll:	1.709	Pitch:	0.583	Yaw:	-10.115	Thrust:	55.479
Time:	2.843	Roll Set Point:	-0.173	Pitch Set Point:	0.042	Yaw Set Point:	-0.011	X_WP:	0.000	Y_WP:	0.000	Z_WP:	0.500	X:	0.086	Y:	-0.020	Z:	0.642	yaw:	0.643	yaw rate:	6.961	Roll:	1.678	Pitch:	-0.136	Yaw:	2.354	Thrust:	63.283
Time:	2.861	Roll Set Point:	-0.172	Pitch Set Point:	0.043	Yaw Set Point:	-0.023	X_WP:	0.000	Y_WP:	0.000	Z_WP:	0.500	X:	0.086	Y:	-0.021	Z:	0.641	yaw:	1.316	yaw rate:	-67.313	Roll:	1.000	Pitch:	-1.537	Yaw:	14.063	Thrust:	46.953
Time:	2.881	Roll Set Point:	-0.172	Pitch Set Point:	0.043	Yaw Set Point:	-0.026	X_WP:	0.000	Y_WP:	0.000	Z_WP:	0.500	X:	0.086	Y:	-0.021	Z:	0.639	yaw:	1.508	yaw rate:	-19.243	Roll:	1.662	Pitch:	-0.633	Yaw:	6.604	Thrust:	59.844
Time:	2.901	Roll Set Point:	-0.171	Pitch Set Point:	0.043	Yaw Set Point:	-0.017	X_WP:	0.000	Y_WP:	0.000	Z_WP:	0.500	X:	0.086	Y:	-0.021	Z:	0.638	yaw:	0.979	yaw rate:	52.869	Roll:	1.505	Pitch:	0.168	Yaw:	-3.744	Thrust:	54.459
Time:	2.921	Roll Set Point:	-0.172	Pitch Set Point:	0.042	Yaw Set Point:	-0.009	X_WP:	0.000	Y_WP:	0.000	Z_WP:	0.500	X:	0.086	Y:	-0.021	Z:	0.636	yaw:	0.492	yaw rate:	48.773	Roll:	1.961	Pitch:	0.305	Yaw:	-3.469	Thrust:	57.211
Time:	2.941	Roll Set Point:	-0.173	Pitch Set Point:	0.040	Yaw Set Point:	0.002	X_WP:	0.000	Y_WP:	0.000	Z_WP:	0.500	X:	0.086	Y:	-0.020	Z:	0.632	yaw:	-0.100	yaw rate:	59.197	Roll:	2.150	Pitch:	0.709	Yaw:	-5.830	Thrust:	61.994
Time:	2.960	Roll Set Point:	-0.173	Pitch Set Point:	0.042	Yaw Set Point:	0.005	X_WP:	0.000	Y_WP:	0.000	Z_WP:	0.500	X:	0.086	Y:	-0.021	Z:	0.632	yaw:	-0.262	yaw rate:	16.130	Roll:	1.621	Pitch:	-1.209	Yaw:	-0.736	Thrust:	48.492
Time:	2.981	Roll Set Point:	-0.170	Pitch Set Point:	0.042	Yaw Set Point:	-0.017	X_WP:	0.000	Y_WP:	0.000	Z_WP:	0.500	X:	0.085	Y:	-0.020	Z:	0.630	yaw:	0.963	yaw rate:	-122.437	Roll:	0.484	Pitch:	-1.150	Yaw:	18.666	Thrust:	59.330
Time:	3.000	Roll Set Point:	-0.171	Pitch Set Point:	0.041	Yaw Set Point:	-0.009	X_WP:	0.000	Y_WP:	0.000	Z_WP:	0.500	X:	0.085	Y:	-0.020	Z:	0.627	yaw:	0.537	yaw rate:	42.536	Roll:	1.976	Pitch:	0.339	Yaw:	-3.150	Thrust:	54.214
Time:	3.021	Roll Set Point:	-0.170	Pitch Set Point:	0.043	Yaw Set Point:	-0.022	X_WP:	0.000	Y_WP:	0.000	Z_WP:	0.500	X:	0.085	Y:	-0.020	Z:	0.625	yaw:	1.282	yaw rate:	-74.491	Roll:	1.224	Pitch:	-1.386	Yaw:	13.277	Thrust:	58.330
Time:	3.043	Roll Set Point:	-0.170	Pitch Set Point:	0.041	Yaw Set Point:	-0.005	X_WP:	0.000	Y_WP:	0.000	Z_WP:	0.500	X:	0.085	Y:	-0.020	Z:	0.623	yaw:	0.267	yaw rate:	101.545	Roll:	2.008	Pitch:	0.998	Yaw:	-10.139	Thrust:	58.531
Time:	3.060	Roll Set Point:	-0.171	Pitch Set Point:	0.042	Yaw Set Point:	-0.014	X_WP:	0.000	Y_WP:	0.000	Z_WP:	0.500	X:	0.086	Y:	-0.020	Z:	0.620	yaw:	0.783	yaw rate:	-51.621	Roll:	2.053	Pitch:	-1.120	Yaw:	10.415	Thrust:	52.679
Time:	3.081	Roll Set Point:	-0.171	Pitch Set Point:	0.041	Yaw Set Point:	-0.014	X_WP:	0.000	Y_WP:	0.000	Z_WP:	0.500	X:	0.086	Y:	-0.020	Z:	0.618	yaw:	0.781	yaw rate:	0.166	Roll:	1.403	Pitch:	-0.216	Yaw:	3.178	Thrust:	57.045
Time:	3.100	Roll Set Point:	-0.171	Pitch Set Point:	0.040	Yaw Set Point:	0.004	X_WP:	0.000	Y_WP:	0.000	Z_WP:	0.500	X:	0.086	Y:	-0.020	Z:	0.615	yaw:	-0.211	yaw rate:	99.226	Roll:	1.985	Pitch:	0.691	Yaw:	-11.958	Thrust:	55.471
Time:	3.121	Roll Set Point:	-0.170	Pitch Set Point:	0.040	Yaw Set Point:	-0.008	X_WP:	0.000	Y_WP:	0.000	Z_WP:	0.500	X:	0.085	Y:	-0.020	Z:	0.613	yaw:	0.457	yaw rate:	-66.748	Roll:	1.164	Pitch:	-0.862	Yaw:	11.036	Thrust:	59.477
Time:	3.141	Roll Set Point:	-0.170	Pitch Set Point:	0.040	Yaw Set Point:	-0.003	X_WP:	0.000	Y_WP:	0.000	Z_WP:	0.500	X:	0.085	Y:	-0.020	Z:	0.610	yaw:	0.169	yaw rate:	28.749	Roll:	1.828	Pitch:	0.215	Yaw:	-1.496	Thrust:	55.807
Time:	3.160	Roll Set Point:	-0.171	Pitch Set Point:	0.040	Yaw Set Point:	-0.012	X_WP:	0.000	Y_WP:	0.000	Z_WP:	0.500	X:	0.086	Y:	-0.020	Z:	0.606	yaw:	0.670	yaw rate:	-50.120	Roll:	2.013	Pitch:	-1.119	Yaw:	9.863	Thrust:	55.533
Time:	3.181	Roll Set Point:	-0.170	Pitch Set Point:	0.039	Yaw Set Point:	0.001	X_WP:	0.000	Y_WP:	0.000	Z_WP:	0.500	X:	0.085	Y:	-0.019	Z:	0.604	yaw:	-0.070	yaw rate:	73.995	Roll:	1.430	Pitch:	0.758	Yaw:	-7.452	Thrust:	57.325
Time:	3.201	Roll Set Point:	-0.169	Pitch Set Point:	0.040	Yaw Set Point:	-0.009	X_WP:	0.000	Y_WP:	0.000	Z_WP:	0.500	X:	0.085	Y:	-0.019	Z:	0.600	yaw:	0.534	yaw rate:	-60.353	Roll:	1.174	Pitch:	-1.116	Yaw:	10.454	Thrust:	59.771
Time:	3.221	Roll Set Point:	-0.191	Pitch Set Point:	0.047	Yaw Set Point:	-0.197	X_WP:	0.000	Y_WP:	0.000	Z_WP:	0.500	X:	0.098	Y:	-0.014	Z:	0.599	yaw:	11.299	yaw rate:	-1076.552	Roll:	8.788	Pitch:	-11.751	Yaw:	158.125	Thrust:	52.592
Time:	3.242	Roll Set Point:	-0.173	Pitch Set Point:	0.035	Yaw Set Point:	0.039	X_WP:	0.000	Y_WP:	0.000	Z_WP:	0.500	X:	0.086	Y:	-0.019	Z:	0.592	yaw:	-2.229	yaw rate:	1352.809	Roll:	-2.999	Pitch:	13.451	Yaw:	-169.127	Thrust:	68.567
Time:	3.260	Roll Set Point:	-0.173	Pitch Set Point:	0.034	Yaw Set Point:	0.040	X_WP:	0.000	Y_WP:	0.000	Z_WP:	0.500	X:	0.086	Y:	-0.019	Z:	0.588	yaw:	-2.302	yaw rate:	7.376	Roll:	1.687	Pitch:	-0.178	Yaw:	-2.537	Thrust:	53.418
Time:	3.281	Roll Set Point:	-0.171	Pitch Set Point:	0.035	Yaw Set Point:	0.035	X_WP:	0.000	Y_WP:	0.000	Z_WP:	0.500	X:	0.085	Y:	-0.019	Z:	0.586	yaw:	-2.012	yaw rate:	-29.068	Roll:	0.904	Pitch:	-0.556	Yaw:	2.880	Thrust:	55.090
Time:	3.301	Roll Set Point:	-0.172	Pitch Set Point:	0.039	Yaw Set Point:	0.003	X_WP:	0.000	Y_WP:	0.000	Z_WP:	0.500	X:	0.086	Y:	-0.020	Z:	0.583	yaw:	-0.193	yaw rate:	-181.878	Roll:	1.704	Pitch:	-3.517	Yaw:	25.854	Thrust:	59.272
Time:	3.322	Roll Set Point:	-0.173	Pitch Set Point:	0.038	Yaw Set Point:	0.011	X_WP:	0.000	Y_WP:	0.000	Z_WP:	0.500	X:	0.086	Y:	-0.019	Z:	0.579	yaw:	-0.616	yaw rate:	42.269	Roll:	2.100	Pitch:	0.610	Yaw:	-4.384	Thrust:	58.857
Time:	3.342	Roll Set Point:	-0.171	Pitch Set Point:	0.036	Yaw Set Point:	0.029	X_WP:	0.000	Y_WP:	0.000	Z_WP:	0.500	X:	0.085	Y:	-0.019	Z:	0.575	yaw:	-1.634	yaw rate:	101.878	Roll:	1.275	Pitch:	1.105	Yaw:	-13.252	Thrust:	58.683
Time:	3.360	Roll Set Point:	-0.171	Pitch Set Point:	0.034	Yaw Set Point:	0.026	X_WP:	0.000	Y_WP:	0.000	Z_WP:	0.500	X:	0.085	Y:	-0.018	Z:	0.571	yaw:	-1.489	yaw rate:	-14.568	Roll:	1.532	Pitch:	0.413	Yaw:	1.773	Thrust:	56.080
Time:	3.381	Roll Set Point:	-0.169	Pitch Set Point:	0.032	Yaw Set Point:	0.018	X_WP:	0.000	Y_WP:	0.000	Z_WP:	0.500	X:	0.085	Y:	-0.017	Z:	0.567	yaw:	-1.005	yaw rate:	-48.357	Roll:	1.097	Pitch:	0.055	Yaw:	6.767	Thrust:	61.366
Time:	3.400	Roll Set Point:	-0.170	Pitch Set Point:	0.030	Yaw Set Point:	0.029	X_WP:	0.000	Y_WP:	0.000	Z_WP:	0.500	X:	0.085	Y:	-0.016	Z:	0.563	yaw:	-1.666	yaw rate:	66.114	Roll:	2.006	Pitch:	1.193	Yaw:	-9.209	Thrust:	58.145
Time:	3.420	Roll Set Point:	-0.170	Pitch Set Point:	0.030	Yaw Set Point:	0.014	X_WP:	0.000	Y_WP:	0.000	Z_WP:	0.500	X:	0.085	Y:	-0.016	Z:	0.559	yaw:	-0.824	yaw rate:	-84.179	Roll:	1.749	Pitch:	-0.884	Yaw:	11.736	Thrust:	59.261
Time:	3.443	Roll Set Point:	-0.170	Pitch Set Point:	0.027	Yaw Set Point:	0.027	X_WP:	0.000	Y_WP:	0.000	Z_WP:	0.500	X:	0.085	Y:	-0.015	Z:	0.555	yaw:	-1.564	yaw rate:	73.973	Roll:	1.606	Pitch:	1.135	Yaw:	-8.816	Thrust:	63.824
Time:	3.460	Roll Set Point:	-0.171	Pitch Set Point:	0.029	Yaw Set Point:	0.022	X_WP:	0.000	Y_WP:	0.000	Z_WP:	0.500	X:	0.086	Y:	-0.015	Z:	0.551	yaw:	-1.254	yaw rate:	-31.069	Roll:	2.528	Pitch:	-0.996	Yaw:	4.521	Thrust:	54.144
Time:	3.481	Roll Set Point:	-0.171	Pitch Set Point:	0.028	Yaw Set Point:	0.019	X_WP:	0.000	Y_WP:	0.000	Z_WP:	0.500	X:	0.085	Y:	-0.015	Z:	0.548	yaw:	-1.085	yaw rate:	-16.888	Roll:	1.575	Pitch:	-0.037	Yaw:	2.571	Thrust:	60.305
Time:	3.500	Roll Set Point:	-0.169	Pitch Set Point:	0.024	Yaw Set Point:	0.030	X_WP:	0.000	Y_WP:	0.000	Z_WP:	0.500	X:	0.084	Y:	-0.013	Z:	0.544	yaw:	-1.731	yaw rate:	64.667	Roll:	1.107	Pitch:	1.907	Yaw:	-9.306	Thrust:	57.042
Time:	3.521	Roll Set Point:	-0.170	Pitch Set Point:	0.023	Yaw Set Point:	0.030	X_WP:	0.000	Y_WP:	0.000	Z_WP:	0.500	X:	0.085	Y:	-0.013	Z:	0.541	yaw:	-1.692	yaw rate:	-3.883	Roll:	1.925	Pitch:	-0.027	Yaw:	0.078	Thrust:	60.099
Time:	3.541	Roll Set Point:	-0.171	Pitch Set Point:	0.023	Yaw Set Point:	0.026	X_WP:	0.000	Y_WP:	0.000	Z_WP:	0.500	X:	0.085	Y:	-0.013	Z:	0.538	yaw:	-1.486	yaw rate:	-20.629	Roll:	2.256	Pitch:	-0.362	Yaw:	2.475	Thrust:	57.415
Time:	3.560	Roll Set Point:	-0.170	Pitch Set Point:	0.021	Yaw Set Point:	0.037	X_WP:	0.000	Y_WP:	0.000	Z_WP:	0.500	X:	0.085	Y:	-0.012	Z:	0.535	yaw:	-2.101	yaw rate:	61.525	Roll:	1.538	Pitch:	1.099	Yaw:	-9.662	Thrust:	55.478
Time:	3.581	Roll Set Point:	-0.169	Pitch Set Point:	0.020	Yaw Set Point:	0.019	X_WP:	0.000	Y_WP:	0.000	Z_WP:	0.500	X:	0.084	Y:	-0.011	Z:	0.531	yaw:	-1.081	yaw rate:	-102.050	Roll:	1.039	Pitch:	-0.554	Yaw:	13.345	Thrust:	60.096
Time:	3.602	Roll Set Point:	-0.170	Pitch Set Point:	0.020	Yaw Set Point:	0.021	X_WP:	0.000	Y_WP:	0.000	Z_WP:	0.500	X:	0.085	Y:	-0.011	Z:	0.529	yaw:	-1.196	yaw rate:	11.518	Roll:	2.454	Pitch:	0.205	Yaw:	-1.266	Thrust:	57.984
Time:	3.621	Roll Set Point:	-0.170	Pitch Set Point:	0.018	Yaw Set Point:	0.029	X_WP:	0.000	Y_WP:	0.000	Z_WP:	0.500	X:	0.085	Y:	-0.010	Z:	0.526	yaw:	-1.676	yaw rate:	48.019	Roll:	1.523	Pitch:	0.848	Yaw:	-7.011	Thrust:	56.216
Time:	3.644	Roll Set Point:	-0.170	Pitch Set Point:	0.017	Yaw Set Point:	0.031	X_WP:	0.000	Y_WP:	0.000	Z_WP:	0.500	X:	0.085	Y:	-0.010	Z:	0.523	yaw:	-1.787	yaw rate:	11.062	Roll:	1.806	Pitch:	0.328	Yaw:	-1.725	Thrust:	62.464
Time:	3.660	Roll Set Point:	-0.169	Pitch Set Point:	0.017	Yaw Set Point:	0.021	X_WP:	0.000	Y_WP:	0.000	Z_WP:	0.500	X:	0.085	Y:	-0.009	Z:	0.520	yaw:	-1.218	yaw rate:	-56.866	Roll:	1.583	Pitch:	-0.670	Yaw:	8.744	Thrust:	51.185
Time:	3.681	Roll Set Point:	-0.169	Pitch Set Point:	0.016	Yaw Set Point:	0.022	X_WP:	0.000	Y_WP:	0.000	Z_WP:	0.500	X:	0.084	Y:	-0.009	Z:	0.518	yaw:	-1.232	yaw rate:	1.408	Roll:	1.782	Pitch:	0.089	Yaw:	-0.073	Thrust:	58.653
Time:	3.701	Roll Set Point:	-0.170	Pitch Set Point:	0.016	Yaw Set Point:	0.012	X_WP:	0.000	Y_WP:	0.000	Z_WP:	0.500	X:	0.085	Y:	-0.009	Z:	0.515	yaw:	-0.674	yaw rate:	-55.788	Roll:	2.135	Pitch:	-0.724	Yaw:	8.255	Thrust:	56.554
Time:	3.721	Roll Set Point:	-0.171	Pitch Set Point:	0.014	Yaw Set Point:	0.037	X_WP:	0.000	Y_WP:	0.000	Z_WP:	0.500	X:	0.085	Y:	-0.009	Z:	0.513	yaw:	-2.097	yaw rate:	142.256	Roll:	2.144	Pitch:	1.792	Yaw:	-19.680	Thrust:	56.827
Time:	3.741	Roll Set Point:	-0.171	Pitch Set Point:	0.013	Yaw Set Point:	0.035	X_WP:	0.000	Y_WP:	0.000	Z_WP:	0.500	X:	0.085	Y:	-0.008	Z:	0.510	yaw:	-2.027	yaw rate:	-7.023	Roll:	1.780	Pitch:	0.069	Yaw:	-0.132	Thrust:	60.004
Time:	3.760	Roll Set Point:	-0.172	Pitch Set Point:	0.013	Yaw Set Point:	0.045	X_WP:	0.000	Y_WP:	0.000	Z_WP:	0.500	X:	0.086	Y:	-0.009	Z:	0.507	yaw:	-2.575	yaw rate:	54.852	Roll:	2.460	Pitch:	0.148	Yaw:	-9.493	Thrust:	54.850
Time:	3.781	Roll Set Point:	-0.173	Pitch Set Point:	0.014	Yaw Set Point:	0.033	X_WP:	0.000	Y_WP:	0.000	Z_WP:	0.500	X:	0.086	Y:	-0.009	Z:	0.504	yaw:	-1.913	yaw rate:	-66.215	Roll:	2.223	Pitch:	-0.902	Yaw:	7.370	Thrust:	61.854
Time:	3.800	Roll Set Point:	-0.171	Pitch Set Point:	0.013	Yaw Set Point:	0.025	X_WP:	0.000	Y_WP:	0.000	Z_WP:	0.500	X:	0.085	Y:	-0.008	Z:	0.500	yaw:	-1.418	yaw rate:	-49.509	Roll:	0.950	Pitch:	-0.166	Yaw:	6.445	Thrust:	58.862
Time:	3.821	Roll Set Point:	-0.171	Pitch Set Point:	0.013	Yaw Set Point:	0.026	X_WP:	0.000	Y_WP:	0.000	Z_WP:	0.500	X:	0.086	Y:	-0.008	Z:	0.497	yaw:	-1.488	yaw rate:	6.954	Roll:	2.003	Pitch:	0.094	Yaw:	-1.229	Thrust:	60.967
Time:	3.843	Roll Set Point:	-0.174	Pitch Set Point:	0.014	Yaw Set Point:	0.034	X_WP:	0.000	Y_WP:	0.000	Z_WP:	0.500	X:	0.087	Y:	-0.008	Z:	0.494	yaw:	-1.944	yaw rate:	45.596	Roll:	3.024	Pitch:	-0.183	Yaw:	-6.554	Thrust:	60.080
Time:	3.861	Roll Set Point:	-0.173	Pitch Set Point:	0.012	Yaw Set Point:	0.044	X_WP:	0.000	Y_WP:	0.000	Z_WP:	0.500	X:	0.086	Y:	-0.008	Z:	0.490	yaw:	-2.521	yaw rate:	57.749	Roll:	1.410	Pitch:	0.878	Yaw:	-10.163	Thrust:	59.294
Time:	3.881	Roll Set Point:	-0.174	Pitch Set Point:	0.013	Yaw Set Point:	0.031	X_WP:	0.000	Y_WP:	0.000	Z_WP:	0.500	X:	0.087	Y:	-0.008	Z:	0.486	yaw:	-1.768	yaw rate:	-75.292	Roll:	2.292	Pitch:	-1.162	Yaw:	8.820	Thrust:	62.235
Time:	3.900	Roll Set Point:	-0.174	Pitch Set Point:	0.013	Yaw Set Point:	0.042	X_WP:	0.000	Y_WP:	0.000	Z_WP:	0.500	X:	0.087	Y:	-0.008	Z:	0.483	yaw:	-2.428	yaw rate:	66.015	Roll:	1.833	Pitch:	0.602	Yaw:	-10.893	Thrust:	58.180
Time:	3.921	Roll Set Point:	-0.173	Pitch Set Point:	0.014	Yaw Set Point:	0.014	X_WP:	0.000	Y_WP:	0.000	Z_WP:	0.500	X:	0.087	Y:	-0.007	Z:	0.479	yaw:	-0.785	yaw rate:	-164.306	Roll:	1.484	Pitch:	-1.608	Yaw:	21.032	Thrust:	65.256
Time:	3.941	Roll Set Point:	-0.173	Pitch Set Point:	0.013	Yaw Set Point:	0.026	X_WP:	0.000	Y_WP:	0.000	Z_WP:	0.500	X:	0.087	Y:	-0.008	Z:	0.476	yaw:	-1.497	yaw rate:	71.143	Roll:	1.958	Pitch:	0.654	Yaw:	-9.791	Thrust:	60.797
Time:	3.961	Roll Set Point:	-0.174	Pitch Set Point:	0.013	Yaw Set Point:	0.019	X_WP:	0.000	Y_WP:	0.000	Z_WP:	0.500	X:	0.087	Y:	-0.007	Z:	0.473	yaw:	-1.115	yaw rate:	-38.183	Roll:	2.011	Pitch:	-0.632	Yaw:	5.174	Thrust:	59.346
Time:	3.981	Roll Set Point:	-0.174	Pitch Set Point:	0.012	Yaw Set Point:	0.032	X_WP:	0.000	Y_WP:	0.000	Z_WP:	0.500	X:	0.087	Y:	-0.008	Z:	0.470	yaw:	-1.820	yaw rate:	70.474	Roll:	2.190	Pitch:	0.612	Yaw:	-10.019	Thrust:	61.673
Time:	4.000	Roll Set Point:	-0.175	Pitch Set Point:	0.013	Yaw Set Point:	0.033	X_WP:	0.000	Y_WP:	0.000	Z_WP:	0.500	X:	0.087	Y:	-0.008	Z:	0.467	yaw:	-1.905	yaw rate:	8.585	Roll:	2.053	Pitch:	-0.191	Yaw:	-2.258	Thrust:	60.052
Time:	4.021	Roll Set Point:	-0.175	Pitch Set Point:	0.014	Yaw Set Point:	0.018	X_WP:	0.000	Y_WP:	0.000	Z_WP:	0.500	X:	0.087	Y:	-0.008	Z:	0.463	yaw:	-1.032	yaw rate:	-87.336	Roll:	2.066	Pitch:	-1.225	Yaw:	11.230	Thrust:	63.363
Time:	4.043	Roll Set Point:	-0.175	Pitch Set Point:	0.014	Yaw Set Point:	0.033	X_WP:	0.000	Y_WP:	0.000	Z_WP:	0.500	X:	0.087	Y:	-0.009	Z:	0.461	yaw:	-1.911	yaw rate:	87.925	Roll:	2.017	Pitch:	0.192	Yaw:	-11.603	Thrust:	65.036
Time:	4.061	Roll Set Point:	-0.176	Pitch Set Point:	0.015	Yaw Set Point:	0.026	X_WP:	0.000	Y_WP:	0.000	Z_WP:	0.500	X:	0.088	Y:	-0.009	Z:	0.459	yaw:	-1.474	yaw rate:	-43.743	Roll:	2.506	Pitch:	-0.742	Yaw:	5.716	Thrust:	54.107
Time:	4.081	Roll Set Point:	-0.177	Pitch Set Point:	0.015	Yaw Set Point:	0.026	X_WP:	0.000	Y_WP:	0.000	Z_WP:	0.500	X:	0.088	Y:	-0.009	Z:	0.457	yaw:	-1.473	yaw rate:	-0.060	Roll:	2.074	Pitch:	-0.259	Yaw:	-0.456	Thrust:	60.609
Time:	4.100	Roll Set Point:	-0.176	Pitch Set Point:	0.014	Yaw Set Point:	0.035	X_WP:	0.000	Y_WP:	0.000	Z_WP:	0.500	X:	0.088	Y:	-0.008	Z:	0.454	yaw:	-2.011	yaw rate:	53.753	Roll:	1.694	Pitch:	0.679	Yaw:	-8.767	Thrust:	59.940
Time:	4.121	Roll Set Point:	-0.176	Pitch Set Point:	0.014	Yaw Set Point:	0.030	X_WP:	0.000	Y_WP:	0.000	Z_WP:	0.500	X:	0.088	Y:	-0.008	Z:	0.452	yaw:	-1.719	yaw rate:	-29.200	Roll:	1.837	Pitch:	-0.299	Yaw:	2.828	Thrust:	62.609
Time:	4.142	Roll Set Point:	-0.176	Pitch Set Point:	0.015	Yaw Set Point:	0.018	X_WP:	0.000	Y_WP:	0.000	Z_WP:	0.500	X:	0.088	Y:	-0.008	Z:	0.450	yaw:	-1.017	yaw rate:	-70.227	Roll:	1.956	Pitch:	-1.110	Yaw:	9.130	Thrust:	60.974
Time:	4.160	Roll Set Point:	-0.176	Pitch Set Point:	0.016	Yaw Set Point:	0.003	X_WP:	0.000	Y_WP:	0.000	Z_WP:	0.500	X:	0.088	Y:	-0.008	Z:	0.449	yaw:	-0.197	yaw rate:	-82.000	Roll:	1.792	Pitch:	-1.436	Yaw:	12.704	Thrust:	55.982
Time:	4.181	Roll Set Point:	-0.176	Pitch Set Point:	0.014	Yaw Set Point:	0.024	X_WP:	0.000	Y_WP:	0.000	Z_WP:	0.500	X:	0.088	Y:	-0.008	Z:	0.448	yaw:	-1.361	yaw rate:	116.420	Roll:	2.247	Pitch:	1.233	Yaw:	-15.187	Thrust:	59.527
Time:	4.201	Roll Set Point:	-0.176	Pitch Set Point:	0.014	Yaw Set Point:	0.025	X_WP:	0.000	Y_WP:	0.000	Z_WP:	0.500	X:	0.088	Y:	-0.008	Z:	0.447	yaw:	-1.415	yaw rate:	5.432	Roll:	1.856	Pitch:	-0.154	Yaw:	-1.243	Thrust:	57.702
Time:	4.221	Roll Set Point:	-0.177	Pitch Set Point:	0.016	Yaw Set Point:	0.009	X_WP:	0.000	Y_WP:	0.000	Z_WP:	0.500	X:	0.088	Y:	-0.008	Z:	0.446	yaw:	-0.507	yaw rate:	-90.831	Roll:	2.245	Pitch:	-1.486	Yaw:	12.380	Thrust:	60.041
Time:	4.243	Roll Set Point:	-0.176	Pitch Set Point:	0.016	Yaw Set Point:	0.013	X_WP:	0.000	Y_WP:	0.000	Z_WP:	0.500	X:	0.088	Y:	-0.008	Z:	0.445	yaw:	-0.742	yaw rate:	23.518	Roll:	1.610	Pitch:	0.122	Yaw:	-2.177	Thrust:	64.333
Time:	4.260	Roll Set Point:	-0.176	Pitch Set Point:	0.016	Yaw Set Point:	0.010	X_WP:	0.000	Y_WP:	0.000	Z_WP:	0.500	X:	0.088	Y:	-0.009	Z:	0.445	yaw:	-0.564	yaw rate:	-17.832	Roll:	2.251	Pitch:	-0.592	Yaw:	3.235	Thrust:	48.031
Time:	4.282	Roll Set Point:	-0.176	Pitch Set Point:	0.016	Yaw Set Point:	0.014	X_WP:	0.000	Y_WP:	0.000	Z_WP:	0.500	X:	0.088	Y:	-0.009	Z:	0.445	yaw:	-0.782	yaw rate:	21.829	Roll:	2.006	Pitch:	-0.042	Yaw:	-2.155	Thrust:	62.524
Time:	4.300	Roll Set Point:	-0.177	Pitch Set Point:	0.017	Yaw Set Point:	0.006	X_WP:	0.000	Y_WP:	0.000	Z_WP:	0.500	X:	0.088	Y:	-0.009	Z:	0.444	yaw:	-0.316	yaw rate:	-46.589	Roll:	2.070	Pitch:	-0.949	Yaw:	7.480	Thrust:	54.178
Time:	4.321	Roll Set Point:	-0.178	Pitch Set Point:	0.016	Yaw Set Point:	0.028	X_WP:	0.000	Y_WP:	0.000	Z_WP:	0.500	X:	0.089	Y:	-0.009	Z:	0.444	yaw:	-1.595	yaw rate:	127.927	Roll:	2.541	Pitch:	1.000	Yaw:	-17.141	Thrust:	58.279
Time:	4.342	Roll Set Point:	-0.178	Pitch Set Point:	0.017	Yaw Set Point:	0.017	X_WP:	0.000	Y_WP:	0.000	Z_WP:	0.500	X:	0.089	Y:	-0.009	Z:	0.444	yaw:	-0.964	yaw rate:	-63.096	Roll:	2.199	Pitch:	-1.098	Yaw:	8.035	Thrust:	59.894
Time:	4.360	Roll Set Point:	-0.177	Pitch Set Point:	0.017	Yaw Set Point:	0.020	X_WP:	0.000	Y_WP:	0.000	Z_WP:	0.500	X:	0.089	Y:	-0.009	Z:	0.444	yaw:	-1.167	yaw rate:	20.302	Roll:	1.600	Pitch:	0.111	Yaw:	-3.303	Thrust:	54.123
Time:	4.381	Roll Set Point:	-0.177	Pitch Set Point:	0.017	Yaw Set Point:	0.024	X_WP:	0.000	Y_WP:	0.000	Z_WP:	0.500	X:	0.088	Y:	-0.010	Z:	0.443	yaw:	-1.373	yaw rate:	20.532	Roll:	1.921	Pitch:	-0.123	Yaw:	-2.863	Thrust:	61.842
Time:	4.401	Roll Set Point:	-0.177	Pitch Set Point:	0.017	Yaw Set Point:	0.023	X_WP:	0.000	Y_WP:	0.000	Z_WP:	0.500	X:	0.088	Y:	-0.010	Z:	0.443	yaw:	-1.326	yaw rate:	-4.673	Roll:	1.922	Pitch:	-0.313	Yaw:	0.165	Thrust:	59.086
Time:	4.421	Roll Set Point:	-0.177	Pitch Set Point:	0.018	Yaw Set Point:	0.018	X_WP:	0.000	Y_WP:	0.000	Z_WP:	0.500	X:	0.088	Y:	-0.010	Z:	0.442	yaw:	-1.018	yaw rate:	-30.798	Roll:	2.033	Pitch:	-0.768	Yaw:	4.014	Thrust:	59.243
Time:	4.442	Roll Set Point:	-0.176	Pitch Set Point:	0.019	Yaw Set Point:	0.018	X_WP:	0.000	Y_WP:	0.000	Z_WP:	0.500	X:	0.088	Y:	-0.010	Z:	0.442	yaw:	-1.011	yaw rate:	-0.668	Roll:	1.820	Pitch:	-0.652	Yaw:	0.190	Thrust:	63.671
Time:	4.461	Roll Set Point:	-0.177	Pitch Set Point:	0.020	Yaw Set Point:	0.015	X_WP:	0.000	Y_WP:	0.000	Z_WP:	0.500	X:	0.089	Y:	-0.011	Z:	0.441	yaw:	-0.867	yaw rate:	-14.463	Roll:	2.373	Pitch:	-0.935	Yaw:	2.139	Thrust:	56.388
Time:	4.481	Roll Set Point:	-0.176	Pitch Set Point:	0.019	Yaw Set Point:	0.020	X_WP:	0.000	Y_WP:	0.000	Z_WP:	0.500	X:	0.088	Y:	-0.010	Z:	0.440	yaw:	-1.170	yaw rate:	30.298	Roll:	1.423	Pitch:	0.545	Yaw:	-3.991	Thrust:	62.182
Time:	4.501	Roll Set Point:	-0.176	Pitch Set Point:	0.019	Yaw Set Point:	0.024	X_WP:	0.000	Y_WP:	0.000	Z_WP:	0.500	X:	0.088	Y:	-0.011	Z:	0.440	yaw:	-1.389	yaw rate:	21.956	Roll:	2.039	Pitch:	-0.249	Yaw:	-3.473	Thrust:	60.277
Time:	4.522	Roll Set Point:	-0.175	Pitch Set Point:	0.019	Yaw Set Point:	0.023	X_WP:	0.000	Y_WP:	0.000	Z_WP:	0.500	X:	0.087	Y:	-0.011	Z:	0.439	yaw:	-1.292	yaw rate:	-9.683	Roll:	1.636	Pitch:	-0.420	Yaw:	0.839	Thrust:	61.246
Time:	4.541	Roll Set Point:	-0.175	Pitch Set Point:	0.021	Yaw Set Point:	0.012	X_WP:	0.000	Y_WP:	0.000	Z_WP:	0.500	X:	0.087	Y:	-0.011	Z:	0.438	yaw:	-0.701	yaw rate:	-59.165	Roll:	2.076	Pitch:	-1.359	Yaw:	8.112	Thrust:	61.138
Time:	4.561	Roll Set Point:	-0.174	Pitch Set Point:	0.020	Yaw Set Point:	0.023	X_WP:	0.000	Y_WP:	0.000	Z_WP:	0.500	X:	0.087	Y:	-0.011	Z:	0.437	yaw:	-1.332	yaw rate:	63.092	Roll:	1.566	Pitch:	0.446	Yaw:	-9.150	Thrust:	58.446
Time:	4.581	Roll Set Point:	-0.174	Pitch Set Point:	0.021	Yaw Set Point:	0.029	X_WP:	0.000	Y_WP:	0.000	Z_WP:	0.500	X:	0.087	Y:	-0.012	Z:	0.437	yaw:	-1.688	yaw rate:	35.675	Roll:	2.034	Pitch:	-0.247	Yaw:	-5.589	Thrust:	60.627
Time:	4.600	Roll Set Point:	-0.172	Pitch Set Point:	0.023	Yaw Set Point:	0.004	X_WP:	0.000	Y_WP:	0.000	Z_WP:	0.500	X:	0.086	Y:	-0.012	Z:	0.436	yaw:	-0.257	yaw rate:	-143.105	Roll:	1.269	Pitch:	-1.913	Yaw:	20.222	Thrust:	60.845
Time:	4.621	Roll Set Point:	-0.172	Pitch Set Point:	0.021	Yaw Set Point:	0.031	X_WP:	0.000	Y_WP:	0.000	Z_WP:	0.500	X:	0.086	Y:	-0.012	Z:	0.436	yaw:	-1.754	yaw rate:	149.644	Roll:	1.859	Pitch:	1.405	Yaw:	-19.992	Thrust:	60.830
Time:	4.644	Roll Set Point:	-0.172	Pitch Set Point:	0.023	Yaw Set Point:	0.017	X_WP:	0.000	Y_WP:	0.000	Z_WP:	0.500	X:	0.086	Y:	-0.012	Z:	0.436	yaw:	-0.973	yaw rate:	-78.061	Roll:	2.100	Pitch:	-1.322	Yaw:	9.119	Thrust:	68.788
Time:	4.660	Roll Set Point:	-0.170	Pitch Set Point:	0.022	Yaw Set Point:	0.028	X_WP:	0.000	Y_WP:	0.000	Z_WP:	0.500	X:	0.085	Y:	-0.012	Z:	0.436	yaw:	-1.621	yaw rate:	64.753	Roll:	1.383	Pitch:	0.533	Yaw:	-11.343	Thrust:	52.466
Time:	4.681	Roll Set Point:	-0.170	Pitch Set Point:	0.023	Yaw Set Point:	0.021	X_WP:	0.000	Y_WP:	0.000	Z_WP:	0.500	X:	0.085	Y:	-0.012	Z:	0.436	yaw:	-1.197	yaw rate:	-42.363	Roll:	1.637	Pitch:	-0.959	Yaw:	5.067	Thrust:	62.173
Time:	4.700	Roll Set Point:	-0.168	Pitch Set Point:	0.023	Yaw Set Point:	0.020	X_WP:	0.000	Y_WP:	0.000	Z_WP:	0.500	X:	0.084	Y:	-0.012	Z:	0.435	yaw:	-1.152	yaw rate:	-4.507	Roll:	1.445	Pitch:	-0.392	Yaw:	0.252	Thrust:	59.508
Time:	4.721	Roll Set Point:	-0.167	Pitch Set Point:	0.024	Yaw Set Point:	0.010	X_WP:	0.000	Y_WP:	0.000	Z_WP:	0.500	X:	0.083	Y:	-0.012	Z:	0.435	yaw:	-0.567	yaw rate:	-58.476	Roll:	1.345	Pitch:	-0.866	Yaw:	7.868	Thrust:	63.996
Time:	4.741	Roll Set Point:	-0.166	Pitch Set Point:	0.025	Yaw Set Point:	-0.003	X_WP:	0.000	Y_WP:	0.000	Z_WP:	0.500	X:	0.083	Y:	-0.012	Z:	0.435	yaw:	0.168	yaw rate:	-73.517	Roll:	1.533	Pitch:	-1.223	Yaw:	10.999	Thrust:	62.277
Time:	4.761	Roll Set Point:	-0.165	Pitch Set Point:	0.025	Yaw Set Point:	0.000	X_WP:	0.000	Y_WP:	0.000	Z_WP:	0.500	X:	0.082	Y:	-0.012	Z:	0.435	yaw:	-0.015	yaw rate:	18.267	Roll:	1.492	Pitch:	-0.173	Yaw:	-1.287	Thrust:	58.374
Time:	4.781	Roll Set Point:	-0.165	Pitch Set Point:	0.025	Yaw Set Point:	0.009	X_WP:	0.000	Y_WP:	0.000	Z_WP:	0.500	X:	0.082	Y:	-0.013	Z:	0.435	yaw:	-0.504	yaw rate:	48.916	Roll:	2.095	Pitch:	0.058	Yaw:	-5.845	Thrust:	60.131
Time:	4.801	Roll Set Point:	-0.163	Pitch Set Point:	0.024	Yaw Set Point:	0.021	X_WP:	0.000	Y_WP:	0.000	Z_WP:	0.500	X:	0.082	Y:	-0.013	Z:	0.436	yaw:	-1.216	yaw rate:	71.235	Roll:	1.394	Pitch:	0.443	Yaw:	-9.298	Thrust:	59.742
Time:	4.821	Roll Set Point:	-0.163	Pitch Set Point:	0.026	Yaw Set Point:	0.009	X_WP:	0.000	Y_WP:	0.000	Z_WP:	0.500	X:	0.082	Y:	-0.013	Z:	0.436	yaw:	-0.498	yaw rate:	-71.830	Roll:	1.892	Pitch:	-1.470	Yaw:	10.275	Thrust:	61.179
Time:	4.843	Roll Set Point:	-0.162	Pitch Set Point:	0.026	Yaw Set Point:	0.019	X_WP:	0.000	Y_WP:	0.000	Z_WP:	0.500	X:	0.081	Y:	-0.014	Z:	0.437	yaw:	-1.086	yaw rate:	58.833	Roll:	1.577	Pitch:	0.075	Yaw:	-7.051	Thrust:	66.424
Time:	4.860	Roll Set Point:	-0.163	Pitch Set Point:	0.028	Yaw Set Point:	0.014	X_WP:	0.000	Y_WP:	0.000	Z_WP:	0.500	X:	0.082	Y:	-0.015	Z:	0.438	yaw:	-0.795	yaw rate:	-29.122	Roll:	2.481	Pitch:	-1.695	Yaw:	4.427	Thrust:	51.503
Time:	4.881	Roll Set Point:	-0.162	Pitch Set Point:	0.028	Yaw Set Point:	0.009	X_WP:	0.000	Y_WP:	0.000	Z_WP:	0.500	X:	0.081	Y:	-0.015	Z:	0.438	yaw:	-0.510	yaw rate:	-28.509	Roll:	1.261	Pitch:	-0.602	Yaw:	4.164	Thrust:	63.840
Time:	4.900	Roll Set Point:	-0.160	Pitch Set Point:	0.029	Yaw Set Point:	0.002	X_WP:	0.000	Y_WP:	0.000	Z_WP:	0.500	X:	0.080	Y:	-0.015	Z:	0.439	yaw:	-0.095	yaw rate:	-41.489	Roll:	1.345	Pitch:	-0.940	Yaw:	6.744	Thrust:	57.762
Time:	4.921	Roll Set Point:	-0.162	Pitch Set Point:	0.023	Yaw Set Point:	0.064	X_WP:	0.000	Y_WP:	0.000	Z_WP:	0.500	X:	0.080	Y:	-0.014	Z:	0.439	yaw:	-3.653	yaw rate:	355.827	Roll:	2.892	Pitch:	4.311	Yaw:	-49.355	Thrust:	63.756
Time:	4.941	Roll Set Point:	-0.159	Pitch Set Point:	0.028	Yaw Set Point:	0.024	X_WP:	0.000	Y_WP:	0.000	Z_WP:	0.500	X:	0.079	Y:	-0.015	Z:	0.441	yaw:	-1.362	yaw rate:	-229.087	Roll:	0.579	Pitch:	-3.730	Yaw:	28.345	Thrust:	58.283
Time:	4.960	Roll Set Point:	-0.159	Pitch Set Point:	0.030	Yaw Set Point:	0.009	X_WP:	0.000	Y_WP:	0.000	Z_WP:	0.500	X:	0.079	Y:	-0.015	Z:	0.442	yaw:	-0.495	yaw rate:	-86.777	Roll:	1.793	Pitch:	-1.607	Yaw:	12.722	Thrust:	55.798
Time:	4.981	Roll Set Point:	-0.157	Pitch Set Point:	0.030	Yaw Set Point:	0.007	X_WP:	0.000	Y_WP:	0.000	Z_WP:	0.500	X:	0.078	Y:	-0.015	Z:	0.444	yaw:	-0.375	yaw rate:	-11.933	Roll:	1.100	Pitch:	-0.546	Yaw:	2.242	Thrust:	61.981
Time:	5.001	Roll Set Point:	-0.155	Pitch Set Point:	0.030	Yaw Set Point:	0.004	X_WP:	0.000	Y_WP:	0.000	Z_WP:	0.500	X:	0.078	Y:	-0.015	Z:	0.445	yaw:	-0.258	yaw rate:	-11.788	Roll:	1.393	Pitch:	-0.354	Yaw:	2.397	Thrust:	59.926
Time:	5.021	Roll Set Point:	-0.154	Pitch Set Point:	0.028	Yaw Set Point:	0.026	X_WP:	0.000	Y_WP:	0.000	Z_WP:	0.500	X:	0.077	Y:	-0.015	Z:	0.447	yaw:	-1.493	yaw rate:	123.594	Roll:	1.518	Pitch:	1.070	Yaw:	-16.972	Thrust:	59.304
Time:	5.044	Roll Set Point:	-0.154	Pitch Set Point:	0.029	Yaw Set Point:	0.018	X_WP:	0.000	Y_WP:	0.000	Z_WP:	0.500	X:	0.077	Y:	-0.015	Z:	0.448	yaw:	-1.007	yaw rate:	-48.645	Roll:	1.623	Pitch:	-0.951	Yaw:	5.566	Thrust:	66.210
Time:	5.061	Roll Set Point:	-0.152	Pitch Set Point:	0.030	Yaw Set Point:	0.020	X_WP:	0.000	Y_WP:	0.000	Z_WP:	0.500	X:	0.076	Y:	-0.016	Z:	0.450	yaw:	-1.166	yaw rate:	15.935	Roll:	1.152	Pitch:	-0.365	Yaw:	-3.064	Thrust:	50.883
Time:	5.081	Roll Set Point:	-0.152	Pitch Set Point:	0.029	Yaw Set Point:	0.024	X_WP:	0.000	Y_WP:	0.000	Z_WP:	0.500	X:	0.076	Y:	-0.016	Z:	0.452	yaw:	-1.355	yaw rate:	18.823	Roll:	1.839	Pitch:	-0.152	Yaw:	-3.087	Thrust:	59.503
Time:	5.101	Roll Set Point:	-0.150	Pitch Set Point:	0.030	Yaw Set Point:	0.023	X_WP:	0.000	Y_WP:	0.000	Z_WP:	0.500	X:	0.075	Y:	-0.016	Z:	0.453	yaw:	-1.305	yaw rate:	-4.974	Roll:	1.245	Pitch:	-0.443	Yaw:	-0.014	Thrust:	57.514
Time:	5.122	Roll Set Point:	-0.150	Pitch Set Point:	0.030	Yaw Set Point:	0.029	X_WP:	0.000	Y_WP:	0.000	Z_WP:	0.500	X:	0.075	Y:	-0.016	Z:	0.454	yaw:	-1.637	yaw rate:	33.259	Roll:	1.946	Pitch:	-0.231	Yaw:	-5.056	Thrust:	62.144
Time:	5.143	Roll Set Point:	-0.148	Pitch Set Point:	0.030	Yaw Set Point:	0.014	X_WP:	0.000	Y_WP:	0.000	Z_WP:	0.500	X:	0.074	Y:	-0.016	Z:	0.456	yaw:	-0.786	yaw rate:	-85.179	Roll:	0.892	Pitch:	-0.939	Yaw:	10.874	Thrust:	60.439
Time:	5.161	Roll Set Point:	-0.148	Pitch Set Point:	0.030	Yaw Set Point:	0.025	X_WP:	0.000	Y_WP:	0.000	Z_WP:	0.500	X:	0.074	Y:	-0.016	Z:	0.458	yaw:	-1.428	yaw rate:	64.223	Roll:	1.593	Pitch:	0.004	Yaw:	-10.062	Thrust:	54.454
Time:	5.181	Roll Set Point:	-0.147	Pitch Set Point:	0.031	Yaw Set Point:	0.014	X_WP:	0.000	Y_WP:	0.000	Z_WP:	0.500	X:	0.073	Y:	-0.016	Z:	0.460	yaw:	-0.786	yaw rate:	-64.188	Roll:	1.526	Pitch:	-1.195	Yaw:	8.422	Thrust:	58.473
Time:	5.201	Roll Set Point:	-0.145	Pitch Set Point:	0.031	Yaw Set Point:	0.013	X_WP:	0.000	Y_WP:	0.000	Z_WP:	0.500	X:	0.072	Y:	-0.016	Z:	0.462	yaw:	-0.750	yaw rate:	-3.629	Roll:	0.941	Pitch:	-0.002	Yaw:	0.577	Thrust:	59.679
Time:	5.222	Roll Set Point:	-0.146	Pitch Set Point:	0.033	Yaw Set Point:	0.010	X_WP:	0.000	Y_WP:	0.000	Z_WP:	0.500	X:	0.073	Y:	-0.017	Z:	0.464	yaw:	-0.556	yaw rate:	-19.328	Roll:	2.189	Pitch:	-1.375	Yaw:	2.878	Thrust:	57.294
Time:	5.244	Roll Set Point:	-0.143	Pitch Set Point:	0.031	Yaw Set Point:	0.016	X_WP:	0.000	Y_WP:	0.000	Z_WP:	0.500	X:	0.071	Y:	-0.016	Z:	0.466	yaw:	-0.907	yaw rate:	35.074	Roll:	0.635	Pitch:	0.599	Yaw:	-4.247	Thrust:	65.019
Time:	5.262	Roll Set Point:	-0.144	Pitch Set Point:	0.031	Yaw Set Point:	0.030	X_WP:	0.000	Y_WP:	0.000	Z_WP:	0.500	X:	0.072	Y:	-0.017	Z:	0.468	yaw:	-1.698	yaw rate:	79.051	Roll:	2.424	Pitch:	-0.021	Yaw:	-13.469	Thrust:	47.150
Time:	5.282	Roll Set Point:	-0.143	Pitch Set Point:	0.032	Yaw Set Point:	0.022	X_WP:	0.000	Y_WP:	0.000	Z_WP:	0.500	X:	0.071	Y:	-0.017	Z:	0.470	yaw:	-1.233	yaw rate:	-46.488	Roll:	1.389	Pitch:	-0.844	Yaw:	5.345	Thrust:	59.948
Time:	5.301	Roll Set Point:	-0.142	Pitch Set Point:	0.031	Yaw Set Point:	0.035	X_WP:	0.000	Y_WP:	0.000	Z_WP:	0.500	X:	0.071	Y:	-0.017	Z:	0.472	yaw:	-1.993	yaw rate:	76.056	Roll:	1.338	Pitch:	0.344	Yaw:	-11.502	Thrust:	55.734
Time:	5.322	Roll Set Point:	-0.141	Pitch Set Point:	0.031	Yaw Set Point:	0.034	X_WP:	0.000	Y_WP:	0.000	Z_WP:	0.500	X:	0.070	Y:	-0.017	Z:	0.474	yaw:	-1.924	yaw rate:	-6.920	Roll:	1.640	Pitch:	-0.429	Yaw:	-0.695	Thrust:	62.093
Time:	5.342	Roll Set Point:	-0.139	Pitch Set Point:	0.031	Yaw Set Point:	0.027	X_WP:	0.000	Y_WP:	0.000	Z_WP:	0.500	X:	0.069	Y:	-0.017	Z:	0.475	yaw:	-1.541	yaw rate:	-38.270	Roll:	1.023	Pitch:	-0.685	Yaw:	3.821	Thrust:	59.282
