Time:	0.033	Roll Set Point:	-1.398	Pitch Set Point:	0.214	Yaw Set Point:	0.320	X_WP:	0.000	Y_WP:	0.000	Z_WP:	0.500	X:	0.682	Y:	-0.220	Z:	0.042	yaw:	-18.311	yaw rate:	1.078	Roll:	7.161	Pitch:	0.057	Yaw:	-25.567	Thrust:	25.209
Time:	0.052	Roll Set Point:	-1.398	Pitch Set Point:	0.214	Yaw Set Point:	0.319	X_WP:	0.000	Y_WP:	0.000	Z_WP:	0.500	X:	0.682	Y:	-0.220	Z:	0.042	yaw:	-18.277	yaw rate:	-3.424	Roll:	7.193	Pitch:	-0.336	Yaw:	-25.162	Thrust:	26.250
Time:	0.073	Roll Set Point:	-1.398	Pitch Set Point:	0.221	Yaw Set Point:	0.310	X_WP:	0.000	Y_WP:	0.000	Z_WP:	0.500	X:	0.682	Y:	-0.219	Z:	0.042	yaw:	-17.749	yaw rate:	-52.832	Roll:	7.180	Pitch:	-5.459	Yaw:	-18.563	Thrust:	26.716
Time:	0.093	Roll Set Point:	-1.398	Pitch Set Point:	0.219	Yaw Set Point:	0.311	X_WP:	0.000	Y_WP:	0.000	Z_WP:	0.500	X:	0.682	Y:	-0.219	Z:	0.042	yaw:	-17.844	yaw rate:	9.534	Roll:	7.195	Pitch:	1.030	Yaw:	-26.561	Thrust:	28.597
Time:	0.113	Roll Set Point:	-1.397	Pitch Set Point:	0.215	Yaw Set Point:	0.318	X_WP:	0.000	Y_WP:	0.000	Z_WP:	0.500	X:	0.681	Y:	-0.219	Z:	0.042	yaw:	-18.194	yaw rate:	34.976	Roll:	7.118	Pitch:	3.670	Yaw:	-30.362	Thrust:	30.240
Time:	0.133	Roll Set Point:	-1.398	Pitch Set Point:	0.224	Yaw Set Point:	0.304	X_WP:	0.000	Y_WP:	0.000	Z_WP:	0.500	X:	0.682	Y:	-0.219	Z:	0.041	yaw:	-17.431	yaw rate:	-76.308	Roll:	7.614	Pitch:	-8.435	Yaw:	-14.591	Thrust:	31.652
Time:	0.153	Roll Set Point:	-1.397	Pitch Set Point:	0.215	Yaw Set Point:	0.317	X_WP:	0.000	Y_WP:	0.000	Z_WP:	0.500	X:	0.681	Y:	-0.219	Z:	0.041	yaw:	-18.175	yaw rate:	74.464	Roll:	7.065	Pitch:	7.876	Yaw:	-35.837	Thrust:	32.047
Time:	0.173	Roll Set Point:	-1.397	Pitch Set Point:	0.216	Yaw Set Point:	0.315	X_WP:	0.000	Y_WP:	0.000	Z_WP:	0.500	X:	0.681	Y:	-0.219	Z:	0.042	yaw:	-18.062	yaw rate:	-11.277	Roll:	7.481	Pitch:	-1.140	Yaw:	-24.584	Thrust:	31.984
Time:	0.193	Roll Set Point:	-1.398	Pitch Set Point:	0.224	Yaw Set Point:	0.306	X_WP:	0.000	Y_WP:	0.000	Z_WP:	0.500	X:	0.682	Y:	-0.220	Z:	0.042	yaw:	-17.548	yaw rate:	-51.462	Roll:	8.007	Pitch:	-5.624	Yaw:	-18.961	Thrust:	33.823
Time:	0.214	Roll Set Point:	-1.398	Pitch Set Point:	0.225	Yaw Set Point:	0.304	X_WP:	0.000	Y_WP:	0.000	Z_WP:	0.500	X:	0.682	Y:	-0.219	Z:	0.041	yaw:	-17.396	yaw rate:	-15.219	Roll:	7.205	Pitch:	-1.332	Yaw:	-23.563	Thrust:	36.240
Time:	0.233	Roll Set Point:	-1.398	Pitch Set Point:	0.224	Yaw Set Point:	0.305	X_WP:	0.000	Y_WP:	0.000	Z_WP:	0.500	X:	0.682	Y:	-0.219	Z:	0.041	yaw:	-17.451	yaw rate:	5.492	Roll:	7.601	Pitch:	0.470	Yaw:	-26.310	Thrust:	35.659
Time:	0.253	Roll Set Point:	-1.398	Pitch Set Point:	0.222	Yaw Set Point:	0.309	X_WP:	0.000	Y_WP:	0.000	Z_WP:	0.500	X:	0.682	Y:	-0.220	Z:	0.042	yaw:	-17.676	yaw rate:	22.583	Roll:	7.715	Pitch:	2.236	Yaw:	-29.019	Thrust:	36.854
Time:	0.274	Roll Set Point:	-1.398	Pitch Set Point:	0.226	Yaw Set Point:	0.302	X_WP:	0.000	Y_WP:	0.000	Z_WP:	0.500	X:	0.682	Y:	-0.219	Z:	0.041	yaw:	-17.285	yaw rate:	-39.167	Roll:	7.339	Pitch:	-4.148	Yaw:	-20.329	Thrust:	38.458
Time:	0.293	Roll Set Point:	-1.397	Pitch Set Point:	0.216	Yaw Set Point:	0.317	X_WP:	0.000	Y_WP:	0.000	Z_WP:	0.500	X:	0.681	Y:	-0.219	Z:	0.041	yaw:	-18.135	yaw rate:	85.075	Roll:	7.305	Pitch:	8.908	Yaw:	-37.666	Thrust:	40.256
Time:	0.313	Roll Set Point:	-1.397	Pitch Set Point:	0.214	Yaw Set Point:	0.320	X_WP:	0.000	Y_WP:	0.000	Z_WP:	0.500	X:	0.682	Y:	-0.219	Z:	0.042	yaw:	-18.317	yaw rate:	18.140	Roll:	7.863	Pitch:	1.874	Yaw:	-29.689	Thrust:	39.501
Time:	0.333	Roll Set Point:	-1.397	Pitch Set Point:	0.213	Yaw Set Point:	0.319	X_WP:	0.000	Y_WP:	0.000	Z_WP:	0.500	X:	0.681	Y:	-0.219	Z:	0.041	yaw:	-18.268	yaw rate:	-4.851	Roll:	7.376	Pitch:	-0.160	Yaw:	-26.750	Thrust:	43.534
Time:	0.354	Roll Set Point:	-1.397	Pitch Set Point:	0.215	Yaw Set Point:	0.318	X_WP:	0.000	Y_WP:	0.000	Z_WP:	0.500	X:	0.681	Y:	-0.220	Z:	0.042	yaw:	-18.227	yaw rate:	-4.109	Roll:	8.007	Pitch:	-0.788	Yaw:	-26.998	Thrust:	41.950
Time:	0.373	Roll Set Point:	-1.397	Pitch Set Point:	0.216	Yaw Set Point:	0.317	X_WP:	0.000	Y_WP:	0.000	Z_WP:	0.500	X:	0.681	Y:	-0.220	Z:	0.042	yaw:	-18.177	yaw rate:	-5.050	Roll:	7.670	Pitch:	-0.466	Yaw:	-26.710	Thrust:	43.255
Time:	0.393	Roll Set Point:	-1.398	Pitch Set Point:	0.223	Yaw Set Point:	0.308	X_WP:	0.000	Y_WP:	0.000	Z_WP:	0.500	X:	0.682	Y:	-0.220	Z:	0.042	yaw:	-17.624	yaw rate:	-55.262	Roll:	8.129	Pitch:	-5.889	Yaw:	-19.654	Thrust:	44.829
Time:	0.414	Roll Set Point:	-1.398	Pitch Set Point:	0.222	Yaw Set Point:	0.308	X_WP:	0.000	Y_WP:	0.000	Z_WP:	0.500	X:	0.682	Y:	-0.220	Z:	0.042	yaw:	-17.635	yaw rate:	1.044	Roll:	7.822	Pitch:	0.091	Yaw:	-27.253	Thrust:	47.199
Time:	0.433	Roll Set Point:	-1.398	Pitch Set Point:	0.225	Yaw Set Point:	0.304	X_WP:	0.000	Y_WP:	0.000	Z_WP:	0.500	X:	0.682	Y:	-0.220	Z:	0.042	yaw:	-17.414	yaw rate:	-22.013	Roll:	7.773	Pitch:	-2.589	Yaw:	-23.670	Thrust:	46.223
Time:	0.453	Roll Set Point:	-1.398	Pitch Set Point:	0.227	Yaw Set Point:	0.302	X_WP:	0.000	Y_WP:	0.000	Z_WP:	0.500	X:	0.682	Y:	-0.220	Z:	0.042	yaw:	-17.290	yaw rate:	-12.470	Roll:	8.066	Pitch:	-1.421	Yaw:	-25.018	Thrust:	47.290
Time:	0.474	Roll Set Point:	-1.397	Pitch Set Point:	0.216	Yaw Set Point:	0.317	X_WP:	0.000	Y_WP:	0.000	Z_WP:	0.500	X:	0.681	Y:	-0.219	Z:	0.042	yaw:	-18.139	yaw rate:	84.974	Roll:	7.436	Pitch:	9.409	Yaw:	-38.881	Thrust:	48.529
Time:	0.493	Roll Set Point:	-1.397	Pitch Set Point:	0.230	Yaw Set Point:	0.297	X_WP:	0.000	Y_WP:	0.000	Z_WP:	0.500	X:	0.681	Y:	-0.219	Z:	0.043	yaw:	-17.020	yaw rate:	-111.951	Roll:	8.083	Pitch:	-11.440	Yaw:	-11.659	Thrust:	49.967
Time:	0.514	Roll Set Point:	-1.397	Pitch Set Point:	0.235	Yaw Set Point:	0.289	X_WP:	0.000	Y_WP:	0.000	Z_WP:	0.500	X:	0.681	Y:	-0.219	Z:	0.043	yaw:	-16.542	yaw rate:	-47.784	Roll:	7.809	Pitch:	-5.150	Yaw:	-20.249	Thrust:	50.185
Time:	0.533	Roll Set Point:	-1.396	Pitch Set Point:	0.239	Yaw Set Point:	0.283	X_WP:	0.000	Y_WP:	0.000	Z_WP:	0.500	X:	0.681	Y:	-0.219	Z:	0.044	yaw:	-16.209	yaw rate:	-33.303	Roll:	7.434	Pitch:	-3.572	Yaw:	-20.790	Thrust:	50.210
Time:	0.553	Roll Set Point:	-1.396	Pitch Set Point:	0.241	Yaw Set Point:	0.280	X_WP:	0.000	Y_WP:	0.000	Z_WP:	0.500	X:	0.681	Y:	-0.219	Z:	0.045	yaw:	-16.024	yaw rate:	-18.478	Roll:	7.471	Pitch:	-2.005	Yaw:	-23.151	Thrust:	51.144
Time:	0.572	Roll Set Point:	-1.394	Pitch Set Point:	0.247	Yaw Set Point:	0.270	X_WP:	0.000	Y_WP:	0.000	Z_WP:	0.500	X:	0.680	Y:	-0.218	Z:	0.046	yaw:	-15.493	yaw rate:	-53.145	Roll:	7.104	Pitch:	-5.901	Yaw:	-17.811	Thrust:	52.282
Time:	0.593	Roll Set Point:	-1.392	Pitch Set Point:	0.252	Yaw Set Point:	0.263	X_WP:	0.000	Y_WP:	0.000	Z_WP:	0.500	X:	0.679	Y:	-0.218	Z:	0.047	yaw:	-15.087	yaw rate:	-40.558	Roll:	7.053	Pitch:	-4.527	Yaw:	-19.323	Thrust:	54.095
Time:	0.613	Roll Set Point:	-1.390	Pitch Set Point:	0.255	Yaw Set Point:	0.258	X_WP:	0.000	Y_WP:	0.000	Z_WP:	0.500	X:	0.679	Y:	-0.218	Z:	0.048	yaw:	-14.780	yaw rate:	-30.740	Roll:	6.845	Pitch:	-3.504	Yaw:	-20.211	Thrust:	54.510
Time:	0.634	Roll Set Point:	-1.387	Pitch Set Point:	0.260	Yaw Set Point:	0.249	X_WP:	0.000	Y_WP:	0.000	Z_WP:	0.500	X:	0.677	Y:	-0.217	Z:	0.049	yaw:	-14.282	yaw rate:	-49.808	Roll:	6.546	Pitch:	-5.321	Yaw:	-17.235	Thrust:	55.620
Time:	0.652	Roll Set Point:	-1.383	Pitch Set Point:	0.263	Yaw Set Point:	0.243	X_WP:	0.000	Y_WP:	0.000	Z_WP:	0.500	X:	0.676	Y:	-0.216	Z:	0.050	yaw:	-13.942	yaw rate:	-33.960	Roll:	5.883	Pitch:	-3.905	Yaw:	-18.492	Thrust:	56.376
Time:	0.672	Roll Set Point:	-1.379	Pitch Set Point:	0.272	Yaw Set Point:	0.229	X_WP:	0.000	Y_WP:	0.000	Z_WP:	0.500	X:	0.674	Y:	-0.215	Z:	0.051	yaw:	-13.127	yaw rate:	-81.491	Roll:	5.528	Pitch:	-8.642	Yaw:	-11.542	Thrust:	57.965
Time:	0.693	Roll Set Point:	-1.373	Pitch Set Point:	0.288	Yaw Set Point:	0.203	X_WP:	0.000	Y_WP:	0.000	Z_WP:	0.500	X:	0.672	Y:	-0.214	Z:	0.051	yaw:	-11.641	yaw rate:	-148.674	Roll:	4.415	Pitch:	-15.505	Yaw:	-1.450	Thrust:	61.253
Time:	0.713	Roll Set Point:	-1.366	Pitch Set Point:	0.296	Yaw Set Point:	0.188	X_WP:	0.000	Y_WP:	0.000	Z_WP:	0.500	X:	0.669	Y:	-0.212	Z:	0.052	yaw:	-10.746	yaw rate:	-89.448	Roll:	4.331	Pitch:	-8.830	Yaw:	-7.302	Thrust:	59.390
Time:	0.733	Roll Set Point:	-1.359	Pitch Set Point:	0.305	Yaw Set Point:	0.168	X_WP:	0.000	Y_WP:	0.000	Z_WP:	0.500	X:	0.666	Y:	-0.210	Z:	0.054	yaw:	-9.623	yaw rate:	-112.262	Roll:	3.349	Pitch:	-11.285	Yaw:	-2.829	Thrust:	59.743
Time:	0.752	Roll Set Point:	-1.350	Pitch Set Point:	0.313	Yaw Set Point:	0.149	X_WP:	0.000	Y_WP:	0.000	Z_WP:	0.500	X:	0.663	Y:	-0.207	Z:	0.055	yaw:	-8.519	yaw rate:	-110.402	Roll:	2.764	Pitch:	-10.519	Yaw:	-0.734	Thrust:	59.593
Time:	0.773	Roll Set Point:	-1.341	Pitch Set Point:	0.313	Yaw Set Point:	0.140	X_WP:	0.000	Y_WP:	0.000	Z_WP:	0.500	X:	0.659	Y:	-0.203	Z:	0.056	yaw:	-8.024	yaw rate:	-49.534	Roll:	3.202	Pitch:	-3.711	Yaw:	-8.846	Thrust:	60.821
Time:	0.793	Roll Set Point:	-1.331	Pitch Set Point:	0.318	Yaw Set Point:	0.123	X_WP:	0.000	Y_WP:	0.000	Z_WP:	0.500	X:	0.656	Y:	-0.200	Z:	0.058	yaw:	-7.038	yaw rate:	-98.631	Roll:	2.413	Pitch:	-8.377	Yaw:	-1.150	Thrust:	62.401
Time:	0.814	Roll Set Point:	-1.321	Pitch Set Point:	0.320	Yaw Set Point:	0.107	X_WP:	0.000	Y_WP:	0.000	Z_WP:	0.500	X:	0.652	Y:	-0.195	Z:	0.060	yaw:	-6.104	yaw rate:	-93.421	Roll:	1.838	Pitch:	-7.072	Yaw:	-0.794	Thrust:	65.734
Time:	0.833	Roll Set Point:	-1.310	Pitch Set Point:	0.319	Yaw Set Point:	0.092	X_WP:	0.000	Y_WP:	0.000	Z_WP:	0.500	X:	0.648	Y:	-0.190	Z:	0.063	yaw:	-5.278	yaw rate:	-82.543	Roll:	1.885	Pitch:	-5.263	Yaw:	-0.064	Thrust:	59.861
Time:	0.852	Roll Set Point:	-1.298	Pitch Set Point:	0.321	Yaw Set Point:	0.072	X_WP:	0.000	Y_WP:	0.000	Z_WP:	0.500	X:	0.643	Y:	-0.184	Z:	0.066	yaw:	-4.112	yaw rate:	-116.604	Roll:	0.898	Pitch:	-8.150	Yaw:	5.993	Thrust:	60.773
Time:	0.873	Roll Set Point:	-1.288	Pitch Set Point:	0.305	Yaw Set Point:	0.077	X_WP:	0.000	Y_WP:	0.000	Z_WP:	0.500	X:	0.638	Y:	-0.177	Z:	0.069	yaw:	-4.409	yaw rate:	29.656	Roll:	3.166	Pitch:	6.876	Yaw:	-14.038	Thrust:	61.624
Time:	0.893	Roll Set Point:	-1.277	Pitch Set Point:	0.297	Yaw Set Point:	0.067	X_WP:	0.000	Y_WP:	0.000	Z_WP:	0.500	X:	0.633	Y:	-0.170	Z:	0.073	yaw:	-3.825	yaw rate:	-58.357	Roll:	1.622	Pitch:	-1.076	Yaw:	-1.962	Thrust:	62.238
Time:	0.913	Roll Set Point:	-1.266	Pitch Set Point:	0.286	Yaw Set Point:	0.058	X_WP:	0.000	Y_WP:	0.000	Z_WP:	0.500	X:	0.629	Y:	-0.162	Z:	0.077	yaw:	-3.333	yaw rate:	-49.256	Roll:	1.766	Pitch:	0.784	Yaw:	-2.184	Thrust:	61.518
Time:	0.933	Roll Set Point:	-1.254	Pitch Set Point:	0.277	Yaw Set Point:	0.045	X_WP:	0.000	Y_WP:	0.000	Z_WP:	0.500	X:	0.624	Y:	-0.153	Z:	0.082	yaw:	-2.605	yaw rate:	-72.701	Roll:	0.949	Pitch:	-1.017	Yaw:	1.819	Thrust:	59.940
Time:	0.953	Roll Set Point:	-1.242	Pitch Set Point:	0.266	Yaw Set Point:	0.036	X_WP:	0.000	Y_WP:	0.000	Z_WP:	0.500	X:	0.619	Y:	-0.144	Z:	0.088	yaw:	-2.061	yaw rate:	-54.433	Roll:	1.650	Pitch:	0.892	Yaw:	0.208	Thrust:	61.232
Time:	0.973	Roll Set Point:	-1.230	Pitch Set Point:	0.252	Yaw Set Point:	0.027	X_WP:	0.000	Y_WP:	0.000	Z_WP:	0.500	X:	0.613	Y:	-0.134	Z:	0.094	yaw:	-1.529	yaw rate:	-53.234	Roll:	1.105	Pitch:	2.192	Yaw:	1.111	Thrust:	58.565
Time:	0.997	Roll Set Point:	-1.217	Pitch Set Point:	0.243	Yaw Set Point:	0.008	X_WP:	0.000	Y_WP:	0.000	Z_WP:	0.500	X:	0.608	Y:	-0.124	Z:	0.099	yaw:	-0.451	yaw rate:	-107.786	Roll:	1.398	Pitch:	-2.139	Yaw:	6.231	Thrust:	74.584
Time:	1.014	Roll Set Point:	-1.206	Pitch Set Point:	0.224	Yaw Set Point:	0.005	X_WP:	0.000	Y_WP:	0.000	Z_WP:	0.500	X:	0.603	Y:	-0.113	Z:	0.106	yaw:	-0.267	yaw rate:	-18.387	Roll:	0.751	Pitch:	7.313	Yaw:	-0.553	Thrust:	44.575
Time:	1.033	Roll Set Point:	-1.192	Pitch Set Point:	0.212	Yaw Set Point:	-0.013	X_WP:	0.000	Y_WP:	0.000	Z_WP:	0.500	X:	0.597	Y:	-0.102	Z:	0.112	yaw:	0.719	yaw rate:	-98.611	Roll:	-0.000	Pitch:	-0.476	Yaw:	9.825	Thrust:	61.658
Time:	1.053	Roll Set Point:	-1.182	Pitch Set Point:	0.194	Yaw Set Point:	-0.016	X_WP:	0.000	Y_WP:	0.000	Z_WP:	0.500	X:	0.592	Y:	-0.092	Z:	0.119	yaw:	0.936	yaw rate:	-21.745	Roll:	1.970	Pitch:	5.844	Yaw:	-0.026	Thrust:	60.676
Time:	1.072	Roll Set Point:	-1.169	Pitch Set Point:	0.178	Yaw Set Point:	-0.029	X_WP:	0.000	Y_WP:	0.000	Z_WP:	0.500	X:	0.586	Y:	-0.081	Z:	0.127	yaw:	1.637	yaw rate:	-70.103	Roll:	0.680	Pitch:	2.503	Yaw:	8.214	Thrust:	56.144
Time:	1.093	Roll Set Point:	-1.157	Pitch Set Point:	0.160	Yaw Set Point:	-0.036	X_WP:	0.000	Y_WP:	0.000	Z_WP:	0.500	X:	0.580	Y:	-0.070	Z:	0.135	yaw:	2.042	yaw rate:	-40.408	Roll:	1.461	Pitch:	4.907	Yaw:	3.846	Thrust:	61.317
Time:	1.113	Roll Set Point:	-1.148	Pitch Set Point:	0.135	Yaw Set Point:	-0.027	X_WP:	0.000	Y_WP:	0.000	Z_WP:	0.500	X:	0.575	Y:	-0.060	Z:	0.144	yaw:	1.563	yaw rate:	47.827	Roll:	3.169	Pitch:	11.551	Yaw:	-8.031	Thrust:	55.577
Time:	1.135	Roll Set Point:	-1.136	Pitch Set Point:	0.117	Yaw Set Point:	-0.035	X_WP:	0.000	Y_WP:	0.000	Z_WP:	0.500	X:	0.569	Y:	-0.049	Z:	0.152	yaw:	2.029	yaw rate:	-46.568	Roll:	1.654	Pitch:	4.471	Yaw:	4.192	Thrust:	65.179
Time:	1.152	Roll Set Point:	-1.124	Pitch Set Point:	0.098	Yaw Set Point:	-0.041	X_WP:	0.000	Y_WP:	0.000	Z_WP:	0.500	X:	0.563	Y:	-0.037	Z:	0.161	yaw:	2.364	yaw rate:	-33.454	Roll:	0.380	Pitch:	7.099	Yaw:	4.847	Thrust:	49.122
Time:	1.173	Roll Set Point:	-1.112	Pitch Set Point:	0.083	Yaw Set Point:	-0.051	X_WP:	0.000	Y_WP:	0.000	Z_WP:	0.500	X:	0.557	Y:	-0.027	Z:	0.170	yaw:	2.935	yaw rate:	-57.192	Roll:	1.243	Pitch:	3.289	Yaw:	7.437	Thrust:	59.000
Time:	1.193	Roll Set Point:	-1.100	Pitch Set Point:	0.061	Yaw Set Point:	-0.051	X_WP:	0.000	Y_WP:	0.000	Z_WP:	0.500	X:	0.551	Y:	-0.016	Z:	0.179	yaw:	2.929	yaw rate:	0.645	Roll:	1.711	Pitch:	8.914	Yaw:	0.063	Thrust:	57.440
Time:	1.213	Roll Set Point:	-1.089	Pitch Set Point:	0.040	Yaw Set Point:	-0.051	X_WP:	0.000	Y_WP:	0.000	Z_WP:	0.500	X:	0.545	Y:	-0.006	Z:	0.188	yaw:	2.911	yaw rate:	1.766	Roll:	1.494	Pitch:	8.253	Yaw:	-0.117	Thrust:	60.396
Time:	1.233	Roll Set Point:	-1.076	Pitch Set Point:	0.028	Yaw Set Point:	-0.067	X_WP:	0.000	Y_WP:	0.000	Z_WP:	0.500	X:	0.538	Y:	0.004	Z:	0.195	yaw:	3.834	yaw rate:	-92.286	Roll:	0.737	Pitch:	1.181	Yaw:	13.502	Thrust:	60.895
Time:	1.252	Roll Set Point:	-1.065	Pitch Set Point:	0.014	Yaw Set Point:	-0.074	X_WP:	0.000	Y_WP:	0.000	Z_WP:	0.500	X:	0.533	Y:	0.013	Z:	0.204	yaw:	4.213	yaw rate:	-37.904	Roll:	1.600	Pitch:	4.457	Yaw:	7.419	Thrust:	57.183
Time:	1.272	Roll Set Point:	-1.053	Pitch Set Point:	-0.004	Yaw Set Point:	-0.075	X_WP:	0.000	Y_WP:	0.000	Z_WP:	0.500	X:	0.527	Y:	0.022	Z:	0.213	yaw:	4.300	yaw rate:	-8.639	Roll:	1.265	Pitch:	7.056	Yaw:	3.393	Thrust:	58.636
Time:	1.293	Roll Set Point:	-1.042	Pitch Set Point:	-0.025	Yaw Set Point:	-0.067	X_WP:	0.000	Y_WP:	0.000	Z_WP:	0.500	X:	0.521	Y:	0.030	Z:	0.222	yaw:	3.832	yaw rate:	46.801	Roll:	1.722	Pitch:	10.551	Yaw:	-4.473	Thrust:	62.462
Time:	1.312	Roll Set Point:	-1.029	Pitch Set Point:	-0.043	Yaw Set Point:	-0.066	X_WP:	0.000	Y_WP:	0.000	Z_WP:	0.500	X:	0.514	Y:	0.038	Z:	0.231	yaw:	3.801	yaw rate:	3.014	Roll:	0.528	Pitch:	7.789	Yaw:	1.241	Thrust:	56.969
Time:	1.333	Roll Set Point:	-1.017	Pitch Set Point:	-0.063	Yaw Set Point:	-0.060	X_WP:	0.000	Y_WP:	0.000	Z_WP:	0.500	X:	0.508	Y:	0.046	Z:	0.240	yaw:	3.411	yaw rate:	39.070	Roll:	0.934	Pitch:	9.864	Yaw:	-4.048	Thrust:	62.118
Time:	1.353	Roll Set Point:	-1.006	Pitch Set Point:	-0.076	Yaw Set Point:	-0.060	X_WP:	0.000	Y_WP:	0.000	Z_WP:	0.500	X:	0.502	Y:	0.053	Z:	0.249	yaw:	3.411	yaw rate:	-0.064	Roll:	0.865	Pitch:	6.191	Yaw:	1.011	Thrust:	57.013
Time:	1.372	Roll Set Point:	-0.993	Pitch Set Point:	-0.084	Yaw Set Point:	-0.072	X_WP:	0.000	Y_WP:	0.000	Z_WP:	0.500	X:	0.495	Y:	0.060	Z:	0.258	yaw:	4.111	yaw rate:	-69.994	Roll:	0.893	Pitch:	1.050	Yaw:	11.788	Thrust:	60.849
Time:	1.393	Roll Set Point:	-0.982	Pitch Set Point:	-0.104	Yaw Set Point:	-0.055	X_WP:	0.000	Y_WP:	0.000	Z_WP:	0.500	X:	0.489	Y:	0.065	Z:	0.268	yaw:	3.177	yaw rate:	93.453	Roll:	0.720	Pitch:	11.906	Yaw:	-11.081	Thrust:	59.317
Time:	1.413	Roll Set Point:	-0.970	Pitch Set Point:	-0.113	Yaw Set Point:	-0.059	X_WP:	0.000	Y_WP:	0.000	Z_WP:	0.500	X:	0.483	Y:	0.071	Z:	0.277	yaw:	3.355	yaw rate:	-17.769	Roll:	0.562	Pitch:	3.871	Yaw:	3.665	Thrust:	57.472
Time:	1.434	Roll Set Point:	-0.957	Pitch Set Point:	-0.125	Yaw Set Point:	-0.054	X_WP:	0.000	Y_WP:	0.000	Z_WP:	0.500	X:	0.477	Y:	0.075	Z:	0.286	yaw:	3.100	yaw rate:	25.451	Roll:	0.567	Pitch:	6.097	Yaw:	-2.629	Thrust:	65.389
Time:	1.453	Roll Set Point:	-0.945	Pitch Set Point:	-0.132	Yaw Set Point:	-0.059	X_WP:	0.000	Y_WP:	0.000	Z_WP:	0.500	X:	0.470	Y:	0.080	Z:	0.295	yaw:	3.369	yaw rate:	-26.933	Roll:	0.268	Pitch:	2.661	Yaw:	4.988	Thrust:	56.806
Time:	1.472	Roll Set Point:	-0.932	Pitch Set Point:	-0.137	Yaw Set Point:	-0.063	X_WP:	0.000	Y_WP:	0.000	Z_WP:	0.500	X:	0.464	Y:	0.083	Z:	0.304	yaw:	3.638	yaw rate:	-26.840	Roll:	0.235	Pitch:	1.833	Yaw:	5.187	Thrust:	57.275
Time:	1.493	Roll Set Point:	-0.920	Pitch Set Point:	-0.151	Yaw Set Point:	-0.045	X_WP:	0.000	Y_WP:	0.000	Z_WP:	0.500	X:	0.458	Y:	0.086	Z:	0.314	yaw:	2.578	yaw rate:	105.997	Roll:	-0.233	Pitch:	10.244	Yaw:	-13.749	Thrust:	57.534
Time:	1.513	Roll Set Point:	-0.908	Pitch Set Point:	-0.151	Yaw Set Point:	-0.060	X_WP:	0.000	Y_WP:	0.000	Z_WP:	0.500	X:	0.452	Y:	0.089	Z:	0.323	yaw:	3.430	yaw rate:	-85.221	Roll:	0.885	Pitch:	-2.262	Yaw:	11.897	Thrust:	63.786
Time:	1.533	Roll Set Point:	-0.896	Pitch Set Point:	-0.159	Yaw Set Point:	-0.053	X_WP:	0.000	Y_WP:	0.000	Z_WP:	0.500	X:	0.446	Y:	0.091	Z:	0.333	yaw:	3.052	yaw rate:	37.814	Roll:	-0.219	Pitch:	5.481	Yaw:	-4.169	Thrust:	57.925
Time:	1.553	Roll Set Point:	-0.884	Pitch Set Point:	-0.163	Yaw Set Point:	-0.052	X_WP:	0.000	Y_WP:	0.000	Z_WP:	0.500	X:	0.440	Y:	0.093	Z:	0.343	yaw:	2.954	yaw rate:	9.788	Roll:	-0.089	Pitch:	2.958	Yaw:	-0.635	Thrust:	58.067
Time:	1.573	Roll Set Point:	-0.872	Pitch Set Point:	-0.162	Yaw Set Point:	-0.062	X_WP:	0.000	Y_WP:	0.000	Z_WP:	0.500	X:	0.433	Y:	0.095	Z:	0.353	yaw:	3.542	yaw rate:	-58.801	Roll:	0.470	Pitch:	-1.606	Yaw:	9.541	Thrust:	54.042
Time:	1.593	Roll Set Point:	-0.860	Pitch Set Point:	-0.165	Yaw Set Point:	-0.059	X_WP:	0.000	Y_WP:	0.000	Z_WP:	0.500	X:	0.428	Y:	0.095	Z:	0.363	yaw:	3.377	yaw rate:	16.450	Roll:	0.080	Pitch:	2.436	Yaw:	-0.892	Thrust:	57.529
Time:	1.613	Roll Set Point:	-0.849	Pitch Set Point:	-0.167	Yaw Set Point:	-0.058	X_WP:	0.000	Y_WP:	0.000	Z_WP:	0.500	X:	0.422	Y:	0.096	Z:	0.373	yaw:	3.343	yaw rate:	3.457	Roll:	0.517	Pitch:	1.388	Yaw:	0.836	Thrust:	57.965
Time:	1.633	Roll Set Point:	-0.838	Pitch Set Point:	-0.168	Yaw Set Point:	-0.056	X_WP:	0.000	Y_WP:	0.000	Z_WP:	0.500	X:	0.416	Y:	0.096	Z:	0.383	yaw:	3.228	yaw rate:	11.508	Roll:	0.014	Pitch:	1.606	Yaw:	-0.386	Thrust:	57.076
Time:	1.652	Roll Set Point:	-0.824	Pitch Set Point:	-0.170	Yaw Set Point:	-0.051	X_WP:	0.000	Y_WP:	0.000	Z_WP:	0.500	X:	0.410	Y:	0.095	Z:	0.394	yaw:	2.931	yaw rate:	29.662	Roll:	-1.175	Pitch:	2.665	Yaw:	-3.174	Thrust:	49.957
Time:	1.672	Roll Set Point:	-0.813	Pitch Set Point:	-0.171	Yaw Set Point:	-0.046	X_WP:	0.000	Y_WP:	0.000	Z_WP:	0.500	X:	0.405	Y:	0.095	Z:	0.404	yaw:	2.648	yaw rate:	28.359	Roll:	-0.063	Pitch:	2.178	Yaw:	-3.343	Thrust:	55.578
Time:	1.693	Roll Set Point:	-0.802	Pitch Set Point:	-0.169	Yaw Set Point:	-0.045	X_WP:	0.000	Y_WP:	0.000	Z_WP:	0.500	X:	0.399	Y:	0.094	Z:	0.414	yaw:	2.587	yaw rate:	6.110	Roll:	0.077	Pitch:	0.193	Yaw:	-0.580	Thrust:	59.697
Time:	1.713	Roll Set Point:	-0.791	Pitch Set Point:	-0.169	Yaw Set Point:	-0.040	X_WP:	0.000	Y_WP:	0.000	Z_WP:	0.500	X:	0.394	Y:	0.093	Z:	0.424	yaw:	2.268	yaw rate:	31.890	Roll:	-0.372	Pitch:	1.748	Yaw:	-4.316	Thrust:	53.733
Time:	1.733	Roll Set Point:	-0.780	Pitch Set Point:	-0.166	Yaw Set Point:	-0.041	X_WP:	0.000	Y_WP:	0.000	Z_WP:	0.500	X:	0.388	Y:	0.091	Z:	0.434	yaw:	2.340	yaw rate:	-7.266	Roll:	-0.038	Pitch:	-0.883	Yaw:	0.910	Thrust:	55.858
Time:	1.754	Roll Set Point:	-0.769	Pitch Set Point:	-0.163	Yaw Set Point:	-0.041	X_WP:	0.000	Y_WP:	0.000	Z_WP:	0.500	X:	0.383	Y:	0.089	Z:	0.443	yaw:	2.377	yaw rate:	-3.633	Roll:	0.176	Pitch:	-0.764	Yaw:	0.323	Thrust:	61.401
Time:	1.773	Roll Set Point:	-0.758	Pitch Set Point:	-0.157	Yaw Set Point:	-0.045	X_WP:	0.000	Y_WP:	0.000	Z_WP:	0.500	X:	0.377	Y:	0.087	Z:	0.452	yaw:	2.566	yaw rate:	-18.959	Roll:	0.077	Pitch:	-2.513	Yaw:	3.249	Thrust:	49.053
Time:	1.793	Roll Set Point:	-0.748	Pitch Set Point:	-0.155	Yaw Set Point:	-0.036	X_WP:	0.000	Y_WP:	0.000	Z_WP:	0.500	X:	0.373	Y:	0.084	Z:	0.461	yaw:	2.085	yaw rate:	48.078	Roll:	0.027	Pitch:	1.217	Yaw:	-6.551	Thrust:	58.106
Time:	1.815	Roll Set Point:	-0.738	Pitch Set Point:	-0.146	Yaw Set Point:	-0.048	X_WP:	0.000	Y_WP:	0.000	Z_WP:	0.500	X:	0.367	Y:	0.082	Z:	0.470	yaw:	2.764	yaw rate:	-67.827	Roll:	0.585	Pitch:	-4.723	Yaw:	9.069	Thrust:	59.386
Time:	1.833	Roll Set Point:	-0.728	Pitch Set Point:	-0.142	Yaw Set Point:	-0.045	X_WP:	0.000	Y_WP:	0.000	Z_WP:	0.500	X:	0.363	Y:	0.079	Z:	0.479	yaw:	2.578	yaw rate:	18.601	Roll:	-0.171	Pitch:	-0.880	Yaw:	-1.998	Thrust:	50.597
Time:	1.853	Roll Set Point:	-0.720	Pitch Set Point:	-0.137	Yaw Set Point:	-0.041	X_WP:	0.000	Y_WP:	0.000	Z_WP:	0.500	X:	0.358	Y:	0.076	Z:	0.487	yaw:	2.332	yaw rate:	24.571	Roll:	0.587	Pitch:	-0.617	Yaw:	-3.135	Thrust:	59.432
Time:	1.872	Roll Set Point:	-0.709	Pitch Set Point:	-0.133	Yaw Set Point:	-0.035	X_WP:	0.000	Y_WP:	0.000	Z_WP:	0.500	X:	0.353	Y:	0.073	Z:	0.495	yaw:	2.002	yaw rate:	33.030	Roll:	-0.704	Pitch:	-0.368	Yaw:	-4.748	Thrust:	51.785
Time:	1.893	Roll Set Point:	-0.701	Pitch Set Point:	-0.123	Yaw Set Point:	-0.043	X_WP:	0.000	Y_WP:	0.000	Z_WP:	0.500	X:	0.349	Y:	0.069	Z:	0.503	yaw:	2.448	yaw rate:	-44.613	Roll:	1.159	Pitch:	-4.623	Yaw:	5.958	Thrust:	57.435
Time:	1.913	Roll Set Point:	-0.691	Pitch Set Point:	-0.120	Yaw Set Point:	-0.036	X_WP:	0.000	Y_WP:	0.000	Z_WP:	0.500	X:	0.344	Y:	0.066	Z:	0.511	yaw:	2.053	yaw rate:	39.474	Roll:	-0.349	Pitch:	0.155	Yaw:	-5.417	Thrust:	57.000
Time:	1.933	Roll Set Point:	-0.682	Pitch Set Point:	-0.117	Yaw Set Point:	-0.022	X_WP:	0.000	Y_WP:	0.000	Z_WP:	0.500	X:	0.340	Y:	0.062	Z:	0.519	yaw:	1.236	yaw rate:	81.673	Roll:	0.023	Pitch:	1.381	Yaw:	-11.898	Thrust:	58.330
Time:	1.952	Roll Set Point:	-0.675	Pitch Set Point:	-0.106	Yaw Set Point:	-0.036	X_WP:	0.000	Y_WP:	0.000	Z_WP:	0.500	X:	0.337	Y:	0.059	Z:	0.525	yaw:	2.041	yaw rate:	-80.499	Roll:	1.401	Pitch:	-6.511	Yaw:	10.991	Thrust:	53.353
Time:	1.972	Roll Set Point:	-0.665	Pitch Set Point:	-0.100	Yaw Set Point:	-0.035	X_WP:	0.000	Y_WP:	0.000	Z_WP:	0.500	X:	0.332	Y:	0.056	Z:	0.533	yaw:	2.014	yaw rate:	2.766	Roll:	-0.055	Pitch:	-1.994	Yaw:	-0.672	Thrust:	57.007
Time:	1.994	Roll Set Point:	-0.658	Pitch Set Point:	-0.095	Yaw Set Point:	-0.026	X_WP:	0.000	Y_WP:	0.000	Z_WP:	0.500	X:	0.328	Y:	0.052	Z:	0.539	yaw:	1.472	yaw rate:	54.126	Roll:	0.717	Pitch:	-0.338	Yaw:	-7.900	Thrust:	61.851
Time:	2.013	Roll Set Point:	-0.651	Pitch Set Point:	-0.085	Yaw Set Point:	-0.032	X_WP:	0.000	Y_WP:	0.000	Z_WP:	0.500	X:	0.325	Y:	0.048	Z:	0.546	yaw:	1.809	yaw rate:	-33.628	Roll:	1.225	Pitch:	-4.420	Yaw:	3.923	Thrust:	55.589
Time:	2.033	Roll Set Point:	-0.642	Pitch Set Point:	-0.082	Yaw Set Point:	-0.021	X_WP:	0.000	Y_WP:	0.000	Z_WP:	0.500	X:	0.321	Y:	0.044	Z:	0.553	yaw:	1.203	yaw rate:	60.613	Roll:	-0.137	Pitch:	0.282	Yaw:	-9.432	Thrust:	54.132
Time:	2.053	Roll Set Point:	-0.636	Pitch Set Point:	-0.071	Yaw Set Point:	-0.033	X_WP:	0.000	Y_WP:	0.000	Z_WP:	0.500	X:	0.317	Y:	0.041	Z:	0.559	yaw:	1.896	yaw rate:	-69.308	Roll:	1.431	Pitch:	-6.095	Yaw:	8.901	Thrust:	54.227
Time:	2.072	Roll Set Point:	-0.628	Pitch Set Point:	-0.068	Yaw Set Point:	-0.020	X_WP:	0.000	Y_WP:	0.000	Z_WP:	0.500	X:	0.314	Y:	0.037	Z:	0.566	yaw:	1.120	yaw rate:	77.588	Roll:	0.207	Pitch:	0.940	Yaw:	-11.685	Thrust:	54.670
Time:	2.093	Roll Set Point:	-0.622	Pitch Set Point:	-0.056	Yaw Set Point:	-0.033	X_WP:	0.000	Y_WP:	0.000	Z_WP:	0.500	X:	0.311	Y:	0.033	Z:	0.572	yaw:	1.912	yaw rate:	-79.245	Roll:	1.675	Pitch:	-6.658	Yaw:	9.399	Thrust:	59.217
Time:	2.112	Roll Set Point:	-0.615	Pitch Set Point:	-0.050	Yaw Set Point:	-0.026	X_WP:	0.000	Y_WP:	0.000	Z_WP:	0.500	X:	0.307	Y:	0.029	Z:	0.579	yaw:	1.508	yaw rate:	40.398	Roll:	0.564	Pitch:	-1.164	Yaw:	-6.325	Thrust:	49.730
Time:	2.132	Roll Set Point:	-0.610	Pitch Set Point:	-0.041	Yaw Set Point:	-0.031	X_WP:	0.000	Y_WP:	0.000	Z_WP:	0.500	X:	0.305	Y:	0.025	Z:	0.585	yaw:	1.795	yaw rate:	-28.681	Roll:	1.481	Pitch:	-4.541	Yaw:	3.211	Thrust:	55.127
Time:	2.153	Roll Set Point:	-0.603	Pitch Set Point:	-0.034	Yaw Set Point:	-0.031	X_WP:	0.000	Y_WP:	0.000	Z_WP:	0.500	X:	0.301	Y:	0.022	Z:	0.591	yaw:	1.802	yaw rate:	-0.734	Roll:	0.755	Pitch:	-2.820	Yaw:	-0.451	Thrust:	57.127
Time:	2.173	Roll Set Point:	-0.597	Pitch Set Point:	-0.027	Yaw Set Point:	-0.031	X_WP:	0.000	Y_WP:	0.000	Z_WP:	0.500	X:	0.298	Y:	0.018	Z:	0.597	yaw:	1.752	yaw rate:	5.054	Roll:	1.246	Pitch:	-2.914	Yaw:	-1.110	Thrust:	50.698
Time:	2.193	Roll Set Point:	-0.593	Pitch Set Point:	-0.017	Yaw Set Point:	-0.036	X_WP:	0.000	Y_WP:	0.000	Z_WP:	0.500	X:	0.296	Y:	0.014	Z:	0.603	yaw:	2.040	yaw rate:	-28.825	Roll:	1.900	Pitch:	-4.351	Yaw:	3.377	Thrust:	57.735
Time:	2.213	Roll Set Point:	-0.587	Pitch Set Point:	-0.013	Yaw Set Point:	-0.026	X_WP:	0.000	Y_WP:	0.000	Z_WP:	0.500	X:	0.293	Y:	0.010	Z:	0.608	yaw:	1.477	yaw rate:	56.313	Roll:	1.254	Pitch:	-0.658	Yaw:	-8.239	Thrust:	54.339
Time:	2.233	Roll Set Point:	-0.582	Pitch Set Point:	-0.006	Yaw Set Point:	-0.021	X_WP:	0.000	Y_WP:	0.000	Z_WP:	0.500	X:	0.291	Y:	0.006	Z:	0.613	yaw:	1.191	yaw rate:	28.549	Roll:	1.336	Pitch:	-2.189	Yaw:	-5.018	Thrust:	53.927
Time:	2.253	Roll Set Point:	-0.577	Pitch Set Point:	-0.000	Yaw Set Point:	-0.017	X_WP:	0.000	Y_WP:	0.000	Z_WP:	0.500	X:	0.288	Y:	0.002	Z:	0.618	yaw:	0.946	yaw rate:	24.569	Roll:	1.435	Pitch:	-2.299	Yaw:	-4.824	Thrust:	54.436
Time:	2.273	Roll Set Point:	-0.572	Pitch Set Point:	0.007	Yaw Set Point:	-0.016	X_WP:	0.000	Y_WP:	0.000	Z_WP:	0.500	X:	0.286	Y:	-0.001	Z:	0.623	yaw:	0.897	yaw rate:	4.836	Roll:	1.694	Pitch:	-3.055	Yaw:	-2.257	Thrust:	51.764
Time:	2.293	Roll Set Point:	-0.568	Pitch Set Point:	0.015	Yaw Set Point:	-0.020	X_WP:	0.000	Y_WP:	0.000	Z_WP:	0.500	X:	0.284	Y:	-0.005	Z:	0.627	yaw:	1.155	yaw rate:	-25.715	Roll:	1.733	Pitch:	-4.017	Yaw:	2.043	Thrust:	55.597
Time:	2.313	Roll Set Point:	-0.563	Pitch Set Point:	0.021	Yaw Set Point:	-0.019	X_WP:	0.000	Y_WP:	0.000	Z_WP:	0.500	X:	0.282	Y:	-0.008	Z:	0.632	yaw:	1.081	yaw rate:	7.322	Roll:	1.367	Pitch:	-2.629	Yaw:	-2.436	Thrust:	52.009
Time:	2.333	Roll Set Point:	-0.559	Pitch Set Point:	0.030	Yaw Set Point:	-0.028	X_WP:	0.000	Y_WP:	0.000	Z_WP:	0.500	X:	0.280	Y:	-0.011	Z:	0.635	yaw:	1.596	yaw rate:	-51.446	Roll:	1.700	Pitch:	-5.116	Yaw:	6.198	Thrust:	58.024
Time:	2.352	Roll Set Point:	-0.554	Pitch Set Point:	0.036	Yaw Set Point:	-0.024	X_WP:	0.000	Y_WP:	0.000	Z_WP:	0.500	X:	0.277	Y:	-0.015	Z:	0.639	yaw:	1.378	yaw rate:	21.740	Roll:	1.655	Pitch:	-2.129	Yaw:	-3.814	Thrust:	50.893
Time:	2.372	Roll Set Point:	-0.551	Pitch Set Point:	0.042	Yaw Set Point:	-0.023	X_WP:	0.000	Y_WP:	0.000	Z_WP:	0.500	X:	0.276	Y:	-0.018	Z:	0.642	yaw:	1.341	yaw rate:	3.760	Roll:	1.793	Pitch:	-2.853	Yaw:	-1.508	Thrust:	55.386
Time:	2.393	Roll Set Point:	-0.546	Pitch Set Point:	0.051	Yaw Set Point:	-0.033	X_WP:	0.000	Y_WP:	0.000	Z_WP:	0.500	X:	0.273	Y:	-0.021	Z:	0.645	yaw:	1.870	yaw rate:	-52.924	Roll:	1.452	Pitch:	-5.080	Yaw:	6.313	Thrust:	57.944
Time:	2.414	Roll Set Point:	-0.543	Pitch Set Point:	0.053	Yaw Set Point:	-0.019	X_WP:	0.000	Y_WP:	0.000	Z_WP:	0.500	X:	0.272	Y:	-0.024	Z:	0.648	yaw:	1.067	yaw rate:	80.346	Roll:	2.339	Pitch:	0.428	Yaw:	-12.061	Thrust:	53.392
Time:	2.433	Roll Set Point:	-0.539	Pitch Set Point:	0.060	Yaw Set Point:	-0.023	X_WP:	0.000	Y_WP:	0.000	Z_WP:	0.500	X:	0.270	Y:	-0.027	Z:	0.650	yaw:	1.346	yaw rate:	-27.980	Roll:	1.777	Pitch:	-3.897	Yaw:	2.681	Thrust:	56.076
Time:	2.452	Roll Set Point:	-0.535	Pitch Set Point:	0.068	Yaw Set Point:	-0.029	X_WP:	0.000	Y_WP:	0.000	Z_WP:	0.500	X:	0.268	Y:	-0.030	Z:	0.652	yaw:	1.641	yaw rate:	-29.432	Roll:	1.377	Pitch:	-4.462	Yaw:	3.597	Thrust:	51.850
Time:	2.472	Roll Set Point:	-0.532	Pitch Set Point:	0.072	Yaw Set Point:	-0.022	X_WP:	0.000	Y_WP:	0.000	Z_WP:	0.500	X:	0.266	Y:	-0.033	Z:	0.654	yaw:	1.276	yaw rate:	36.428	Roll:	2.215	Pitch:	-1.339	Yaw:	-5.774	Thrust:	56.052
Time:	2.493	Roll Set Point:	-0.529	Pitch Set Point:	0.077	Yaw Set Point:	-0.020	X_WP:	0.000	Y_WP:	0.000	Z_WP:	0.500	X:	0.265	Y:	-0.036	Z:	0.656	yaw:	1.169	yaw rate:	10.726	Roll:	2.019	Pitch:	-2.232	Yaw:	-2.641	Thrust:	57.975
Time:	2.512	Roll Set Point:	-0.525	Pitch Set Point:	0.083	Yaw Set Point:	-0.022	X_WP:	0.000	Y_WP:	0.000	Z_WP:	0.500	X:	0.263	Y:	-0.038	Z:	0.657	yaw:	1.287	yaw rate:	-11.745	Roll:	1.940	Pitch:	-3.247	Yaw:	0.657	Thrust:	53.265
Time:	2.533	Roll Set Point:	-0.523	Pitch Set Point:	0.083	Yaw Set Point:	-0.008	X_WP:	0.000	Y_WP:	0.000	Z_WP:	0.500	X:	0.262	Y:	-0.041	Z:	0.659	yaw:	0.481	yaw rate:	80.518	Roll:	2.640	Pitch:	0.802	Yaw:	-12.521	Thrust:	54.181
Time:	2.553	Roll Set Point:	-0.520	Pitch Set Point:	0.088	Yaw Set Point:	-0.013	X_WP:	0.000	Y_WP:	0.000	Z_WP:	0.500	X:	0.260	Y:	-0.042	Z:	0.661	yaw:	0.768	yaw rate:	-28.631	Roll:	1.797	Pitch:	-3.032	Yaw:	1.973	Thrust:	56.217
Time:	2.572	Roll Set Point:	-0.517	Pitch Set Point:	0.095	Yaw Set Point:	-0.023	X_WP:	0.000	Y_WP:	0.000	Z_WP:	0.500	X:	0.259	Y:	-0.045	Z:	0.662	yaw:	1.322	yaw rate:	-55.382	Roll:	1.897	Pitch:	-4.720	Yaw:	6.676	Thrust:	52.415
Time:	2.593	Roll Set Point:	-0.514	Pitch Set Point:	0.095	Yaw Set Point:	-0.008	X_WP:	0.000	Y_WP:	0.000	Z_WP:	0.500	X:	0.257	Y:	-0.046	Z:	0.663	yaw:	0.465	yaw rate:	85.649	Roll:	2.412	Pitch:	1.118	Yaw:	-13.150	Thrust:	55.953
Time:	2.613	Roll Set Point:	-0.511	Pitch Set Point:	0.100	Yaw Set Point:	-0.012	X_WP:	0.000	Y_WP:	0.000	Z_WP:	0.500	X:	0.256	Y:	-0.048	Z:	0.664	yaw:	0.709	yaw rate:	-24.371	Roll:	1.899	Pitch:	-3.129	Yaw:	1.387	Thrust:	54.842
Time:	2.633	Roll Set Point:	-0.508	Pitch Set Point:	0.104	Yaw Set Point:	-0.012	X_WP:	0.000	Y_WP:	0.000	Z_WP:	0.500	X:	0.254	Y:	-0.050	Z:	0.664	yaw:	0.691	yaw rate:	1.784	Roll:	2.099	Pitch:	-2.217	Yaw:	-2.042	Thrust:	54.602
Time:	2.653	Roll Set Point:	-0.506	Pitch Set Point:	0.105	Yaw Set Point:	-0.006	X_WP:	0.000	Y_WP:	0.000	Z_WP:	0.500	X:	0.253	Y:	-0.052	Z:	0.665	yaw:	0.323	yaw rate:	36.834	Roll:	2.315	Pitch:	-0.589	Yaw:	-7.166	Thrust:	53.749
Time:	2.672	Roll Set Point:	-0.503	Pitch Set Point:	0.109	Yaw Set Point:	-0.008	X_WP:	0.000	Y_WP:	0.000	Z_WP:	0.500	X:	0.252	Y:	-0.054	Z:	0.665	yaw:	0.483	yaw rate:	-16.024	Roll:	1.893	Pitch:	-2.672	Yaw:	0.077	Thrust:	53.507
Time:	2.693	Roll Set Point:	-0.500	Pitch Set Point:	0.113	Yaw Set Point:	-0.011	X_WP:	0.000	Y_WP:	0.000	Z_WP:	0.500	X:	0.250	Y:	-0.055	Z:	0.665	yaw:	0.603	yaw rate:	-12.036	Roll:	2.065	Pitch:	-2.366	Yaw:	-0.486	Thrust:	56.878
Time:	2.712	Roll Set Point:	-0.497	Pitch Set Point:	0.115	Yaw Set Point:	-0.008	X_WP:	0.000	Y_WP:	0.000	Z_WP:	0.500	X:	0.249	Y:	-0.057	Z:	0.665	yaw:	0.479	yaw rate:	12.434	Roll:	2.132	Pitch:	-1.555	Yaw:	-3.691	Thrust:	52.855
Time:	2.733	Roll Set Point:	-0.493	Pitch Set Point:	0.123	Yaw Set Point:	-0.026	X_WP:	0.000	Y_WP:	0.000	Z_WP:	0.500	X:	0.247	Y:	-0.058	Z:	0.664	yaw:	1.499	yaw rate:	-102.014	Roll:	1.129	Pitch:	-5.597	Yaw:	11.857	Thrust:	58.842
Time:	2.753	Roll Set Point:	-0.492	Pitch Set Point:	0.121	Yaw Set Point:	-0.004	X_WP:	0.000	Y_WP:	0.000	Z_WP:	0.500	X:	0.246	Y:	-0.060	Z:	0.664	yaw:	0.208	yaw rate:	129.050	Roll:	3.429	Pitch:	2.650	Yaw:	-19.516	Thrust:	54.437
Time:	2.772	Roll Set Point:	-0.489	Pitch Set Point:	0.124	Yaw Set Point:	-0.009	X_WP:	0.000	Y_WP:	0.000	Z_WP:	0.500	X:	0.245	Y:	-0.061	Z:	0.663	yaw:	0.508	yaw rate:	-29.934	Roll:	1.673	Pitch:	-2.582	Yaw:	2.108	Thrust:	53.159
Time:	2.793	Roll Set Point:	-0.487	Pitch Set Point:	0.126	Yaw Set Point:	-0.008	X_WP:	0.000	Y_WP:	0.000	Z_WP:	0.500	X:	0.244	Y:	-0.062	Z:	0.662	yaw:	0.476	yaw rate:	3.178	Roll:	2.210	Pitch:	-1.638	Yaw:	-2.577	Thrust:	57.649
Time:	2.813	Roll Set Point:	-0.484	Pitch Set Point:	0.129	Yaw Set Point:	-0.009	X_WP:	0.000	Y_WP:	0.000	Z_WP:	0.500	X:	0.242	Y:	-0.063	Z:	0.661	yaw:	0.542	yaw rate:	-6.584	Roll:	1.996	Pitch:	-2.082	Yaw:	-1.028	Thrust:	53.754
Time:	2.833	Roll Set Point:	-0.482	Pitch Set Point:	0.132	Yaw Set Point:	-0.011	X_WP:	0.000	Y_WP:	0.000	Z_WP:	0.500	X:	0.241	Y:	-0.065	Z:	0.659	yaw:	0.642	yaw rate:	-10.023	Roll:	2.034	Pitch:	-2.160	Yaw:	-0.543	Thrust:	56.154
Time:	2.852	Roll Set Point:	-0.479	Pitch Set Point:	0.134	Yaw Set Point:	-0.005	X_WP:	0.000	Y_WP:	0.000	Z_WP:	0.500	X:	0.240	Y:	-0.066	Z:	0.657	yaw:	0.303	yaw rate:	33.907	Roll:	2.418	Pitch:	-0.900	Yaw:	-6.768	Thrust:	55.889
Time:	2.873	Roll Set Point:	-0.476	Pitch Set Point:	0.142	Yaw Set Point:	-0.033	X_WP:	0.000	Y_WP:	0.000	Z_WP:	0.500	X:	0.239	Y:	-0.067	Z:	0.655	yaw:	1.864	yaw rate:	-156.097	Roll:	0.628	Pitch:	-7.319	Yaw:	19.694	Thrust:	57.240
Time:	2.893	Roll Set Point:	-0.474	Pitch Set Point:	0.138	Yaw Set Point:	-0.010	X_WP:	0.000	Y_WP:	0.000	Z_WP:	0.500	X:	0.238	Y:	-0.068	Z:	0.653	yaw:	0.591	yaw rate:	127.287	Roll:	3.275	Pitch:	3.329	Yaw:	-18.513	Thrust:	56.623
Time:	2.913	Roll Set Point:	-0.472	Pitch Set Point:	0.140	Yaw Set Point:	-0.006	X_WP:	0.000	Y_WP:	0.000	Z_WP:	0.500	X:	0.236	Y:	-0.069	Z:	0.651	yaw:	0.325	yaw rate:	26.592	Roll:	2.376	Pitch:	-1.193	Yaw:	-5.737	Thrust:	57.193
Time:	2.934	Roll Set Point:	-0.470	Pitch Set Point:	0.141	Yaw Set Point:	-0.006	X_WP:	0.000	Y_WP:	0.000	Z_WP:	0.500	X:	0.235	Y:	-0.070	Z:	0.648	yaw:	0.337	yaw rate:	-1.211	Roll:	1.987	Pitch:	-1.295	Yaw:	-2.094	Thrust:	56.605
Time:	2.953	Roll Set Point:	-0.466	Pitch Set Point:	0.150	Yaw Set Point:	-0.032	X_WP:	0.000	Y_WP:	0.000	Z_WP:	0.500	X:	0.234	Y:	-0.071	Z:	0.645	yaw:	1.825	yaw rate:	-148.753	Roll:	0.518	Pitch:	-7.442	Yaw:	19.814	Thrust:	57.040
Time:	2.973	Roll Set Point:	-0.466	Pitch Set Point:	0.144	Yaw Set Point:	-0.002	X_WP:	0.000	Y_WP:	0.000	Z_WP:	0.500	X:	0.233	Y:	-0.071	Z:	0.643	yaw:	0.133	yaw rate:	169.193	Roll:	3.846	Pitch:	4.796	Yaw:	-24.610	Thrust:	54.618
Time:	2.993	Roll Set Point:	-0.463	Pitch Set Point:	0.147	Yaw Set Point:	-0.009	X_WP:	0.000	Y_WP:	0.000	Z_WP:	0.500	X:	0.232	Y:	-0.072	Z:	0.640	yaw:	0.493	yaw rate:	-35.975	Roll:	1.941	Pitch:	-2.723	Yaw:	2.597	Thrust:	58.987
Time:	3.014	Roll Set Point:	-0.461	Pitch Set Point:	0.145	Yaw Set Point:	-0.002	X_WP:	0.000	Y_WP:	0.000	Z_WP:	0.500	X:	0.231	Y:	-0.072	Z:	0.637	yaw:	0.095	yaw rate:	39.727	Roll:	2.429	Pitch:	0.417	Yaw:	-7.701	Thrust:	57.590
Time:	3.033	Roll Set Point:	-0.460	Pitch Set Point:	0.147	Yaw Set Point:	-0.003	X_WP:	0.000	Y_WP:	0.000	Z_WP:	0.500	X:	0.230	Y:	-0.073	Z:	0.635	yaw:	0.162	yaw rate:	-6.632	Roll:	2.249	Pitch:	-1.736	Yaw:	-1.449	Thrust:	54.639
Time:	3.053	Roll Set Point:	-0.457	Pitch Set Point:	0.149	Yaw Set Point:	-0.008	X_WP:	0.000	Y_WP:	0.000	Z_WP:	0.500	X:	0.229	Y:	-0.073	Z:	0.632	yaw:	0.451	yaw rate:	-28.950	Roll:	1.817	Pitch:	-2.023	Yaw:	1.755	Thrust:	56.404
Time:	3.072	Roll Set Point:	-0.455	Pitch Set Point:	0.149	Yaw Set Point:	-0.010	X_WP:	0.000	Y_WP:	0.000	Z_WP:	0.500	X:	0.228	Y:	-0.074	Z:	0.629	yaw:	0.561	yaw rate:	-10.986	Roll:	2.165	Pitch:	-1.467	Yaw:	-0.403	Thrust:	55.852
Time:	3.093	Roll Set Point:	-0.454	Pitch Set Point:	0.150	Yaw Set Point:	-0.009	X_WP:	0.000	Y_WP:	0.000	Z_WP:	0.500	X:	0.227	Y:	-0.074	Z:	0.626	yaw:	0.494	yaw rate:	6.722	Roll:	2.347	Pitch:	-1.136	Yaw:	-2.900	Thrust:	57.451
Time:	3.113	Roll Set Point:	-0.452	Pitch Set Point:	0.155	Yaw Set Point:	-0.024	X_WP:	0.000	Y_WP:	0.000	Z_WP:	0.500	X:	0.227	Y:	-0.075	Z:	0.622	yaw:	1.402	yaw rate:	-90.834	Roll:	1.702	Pitch:	-4.387	Yaw:	10.793	Thrust:	58.748
Time:	3.133	Roll Set Point:	-0.450	Pitch Set Point:	0.153	Yaw Set Point:	-0.017	X_WP:	0.000	Y_WP:	0.000	Z_WP:	0.500	X:	0.225	Y:	-0.075	Z:	0.619	yaw:	0.986	yaw rate:	41.653	Roll:	2.271	Pitch:	0.439	Yaw:	-6.809	Thrust:	54.543
Time:	3.152	Roll Set Point:	-0.447	Pitch Set Point:	0.155	Yaw Set Point:	-0.018	X_WP:	0.000	Y_WP:	0.000	Z_WP:	0.500	X:	0.224	Y:	-0.075	Z:	0.616	yaw:	1.041	yaw rate:	-5.549	Roll:	1.810	Pitch:	-1.530	Yaw:	-0.405	Thrust:	55.723
Time:	3.172	Roll Set Point:	-0.447	Pitch Set Point:	0.154	Yaw Set Point:	-0.012	X_WP:	0.000	Y_WP:	0.000	Z_WP:	0.500	X:	0.224	Y:	-0.076	Z:	0.612	yaw:	0.676	yaw rate:	36.493	Roll:	3.078	Pitch:	-0.303	Yaw:	-6.500	Thrust:	56.804
Time:	3.193	Roll Set Point:	-0.454	Pitch Set Point:	0.182	Yaw Set Point:	-0.175	X_WP:	0.000	Y_WP:	0.000	Z_WP:	0.500	X:	0.235	Y:	-0.071	Z:	0.612	yaw:	10.034	yaw rate:	-935.765	Roll:	-0.342	Pitch:	-27.809	Yaw:	128.583	Thrust:	53.210
Time:	3.213	Roll Set Point:	-0.450	Pitch Set Point:	0.188	Yaw Set Point:	-0.201	X_WP:	0.000	Y_WP:	0.000	Z_WP:	0.500	X:	0.234	Y:	-0.071	Z:	0.608	yaw:	11.503	yaw rate:	-146.875	Roll:	-0.077	Pitch:	-6.218	Yaw:	33.701	Thrust:	54.866
Time:	3.233	Roll Set Point:	-0.444	Pitch Set Point:	0.151	Yaw Set Point:	0.007	X_WP:	0.000	Y_WP:	0.000	Z_WP:	0.500	X:	0.222	Y:	-0.076	Z:	0.600	yaw:	-0.387	yaw rate:	1188.941	Roll:	8.527	Pitch:	30.000	Yaw:	-153.551	Thrust:	67.633
Time:	3.253	Roll Set Point:	-0.441	Pitch Set Point:	0.154	Yaw Set Point:	-0.002	X_WP:	0.000	Y_WP:	0.000	Z_WP:	0.500	X:	0.221	Y:	-0.077	Z:	0.597	yaw:	0.098	yaw rate:	-48.520	Roll:	1.620	Pitch:	-2.902	Yaw:	4.231	Thrust:	57.106
Time:	3.272	Roll Set Point:	-0.441	Pitch Set Point:	0.152	Yaw Set Point:	0.009	X_WP:	0.000	Y_WP:	0.000	Z_WP:	0.500	X:	0.220	Y:	-0.077	Z:	0.592	yaw:	-0.527	yaw rate:	62.575	Roll:	3.047	Pitch:	0.766	Yaw:	-11.405	Thrust:	58.410
Time:	3.293	Roll Set Point:	-0.438	Pitch Set Point:	0.154	Yaw Set Point:	0.001	X_WP:	0.000	Y_WP:	0.000	Z_WP:	0.500	X:	0.219	Y:	-0.077	Z:	0.588	yaw:	-0.037	yaw rate:	-49.069	Roll:	1.674	Pitch:	-2.477	Yaw:	3.525	Thrust:	58.837
Time:	3.314	Roll Set Point:	-0.436	Pitch Set Point:	0.156	Yaw Set Point:	-0.008	X_WP:	0.000	Y_WP:	0.000	Z_WP:	0.500	X:	0.218	Y:	-0.077	Z:	0.585	yaw:	0.478	yaw rate:	-51.423	Roll:	1.749	Pitch:	-2.569	Yaw:	4.778	Thrust:	58.727
Time:	3.334	Roll Set Point:	-0.435	Pitch Set Point:	0.154	Yaw Set Point:	0.000	X_WP:	0.000	Y_WP:	0.000	Z_WP:	0.500	X:	0.218	Y:	-0.077	Z:	0.582	yaw:	-0.025	yaw rate:	50.291	Roll:	2.972	Pitch:	0.667	Yaw:	-9.088	Thrust:	55.076
Time:	3.353	Roll Set Point:	-0.434	Pitch Set Point:	0.154	Yaw Set Point:	-0.003	X_WP:	0.000	Y_WP:	0.000	Z_WP:	0.500	X:	0.217	Y:	-0.077	Z:	0.579	yaw:	0.161	yaw rate:	-18.658	Roll:	2.000	Pitch:	-1.437	Yaw:	0.467	Thrust:	54.548
Time:	3.373	Roll Set Point:	-0.428	Pitch Set Point:	0.163	Yaw Set Point:	-0.041	X_WP:	0.000	Y_WP:	0.000	Z_WP:	0.500	X:	0.216	Y:	-0.077	Z:	0.578	yaw:	2.345	yaw rate:	-218.380	Roll:	-0.686	Pitch:	-8.210	Yaw:	29.244	Thrust:	51.458
Time:	3.393	Roll Set Point:	-0.427	Pitch Set Point:	0.165	Yaw Set Point:	-0.047	X_WP:	0.000	Y_WP:	0.000	Z_WP:	0.500	X:	0.215	Y:	-0.078	Z:	0.575	yaw:	2.689	yaw rate:	-34.397	Roll:	2.013	Pitch:	-2.491	Yaw:	5.611	Thrust:	56.180
Time:	3.413	Roll Set Point:	-0.427	Pitch Set Point:	0.161	Yaw Set Point:	-0.034	X_WP:	0.000	Y_WP:	0.000	Z_WP:	0.500	X:	0.215	Y:	-0.077	Z:	0.572	yaw:	1.938	yaw rate:	75.143	Roll:	3.356	Pitch:	1.701	Yaw:	-9.560	Thrust:	55.214
Time:	3.433	Roll Set Point:	-0.426	Pitch Set Point:	0.154	Yaw Set Point:	-0.011	X_WP:	0.000	Y_WP:	0.000	Z_WP:	0.500	X:	0.214	Y:	-0.076	Z:	0.570	yaw:	0.639	yaw rate:	129.813	Roll:	3.500	Pitch:	4.164	Yaw:	-18.549	Thrust:	53.826
Time:	3.452	Roll Set Point:	-0.424	Pitch Set Point:	0.159	Yaw Set Point:	-0.030	X_WP:	0.000	Y_WP:	0.000	Z_WP:	0.500	X:	0.213	Y:	-0.076	Z:	0.567	yaw:	1.740	yaw rate:	-110.017	Roll:	1.052	Pitch:	-4.865	Yaw:	15.027	Thrust:	52.896
Time:	3.473	Roll Set Point:	-0.422	Pitch Set Point:	0.158	Yaw Set Point:	-0.032	X_WP:	0.000	Y_WP:	0.000	Z_WP:	0.500	X:	0.212	Y:	-0.076	Z:	0.565	yaw:	1.821	yaw rate:	-8.117	Roll:	2.204	Pitch:	-1.107	Yaw:	1.127	Thrust:	55.489
Time:	3.493	Roll Set Point:	-0.421	Pitch Set Point:	0.161	Yaw Set Point:	-0.043	X_WP:	0.000	Y_WP:	0.000	Z_WP:	0.500	X:	0.212	Y:	-0.076	Z:	0.561	yaw:	2.465	yaw rate:	-64.441	Roll:	1.965	Pitch:	-3.143	Yaw:	9.062	Thrust:	57.517
Time:	3.514	Roll Set Point:	-0.419	Pitch Set Point:	0.161	Yaw Set Point:	-0.046	X_WP:	0.000	Y_WP:	0.000	Z_WP:	0.500	X:	0.211	Y:	-0.076	Z:	0.559	yaw:	2.623	yaw rate:	-15.779	Roll:	1.971	Pitch:	-1.297	Yaw:	3.281	Thrust:	55.179
Time:	3.539	Roll Set Point:	-0.417	Pitch Set Point:	0.159	Yaw Set Point:	-0.041	X_WP:	0.000	Y_WP:	0.000	Z_WP:	0.500	X:	0.210	Y:	-0.075	Z:	0.556	yaw:	2.326	yaw rate:	29.664	Roll:	2.551	Pitch:	-0.257	Yaw:	-2.842	Thrust:	69.179
Time:	3.553	Roll Set Point:	-0.417	Pitch Set Point:	0.162	Yaw Set Point:	-0.049	X_WP:	0.000	Y_WP:	0.000	Z_WP:	0.500	X:	0.211	Y:	-0.076	Z:	0.552	yaw:	2.816	yaw rate:	-49.010	Roll:	1.989	Pitch:	-3.525	Yaw:	11.831	Thrust:	44.730
Time:	3.573	Roll Set Point:	-0.416	Pitch Set Point:	0.159	Yaw Set Point:	-0.036	X_WP:	0.000	Y_WP:	0.000	Z_WP:	0.500	X:	0.209	Y:	-0.076	Z:	0.549	yaw:	2.090	yaw rate:	72.677	Roll:	2.686	Pitch:	1.338	Yaw:	-9.001	Thrust:	55.359
Time:	3.593	Roll Set Point:	-0.416	Pitch Set Point:	0.158	Yaw Set Point:	-0.029	X_WP:	0.000	Y_WP:	0.000	Z_WP:	0.500	X:	0.209	Y:	-0.076	Z:	0.545	yaw:	1.650	yaw rate:	44.010	Roll:	3.090	Pitch:	-0.068	Yaw:	-5.744	Thrust:	58.259
Time:	3.613	Roll Set Point:	-0.414	Pitch Set Point:	0.158	Yaw Set Point:	-0.032	X_WP:	0.000	Y_WP:	0.000	Z_WP:	0.500	X:	0.208	Y:	-0.076	Z:	0.541	yaw:	1.859	yaw rate:	-20.906	Roll:	2.033	Pitch:	-1.554	Yaw:	3.010	Thrust:	57.868
Time:	3.633	Roll Set Point:	-0.412	Pitch Set Point:	0.160	Yaw Set Point:	-0.039	X_WP:	0.000	Y_WP:	0.000	Z_WP:	0.500	X:	0.207	Y:	-0.076	Z:	0.537	yaw:	2.211	yaw rate:	-35.279	Roll:	1.523	Pitch:	-2.336	Yaw:	5.498	Thrust:	57.059
Time:	3.653	Roll Set Point:	-0.412	Pitch Set Point:	0.160	Yaw Set Point:	-0.035	X_WP:	0.000	Y_WP:	0.000	Z_WP:	0.500	X:	0.207	Y:	-0.076	Z:	0.533	yaw:	1.989	yaw rate:	22.236	Roll:	2.867	Pitch:	-0.695	Yaw:	-2.417	Thrust:	59.217
Time:	3.673	Roll Set Point:	-0.411	Pitch Set Point:	0.160	Yaw Set Point:	-0.030	X_WP:	0.000	Y_WP:	0.000	Z_WP:	0.500	X:	0.207	Y:	-0.077	Z:	0.529	yaw:	1.747	yaw rate:	24.216	Roll:	2.772	Pitch:	-0.762	Yaw:	-3.037	Thrust:	58.710
Time:	3.693	Roll Set Point:	-0.410	Pitch Set Point:	0.161	Yaw Set Point:	-0.032	X_WP:	0.000	Y_WP:	0.000	Z_WP:	0.500	X:	0.206	Y:	-0.077	Z:	0.525	yaw:	1.811	yaw rate:	-6.387	Roll:	2.218	Pitch:	-1.868	Yaw:	1.057	Thrust:	59.947
Time:	3.713	Roll Set Point:	-0.409	Pitch Set Point:	0.162	Yaw Set Point:	-0.034	X_WP:	0.000	Y_WP:	0.000	Z_WP:	0.500	X:	0.206	Y:	-0.078	Z:	0.520	yaw:	1.933	yaw rate:	-12.239	Roll:	2.102	Pitch:	-1.567	Yaw:	1.933	Thrust:	60.540
Time:	3.734	Roll Set Point:	-0.406	Pitch Set Point:	0.164	Yaw Set Point:	-0.040	X_WP:	0.000	Y_WP:	0.000	Z_WP:	0.500	X:	0.205	Y:	-0.078	Z:	0.516	yaw:	2.290	yaw rate:	-35.643	Roll:	1.650	Pitch:	-2.489	Yaw:	5.494	Thrust:	60.975
Time:	3.753	Roll Set Point:	-0.405	Pitch Set Point:	0.166	Yaw Set Point:	-0.043	X_WP:	0.000	Y_WP:	0.000	Z_WP:	0.500	X:	0.204	Y:	-0.079	Z:	0.512	yaw:	2.477	yaw rate:	-18.745	Roll:	1.971	Pitch:	-2.283	Yaw:	3.910	Thrust:	57.788
Time:	3.772	Roll Set Point:	-0.405	Pitch Set Point:	0.166	Yaw Set Point:	-0.037	X_WP:	0.000	Y_WP:	0.000	Z_WP:	0.500	X:	0.204	Y:	-0.079	Z:	0.507	yaw:	2.139	yaw rate:	33.794	Roll:	2.793	Pitch:	-0.719	Yaw:	-3.700	Thrust:	59.788
Time:	3.793	Roll Set Point:	-0.403	Pitch Set Point:	0.169	Yaw Set Point:	-0.045	X_WP:	0.000	Y_WP:	0.000	Z_WP:	0.500	X:	0.203	Y:	-0.080	Z:	0.503	yaw:	2.561	yaw rate:	-42.217	Roll:	1.860	Pitch:	-3.082	Yaw:	6.792	Thrust:	60.839
Time:	3.814	Roll Set Point:	-0.402	Pitch Set Point:	0.169	Yaw Set Point:	-0.038	X_WP:	0.000	Y_WP:	0.000	Z_WP:	0.500	X:	0.203	Y:	-0.081	Z:	0.499	yaw:	2.190	yaw rate:	37.170	Roll:	2.676	Pitch:	-0.618	Yaw:	-4.019	Thrust:	59.455
Time:	3.833	Roll Set Point:	-0.403	Pitch Set Point:	0.171	Yaw Set Point:	-0.037	X_WP:	0.000	Y_WP:	0.000	Z_WP:	0.500	X:	0.203	Y:	-0.082	Z:	0.495	yaw:	2.114	yaw rate:	7.597	Roll:	2.992	Pitch:	-1.790	Yaw:	-0.214	Thrust:	60.843
Time:	3.852	Roll Set Point:	-0.402	Pitch Set Point:	0.171	Yaw Set Point:	-0.031	X_WP:	0.000	Y_WP:	0.000	Z_WP:	0.500	X:	0.202	Y:	-0.082	Z:	0.491	yaw:	1.777	yaw rate:	33.622	Roll:	2.350	Pitch:	-0.653	Yaw:	-4.120	Thrust:	57.852
Time:	3.872	Roll Set Point:	-0.401	Pitch Set Point:	0.174	Yaw Set Point:	-0.039	X_WP:	0.000	Y_WP:	0.000	Z_WP:	0.500	X:	0.202	Y:	-0.083	Z:	0.487	yaw:	2.219	yaw rate:	-44.168	Roll:	2.064	Pitch:	-3.308	Yaw:	6.705	Thrust:	60.375
Time:	3.892	Roll Set Point:	-0.400	Pitch Set Point:	0.173	Yaw Set Point:	-0.030	X_WP:	0.000	Y_WP:	0.000	Z_WP:	0.500	X:	0.201	Y:	-0.084	Z:	0.484	yaw:	1.699	yaw rate:	51.965	Roll:	2.759	Pitch:	-0.193	Yaw:	-6.515	Thrust:	59.717
Time:	3.913	Roll Set Point:	-0.398	Pitch Set Point:	0.178	Yaw Set Point:	-0.042	X_WP:	0.000	Y_WP:	0.000	Z_WP:	0.500	X:	0.201	Y:	-0.085	Z:	0.480	yaw:	2.428	yaw rate:	-72.905	Roll:	1.314	Pitch:	-4.103	Yaw:	10.670	Thrust:	60.775
Time:	3.933	Roll Set Point:	-0.397	Pitch Set Point:	0.178	Yaw Set Point:	-0.038	X_WP:	0.000	Y_WP:	0.000	Z_WP:	0.500	X:	0.200	Y:	-0.085	Z:	0.477	yaw:	2.174	yaw rate:	25.407	Roll:	2.539	Pitch:	-1.105	Yaw:	-2.366	Thrust:	59.568
Time:	3.953	Roll Set Point:	-0.397	Pitch Set Point:	0.178	Yaw Set Point:	-0.028	X_WP:	0.000	Y_WP:	0.000	Z_WP:	0.500	X:	0.200	Y:	-0.086	Z:	0.474	yaw:	1.626	yaw rate:	54.796	Roll:	3.291	Pitch:	-0.268	Yaw:	-7.218	Thrust:	57.298
Time:	3.972	Roll Set Point:	-0.397	Pitch Set Point:	0.179	Yaw Set Point:	-0.027	X_WP:	0.000	Y_WP:	0.000	Z_WP:	0.500	X:	0.200	Y:	-0.087	Z:	0.472	yaw:	1.524	yaw rate:	10.214	Roll:	2.499	Pitch:	-1.751	Yaw:	-1.279	Thrust:	58.366
Time:	3.993	Roll Set Point:	-0.396	Pitch Set Point:	0.182	Yaw Set Point:	-0.028	X_WP:	0.000	Y_WP:	0.000	Z_WP:	0.500	X:	0.199	Y:	-0.088	Z:	0.469	yaw:	1.608	yaw rate:	-8.376	Roll:	2.467	Pitch:	-2.283	Yaw:	1.117	Thrust:	62.780
Time:	4.014	Roll Set Point:	-0.395	Pitch Set Point:	0.183	Yaw Set Point:	-0.030	X_WP:	0.000	Y_WP:	0.000	Z_WP:	0.500	X:	0.199	Y:	-0.088	Z:	0.467	yaw:	1.716	yaw rate:	-10.765	Roll:	2.023	Pitch:	-1.981	Yaw:	1.717	Thrust:	58.645
Time:	4.033	Roll Set Point:	-0.393	Pitch Set Point:	0.185	Yaw Set Point:	-0.036	X_WP:	0.000	Y_WP:	0.000	Z_WP:	0.500	X:	0.198	Y:	-0.089	Z:	0.464	yaw:	2.071	yaw rate:	-35.559	Roll:	1.765	Pitch:	-2.675	Yaw:	5.678	Thrust:	57.936
Time:	4.052	Roll Set Point:	-0.392	Pitch Set Point:	0.187	Yaw Set Point:	-0.036	X_WP:	0.000	Y_WP:	0.000	Z_WP:	0.500	X:	0.198	Y:	-0.090	Z:	0.461	yaw:	2.037	yaw rate:	3.391	Roll:	2.292	Pitch:	-2.027	Yaw:	0.452	Thrust:	57.299
Time:	4.072	Roll Set Point:	-0.392	Pitch Set Point:	0.188	Yaw Set Point:	-0.036	X_WP:	0.000	Y_WP:	0.000	Z_WP:	0.500	X:	0.198	Y:	-0.091	Z:	0.459	yaw:	2.038	yaw rate:	-0.040	Roll:	2.551	Pitch:	-2.125	Yaw:	0.827	Thrust:	59.409
Time:	4.093	Roll Set Point:	-0.391	Pitch Set Point:	0.189	Yaw Set Point:	-0.033	X_WP:	0.000	Y_WP:	0.000	Z_WP:	0.500	X:	0.197	Y:	-0.091	Z:	0.457	yaw:	1.908	yaw rate:	12.971	Roll:	2.312	Pitch:	-1.258	Yaw:	-1.032	Thrust:	59.497
Time:	4.113	Roll Set Point:	-0.390	Pitch Set Point:	0.189	Yaw Set Point:	-0.034	X_WP:	0.000	Y_WP:	0.000	Z_WP:	0.500	X:	0.197	Y:	-0.091	Z:	0.455	yaw:	1.920	yaw rate:	-1.154	Roll:	2.492	Pitch:	-1.725	Yaw:	0.821	Thrust:	59.206
Time:	4.133	Roll Set Point:	-0.390	Pitch Set Point:	0.190	Yaw Set Point:	-0.029	X_WP:	0.000	Y_WP:	0.000	Z_WP:	0.500	X:	0.197	Y:	-0.092	Z:	0.453	yaw:	1.669	yaw rate:	25.088	Roll:	2.889	Pitch:	-1.263	Yaw:	-2.940	Thrust:	57.919
Time:	4.153	Roll Set Point:	-0.390	Pitch Set Point:	0.191	Yaw Set Point:	-0.026	X_WP:	0.000	Y_WP:	0.000	Z_WP:	0.500	X:	0.196	Y:	-0.093	Z:	0.452	yaw:	1.500	yaw rate:	16.832	Roll:	2.588	Pitch:	-1.274	Yaw:	-2.058	Thrust:	58.777
Time:	4.172	Roll Set Point:	-0.390	Pitch Set Point:	0.191	Yaw Set Point:	-0.025	X_WP:	0.000	Y_WP:	0.000	Z_WP:	0.500	X:	0.196	Y:	-0.093	Z:	0.450	yaw:	1.437	yaw rate:	6.384	Roll:	2.574	Pitch:	-1.544	Yaw:	-0.734	Thrust:	56.421
Time:	4.193	Roll Set Point:	-0.389	Pitch Set Point:	0.192	Yaw Set Point:	-0.022	X_WP:	0.000	Y_WP:	0.000	Z_WP:	0.500	X:	0.195	Y:	-0.094	Z:	0.448	yaw:	1.264	yaw rate:	17.233	Roll:	2.498	Pitch:	-1.347	Yaw:	-2.418	Thrust:	59.899
Time:	4.213	Roll Set Point:	-0.388	Pitch Set Point:	0.193	Yaw Set Point:	-0.024	X_WP:	0.000	Y_WP:	0.000	Z_WP:	0.500	X:	0.195	Y:	-0.094	Z:	0.447	yaw:	1.374	yaw rate:	-11.017	Roll:	2.145	Pitch:	-1.935	Yaw:	1.423	Thrust:	59.104
Time:	4.233	Roll Set Point:	-0.386	Pitch Set Point:	0.194	Yaw Set Point:	-0.030	X_WP:	0.000	Y_WP:	0.000	Z_WP:	0.500	X:	0.195	Y:	-0.094	Z:	0.445	yaw:	1.721	yaw rate:	-34.621	Roll:	1.686	Pitch:	-2.560	Yaw:	4.923	Thrust:	59.659
Time:	4.253	Roll Set Point:	-0.385	Pitch Set Point:	0.197	Yaw Set Point:	-0.039	X_WP:	0.000	Y_WP:	0.000	Z_WP:	0.500	X:	0.194	Y:	-0.095	Z:	0.443	yaw:	2.223	yaw rate:	-50.200	Roll:	1.737	Pitch:	-3.426	Yaw:	7.678	Thrust:	57.627
Time:	4.272	Roll Set Point:	-0.384	Pitch Set Point:	0.197	Yaw Set Point:	-0.033	X_WP:	0.000	Y_WP:	0.000	Z_WP:	0.500	X:	0.194	Y:	-0.095	Z:	0.442	yaw:	1.903	yaw rate:	31.973	Roll:	2.581	Pitch:	-0.714	Yaw:	-3.522	Thrust:	59.709
Time:	4.293	Roll Set Point:	-0.383	Pitch Set Point:	0.199	Yaw Set Point:	-0.042	X_WP:	0.000	Y_WP:	0.000	Z_WP:	0.500	X:	0.194	Y:	-0.096	Z:	0.440	yaw:	2.417	yaw rate:	-51.398	Roll:	1.944	Pitch:	-3.391	Yaw:	7.999	Thrust:	61.030
Time:	4.313	Roll Set Point:	-0.383	Pitch Set Point:	0.198	Yaw Set Point:	-0.034	X_WP:	0.000	Y_WP:	0.000	Z_WP:	0.500	X:	0.193	Y:	-0.096	Z:	0.439	yaw:	1.923	yaw rate:	49.371	Roll:	2.704	Pitch:	0.109	Yaw:	-5.498	Thrust:	59.958
Time:	4.333	Roll Set Point:	-0.382	Pitch Set Point:	0.197	Yaw Set Point:	-0.028	X_WP:	0.000	Y_WP:	0.000	Z_WP:	0.500	X:	0.193	Y:	-0.096	Z:	0.438	yaw:	1.612	yaw rate:	31.072	Roll:	2.747	Pitch:	-0.900	Yaw:	-3.723	Thrust:	57.097
Time:	4.353	Roll Set Point:	-0.382	Pitch Set Point:	0.198	Yaw Set Point:	-0.027	X_WP:	0.000	Y_WP:	0.000	Z_WP:	0.500	X:	0.192	Y:	-0.096	Z:	0.437	yaw:	1.525	yaw rate:	8.739	Roll:	2.496	Pitch:	-1.511	Yaw:	-0.849	Thrust:	61.015
Time:	4.373	Roll Set Point:	-0.382	Pitch Set Point:	0.197	Yaw Set Point:	-0.025	X_WP:	0.000	Y_WP:	0.000	Z_WP:	0.500	X:	0.192	Y:	-0.096	Z:	0.436	yaw:	1.424	yaw rate:	10.105	Roll:	2.623	Pitch:	-0.980	Yaw:	-1.139	Thrust:	57.209
Time:	4.393	Roll Set Point:	-0.380	Pitch Set Point:	0.199	Yaw Set Point:	-0.031	X_WP:	0.000	Y_WP:	0.000	Z_WP:	0.500	X:	0.191	Y:	-0.096	Z:	0.435	yaw:	1.766	yaw rate:	-34.168	Roll:	1.622	Pitch:	-2.673	Yaw:	4.956	Thrust:	59.833
Time:	4.413	Roll Set Point:	-0.379	Pitch Set Point:	0.199	Yaw Set Point:	-0.031	X_WP:	0.000	Y_WP:	0.000	Z_WP:	0.500	X:	0.191	Y:	-0.097	Z:	0.434	yaw:	1.753	yaw rate:	1.307	Roll:	2.283	Pitch:	-1.557	Yaw:	0.495	Thrust:	60.371
Time:	4.433	Roll Set Point:	-0.378	Pitch Set Point:	0.200	Yaw Set Point:	-0.033	X_WP:	0.000	Y_WP:	0.000	Z_WP:	0.500	X:	0.191	Y:	-0.097	Z:	0.433	yaw:	1.880	yaw rate:	-12.752	Roll:	2.111	Pitch:	-1.876	Yaw:	2.418	Thrust:	60.536
Time:	4.452	Roll Set Point:	-0.379	Pitch Set Point:	0.199	Yaw Set Point:	-0.026	X_WP:	0.000	Y_WP:	0.000	Z_WP:	0.500	X:	0.191	Y:	-0.097	Z:	0.432	yaw:	1.475	yaw rate:	40.484	Roll:	3.260	Pitch:	-0.757	Yaw:	-5.172	Thrust:	57.460
Time:	4.473	Roll Set Point:	-0.378	Pitch Set Point:	0.199	Yaw Set Point:	-0.024	X_WP:	0.000	Y_WP:	0.000	Z_WP:	0.500	X:	0.190	Y:	-0.097	Z:	0.431	yaw:	1.360	yaw rate:	11.516	Roll:	2.386	Pitch:	-1.312	Yaw:	-1.378	Thrust:	61.361
Time:	4.493	Roll Set Point:	-0.375	Pitch Set Point:	0.200	Yaw Set Point:	-0.032	X_WP:	0.000	Y_WP:	0.000	Z_WP:	0.500	X:	0.189	Y:	-0.097	Z:	0.431	yaw:	1.815	yaw rate:	-45.457	Roll:	1.214	Pitch:	-2.488	Yaw:	6.909	Thrust:	58.170
Time:	4.514	Roll Set Point:	-0.376	Pitch Set Point:	0.200	Yaw Set Point:	-0.027	X_WP:	0.000	Y_WP:	0.000	Z_WP:	0.500	X:	0.189	Y:	-0.097	Z:	0.431	yaw:	1.572	yaw rate:	24.292	Roll:	2.821	Pitch:	-0.926	Yaw:	-2.716	Thrust:	59.079
Time:	4.532	Roll Set Point:	-0.375	Pitch Set Point:	0.199	Yaw Set Point:	-0.025	X_WP:	0.000	Y_WP:	0.000	Z_WP:	0.500	X:	0.189	Y:	-0.097	Z:	0.430	yaw:	1.457	yaw rate:	11.521	Roll:	2.559	Pitch:	-1.264	Yaw:	-1.195	Thrust:	59.637
Time:	4.553	Roll Set Point:	-0.374	Pitch Set Point:	0.200	Yaw Set Point:	-0.026	X_WP:	0.000	Y_WP:	0.000	Z_WP:	0.500	X:	0.188	Y:	-0.097	Z:	0.430	yaw:	1.499	yaw rate:	-4.253	Roll:	1.994	Pitch:	-1.727	Yaw:	0.938	Thrust:	58.756
Time:	4.572	Roll Set Point:	-0.373	Pitch Set Point:	0.200	Yaw Set Point:	-0.029	X_WP:	0.000	Y_WP:	0.000	Z_WP:	0.500	X:	0.188	Y:	-0.097	Z:	0.430	yaw:	1.653	yaw rate:	-15.370	Roll:	2.033	Pitch:	-1.952	Yaw:	2.601	Thrust:	59.379
Time:	4.594	Roll Set Point:	-0.371	Pitch Set Point:	0.202	Yaw Set Point:	-0.037	X_WP:	0.000	Y_WP:	0.000	Z_WP:	0.500	X:	0.187	Y:	-0.098	Z:	0.429	yaw:	2.123	yaw rate:	-47.040	Roll:	1.417	Pitch:	-2.834	Yaw:	6.975	Thrust:	62.006
Time:	4.614	Roll Set Point:	-0.371	Pitch Set Point:	0.201	Yaw Set Point:	-0.029	X_WP:	0.000	Y_WP:	0.000	Z_WP:	0.500	X:	0.187	Y:	-0.098	Z:	0.429	yaw:	1.639	yaw rate:	48.393	Roll:	2.918	Pitch:	-0.451	Yaw:	-5.950	Thrust:	58.478
Time:	4.633	Roll Set Point:	-0.369	Pitch Set Point:	0.201	Yaw Set Point:	-0.034	X_WP:	0.000	Y_WP:	0.000	Z_WP:	0.500	X:	0.186	Y:	-0.098	Z:	0.429	yaw:	1.956	yaw rate:	-31.665	Roll:	1.541	Pitch:	-2.112	Yaw:	5.036	Thrust:	60.445
Time:	4.652	Roll Set Point:	-0.369	Pitch Set Point:	0.200	Yaw Set Point:	-0.026	X_WP:	0.000	Y_WP:	0.000	Z_WP:	0.500	X:	0.186	Y:	-0.097	Z:	0.430	yaw:	1.485	yaw rate:	47.070	Roll:	3.101	Pitch:	-0.122	Yaw:	-5.962	Thrust:	55.549
Time:	4.672	Roll Set Point:	-0.368	Pitch Set Point:	0.200	Yaw Set Point:	-0.029	X_WP:	0.000	Y_WP:	0.000	Z_WP:	0.500	X:	0.185	Y:	-0.098	Z:	0.430	yaw:	1.659	yaw rate:	-17.400	Roll:	1.743	Pitch:	-2.059	Yaw:	2.979	Thrust:	59.469
Time:	4.693	Roll Set Point:	-0.366	Pitch Set Point:	0.201	Yaw Set Point:	-0.031	X_WP:	0.000	Y_WP:	0.000	Z_WP:	0.500	X:	0.185	Y:	-0.098	Z:	0.430	yaw:	1.749	yaw rate:	-8.970	Roll:	1.995	Pitch:	-1.768	Yaw:	1.913	Thrust:	60.119
Time:	4.714	Roll Set Point:	-0.365	Pitch Set Point:	0.201	Yaw Set Point:	-0.033	X_WP:	0.000	Y_WP:	0.000	Z_WP:	0.500	X:	0.184	Y:	-0.097	Z:	0.431	yaw:	1.873	yaw rate:	-12.438	Roll:	2.063	Pitch:	-1.816	Yaw:	2.611	Thrust:	58.763
Time:	4.733	Roll Set Point:	-0.366	Pitch Set Point:	0.202	Yaw Set Point:	-0.034	X_WP:	0.000	Y_WP:	0.000	Z_WP:	0.500	X:	0.185	Y:	-0.098	Z:	0.432	yaw:	1.956	yaw rate:	-8.313	Roll:	2.722	Pitch:	-2.080	Yaw:	2.184	Thrust:	59.549
Time:	4.753	Roll Set Point:	-0.366	Pitch Set Point:	0.199	Yaw Set Point:	-0.022	X_WP:	0.000	Y_WP:	0.000	Z_WP:	0.500	X:	0.184	Y:	-0.098	Z:	0.432	yaw:	1.243	yaw rate:	71.306	Roll:	3.045	Pitch:	0.624	Yaw:	-9.159	Thrust:	55.841
Time:	4.772	Roll Set Point:	-0.364	Pitch Set Point:	0.199	Yaw Set Point:	-0.024	X_WP:	0.000	Y_WP:	0.000	Z_WP:	0.500	X:	0.183	Y:	-0.097	Z:	0.434	yaw:	1.380	yaw rate:	-13.649	Roll:	1.847	Pitch:	-1.581	Yaw:	2.293	Thrust:	58.028
Time:	4.793	Roll Set Point:	-0.364	Pitch Set Point:	0.201	Yaw Set Point:	-0.032	X_WP:	0.000	Y_WP:	0.000	Z_WP:	0.500	X:	0.184	Y:	-0.097	Z:	0.434	yaw:	1.848	yaw rate:	-46.807	Roll:	2.041	Pitch:	-2.907	Yaw:	6.860	Thrust:	61.688
Time:	4.813	Roll Set Point:	-0.363	Pitch Set Point:	0.198	Yaw Set Point:	-0.025	X_WP:	0.000	Y_WP:	0.000	Z_WP:	0.500	X:	0.183	Y:	-0.097	Z:	0.435	yaw:	1.428	yaw rate:	41.989	Roll:	2.438	Pitch:	-0.024	Yaw:	-5.027	Thrust:	58.074
Time:	4.833	Roll Set Point:	-0.363	Pitch Set Point:	0.197	Yaw Set Point:	-0.020	X_WP:	0.000	Y_WP:	0.000	Z_WP:	0.500	X:	0.182	Y:	-0.097	Z:	0.436	yaw:	1.119	yaw rate:	30.867	Roll:	2.769	Pitch:	-0.797	Yaw:	-4.023	Thrust:	58.929
Time:	4.852	Roll Set Point:	-0.360	Pitch Set Point:	0.201	Yaw Set Point:	-0.043	X_WP:	0.000	Y_WP:	0.000	Z_WP:	0.500	X:	0.182	Y:	-0.097	Z:	0.437	yaw:	2.481	yaw rate:	-136.159	Roll:	0.123	Pitch:	-5.082	Yaw:	20.493	Thrust:	56.917
Time:	4.873	Roll Set Point:	-0.360	Pitch Set Point:	0.199	Yaw Set Point:	-0.034	X_WP:	0.000	Y_WP:	0.000	Z_WP:	0.500	X:	0.181	Y:	-0.097	Z:	0.438	yaw:	1.948	yaw rate:	53.333	Roll:	2.863	Pitch:	-0.073	Yaw:	-5.641	Thrust:	60.035
Time:	4.893	Roll Set Point:	-0.361	Pitch Set Point:	0.197	Yaw Set Point:	-0.023	X_WP:	0.000	Y_WP:	0.000	Z_WP:	0.500	X:	0.182	Y:	-0.097	Z:	0.439	yaw:	1.341	yaw rate:	60.641	Roll:	3.488	Pitch:	-0.020	Yaw:	-7.562	Thrust:	59.339
Time:	4.912	Roll Set Point:	-0.361	Pitch Set Point:	0.196	Yaw Set Point:	-0.020	X_WP:	0.000	Y_WP:	0.000	Z_WP:	0.500	X:	0.181	Y:	-0.096	Z:	0.440	yaw:	1.123	yaw rate:	21.774	Roll:	2.646	Pitch:	-0.767	Yaw:	-2.823	Thrust:	57.737
Time:	4.933	Roll Set Point:	-0.360	Pitch Set Point:	0.195	Yaw Set Point:	-0.017	X_WP:	0.000	Y_WP:	0.000	Z_WP:	0.500	X:	0.181	Y:	-0.096	Z:	0.441	yaw:	1.000	yaw rate:	12.334	Roll:	2.301	Pitch:	-0.900	Yaw:	-1.715	Thrust:	57.698
Time:	4.952	Roll Set Point:	-0.358	Pitch Set Point:	0.195	Yaw Set Point:	-0.020	X_WP:	0.000	Y_WP:	0.000	Z_WP:	0.500	X:	0.180	Y:	-0.096	Z:	0.442	yaw:	1.121	yaw rate:	-12.076	Roll:	1.872	Pitch:	-1.554	Yaw:	1.705	Thrust:	58.181
Time:	4.972	Roll Set Point:	-0.358	Pitch Set Point:	0.194	Yaw Set Point:	-0.019	X_WP:	0.000	Y_WP:	0.000	Z_WP:	0.500	X:	0.180	Y:	-0.095	Z:	0.443	yaw:	1.090	yaw rate:	3.084	Roll:	2.358	Pitch:	-1.306	Yaw:	-0.362	Thrust:	58.840
Time:	4.997	Roll Set Point:	-0.356	Pitch Set Point:	0.195	Yaw Set Point:	-0.028	X_WP:	0.000	Y_WP:	0.000	Z_WP:	0.500	X:	0.179	Y:	-0.095	Z:	0.444	yaw:	1.583	yaw rate:	-49.304	Roll:	1.763	Pitch:	-2.589	Yaw:	5.583	Thrust:	73.854
Time:	5.013	Roll Set Point:	-0.356	Pitch Set Point:	0.193	Yaw Set Point:	-0.022	X_WP:	0.000	Y_WP:	0.000	Z_WP:	0.500	X:	0.179	Y:	-0.095	Z:	0.445	yaw:	1.235	yaw rate:	34.843	Roll:	2.895	Pitch:	-0.008	Yaw:	-5.016	Thrust:	47.755
Time:	5.034	Roll Set Point:	-0.356	Pitch Set Point:	0.193	Yaw Set Point:	-0.025	X_WP:	0.000	Y_WP:	0.000	Z_WP:	0.500	X:	0.179	Y:	-0.095	Z:	0.447	yaw:	1.431	yaw rate:	-19.592	Roll:	1.965	Pitch:	-1.907	Yaw:	3.182	Thrust:	58.028
Time:	5.053	Roll Set Point:	-0.355	Pitch Set Point:	0.195	Yaw Set Point:	-0.032	X_WP:	0.000	Y_WP:	0.000	Z_WP:	0.500	X:	0.179	Y:	-0.095	Z:	0.447	yaw:	1.859	yaw rate:	-42.848	Roll:	2.029	Pitch:	-2.861	Yaw:	6.657	Thrust:	60.896
Time:	5.073	Roll Set Point:	-0.355	Pitch Set Point:	0.192	Yaw Set Point:	-0.020	X_WP:	0.000	Y_WP:	0.000	Z_WP:	0.500	X:	0.179	Y:	-0.094	Z:	0.449	yaw:	1.118	yaw rate:	74.139	Roll:	3.141	Pitch:	0.606	Yaw:	-9.554	Thrust:	55.544
Time:	5.095	Roll Set Point:	-0.354	Pitch Set Point:	0.191	Yaw Set Point:	-0.021	X_WP:	0.000	Y_WP:	0.000	Z_WP:	0.500	X:	0.178	Y:	-0.094	Z:	0.450	yaw:	1.189	yaw rate:	-7.127	Roll:	2.007	Pitch:	-1.313	Yaw:	1.100	Thrust:	61.491
Time:	5.115	Roll Set Point:	-0.354	Pitch Set Point:	0.191	Yaw Set Point:	-0.024	X_WP:	0.000	Y_WP:	0.000	Z_WP:	0.500	X:	0.178	Y:	-0.093	Z:	0.452	yaw:	1.362	yaw rate:	-17.306	Roll:	2.109	Pitch:	-1.716	Yaw:	2.729	Thrust:	59.723
Time:	5.134	Roll Set Point:	-0.352	Pitch Set Point:	0.193	Yaw Set Point:	-0.040	X_WP:	0.000	Y_WP:	0.000	Z_WP:	0.500	X:	0.178	Y:	-0.093	Z:	0.453	yaw:	2.297	yaw rate:	-93.477	Roll:	0.958	Pitch:	-3.765	Yaw:	13.996	Thrust:	57.332
Time:	5.154	Roll Set Point:	-0.353	Pitch Set Point:	0.190	Yaw Set Point:	-0.023	X_WP:	0.000	Y_WP:	0.000	Z_WP:	0.500	X:	0.178	Y:	-0.093	Z:	0.455	yaw:	1.309	yaw rate:	98.824	Roll:	3.775	Pitch:	1.050	Yaw:	-12.762	Thrust:	57.362
Time:	5.173	Roll Set Point:	-0.352	Pitch Set Point:	0.189	Yaw Set Point:	-0.020	X_WP:	0.000	Y_WP:	0.000	Z_WP:	0.500	X:	0.177	Y:	-0.093	Z:	0.458	yaw:	1.146	yaw rate:	16.216	Roll:	2.336	Pitch:	-0.635	Yaw:	-1.933	Thrust:	54.733
Time:	5.194	Roll Set Point:	-0.352	Pitch Set Point:	0.187	Yaw Set Point:	-0.018	X_WP:	0.000	Y_WP:	0.000	Z_WP:	0.500	X:	0.177	Y:	-0.092	Z:	0.460	yaw:	1.048	yaw rate:	9.884	Roll:	2.436	Pitch:	-0.934	Yaw:	-1.208	Thrust:	57.573
Time:	5.215	Roll Set Point:	-0.352	Pitch Set Point:	0.187	Yaw Set Point:	-0.018	X_WP:	0.000	Y_WP:	0.000	Z_WP:	0.500	X:	0.177	Y:	-0.092	Z:	0.462	yaw:	1.055	yaw rate:	-0.761	Roll:	2.558	Pitch:	-1.436	Yaw:	0.074	Thrust:	64.350
Time:	5.234	Roll Set Point:	-0.350	Pitch Set Point:	0.187	Yaw Set Point:	-0.026	X_WP:	0.000	Y_WP:	0.000	Z_WP:	0.500	X:	0.176	Y:	-0.091	Z:	0.463	yaw:	1.483	yaw rate:	-42.763	Roll:	1.119	Pitch:	-2.469	Yaw:	7.232	Thrust:	50.268
Time:	5.261	Roll Set Point:	-0.350	Pitch Set Point:	0.186	Yaw Set Point:	-0.023	X_WP:	0.000	Y_WP:	0.000	Z_WP:	0.500	X:	0.176	Y:	-0.091	Z:	0.465	yaw:	1.307	yaw rate:	17.605	Roll:	2.970	Pitch:	-1.322	Yaw:	-1.707	Thrust:	79.866
Time:	5.273	Roll Set Point:	-0.350	Pitch Set Point:	0.185	Yaw Set Point:	-0.019	X_WP:	0.000	Y_WP:	0.000	Z_WP:	0.500	X:	0.176	Y:	-0.091	Z:	0.467	yaw:	1.078	yaw rate:	22.918	Roll:	2.520	Pitch:	0.202	Yaw:	-4.078	Thrust:	30.988
Time:	5.294	Roll Set Point:	-0.348	Pitch Set Point:	0.186	Yaw Set Point:	-0.030	X_WP:	0.000	Y_WP:	0.000	Z_WP:	0.500	X:	0.176	Y:	-0.090	Z:	0.469	yaw:	1.724	yaw rate:	-64.624	Roll:	1.283	Pitch:	-2.855	Yaw:	9.503	Thrust:	62.306
Time:	5.313	Roll Set Point:	-0.349	Pitch Set Point:	0.184	Yaw Set Point:	-0.020	X_WP:	0.000	Y_WP:	0.000	Z_WP:	0.500	X:	0.176	Y:	-0.090	Z:	0.470	yaw:	1.135	yaw rate:	58.897	Roll:	3.264	Pitch:	0.158	Yaw:	-7.455	Thrust:	57.723
Time:	5.333	Roll Set Point:	-0.348	Pitch Set Point:	0.185	Yaw Set Point:	-0.030	X_WP:	0.000	Y_WP:	0.000	Z_WP:	0.500	X:	0.176	Y:	-0.090	Z:	0.472	yaw:	1.734	yaw rate:	-59.968	Roll:	1.569	Pitch:	-2.891	Yaw:	9.177	Thrust:	57.254
