Time:	0.036	Roll Set Point:	0.009	Pitch Set Point:	-0.016	Yaw Set Point:	-0.059	X_WP:	0.000	Y_WP:	0.000	Y_WP:	0.500	X:	-0.005	Y:	0.008	Z:	0.057	yaw:	3.390	yaw rate:	0.177	Roll:	-0.163	Pitch:	0.335	Yaw:	4.733	Thrust:	24.346
Time:	0.046	Roll Set Point:	0.009	Pitch Set Point:	-0.016	Yaw Set Point:	-0.059	X_WP:	0.000	Y_WP:	0.000	Y_WP:	0.500	X:	-0.005	Y:	0.008	Z:	0.057	yaw:	3.408	yaw rate:	-1.801	Roll:	-0.220	Pitch:	0.347	Yaw:	5.233	Thrust:	24.945
Time:	0.057	Roll Set Point:	0.009	Pitch Set Point:	-0.016	Yaw Set Point:	-0.059	X_WP:	0.000	Y_WP:	0.000	Y_WP:	0.500	X:	-0.005	Y:	0.008	Z:	0.057	yaw:	3.404	yaw rate:	0.321	Roll:	-0.144	Pitch:	0.322	Yaw:	4.703	Thrust:	25.469
Time:	0.068	Roll Set Point:	0.009	Pitch Set Point:	-0.016	Yaw Set Point:	-0.059	X_WP:	0.000	Y_WP:	0.000	Y_WP:	0.500	X:	-0.004	Y:	0.008	Z:	0.057	yaw:	3.359	yaw rate:	4.547	Roll:	0.025	Pitch:	0.290	Yaw:	3.647	Thrust:	25.603
Time:	0.081	Roll Set Point:	0.008	Pitch Set Point:	-0.017	Yaw Set Point:	-0.057	X_WP:	0.000	Y_WP:	0.000	Y_WP:	0.500	X:	-0.004	Y:	0.008	Z:	0.057	yaw:	3.272	yaw rate:	8.720	Roll:	-0.069	Pitch:	0.494	Yaw:	2.901	Thrust:	27.078
Time:	0.101	Roll Set Point:	0.009	Pitch Set Point:	-0.017	Yaw Set Point:	-0.059	X_WP:	0.000	Y_WP:	0.000	Y_WP:	0.500	X:	-0.004	Y:	0.008	Z:	0.057	yaw:	3.371	yaw rate:	-9.943	Roll:	-0.249	Pitch:	0.403	Yaw:	6.152	Thrust:	29.308
Time:	0.113	Roll Set Point:	0.009	Pitch Set Point:	-0.017	Yaw Set Point:	-0.060	X_WP:	0.000	Y_WP:	0.000	Y_WP:	0.500	X:	-0.005	Y:	0.008	Z:	0.057	yaw:	3.445	yaw rate:	-12.310	Roll:	-0.206	Pitch:	0.274	Yaw:	6.468	Thrust:	28.790
Time:	0.124	Roll Set Point:	0.008	Pitch Set Point:	-0.017	Yaw Set Point:	-0.057	X_WP:	0.000	Y_WP:	0.000	Y_WP:	0.500	X:	-0.004	Y:	0.008	Z:	0.058	yaw:	3.281	yaw rate:	16.449	Roll:	-0.027	Pitch:	0.583	Yaw:	0.579	Thrust:	27.936
Time:	0.135	Roll Set Point:	0.008	Pitch Set Point:	-0.017	Yaw Set Point:	-0.058	X_WP:	0.000	Y_WP:	0.000	Y_WP:	0.500	X:	-0.004	Y:	0.008	Z:	0.058	yaw:	3.344	yaw rate:	-6.262	Roll:	-0.230	Pitch:	0.427	Yaw:	6.249	Thrust:	28.795
Time:	0.146	Roll Set Point:	0.008	Pitch Set Point:	-0.017	Yaw Set Point:	-0.057	X_WP:	0.000	Y_WP:	0.000	Y_WP:	0.500	X:	-0.004	Y:	0.008	Z:	0.058	yaw:	3.285	yaw rate:	5.895	Roll:	-0.172	Pitch:	0.327	Yaw:	3.343	Thrust:	30.012
Time:	0.168	Roll Set Point:	0.009	Pitch Set Point:	-0.017	Yaw Set Point:	-0.058	X_WP:	0.000	Y_WP:	0.000	Y_WP:	0.500	X:	-0.005	Y:	0.008	Z:	0.057	yaw:	3.305	yaw rate:	-2.084	Roll:	-0.256	Pitch:	0.405	Yaw:	5.121	Thrust:	35.616
Time:	0.178	Roll Set Point:	0.008	Pitch Set Point:	-0.017	Yaw Set Point:	-0.058	X_WP:	0.000	Y_WP:	0.000	Y_WP:	0.500	X:	-0.004	Y:	0.008	Z:	0.058	yaw:	3.304	yaw rate:	-0.701	Roll:	-0.116	Pitch:	0.441	Yaw:	4.709	Thrust:	30.640
Time:	0.190	Roll Set Point:	0.008	Pitch Set Point:	-0.017	Yaw Set Point:	-0.055	X_WP:	0.000	Y_WP:	0.000	Y_WP:	0.500	X:	-0.004	Y:	0.008	Z:	0.058	yaw:	3.137	yaw rate:	16.656	Roll:	0.392	Pitch:	0.611	Yaw:	0.926	Thrust:	31.947
Time:	0.201	Roll Set Point:	0.008	Pitch Set Point:	-0.017	Yaw Set Point:	-0.054	X_WP:	0.000	Y_WP:	0.000	Y_WP:	0.500	X:	-0.004	Y:	0.008	Z:	0.058	yaw:	3.100	yaw rate:	3.674	Roll:	-0.607	Pitch:	0.275	Yaw:	3.575	Thrust:	31.597
Time:	0.212	Roll Set Point:	0.008	Pitch Set Point:	-0.017	Yaw Set Point:	-0.055	X_WP:	0.000	Y_WP:	0.000	Y_WP:	0.500	X:	-0.004	Y:	0.008	Z:	0.057	yaw:	3.155	yaw rate:	-5.408	Roll:	-0.218	Pitch:	0.342	Yaw:	5.801	Thrust:	33.167
Time:	0.232	Roll Set Point:	0.009	Pitch Set Point:	-0.017	Yaw Set Point:	-0.058	X_WP:	0.000	Y_WP:	0.000	Y_WP:	0.500	X:	-0.005	Y:	0.008	Z:	0.057	yaw:	3.301	yaw rate:	-14.677	Roll:	-0.386	Pitch:	0.374	Yaw:	6.870	Thrust:	40.419
Time:	0.244	Roll Set Point:	0.008	Pitch Set Point:	-0.017	Yaw Set Point:	-0.054	X_WP:	0.000	Y_WP:	0.000	Y_WP:	0.500	X:	-0.004	Y:	0.008	Z:	0.058	yaw:	3.093	yaw rate:	11.817	Roll:	0.181	Pitch:	0.707	Yaw:	-0.321	Thrust:	32.678
Time:	0.255	Roll Set Point:	0.008	Pitch Set Point:	-0.017	Yaw Set Point:	-0.056	X_WP:	0.000	Y_WP:	0.000	Y_WP:	0.500	X:	-0.004	Y:	0.008	Z:	0.058	yaw:	3.201	yaw rate:	-10.762	Roll:	-0.463	Pitch:	0.324	Yaw:	7.351	Thrust:	34.739
Time:	0.265	Roll Set Point:	0.008	Pitch Set Point:	-0.017	Yaw Set Point:	-0.056	X_WP:	0.000	Y_WP:	0.000	Y_WP:	0.500	X:	-0.004	Y:	0.008	Z:	0.058	yaw:	3.212	yaw rate:	-1.132	Roll:	-0.017	Pitch:	0.534	Yaw:	4.982	Thrust:	34.691
Time:	0.277	Roll Set Point:	0.008	Pitch Set Point:	-0.017	Yaw Set Point:	-0.056	X_WP:	0.000	Y_WP:	0.000	Y_WP:	0.500	X:	-0.004	Y:	0.008	Z:	0.058	yaw:	3.232	yaw rate:	-2.004	Roll:	-0.243	Pitch:	0.262	Yaw:	5.219	Thrust:	36.109
Time:	0.300	Roll Set Point:	0.008	Pitch Set Point:	-0.017	Yaw Set Point:	-0.054	X_WP:	0.000	Y_WP:	0.000	Y_WP:	0.500	X:	-0.004	Y:	0.008	Z:	0.058	yaw:	3.101	yaw rate:	13.162	Roll:	-0.211	Pitch:	0.578	Yaw:	3.322	Thrust:	48.447
Time:	0.310	Roll Set Point:	0.008	Pitch Set Point:	-0.017	Yaw Set Point:	-0.057	X_WP:	0.000	Y_WP:	0.000	Y_WP:	0.500	X:	-0.004	Y:	0.008	Z:	0.057	yaw:	3.273	yaw rate:	-4.928	Roll:	-0.357	Pitch:	0.258	Yaw:	9.027	Thrust:	36.439
Time:	0.320	Roll Set Point:	0.008	Pitch Set Point:	-0.017	Yaw Set Point:	-0.055	X_WP:	0.000	Y_WP:	0.000	Y_WP:	0.500	X:	-0.004	Y:	0.008	Z:	0.058	yaw:	3.139	yaw rate:	13.403	Roll:	-0.069	Pitch:	0.496	Yaw:	1.135	Thrust:	35.794
Time:	0.331	Roll Set Point:	0.009	Pitch Set Point:	-0.017	Yaw Set Point:	-0.057	X_WP:	0.000	Y_WP:	0.000	Y_WP:	0.500	X:	-0.004	Y:	0.008	Z:	0.058	yaw:	3.266	yaw rate:	-12.742	Roll:	-0.412	Pitch:	0.341	Yaw:	8.004	Thrust:	37.225
Time:	0.341	Roll Set Point:	0.009	Pitch Set Point:	-0.017	Yaw Set Point:	-0.057	X_WP:	0.000	Y_WP:	0.000	Y_WP:	0.500	X:	-0.004	Y:	0.008	Z:	0.058	yaw:	3.286	yaw rate:	-2.016	Roll:	-0.216	Pitch:	0.600	Yaw:	5.378	Thrust:	37.462
Time:	0.354	Roll Set Point:	0.008	Pitch Set Point:	-0.017	Yaw Set Point:	-0.054	X_WP:	0.000	Y_WP:	0.000	Y_WP:	0.500	X:	-0.004	Y:	0.008	Z:	0.058	yaw:	3.116	yaw rate:	17.042	Roll:	0.100	Pitch:	0.612	Yaw:	1.308	Thrust:	41.606
Time:	0.369	Roll Set Point:	0.008	Pitch Set Point:	-0.017	Yaw Set Point:	-0.056	X_WP:	0.000	Y_WP:	0.000	Y_WP:	0.500	X:	-0.004	Y:	0.008	Z:	0.058	yaw:	3.201	yaw rate:	-8.482	Roll:	-0.466	Pitch:	0.470	Yaw:	6.466	Thrust:	43.761
Time:	0.379	Roll Set Point:	0.008	Pitch Set Point:	-0.017	Yaw Set Point:	-0.057	X_WP:	0.000	Y_WP:	0.000	Y_WP:	0.500	X:	-0.004	Y:	0.008	Z:	0.058	yaw:	3.253	yaw rate:	-5.255	Roll:	-0.231	Pitch:	0.233	Yaw:	6.128	Thrust:	40.443
Time:	0.391	Roll Set Point:	0.008	Pitch Set Point:	-0.017	Yaw Set Point:	-0.057	X_WP:	0.000	Y_WP:	0.000	Y_WP:	0.500	X:	-0.004	Y:	0.008	Z:	0.058	yaw:	3.254	yaw rate:	-0.097	Roll:	-0.055	Pitch:	0.607	Yaw:	4.948	Thrust:	41.959
Time:	0.402	Roll Set Point:	0.008	Pitch Set Point:	-0.017	Yaw Set Point:	-0.054	X_WP:	0.000	Y_WP:	0.000	Y_WP:	0.500	X:	-0.004	Y:	0.008	Z:	0.058	yaw:	3.093	yaw rate:	16.105	Roll:	-0.173	Pitch:	0.537	Yaw:	0.856	Thrust:	41.295
Time:	0.414	Roll Set Point:	0.009	Pitch Set Point:	-0.017	Yaw Set Point:	-0.057	X_WP:	0.000	Y_WP:	0.000	Y_WP:	0.500	X:	-0.005	Y:	0.008	Z:	0.058	yaw:	3.269	yaw rate:	-17.615	Roll:	-0.540	Pitch:	0.294	Yaw:	8.910	Thrust:	43.056
Time:	0.434	Roll Set Point:	0.009	Pitch Set Point:	-0.017	Yaw Set Point:	-0.058	X_WP:	0.000	Y_WP:	0.000	Y_WP:	0.500	X:	-0.005	Y:	0.008	Z:	0.058	yaw:	3.318	yaw rate:	-4.878	Roll:	-0.269	Pitch:	0.548	Yaw:	5.974	Thrust:	56.607
Time:	0.445	Roll Set Point:	0.009	Pitch Set Point:	-0.017	Yaw Set Point:	-0.057	X_WP:	0.000	Y_WP:	0.000	Y_WP:	0.500	X:	-0.005	Y:	0.008	Z:	0.058	yaw:	3.268	yaw rate:	-16.820	Roll:	-0.224	Pitch:	0.582	Yaw:	3.787	Thrust:	42.872
Time:	0.456	Roll Set Point:	0.009	Pitch Set Point:	-0.017	Yaw Set Point:	-0.056	X_WP:	0.000	Y_WP:	0.000	Y_WP:	0.500	X:	-0.004	Y:	0.008	Z:	0.058	yaw:	3.189	yaw rate:	7.870	Roll:	-0.230	Pitch:	0.665	Yaw:	3.099	Thrust:	44.356
Time:	0.467	Roll Set Point:	0.009	Pitch Set Point:	-0.017	Yaw Set Point:	-0.057	X_WP:	0.000	Y_WP:	0.000	Y_WP:	0.500	X:	-0.005	Y:	0.008	Z:	0.058	yaw:	3.250	yaw rate:	-6.010	Roll:	-0.291	Pitch:	0.420	Yaw:	6.437	Thrust:	43.500
Time:	0.480	Roll Set Point:	0.009	Pitch Set Point:	-0.017	Yaw Set Point:	-0.055	X_WP:	0.000	Y_WP:	0.000	Y_WP:	0.500	X:	-0.005	Y:	0.008	Z:	0.058	yaw:	3.174	yaw rate:	7.514	Roll:	-0.449	Pitch:	0.619	Yaw:	3.288	Thrust:	46.695
Time:	0.498	Roll Set Point:	0.009	Pitch Set Point:	-0.017	Yaw Set Point:	-0.055	X_WP:	0.000	Y_WP:	0.000	Y_WP:	0.500	X:	-0.005	Y:	0.008	Z:	0.058	yaw:	3.156	yaw rate:	1.834	Roll:	-0.234	Pitch:	0.605	Yaw:	4.934	Thrust:	59.982
Time:	0.509	Roll Set Point:	0.009	Pitch Set Point:	-0.017	Yaw Set Point:	-0.054	X_WP:	0.000	Y_WP:	0.000	Y_WP:	0.500	X:	-0.005	Y:	0.008	Z:	0.058	yaw:	3.077	yaw rate:	-0.665	Roll:	-0.606	Pitch:	0.791	Yaw:	2.769	Thrust:	45.608
Time:	0.520	Roll Set Point:	0.009	Pitch Set Point:	-0.017	Yaw Set Point:	-0.052	X_WP:	0.000	Y_WP:	0.000	Y_WP:	0.500	X:	-0.005	Y:	0.008	Z:	0.058	yaw:	2.973	yaw rate:	10.369	Roll:	-0.532	Pitch:	0.458	Yaw:	2.165	Thrust:	46.724
Time:	0.530	Roll Set Point:	0.009	Pitch Set Point:	-0.017	Yaw Set Point:	-0.051	X_WP:	0.000	Y_WP:	0.000	Y_WP:	0.500	X:	-0.005	Y:	0.008	Z:	0.058	yaw:	2.897	yaw rate:	7.634	Roll:	-0.267	Pitch:	0.603	Yaw:	2.691	Thrust:	46.498
Time:	0.542	Roll Set Point:	0.009	Pitch Set Point:	-0.017	Yaw Set Point:	-0.047	X_WP:	0.000	Y_WP:	0.000	Y_WP:	0.500	X:	-0.005	Y:	0.008	Z:	0.058	yaw:	2.686	yaw rate:	21.051	Roll:	0.039	Pitch:	0.660	Yaw:	-1.035	Thrust:	46.348
Time:	0.555	Roll Set Point:	0.009	Pitch Set Point:	-0.017	Yaw Set Point:	-0.049	X_WP:	0.000	Y_WP:	0.000	Y_WP:	0.500	X:	-0.005	Y:	0.008	Z:	0.058	yaw:	2.831	yaw rate:	-14.428	Roll:	-0.562	Pitch:	0.270	Yaw:	7.286	Thrust:	55.314
Time:	0.570	Roll Set Point:	0.009	Pitch Set Point:	-0.017	Yaw Set Point:	-0.048	X_WP:	0.000	Y_WP:	0.000	Y_WP:	0.500	X:	-0.005	Y:	0.008	Z:	0.058	yaw:	2.732	yaw rate:	9.884	Roll:	-0.377	Pitch:	0.633	Yaw:	2.636	Thrust:	55.708
Time:	0.580	Roll Set Point:	0.009	Pitch Set Point:	-0.017	Yaw Set Point:	-0.049	X_WP:	0.000	Y_WP:	0.000	Y_WP:	0.500	X:	-0.005	Y:	0.008	Z:	0.058	yaw:	2.826	yaw rate:	-9.457	Roll:	-0.108	Pitch:	0.354	Yaw:	6.710	Thrust:	49.195
Time:	0.593	Roll Set Point:	0.009	Pitch Set Point:	-0.017	Yaw Set Point:	-0.051	X_WP:	0.000	Y_WP:	0.000	Y_WP:	0.500	X:	-0.005	Y:	0.008	Z:	0.058	yaw:	2.934	yaw rate:	-10.757	Roll:	-0.076	Pitch:	0.462	Yaw:	6.957	Thrust:	52.609
Time:	0.603	Roll Set Point:	0.009	Pitch Set Point:	-0.017	Yaw Set Point:	-0.051	X_WP:	0.000	Y_WP:	0.000	Y_WP:	0.500	X:	-0.005	Y:	0.008	Z:	0.058	yaw:	2.905	yaw rate:	2.895	Roll:	-0.011	Pitch:	0.468	Yaw:	3.862	Thrust:	50.678
Time:	0.614	Roll Set Point:	0.009	Pitch Set Point:	-0.016	Yaw Set Point:	-0.050	X_WP:	0.000	Y_WP:	0.000	Y_WP:	0.500	X:	-0.005	Y:	0.008	Z:	0.058	yaw:	2.859	yaw rate:	4.598	Roll:	-0.016	Pitch:	0.144	Yaw:	3.306	Thrust:	49.265
Time:	0.634	Roll Set Point:	0.009	Pitch Set Point:	-0.016	Yaw Set Point:	-0.048	X_WP:	0.000	Y_WP:	0.000	Y_WP:	0.500	X:	-0.004	Y:	0.008	Z:	0.058	yaw:	2.736	yaw rate:	12.318	Roll:	-0.295	Pitch:	0.722	Yaw:	3.322	Thrust:	74.224
Time:	0.645	Roll Set Point:	0.008	Pitch Set Point:	-0.016	Yaw Set Point:	-0.046	X_WP:	0.000	Y_WP:	0.000	Y_WP:	0.500	X:	-0.004	Y:	0.008	Z:	0.058	yaw:	2.630	yaw rate:	12.700	Roll:	-0.136	Pitch:	0.302	Yaw:	1.676	Thrust:	52.380
Time:	0.656	Roll Set Point:	0.008	Pitch Set Point:	-0.016	Yaw Set Point:	-0.044	X_WP:	0.000	Y_WP:	0.000	Y_WP:	0.500	X:	-0.004	Y:	0.008	Z:	0.058	yaw:	2.496	yaw rate:	13.373	Roll:	-0.044	Pitch:	0.548	Yaw:	0.728	Thrust:	51.332
Time:	0.666	Roll Set Point:	0.008	Pitch Set Point:	-0.016	Yaw Set Point:	-0.041	X_WP:	0.000	Y_WP:	0.000	Y_WP:	0.500	X:	-0.004	Y:	0.008	Z:	0.058	yaw:	2.357	yaw rate:	13.957	Roll:	0.149	Pitch:	0.743	Yaw:	0.583	Thrust:	52.326
Time:	0.677	Roll Set Point:	0.008	Pitch Set Point:	-0.016	Yaw Set Point:	-0.039	X_WP:	0.000	Y_WP:	0.000	Y_WP:	0.500	X:	-0.004	Y:	0.008	Z:	0.058	yaw:	2.259	yaw rate:	9.754	Roll:	0.292	Pitch:	0.665	Yaw:	1.367	Thrust:	53.004
Time:	0.695	Roll Set Point:	0.007	Pitch Set Point:	-0.017	Yaw Set Point:	-0.039	X_WP:	0.000	Y_WP:	0.000	Y_WP:	0.500	X:	-0.004	Y:	0.008	Z:	0.058	yaw:	2.232	yaw rate:	2.688	Roll:	0.136	Pitch:	0.891	Yaw:	3.707	Thrust:	72.546
Time:	0.706	Roll Set Point:	0.006	Pitch Set Point:	-0.017	Yaw Set Point:	-0.034	X_WP:	0.000	Y_WP:	0.000	Y_WP:	0.500	X:	-0.003	Y:	0.008	Z:	0.059	yaw:	1.962	yaw rate:	14.985	Roll:	0.799	Pitch:	0.959	Yaw:	-2.728	Thrust:	56.012
Time:	0.717	Roll Set Point:	0.006	Pitch Set Point:	-0.017	Yaw Set Point:	-0.033	X_WP:	0.000	Y_WP:	0.000	Y_WP:	0.500	X:	-0.003	Y:	0.008	Z:	0.059	yaw:	1.881	yaw rate:	8.010	Roll:	0.470	Pitch:	0.599	Yaw:	1.365	Thrust:	55.488
Time:	0.728	Roll Set Point:	0.005	Pitch Set Point:	-0.017	Yaw Set Point:	-0.030	X_WP:	0.000	Y_WP:	0.000	Y_WP:	0.500	X:	-0.003	Y:	0.008	Z:	0.059	yaw:	1.719	yaw rate:	16.271	Roll:	0.723	Pitch:	0.827	Yaw:	-0.819	Thrust:	55.794
Time:	0.740	Roll Set Point:	0.005	Pitch Set Point:	-0.017	Yaw Set Point:	-0.031	X_WP:	0.000	Y_WP:	0.000	Y_WP:	0.500	X:	-0.003	Y:	0.009	Z:	0.059	yaw:	1.765	yaw rate:	-4.616	Roll:	0.627	Pitch:	0.806	Yaw:	4.224	Thrust:	55.510
Time:	0.764	Roll Set Point:	0.004	Pitch Set Point:	-0.017	Yaw Set Point:	-0.029	X_WP:	0.000	Y_WP:	0.000	Y_WP:	0.500	X:	-0.002	Y:	0.009	Z:	0.059	yaw:	1.685	yaw rate:	7.972	Roll:	0.410	Pitch:	0.968	Yaw:	2.623	Thrust:	81.561
Time:	0.777	Roll Set Point:	0.003	Pitch Set Point:	-0.018	Yaw Set Point:	-0.032	X_WP:	0.000	Y_WP:	0.000	Y_WP:	0.500	X:	-0.001	Y:	0.009	Z:	0.060	yaw:	1.846	yaw rate:	-10.947	Roll:	1.019	Pitch:	1.195	Yaw:	6.080	Thrust:	81.819
Time:	0.788	Roll Set Point:	0.001	Pitch Set Point:	-0.018	Yaw Set Point:	-0.034	X_WP:	0.000	Y_WP:	0.000	Y_WP:	0.500	X:	-0.001	Y:	0.009	Z:	0.060	yaw:	1.949	yaw rate:	-5.085	Roll:	2.539	Pitch:	1.326	Yaw:	5.824	Thrust:	56.026
Time:	0.799	Roll Set Point:	0.000	Pitch Set Point:	-0.018	Yaw Set Point:	-0.034	X_WP:	0.000	Y_WP:	0.000	Y_WP:	0.500	X:	-0.000	Y:	0.009	Z:	0.061	yaw:	1.969	yaw rate:	-2.011	Roll:	1.386	Pitch:	0.903	Yaw:	3.906	Thrust:	57.560
Time:	0.811	Roll Set Point:	-0.001	Pitch Set Point:	-0.019	Yaw Set Point:	-0.035	X_WP:	0.000	Y_WP:	0.000	Y_WP:	0.500	X:	0.000	Y:	0.009	Z:	0.061	yaw:	2.032	yaw rate:	-6.290	Roll:	1.464	Pitch:	0.978	Yaw:	4.955	Thrust:	61.156
Time:	0.829	Roll Set Point:	-0.002	Pitch Set Point:	-0.019	Yaw Set Point:	-0.038	X_WP:	0.000	Y_WP:	0.000	Y_WP:	0.500	X:	0.001	Y:	0.010	Z:	0.062	yaw:	2.176	yaw rate:	-14.448	Roll:	1.239	Pitch:	1.132	Yaw:	6.328	Thrust:	77.135
Time:	0.840	Roll Set Point:	-0.005	Pitch Set Point:	-0.020	Yaw Set Point:	-0.040	X_WP:	0.000	Y_WP:	0.000	Y_WP:	0.500	X:	0.002	Y:	0.010	Z:	0.063	yaw:	2.307	yaw rate:	-13.064	Roll:	3.418	Pitch:	1.809	Yaw:	6.893	Thrust:	59.013
Time:	0.851	Roll Set Point:	-0.007	Pitch Set Point:	-0.020	Yaw Set Point:	-0.040	X_WP:	0.000	Y_WP:	0.000	Y_WP:	0.500	X:	0.003	Y:	0.010	Z:	0.064	yaw:	2.307	yaw rate:	-0.019	Roll:	2.980	Pitch:	1.520	Yaw:	3.938	Thrust:	58.391
Time:	0.862	Roll Set Point:	-0.009	Pitch Set Point:	-0.021	Yaw Set Point:	-0.041	X_WP:	0.000	Y_WP:	0.000	Y_WP:	0.500	X:	0.004	Y:	0.011	Z:	0.065	yaw:	2.328	yaw rate:	-2.057	Roll:	3.032	Pitch:	1.583	Yaw:	4.461	Thrust:	59.056
Time:	0.873	Roll Set Point:	-0.011	Pitch Set Point:	-0.022	Yaw Set Point:	-0.041	X_WP:	0.000	Y_WP:	0.000	Y_WP:	0.500	X:	0.005	Y:	0.011	Z:	0.066	yaw:	2.350	yaw rate:	-2.281	Roll:	3.316	Pitch:	1.797	Yaw:	4.552	Thrust:	58.988
Time:	0.884	Roll Set Point:	-0.013	Pitch Set Point:	-0.022	Yaw Set Point:	-0.041	X_WP:	0.000	Y_WP:	0.000	Y_WP:	0.500	X:	0.006	Y:	0.011	Z:	0.066	yaw:	2.344	yaw rate:	0.620	Roll:	3.873	Pitch:	1.795	Yaw:	3.865	Thrust:	60.158
Time:	0.899	Roll Set Point:	-0.016	Pitch Set Point:	-0.023	Yaw Set Point:	-0.041	X_WP:	0.000	Y_WP:	0.000	Y_WP:	0.500	X:	0.008	Y:	0.012	Z:	0.067	yaw:	2.366	yaw rate:	-2.168	Roll:	3.616	Pitch:	2.021	Yaw:	4.681	Thrust:	72.126
Time:	0.909	Roll Set Point:	-0.024	Pitch Set Point:	-0.027	Yaw Set Point:	-0.042	X_WP:	0.000	Y_WP:	0.000	Y_WP:	0.500	X:	0.012	Y:	0.014	Z:	0.069	yaw:	2.416	yaw rate:	-5.747	Roll:	12.337	Pitch:	5.421	Yaw:	5.333	Thrust:	57.003
Time:	0.920	Roll Set Point:	-0.027	Pitch Set Point:	-0.028	Yaw Set Point:	-0.041	X_WP:	0.000	Y_WP:	0.000	Y_WP:	0.500	X:	0.013	Y:	0.014	Z:	0.070	yaw:	2.355	yaw rate:	6.106	Roll:	5.227	Pitch:	3.232	Yaw:	2.605	Thrust:	61.402
Time:	0.931	Roll Set Point:	-0.030	Pitch Set Point:	-0.029	Yaw Set Point:	-0.041	X_WP:	0.000	Y_WP:	0.000	Y_WP:	0.500	X:	0.015	Y:	0.015	Z:	0.071	yaw:	2.337	yaw rate:	1.816	Roll:	6.047	Pitch:	3.253	Yaw:	3.551	Thrust:	58.090
Time:	0.943	Roll Set Point:	-0.033	Pitch Set Point:	-0.031	Yaw Set Point:	-0.040	X_WP:	0.000	Y_WP:	0.000	Y_WP:	0.500	X:	0.016	Y:	0.016	Z:	0.072	yaw:	2.279	yaw rate:	5.776	Roll:	5.531	Pitch:	3.584	Yaw:	2.746	Thrust:	63.188
Time:	0.958	Roll Set Point:	-0.037	Pitch Set Point:	-0.033	Yaw Set Point:	-0.039	X_WP:	0.000	Y_WP:	0.000	Y_WP:	0.500	X:	0.018	Y:	0.017	Z:	0.073	yaw:	2.256	yaw rate:	2.374	Roll:	5.174	Pitch:	3.239	Yaw:	3.769	Thrust:	79.092
Time:	0.976	Roll Set Point:	-0.040	Pitch Set Point:	-0.035	Yaw Set Point:	-0.038	X_WP:	0.000	Y_WP:	0.000	Y_WP:	0.500	X:	0.020	Y:	0.018	Z:	0.073	yaw:	2.159	yaw rate:	9.709	Roll:	3.588	Pitch:	2.920	Yaw:	2.997	Thrust:	95.878
Time:	0.986	Roll Set Point:	-0.044	Pitch Set Point:	-0.037	Yaw Set Point:	-0.038	X_WP:	0.000	Y_WP:	0.000	Y_WP:	0.500	X:	0.022	Y:	0.019	Z:	0.074	yaw:	2.162	yaw rate:	-0.307	Roll:	7.248	Pitch:	4.081	Yaw:	3.835	Thrust:	59.065
Time:	0.997	Roll Set Point:	-0.048	Pitch Set Point:	-0.039	Yaw Set Point:	-0.037	X_WP:	0.000	Y_WP:	0.000	Y_WP:	0.500	X:	0.023	Y:	0.020	Z:	0.075	yaw:	2.099	yaw rate:	6.243	Roll:	7.393	Pitch:	4.714	Yaw:	2.076	Thrust:	59.203
Time:	1.007	Roll Set Point:	-0.051	Pitch Set Point:	-0.041	Yaw Set Point:	-0.036	X_WP:	0.000	Y_WP:	0.000	Y_WP:	0.500	X:	0.025	Y:	0.021	Z:	0.077	yaw:	2.050	yaw rate:	4.879	Roll:	7.159	Pitch:	4.544	Yaw:	2.542	Thrust:	63.873
Time:	1.019	Roll Set Point:	-0.055	Pitch Set Point:	-0.043	Yaw Set Point:	-0.034	X_WP:	0.000	Y_WP:	0.000	Y_WP:	0.500	X:	0.027	Y:	0.022	Z:	0.078	yaw:	1.950	yaw rate:	10.046	Roll:	6.784	Pitch:	4.343	Yaw:	1.448	Thrust:	68.201
Time:	1.034	Roll Set Point:	-0.059	Pitch Set Point:	-0.045	Yaw Set Point:	-0.032	X_WP:	0.000	Y_WP:	0.000	Y_WP:	0.500	X:	0.029	Y:	0.023	Z:	0.079	yaw:	1.823	yaw rate:	12.653	Roll:	6.155	Pitch:	4.255	Yaw:	1.384	Thrust:	77.499
Time:	1.045	Roll Set Point:	-0.072	Pitch Set Point:	-0.052	Yaw Set Point:	-0.029	X_WP:	0.000	Y_WP:	0.000	Y_WP:	0.500	X:	0.036	Y:	0.027	Z:	0.084	yaw:	1.634	yaw rate:	16.819	Roll:	20.605	Pitch:	11.988	Yaw:	-1.405	Thrust:	52.631
Time:	1.056	Roll Set Point:	-0.076	Pitch Set Point:	-0.055	Yaw Set Point:	-0.026	X_WP:	0.000	Y_WP:	0.000	Y_WP:	0.500	X:	0.038	Y:	0.028	Z:	0.086	yaw:	1.481	yaw rate:	15.363	Roll:	8.548	Pitch:	5.750	Yaw:	-0.826	Thrust:	61.471
Time:	1.066	Roll Set Point:	-0.080	Pitch Set Point:	-0.057	Yaw Set Point:	-0.026	X_WP:	0.000	Y_WP:	0.000	Y_WP:	0.500	X:	0.040	Y:	0.029	Z:	0.087	yaw:	1.482	yaw rate:	-0.178	Roll:	8.563	Pitch:	5.149	Yaw:	2.952	Thrust:	61.189
Time:	1.077	Roll Set Point:	-0.085	Pitch Set Point:	-0.060	Yaw Set Point:	-0.024	X_WP:	0.000	Y_WP:	0.000	Y_WP:	0.500	X:	0.042	Y:	0.030	Z:	0.089	yaw:	1.392	yaw rate:	9.056	Roll:	8.784	Pitch:	5.821	Yaw:	0.546	Thrust:	61.064
Time:	1.097	Roll Set Point:	-0.089	Pitch Set Point:	-0.062	Yaw Set Point:	-0.021	X_WP:	0.000	Y_WP:	0.000	Y_WP:	0.500	X:	0.044	Y:	0.032	Z:	0.091	yaw:	1.225	yaw rate:	16.649	Roll:	6.253	Pitch:	4.737	Yaw:	0.937	Thrust:	100.000
Time:	1.107	Roll Set Point:	-0.093	Pitch Set Point:	-0.065	Yaw Set Point:	-0.018	X_WP:	0.000	Y_WP:	0.000	Y_WP:	0.500	X:	0.046	Y:	0.033	Z:	0.094	yaw:	1.059	yaw rate:	16.659	Roll:	7.644	Pitch:	6.031	Yaw:	-1.582	Thrust:	63.190
Time:	1.118	Roll Set Point:	-0.097	Pitch Set Point:	-0.068	Yaw Set Point:	-0.018	X_WP:	0.000	Y_WP:	0.000	Y_WP:	0.500	X:	0.048	Y:	0.034	Z:	0.096	yaw:	1.030	yaw rate:	2.906	Roll:	8.834	Pitch:	5.936	Yaw:	1.633	Thrust:	63.457
Time:	1.130	Roll Set Point:	-0.106	Pitch Set Point:	-0.073	Yaw Set Point:	-0.014	X_WP:	0.000	Y_WP:	0.000	Y_WP:	0.500	X:	0.053	Y:	0.037	Z:	0.100	yaw:	0.815	yaw rate:	8.478	Roll:	15.439	Pitch:	10.188	Yaw:	-2.830	Thrust:	57.075
Time:	1.140	Roll Set Point:	-0.114	Pitch Set Point:	-0.078	Yaw Set Point:	-0.011	X_WP:	0.000	Y_WP:	0.000	Y_WP:	0.500	X:	0.057	Y:	0.039	Z:	0.105	yaw:	0.604	yaw rate:	21.063	Roll:	15.861	Pitch:	11.471	Yaw:	-3.797	Thrust:	47.786
Time:	1.154	Roll Set Point:	-0.118	Pitch Set Point:	-0.081	Yaw Set Point:	-0.009	X_WP:	0.000	Y_WP:	0.000	Y_WP:	0.500	X:	0.059	Y:	0.041	Z:	0.107	yaw:	0.515	yaw rate:	8.892	Roll:	8.104	Pitch:	5.920	Yaw:	0.101	Thrust:	77.037
Time:	1.169	Roll Set Point:	-0.122	Pitch Set Point:	-0.084	Yaw Set Point:	-0.006	X_WP:	0.000	Y_WP:	0.000	Y_WP:	0.500	X:	0.061	Y:	0.042	Z:	0.109	yaw:	0.345	yaw rate:	16.991	Roll:	6.977	Pitch:	5.802	Yaw:	-0.992	Thrust:	87.738
Time:	1.180	Roll Set Point:	-0.126	Pitch Set Point:	-0.086	Yaw Set Point:	-0.004	X_WP:	0.000	Y_WP:	0.000	Y_WP:	0.500	X:	0.063	Y:	0.043	Z:	0.112	yaw:	0.224	yaw rate:	12.134	Roll:	8.661	Pitch:	6.598	Yaw:	-1.660	Thrust:	67.146
Time:	1.192	Roll Set Point:	-0.130	Pitch Set Point:	-0.089	Yaw Set Point:	-0.003	X_WP:	0.000	Y_WP:	0.000	Y_WP:	0.500	X:	0.065	Y:	0.044	Z:	0.114	yaw:	0.164	yaw rate:	5.959	Roll:	8.709	Pitch:	6.134	Yaw:	-0.095	Thrust:	70.220
Time:	1.203	Roll Set Point:	-0.134	Pitch Set Point:	-0.091	Yaw Set Point:	-0.001	X_WP:	0.000	Y_WP:	0.000	Y_WP:	0.500	X:	0.067	Y:	0.046	Z:	0.116	yaw:	0.062	yaw rate:	10.222	Roll:	9.272	Pitch:	6.699	Yaw:	-1.601	Thrust:	59.291
Time:	1.215	Roll Set Point:	-0.137	Pitch Set Point:	-0.094	Yaw Set Point:	0.002	X_WP:	0.000	Y_WP:	0.000	Y_WP:	0.500	X:	0.069	Y:	0.047	Z:	0.119	yaw:	-0.139	yaw rate:	20.105	Roll:	8.351	Pitch:	7.017	Yaw:	-3.574	Thrust:	73.563
Time:	1.234	Roll Set Point:	-0.141	Pitch Set Point:	-0.096	Yaw Set Point:	0.006	X_WP:	0.000	Y_WP:	0.000	Y_WP:	0.500	X:	0.071	Y:	0.048	Z:	0.121	yaw:	-0.336	yaw rate:	19.723	Roll:	6.808	Pitch:	5.706	Yaw:	-1.730	Thrust:	100.000
Time:	1.245	Roll Set Point:	-0.151	Pitch Set Point:	-0.102	Yaw Set Point:	0.015	X_WP:	0.000	Y_WP:	0.000	Y_WP:	0.500	X:	0.076	Y:	0.051	Z:	0.130	yaw:	-0.868	yaw rate:	45.913	Roll:	18.506	Pitch:	13.468	Yaw:	-13.191	Thrust:	40.413
Time:	1.255	Roll Set Point:	-0.154	Pitch Set Point:	-0.104	Yaw Set Point:	0.018	X_WP:	0.000	Y_WP:	0.000	Y_WP:	0.500	X:	0.077	Y:	0.051	Z:	0.133	yaw:	-1.054	yaw rate:	18.560	Roll:	8.469	Pitch:	6.155	Yaw:	-5.205	Thrust:	60.863
Time:	1.266	Roll Set Point:	-0.157	Pitch Set Point:	-0.106	Yaw Set Point:	0.021	X_WP:	0.000	Y_WP:	0.000	Y_WP:	0.500	X:	0.079	Y:	0.052	Z:	0.135	yaw:	-1.212	yaw rate:	15.766	Roll:	8.444	Pitch:	5.658	Yaw:	-4.604	Thrust:	63.716
Time:	1.278	Roll Set Point:	-0.160	Pitch Set Point:	-0.107	Yaw Set Point:	0.024	X_WP:	0.000	Y_WP:	0.000	Y_WP:	0.500	X:	0.081	Y:	0.052	Z:	0.138	yaw:	-1.353	yaw rate:	14.153	Roll:	8.047	Pitch:	5.542	Yaw:	-4.027	Thrust:	70.233
Time:	1.295	Roll Set Point:	-0.163	Pitch Set Point:	-0.109	Yaw Set Point:	0.030	X_WP:	0.000	Y_WP:	0.000	Y_WP:	0.500	X:	0.082	Y:	0.053	Z:	0.141	yaw:	-1.691	yaw rate:	33.753	Roll:	6.749	Pitch:	5.848	Yaw:	-6.191	Thrust:	93.648
Time:	1.306	Roll Set Point:	-0.165	Pitch Set Point:	-0.110	Yaw Set Point:	0.031	X_WP:	0.000	Y_WP:	0.000	Y_WP:	0.500	X:	0.084	Y:	0.053	Z:	0.144	yaw:	-1.794	yaw rate:	10.320	Roll:	7.588	Pitch:	4.901	Yaw:	-4.021	Thrust:	72.516
Time:	1.316	Roll Set Point:	-0.168	Pitch Set Point:	-0.111	Yaw Set Point:	0.036	X_WP:	0.000	Y_WP:	0.000	Y_WP:	0.500	X:	0.085	Y:	0.054	Z:	0.147	yaw:	-2.079	yaw rate:	28.494	Roll:	7.957	Pitch:	6.416	Yaw:	-9.559	Thrust:	58.106
Time:	1.327	Roll Set Point:	-0.170	Pitch Set Point:	-0.112	Yaw Set Point:	0.038	X_WP:	0.000	Y_WP:	0.000	Y_WP:	0.500	X:	0.086	Y:	0.054	Z:	0.150	yaw:	-2.181	yaw rate:	10.278	Roll:	8.197	Pitch:	4.891	Yaw:	-4.787	Thrust:	62.278
Time:	1.338	Roll Set Point:	-0.175	Pitch Set Point:	-0.114	Yaw Set Point:	0.046	X_WP:	0.000	Y_WP:	0.000	Y_WP:	0.500	X:	0.089	Y:	0.055	Z:	0.157	yaw:	-2.607	yaw rate:	15.238	Roll:	10.818	Pitch:	7.535	Yaw:	-12.577	Thrust:	54.646
Time:	1.353	Roll Set Point:	-0.177	Pitch Set Point:	-0.114	Yaw Set Point:	0.050	X_WP:	0.000	Y_WP:	0.000	Y_WP:	0.500	X:	0.090	Y:	0.055	Z:	0.160	yaw:	-2.856	yaw rate:	24.913	Roll:	6.698	Pitch:	5.118	Yaw:	-7.181	Thrust:	86.920
Time:	1.368	Roll Set Point:	-0.181	Pitch Set Point:	-0.115	Yaw Set Point:	0.055	X_WP:	0.000	Y_WP:	0.000	Y_WP:	0.500	X:	0.092	Y:	0.055	Z:	0.167	yaw:	-3.127	yaw rate:	27.053	Roll:	9.233	Pitch:	5.538	Yaw:	-7.950	Thrust:	83.008
Time:	1.380	Roll Set Point:	-0.183	Pitch Set Point:	-0.116	Yaw Set Point:	0.058	X_WP:	0.000	Y_WP:	0.000	Y_WP:	0.500	X:	0.093	Y:	0.055	Z:	0.170	yaw:	-3.317	yaw rate:	18.971	Roll:	7.079	Pitch:	4.816	Yaw:	-8.076	Thrust:	67.111
Time:	1.390	Roll Set Point:	-0.185	Pitch Set Point:	-0.116	Yaw Set Point:	0.061	X_WP:	0.000	Y_WP:	0.000	Y_WP:	0.500	X:	0.094	Y:	0.055	Z:	0.174	yaw:	-3.482	yaw rate:	16.595	Roll:	7.104	Pitch:	4.459	Yaw:	-8.220	Thrust:	60.848
Time:	1.401	Roll Set Point:	-0.186	Pitch Set Point:	-0.116	Yaw Set Point:	0.063	X_WP:	0.000	Y_WP:	0.000	Y_WP:	0.500	X:	0.095	Y:	0.055	Z:	0.177	yaw:	-3.585	yaw rate:	10.213	Roll:	7.401	Pitch:	3.808	Yaw:	-6.652	Thrust:	63.784
Time:	1.414	Roll Set Point:	-0.188	Pitch Set Point:	-0.116	Yaw Set Point:	0.065	X_WP:	0.000	Y_WP:	0.000	Y_WP:	0.500	X:	0.096	Y:	0.055	Z:	0.181	yaw:	-3.745	yaw rate:	16.016	Roll:	6.853	Pitch:	4.191	Yaw:	-7.510	Thrust:	77.699
Time:	1.435	Roll Set Point:	-0.189	Pitch Set Point:	-0.116	Yaw Set Point:	0.067	X_WP:	0.000	Y_WP:	0.000	Y_WP:	0.500	X:	0.097	Y:	0.055	Z:	0.185	yaw:	-3.846	yaw rate:	10.167	Roll:	6.970	Pitch:	4.723	Yaw:	-5.315	Thrust:	100.000
Time:	1.445	Roll Set Point:	-0.193	Pitch Set Point:	-0.114	Yaw Set Point:	0.074	X_WP:	0.000	Y_WP:	0.000	Y_WP:	0.500	X:	0.099	Y:	0.054	Z:	0.197	yaw:	-4.262	yaw rate:	22.275	Roll:	10.887	Pitch:	2.825	Yaw:	-16.058	Thrust:	20.432
Time:	1.456	Roll Set Point:	-0.194	Pitch Set Point:	-0.113	Yaw Set Point:	0.073	X_WP:	0.000	Y_WP:	0.000	Y_WP:	0.500	X:	0.099	Y:	0.053	Z:	0.201	yaw:	-4.174	yaw rate:	-8.839	Roll:	6.960	Pitch:	2.076	Yaw:	-3.063	Thrust:	66.337
Time:	1.468	Roll Set Point:	-0.195	Pitch Set Point:	-0.113	Yaw Set Point:	0.075	X_WP:	0.000	Y_WP:	0.000	Y_WP:	0.500	X:	0.100	Y:	0.053	Z:	0.205	yaw:	-4.289	yaw rate:	11.513	Roll:	6.661	Pitch:	2.952	Yaw:	-7.884	Thrust:	64.891
Time:	1.479	Roll Set Point:	-0.196	Pitch Set Point:	-0.111	Yaw Set Point:	0.073	X_WP:	0.000	Y_WP:	0.000	Y_WP:	0.500	X:	0.100	Y:	0.052	Z:	0.209	yaw:	-4.208	yaw rate:	-8.038	Roll:	7.196	Pitch:	1.686	Yaw:	-3.276	Thrust:	61.944
Time:	1.499	Roll Set Point:	-0.197	Pitch Set Point:	-0.111	Yaw Set Point:	0.077	X_WP:	0.000	Y_WP:	0.000	Y_WP:	0.500	X:	0.101	Y:	0.052	Z:	0.214	yaw:	-4.409	yaw rate:	20.048	Roll:	6.659	Pitch:	4.715	Yaw:	-7.530	Thrust:	100.000
Time:	1.510	Roll Set Point:	-0.199	Pitch Set Point:	-0.107	Yaw Set Point:	0.079	X_WP:	0.000	Y_WP:	0.000	Y_WP:	0.500	X:	0.102	Y:	0.050	Z:	0.227	yaw:	-4.516	yaw rate:	3.597	Roll:	8.389	Pitch:	-0.881	Yaw:	-8.035	Thrust:	29.591
Time:	1.521	Roll Set Point:	-0.199	Pitch Set Point:	-0.106	Yaw Set Point:	0.079	X_WP:	0.000	Y_WP:	0.000	Y_WP:	0.500	X:	0.102	Y:	0.049	Z:	0.232	yaw:	-4.498	yaw rate:	-1.837	Roll:	6.318	Pitch:	1.274	Yaw:	-5.200	Thrust:	60.726
Time:	1.532	Roll Set Point:	-0.200	Pitch Set Point:	-0.104	Yaw Set Point:	0.078	X_WP:	0.000	Y_WP:	0.000	Y_WP:	0.500	X:	0.102	Y:	0.048	Z:	0.237	yaw:	-4.470	yaw rate:	-2.829	Roll:	6.526	Pitch:	1.230	Yaw:	-4.940	Thrust:	57.116
Time:	1.545	Roll Set Point:	-0.200	Pitch Set Point:	-0.103	Yaw Set Point:	0.079	X_WP:	0.000	Y_WP:	0.000	Y_WP:	0.500	X:	0.102	Y:	0.048	Z:	0.241	yaw:	-4.529	yaw rate:	5.928	Roll:	5.780	Pitch:	2.346	Yaw:	-7.026	Thrust:	64.100
Time:	1.557	Roll Set Point:	-0.201	Pitch Set Point:	-0.102	Yaw Set Point:	0.079	X_WP:	0.000	Y_WP:	0.000	Y_WP:	0.500	X:	0.102	Y:	0.047	Z:	0.246	yaw:	-4.519	yaw rate:	-0.996	Roll:	6.472	Pitch:	1.571	Yaw:	-5.427	Thrust:	67.523
Time:	1.577	Roll Set Point:	-0.201	Pitch Set Point:	-0.101	Yaw Set Point:	0.082	X_WP:	0.000	Y_WP:	0.000	Y_WP:	0.500	X:	0.102	Y:	0.046	Z:	0.251	yaw:	-4.682	yaw rate:	16.301	Roll:	7.389	Pitch:	4.553	Yaw:	-7.569	Thrust:	100.000
Time:	1.587	Roll Set Point:	-0.201	Pitch Set Point:	-0.099	Yaw Set Point:	0.079	X_WP:	0.000	Y_WP:	0.000	Y_WP:	0.500	X:	0.102	Y:	0.045	Z:	0.256	yaw:	-4.509	yaw rate:	-17.321	Roll:	6.246	Pitch:	-0.096	Yaw:	-1.271	Thrust:	52.004
Time:	1.598	Roll Set Point:	-0.201	Pitch Set Point:	-0.097	Yaw Set Point:	0.077	X_WP:	0.000	Y_WP:	0.000	Y_WP:	0.500	X:	0.102	Y:	0.045	Z:	0.261	yaw:	-4.439	yaw rate:	-7.042	Roll:	6.107	Pitch:	0.760	Yaw:	-3.985	Thrust:	59.411
Time:	1.609	Roll Set Point:	-0.201	Pitch Set Point:	-0.095	Yaw Set Point:	0.077	X_WP:	0.000	Y_WP:	0.000	Y_WP:	0.500	X:	0.102	Y:	0.044	Z:	0.266	yaw:	-4.386	yaw rate:	-5.228	Roll:	5.975	Pitch:	1.068	Yaw:	-4.394	Thrust:	55.919
Time:	1.620	Roll Set Point:	-0.201	Pitch Set Point:	-0.094	Yaw Set Point:	0.076	X_WP:	0.000	Y_WP:	0.000	Y_WP:	0.500	X:	0.102	Y:	0.043	Z:	0.271	yaw:	-4.368	yaw rate:	-1.779	Roll:	6.014	Pitch:	1.487	Yaw:	-5.171	Thrust:	67.147
Time:	1.636	Roll Set Point:	-0.200	Pitch Set Point:	-0.089	Yaw Set Point:	0.075	X_WP:	0.000	Y_WP:	0.000	Y_WP:	0.500	X:	0.102	Y:	0.041	Z:	0.286	yaw:	-4.322	yaw rate:	-5.512	Roll:	6.324	Pitch:	-1.109	Yaw:	-4.566	Thrust:	62.993
Time:	1.646	Roll Set Point:	-0.200	Pitch Set Point:	-0.087	Yaw Set Point:	0.071	X_WP:	0.000	Y_WP:	0.000	Y_WP:	0.500	X:	0.101	Y:	0.040	Z:	0.291	yaw:	-4.054	yaw rate:	-26.851	Roll:	5.813	Pitch:	-0.774	Yaw:	1.685	Thrust:	51.623
Time:	1.658	Roll Set Point:	-0.199	Pitch Set Point:	-0.086	Yaw Set Point:	0.072	X_WP:	0.000	Y_WP:	0.000	Y_WP:	0.500	X:	0.101	Y:	0.039	Z:	0.296	yaw:	-4.103	yaw rate:	4.898	Roll:	5.215	Pitch:	1.977	Yaw:	-6.358	Thrust:	58.539
Time:	1.668	Roll Set Point:	-0.199	Pitch Set Point:	-0.084	Yaw Set Point:	0.070	X_WP:	0.000	Y_WP:	0.000	Y_WP:	0.500	X:	0.101	Y:	0.039	Z:	0.301	yaw:	-4.004	yaw rate:	-9.892	Roll:	5.571	Pitch:	0.399	Yaw:	-2.729	Thrust:	55.303
Time:	1.681	Roll Set Point:	-0.198	Pitch Set Point:	-0.083	Yaw Set Point:	0.069	X_WP:	0.000	Y_WP:	0.000	Y_WP:	0.500	X:	0.101	Y:	0.038	Z:	0.307	yaw:	-3.949	yaw rate:	-5.511	Roll:	5.804	Pitch:	1.782	Yaw:	-3.879	Thrust:	73.933
Time:	1.700	Roll Set Point:	-0.198	Pitch Set Point:	-0.081	Yaw Set Point:	0.068	X_WP:	0.000	Y_WP:	0.000	Y_WP:	0.500	X:	0.100	Y:	0.037	Z:	0.312	yaw:	-3.914	yaw rate:	-3.448	Roll:	7.291	Pitch:	3.695	Yaw:	-4.282	Thrust:	100.000
Time:	1.711	Roll Set Point:	-0.196	Pitch Set Point:	-0.077	Yaw Set Point:	0.063	X_WP:	0.000	Y_WP:	0.000	Y_WP:	0.500	X:	0.099	Y:	0.035	Z:	0.327	yaw:	-3.635	yaw rate:	-13.001	Roll:	4.354	Pitch:	-4.213	Yaw:	1.823	Thrust:	20.236
Time:	1.723	Roll Set Point:	-0.195	Pitch Set Point:	-0.076	Yaw Set Point:	0.063	X_WP:	0.000	Y_WP:	0.000	Y_WP:	0.500	X:	0.099	Y:	0.035	Z:	0.332	yaw:	-3.598	yaw rate:	-3.701	Roll:	5.113	Pitch:	1.778	Yaw:	-3.802	Thrust:	66.529
Time:	1.735	Roll Set Point:	-0.194	Pitch Set Point:	-0.075	Yaw Set Point:	0.063	X_WP:	0.000	Y_WP:	0.000	Y_WP:	0.500	X:	0.098	Y:	0.034	Z:	0.336	yaw:	-3.594	yaw rate:	-0.432	Roll:	5.089	Pitch:	1.786	Yaw:	-4.548	Thrust:	59.179
Time:	1.746	Roll Set Point:	-0.193	Pitch Set Point:	-0.073	Yaw Set Point:	0.061	X_WP:	0.000	Y_WP:	0.000	Y_WP:	0.500	X:	0.098	Y:	0.034	Z:	0.341	yaw:	-3.507	yaw rate:	-8.675	Roll:	5.439	Pitch:	1.674	Yaw:	-2.651	Thrust:	68.497
Time:	1.766	Roll Set Point:	-0.192	Pitch Set Point:	-0.072	Yaw Set Point:	0.060	X_WP:	0.000	Y_WP:	0.000	Y_WP:	0.500	X:	0.097	Y:	0.033	Z:	0.346	yaw:	-3.460	yaw rate:	-4.687	Roll:	7.362	Pitch:	3.610	Yaw:	-3.601	Thrust:	100.000
Time:	1.777	Roll Set Point:	-0.191	Pitch Set Point:	-0.070	Yaw Set Point:	0.059	X_WP:	0.000	Y_WP:	0.000	Y_WP:	0.500	X:	0.096	Y:	0.032	Z:	0.355	yaw:	-3.378	yaw rate:	-0.262	Roll:	4.969	Pitch:	0.784	Yaw:	-2.380	Thrust:	42.426
Time:	1.788	Roll Set Point:	-0.189	Pitch Set Point:	-0.069	Yaw Set Point:	0.058	X_WP:	0.000	Y_WP:	0.000	Y_WP:	0.500	X:	0.096	Y:	0.032	Z:	0.360	yaw:	-3.306	yaw rate:	-7.135	Roll:	4.615	Pitch:	1.748	Yaw:	-2.602	Thrust:	58.736
Time:	1.800	Roll Set Point:	-0.189	Pitch Set Point:	-0.068	Yaw Set Point:	0.055	X_WP:	0.000	Y_WP:	0.000	Y_WP:	0.500	X:	0.095	Y:	0.031	Z:	0.364	yaw:	-3.155	yaw rate:	-15.072	Roll:	5.321	Pitch:	1.275	Yaw:	-0.674	Thrust:	64.218
Time:	1.812	Roll Set Point:	-0.187	Pitch Set Point:	-0.067	Yaw Set Point:	0.055	X_WP:	0.000	Y_WP:	0.000	Y_WP:	0.500	X:	0.095	Y:	0.031	Z:	0.368	yaw:	-3.162	yaw rate:	0.697	Roll:	5.023	Pitch:	2.923	Yaw:	-4.231	Thrust:	71.760
Time:	1.835	Roll Set Point:	-0.186	Pitch Set Point:	-0.066	Yaw Set Point:	0.053	X_WP:	0.000	Y_WP:	0.000	Y_WP:	0.500	X:	0.094	Y:	0.031	Z:	0.373	yaw:	-3.053	yaw rate:	-10.910	Roll:	8.580	Pitch:	4.512	Yaw:	-2.415	Thrust:	100.000
Time:	1.847	Roll Set Point:	-0.183	Pitch Set Point:	-0.064	Yaw Set Point:	0.051	X_WP:	0.000	Y_WP:	0.000	Y_WP:	0.500	X:	0.092	Y:	0.030	Z:	0.386	yaw:	-2.934	yaw rate:	-12.132	Roll:	2.388	Pitch:	0.676	Yaw:	-1.258	Thrust:	38.275
Time:	1.857	Roll Set Point:	-0.182	Pitch Set Point:	-0.064	Yaw Set Point:	0.049	X_WP:	0.000	Y_WP:	0.000	Y_WP:	0.500	X:	0.092	Y:	0.030	Z:	0.390	yaw:	-2.781	yaw rate:	-15.265	Roll:	4.414	Pitch:	1.251	Yaw:	0.150	Thrust:	52.172
Time:	1.868	Roll Set Point:	-0.181	Pitch Set Point:	-0.063	Yaw Set Point:	0.046	X_WP:	0.000	Y_WP:	0.000	Y_WP:	0.500	X:	0.091	Y:	0.029	Z:	0.394	yaw:	-2.662	yaw rate:	-11.976	Roll:	4.456	Pitch:	1.970	Yaw:	-0.514	Thrust:	56.373
Time:	1.879	Roll Set Point:	-0.179	Pitch Set Point:	-0.063	Yaw Set Point:	0.048	X_WP:	0.000	Y_WP:	0.000	Y_WP:	0.500	X:	0.090	Y:	0.029	Z:	0.398	yaw:	-2.753	yaw rate:	9.153	Roll:	4.402	Pitch:	3.566	Yaw:	-5.762	Thrust:	64.201
Time:	1.899	Roll Set Point:	-0.178	Pitch Set Point:	-0.062	Yaw Set Point:	0.048	X_WP:	0.000	Y_WP:	0.000	Y_WP:	0.500	X:	0.090	Y:	0.029	Z:	0.403	yaw:	-2.724	yaw rate:	-2.962	Roll:	7.315	Pitch:	4.852	Yaw:	-3.012	Thrust:	100.000
Time:	1.910	Roll Set Point:	-0.176	Pitch Set Point:	-0.061	Yaw Set Point:	0.045	X_WP:	0.000	Y_WP:	0.000	Y_WP:	0.500	X:	0.089	Y:	0.029	Z:	0.411	yaw:	-2.561	yaw rate:	-10.957	Roll:	3.044	Pitch:	1.639	Yaw:	0.417	Thrust:	45.426
Time:	1.920	Roll Set Point:	-0.175	Pitch Set Point:	-0.061	Yaw Set Point:	0.044	X_WP:	0.000	Y_WP:	0.000	Y_WP:	0.500	X:	0.088	Y:	0.029	Z:	0.415	yaw:	-2.493	yaw rate:	-6.730	Roll:	3.871	Pitch:	2.520	Yaw:	-1.542	Thrust:	51.724
Time:	1.931	Roll Set Point:	-0.172	Pitch Set Point:	-0.060	Yaw Set Point:	0.041	X_WP:	0.000	Y_WP:	0.000	Y_WP:	0.500	X:	0.087	Y:	0.028	Z:	0.423	yaw:	-2.330	yaw rate:	-16.295	Roll:	2.036	Pitch:	1.810	Yaw:	0.811	Thrust:	42.888
Time:	1.943	Roll Set Point:	-0.171	Pitch Set Point:	-0.060	Yaw Set Point:	0.042	X_WP:	0.000	Y_WP:	0.000	Y_WP:	0.500	X:	0.086	Y:	0.028	Z:	0.427	yaw:	-2.383	yaw rate:	5.244	Roll:	3.772	Pitch:	3.791	Yaw:	-4.341	Thrust:	62.281
Time:	1.966	Roll Set Point:	-0.169	Pitch Set Point:	-0.060	Yaw Set Point:	0.039	X_WP:	0.000	Y_WP:	0.000	Y_WP:	0.500	X:	0.085	Y:	0.028	Z:	0.431	yaw:	-2.228	yaw rate:	-15.513	Roll:	7.011	Pitch:	5.239	Yaw:	-1.016	Thrust:	100.000
Time:	1.977	Roll Set Point:	-0.167	Pitch Set Point:	-0.060	Yaw Set Point:	0.037	X_WP:	0.000	Y_WP:	0.000	Y_WP:	0.500	X:	0.084	Y:	0.028	Z:	0.439	yaw:	-2.147	yaw rate:	-6.011	Roll:	4.639	Pitch:	3.252	Yaw:	-0.845	Thrust:	52.749
Time:	1.987	Roll Set Point:	-0.165	Pitch Set Point:	-0.060	Yaw Set Point:	0.037	X_WP:	0.000	Y_WP:	0.000	Y_WP:	0.500	X:	0.083	Y:	0.028	Z:	0.443	yaw:	-2.118	yaw rate:	-2.916	Roll:	3.354	Pitch:	3.104	Yaw:	-2.054	Thrust:	51.509
Time:	1.998	Roll Set Point:	-0.164	Pitch Set Point:	-0.060	Yaw Set Point:	0.037	X_WP:	0.000	Y_WP:	0.000	Y_WP:	0.500	X:	0.083	Y:	0.028	Z:	0.447	yaw:	-2.100	yaw rate:	-1.765	Roll:	3.584	Pitch:	3.238	Yaw:	-2.361	Thrust:	58.769
Time:	2.009	Roll Set Point:	-0.163	Pitch Set Point:	-0.059	Yaw Set Point:	0.035	X_WP:	0.000	Y_WP:	0.000	Y_WP:	0.500	X:	0.082	Y:	0.028	Z:	0.451	yaw:	-1.993	yaw rate:	-10.741	Roll:	3.881	Pitch:	2.707	Yaw:	0.149	Thrust:	51.700
Time:	2.020	Roll Set Point:	-0.161	Pitch Set Point:	-0.059	Yaw Set Point:	0.034	X_WP:	0.000	Y_WP:	0.000	Y_WP:	0.500	X:	0.081	Y:	0.028	Z:	0.454	yaw:	-1.964	yaw rate:	-2.884	Roll:	4.343	Pitch:	3.638	Yaw:	-1.969	Thrust:	68.046
Time:	2.036	Roll Set Point:	-0.159	Pitch Set Point:	-0.059	Yaw Set Point:	0.032	X_WP:	0.000	Y_WP:	0.000	Y_WP:	0.500	X:	0.080	Y:	0.028	Z:	0.462	yaw:	-1.810	yaw rate:	-15.412	Roll:	4.527	Pitch:	4.173	Yaw:	0.099	Thrust:	92.031
Time:	2.047	Roll Set Point:	-0.158	Pitch Set Point:	-0.059	Yaw Set Point:	0.031	X_WP:	0.000	Y_WP:	0.000	Y_WP:	0.500	X:	0.079	Y:	0.028	Z:	0.465	yaw:	-1.801	yaw rate:	-0.849	Roll:	4.131	Pitch:	3.668	Yaw:	-2.195	Thrust:	60.883
Time:	2.058	Roll Set Point:	-0.156	Pitch Set Point:	-0.059	Yaw Set Point:	0.030	X_WP:	0.000	Y_WP:	0.000	Y_WP:	0.500	X:	0.079	Y:	0.028	Z:	0.468	yaw:	-1.721	yaw rate:	-8.068	Roll:	3.898	Pitch:	3.090	Yaw:	-0.290	Thrust:	57.473
Time:	2.070	Roll Set Point:	-0.155	Pitch Set Point:	-0.059	Yaw Set Point:	0.029	X_WP:	0.000	Y_WP:	0.000	Y_WP:	0.500	X:	0.078	Y:	0.028	Z:	0.471	yaw:	-1.671	yaw rate:	-4.970	Roll:	3.722	Pitch:	3.428	Yaw:	-1.054	Thrust:	61.936
Time:	2.085	Roll Set Point:	-0.154	Pitch Set Point:	-0.059	Yaw Set Point:	0.027	X_WP:	0.000	Y_WP:	0.000	Y_WP:	0.500	X:	0.077	Y:	0.028	Z:	0.474	yaw:	-1.522	yaw rate:	-14.875	Roll:	5.682	Pitch:	3.900	Yaw:	0.495	Thrust:	89.011
Time:	2.099	Roll Set Point:	-0.153	Pitch Set Point:	-0.059	Yaw Set Point:	0.027	X_WP:	0.000	Y_WP:	0.000	Y_WP:	0.500	X:	0.077	Y:	0.028	Z:	0.477	yaw:	-1.529	yaw rate:	0.672	Roll:	5.214	Pitch:	4.787	Yaw:	-2.142	Thrust:	91.434
Time:	2.109	Roll Set Point:	-0.151	Pitch Set Point:	-0.059	Yaw Set Point:	0.024	X_WP:	0.000	Y_WP:	0.000	Y_WP:	0.500	X:	0.076	Y:	0.028	Z:	0.483	yaw:	-1.401	yaw rate:	-6.692	Roll:	2.448	Pitch:	3.089	Yaw:	1.294	Thrust:	45.630
Time:	2.120	Roll Set Point:	-0.150	Pitch Set Point:	-0.059	Yaw Set Point:	0.024	X_WP:	0.000	Y_WP:	0.000	Y_WP:	0.500	X:	0.075	Y:	0.028	Z:	0.486	yaw:	-1.400	yaw rate:	-0.019	Roll:	3.985	Pitch:	3.773	Yaw:	-1.869	Thrust:	61.784
Time:	2.131	Roll Set Point:	-0.148	Pitch Set Point:	-0.059	Yaw Set Point:	0.024	X_WP:	0.000	Y_WP:	0.000	Y_WP:	0.500	X:	0.075	Y:	0.029	Z:	0.489	yaw:	-1.378	yaw rate:	-2.268	Roll:	3.648	Pitch:	3.620	Yaw:	-1.287	Thrust:	57.374
Time:	2.143	Roll Set Point:	-0.147	Pitch Set Point:	-0.059	Yaw Set Point:	0.023	X_WP:	0.000	Y_WP:	0.000	Y_WP:	0.500	X:	0.074	Y:	0.029	Z:	0.492	yaw:	-1.328	yaw rate:	-4.954	Roll:	3.727	Pitch:	3.506	Yaw:	-0.575	Thrust:	58.451
Time:	2.167	Roll Set Point:	-0.146	Pitch Set Point:	-0.059	Yaw Set Point:	0.022	X_WP:	0.000	Y_WP:	0.000	Y_WP:	0.500	X:	0.073	Y:	0.029	Z:	0.495	yaw:	-1.263	yaw rate:	-6.564	Roll:	8.380	Pitch:	6.782	Yaw:	-0.929	Thrust:	100.000
Time:	2.178	Roll Set Point:	-0.143	Pitch Set Point:	-0.059	Yaw Set Point:	0.021	X_WP:	0.000	Y_WP:	0.000	Y_WP:	0.500	X:	0.072	Y:	0.029	Z:	0.505	yaw:	-1.204	yaw rate:	-0.091	Roll:	0.991	Pitch:	3.581	Yaw:	-0.224	Thrust:	40.554
Time:	2.188	Roll Set Point:	-0.142	Pitch Set Point:	-0.059	Yaw Set Point:	0.020	X_WP:	0.000	Y_WP:	0.000	Y_WP:	0.500	X:	0.071	Y:	0.029	Z:	0.508	yaw:	-1.129	yaw rate:	-7.437	Roll:	3.772	Pitch:	3.283	Yaw:	0.414	Thrust:	52.789
Time:	2.198	Roll Set Point:	-0.141	Pitch Set Point:	-0.059	Yaw Set Point:	0.019	X_WP:	0.000	Y_WP:	0.000	Y_WP:	0.500	X:	0.071	Y:	0.029	Z:	0.510	yaw:	-1.089	yaw rate:	-4.007	Roll:	3.752	Pitch:	3.406	Yaw:	-0.473	Thrust:	56.415
Time:	2.210	Roll Set Point:	-0.140	Pitch Set Point:	-0.059	Yaw Set Point:	0.017	X_WP:	0.000	Y_WP:	0.000	Y_WP:	0.500	X:	0.070	Y:	0.029	Z:	0.513	yaw:	-0.992	yaw rate:	-9.769	Roll:	4.143	Pitch:	3.487	Yaw:	0.976	Thrust:	60.598
Time:	2.221	Roll Set Point:	-0.140	Pitch Set Point:	-0.058	Yaw Set Point:	0.017	X_WP:	0.000	Y_WP:	0.000	Y_WP:	0.500	X:	0.070	Y:	0.029	Z:	0.516	yaw:	-0.955	yaw rate:	-3.670	Roll:	4.504	Pitch:	3.586	Yaw:	-0.487	Thrust:	68.021
Time:	2.237	Roll Set Point:	-0.138	Pitch Set Point:	-0.058	Yaw Set Point:	0.015	X_WP:	0.000	Y_WP:	0.000	Y_WP:	0.500	X:	0.069	Y:	0.029	Z:	0.522	yaw:	-0.836	yaw rate:	-11.876	Roll:	4.675	Pitch:	4.329	Yaw:	0.953	Thrust:	82.245
Time:	2.248	Roll Set Point:	-0.137	Pitch Set Point:	-0.058	Yaw Set Point:	0.014	X_WP:	0.000	Y_WP:	0.000	Y_WP:	0.500	X:	0.069	Y:	0.028	Z:	0.524	yaw:	-0.774	yaw rate:	-6.243	Roll:	4.656	Pitch:	3.653	Yaw:	0.411	Thrust:	62.704
Time:	2.259	Roll Set Point:	-0.136	Pitch Set Point:	-0.058	Yaw Set Point:	0.013	X_WP:	0.000	Y_WP:	0.000	Y_WP:	0.500	X:	0.068	Y:	0.028	Z:	0.527	yaw:	-0.727	yaw rate:	-4.690	Roll:	4.321	Pitch:	3.680	Yaw:	0.085	Thrust:	65.092
Time:	2.270	Roll Set Point:	-0.136	Pitch Set Point:	-0.058	Yaw Set Point:	0.012	X_WP:	0.000	Y_WP:	0.000	Y_WP:	0.500	X:	0.068	Y:	0.028	Z:	0.529	yaw:	-0.696	yaw rate:	-3.117	Roll:	4.360	Pitch:	3.470	Yaw:	-0.200	Thrust:	61.481
Time:	2.281	Roll Set Point:	-0.135	Pitch Set Point:	-0.058	Yaw Set Point:	0.012	X_WP:	0.000	Y_WP:	0.000	Y_WP:	0.500	X:	0.068	Y:	0.028	Z:	0.531	yaw:	-0.685	yaw rate:	-1.011	Roll:	4.231	Pitch:	3.619	Yaw:	-0.681	Thrust:	58.605
Time:	2.299	Roll Set Point:	-0.134	Pitch Set Point:	-0.057	Yaw Set Point:	0.009	X_WP:	0.000	Y_WP:	0.000	Y_WP:	0.500	X:	0.067	Y:	0.028	Z:	0.534	yaw:	-0.517	yaw rate:	-16.894	Roll:	6.733	Pitch:	4.954	Yaw:	1.768	Thrust:	100.000
Time:	2.310	Roll Set Point:	-0.133	Pitch Set Point:	-0.057	Yaw Set Point:	0.008	X_WP:	0.000	Y_WP:	0.000	Y_WP:	0.500	X:	0.067	Y:	0.028	Z:	0.538	yaw:	-0.481	yaw rate:	3.674	Roll:	2.948	Pitch:	3.437	Yaw:	0.198	Thrust:	52.249
Time:	2.320	Roll Set Point:	-0.132	Pitch Set Point:	-0.057	Yaw Set Point:	0.008	X_WP:	0.000	Y_WP:	0.000	Y_WP:	0.500	X:	0.066	Y:	0.028	Z:	0.541	yaw:	-0.460	yaw rate:	-2.045	Roll:	4.422	Pitch:	3.227	Yaw:	-0.089	Thrust:	53.303
Time:	2.332	Roll Set Point:	-0.131	Pitch Set Point:	-0.056	Yaw Set Point:	0.006	X_WP:	0.000	Y_WP:	0.000	Y_WP:	0.500	X:	0.066	Y:	0.028	Z:	0.545	yaw:	-0.342	yaw rate:	-11.812	Roll:	3.610	Pitch:	2.907	Yaw:	2.154	Thrust:	57.654
Time:	2.344	Roll Set Point:	-0.130	Pitch Set Point:	-0.056	Yaw Set Point:	0.005	X_WP:	0.000	Y_WP:	0.000	Y_WP:	0.500	X:	0.065	Y:	0.028	Z:	0.548	yaw:	-0.295	yaw rate:	-4.759	Roll:	4.585	Pitch:	3.475	Yaw:	0.684	Thrust:	64.508
Time:	2.365	Roll Set Point:	-0.130	Pitch Set Point:	-0.055	Yaw Set Point:	0.005	X_WP:	0.000	Y_WP:	0.000	Y_WP:	0.500	X:	0.065	Y:	0.028	Z:	0.550	yaw:	-0.285	yaw rate:	-0.983	Roll:	6.111	Pitch:	5.597	Yaw:	-0.241	Thrust:	100.000
Time:	2.375	Roll Set Point:	-0.129	Pitch Set Point:	-0.055	Yaw Set Point:	0.004	X_WP:	0.000	Y_WP:	0.000	Y_WP:	0.500	X:	0.065	Y:	0.027	Z:	0.552	yaw:	-0.207	yaw rate:	-7.809	Roll:	6.085	Pitch:	3.545	Yaw:	1.669	Thrust:	67.490
Time:	2.386	Roll Set Point:	-0.128	Pitch Set Point:	-0.054	Yaw Set Point:	0.002	X_WP:	0.000	Y_WP:	0.000	Y_WP:	0.500	X:	0.064	Y:	0.027	Z:	0.557	yaw:	-0.102	yaw rate:	4.445	Roll:	3.941	Pitch:	2.331	Yaw:	2.334	Thrust:	51.548
Time:	2.397	Roll Set Point:	-0.128	Pitch Set Point:	-0.053	Yaw Set Point:	-0.000	X_WP:	0.000	Y_WP:	0.000	Y_WP:	0.500	X:	0.064	Y:	0.027	Z:	0.559	yaw:	0.011	yaw rate:	-11.344	Roll:	4.500	Pitch:	2.463	Yaw:	2.849	Thrust:	56.981
Time:	2.408	Roll Set Point:	-0.127	Pitch Set Point:	-0.053	Yaw Set Point:	0.001	X_WP:	0.000	Y_WP:	0.000	Y_WP:	0.500	X:	0.064	Y:	0.027	Z:	0.561	yaw:	-0.032	yaw rate:	4.284	Roll:	4.323	Pitch:	3.390	Yaw:	-1.077	Thrust:	57.208
Time:	2.421	Roll Set Point:	-0.127	Pitch Set Point:	-0.053	Yaw Set Point:	-0.000	X_WP:	0.000	Y_WP:	0.000	Y_WP:	0.500	X:	0.064	Y:	0.026	Z:	0.563	yaw:	0.014	yaw rate:	-4.561	Roll:	5.382	Pitch:	3.458	Yaw:	0.954	Thrust:	74.617
Time:	2.436	Roll Set Point:	-0.127	Pitch Set Point:	-0.052	Yaw Set Point:	0.001	X_WP:	0.000	Y_WP:	0.000	Y_WP:	0.500	X:	0.063	Y:	0.026	Z:	0.565	yaw:	-0.073	yaw rate:	8.700	Roll:	5.482	Pitch:	4.637	Yaw:	-1.593	Thrust:	88.338
Time:	2.447	Roll Set Point:	-0.126	Pitch Set Point:	-0.051	Yaw Set Point:	-0.002	X_WP:	0.000	Y_WP:	0.000	Y_WP:	0.500	X:	0.063	Y:	0.026	Z:	0.569	yaw:	0.113	yaw rate:	-18.598	Roll:	4.786	Pitch:	1.584	Yaw:	4.459	Thrust:	53.533
Time:	2.459	Roll Set Point:	-0.125	Pitch Set Point:	-0.051	Yaw Set Point:	-0.000	X_WP:	0.000	Y_WP:	0.000	Y_WP:	0.500	X:	0.063	Y:	0.025	Z:	0.572	yaw:	0.011	yaw rate:	10.129	Roll:	4.557	Pitch:	3.723	Yaw:	-2.161	Thrust:	66.734
Time:	2.470	Roll Set Point:	-0.125	Pitch Set Point:	-0.050	Yaw Set Point:	-0.001	X_WP:	0.000	Y_WP:	0.000	Y_WP:	0.500	X:	0.063	Y:	0.025	Z:	0.574	yaw:	0.030	yaw rate:	-1.893	Roll:	4.781	Pitch:	2.653	Yaw:	0.506	Thrust:	59.168
Time:	2.484	Roll Set Point:	-0.125	Pitch Set Point:	-0.049	Yaw Set Point:	-0.001	X_WP:	0.000	Y_WP:	0.000	Y_WP:	0.500	X:	0.062	Y:	0.025	Z:	0.576	yaw:	0.056	yaw rate:	-2.516	Roll:	5.223	Pitch:	3.268	Yaw:	0.576	Thrust:	78.321
Time:	2.500	Roll Set Point:	-0.125	Pitch Set Point:	-0.049	Yaw Set Point:	-0.003	X_WP:	0.000	Y_WP:	0.000	Y_WP:	0.500	X:	0.062	Y:	0.024	Z:	0.578	yaw:	0.197	yaw rate:	-14.149	Roll:	6.483	Pitch:	4.203	Yaw:	2.611	Thrust:	93.924
Time:	2.510	Roll Set Point:	-0.123	Pitch Set Point:	-0.047	Yaw Set Point:	-0.003	X_WP:	0.000	Y_WP:	0.000	Y_WP:	0.500	X:	0.062	Y:	0.023	Z:	0.584	yaw:	0.145	yaw rate:	2.547	Roll:	3.358	Pitch:	0.674	Yaw:	-1.061	Thrust:	36.143
Time:	2.523	Roll Set Point:	-0.123	Pitch Set Point:	-0.046	Yaw Set Point:	-0.003	X_WP:	0.000	Y_WP:	0.000	Y_WP:	0.500	X:	0.062	Y:	0.023	Z:	0.587	yaw:	0.200	yaw rate:	-5.499	Roll:	5.094	Pitch:	2.459	Yaw:	1.446	Thrust:	68.857
Time:	2.534	Roll Set Point:	-0.123	Pitch Set Point:	-0.045	Yaw Set Point:	-0.003	X_WP:	0.000	Y_WP:	0.000	Y_WP:	0.500	X:	0.061	Y:	0.023	Z:	0.589	yaw:	0.182	yaw rate:	1.825	Roll:	4.549	Pitch:	2.413	Yaw:	-0.162	Thrust:	57.044
Time:	2.546	Roll Set Point:	-0.122	Pitch Set Point:	-0.044	Yaw Set Point:	-0.002	X_WP:	0.000	Y_WP:	0.000	Y_WP:	0.500	X:	0.061	Y:	0.022	Z:	0.591	yaw:	0.091	yaw rate:	9.123	Roll:	4.459	Pitch:	2.894	Yaw:	-1.910	Thrust:	60.801
Time:	2.563	Roll Set Point:	-0.122	Pitch Set Point:	-0.043	Yaw Set Point:	-0.003	X_WP:	0.000	Y_WP:	0.000	Y_WP:	0.500	X:	0.061	Y:	0.022	Z:	0.593	yaw:	0.153	yaw rate:	-6.247	Roll:	6.346	Pitch:	3.954	Yaw:	1.228	Thrust:	95.181
Time:	2.574	Roll Set Point:	-0.121	Pitch Set Point:	-0.042	Yaw Set Point:	-0.002	X_WP:	0.000	Y_WP:	0.000	Y_WP:	0.500	X:	0.061	Y:	0.021	Z:	0.598	yaw:	0.116	yaw rate:	0.754	Roll:	4.383	Pitch:	1.104	Yaw:	-0.701	Thrust:	46.568
Time:	2.585	Roll Set Point:	-0.121	Pitch Set Point:	-0.041	Yaw Set Point:	-0.002	X_WP:	0.000	Y_WP:	0.000	Y_WP:	0.500	X:	0.060	Y:	0.020	Z:	0.600	yaw:	0.120	yaw rate:	-0.393	Roll:	4.522	Pitch:	1.963	Yaw:	0.281	Thrust:	55.861
Time:	2.597	Roll Set Point:	-0.121	Pitch Set Point:	-0.040	Yaw Set Point:	-0.003	X_WP:	0.000	Y_WP:	0.000	Y_WP:	0.500	X:	0.060	Y:	0.020	Z:	0.603	yaw:	0.179	yaw rate:	-5.879	Roll:	4.714	Pitch:	2.079	Yaw:	1.586	Thrust:	60.153
Time:	2.608	Roll Set Point:	-0.120	Pitch Set Point:	-0.039	Yaw Set Point:	-0.002	X_WP:	0.000	Y_WP:	0.000	Y_WP:	0.500	X:	0.060	Y:	0.019	Z:	0.605	yaw:	0.105	yaw rate:	7.370	Roll:	4.624	Pitch:	2.407	Yaw:	-1.563	Thrust:	55.607
Time:	2.623	Roll Set Point:	-0.120	Pitch Set Point:	-0.038	Yaw Set Point:	-0.001	X_WP:	0.000	Y_WP:	0.000	Y_WP:	0.500	X:	0.060	Y:	0.019	Z:	0.608	yaw:	0.069	yaw rate:	3.599	Roll:	5.297	Pitch:	3.459	Yaw:	-0.478	Thrust:	86.213
Time:	2.640	Roll Set Point:	-0.119	Pitch Set Point:	-0.037	Yaw Set Point:	-0.001	X_WP:	0.000	Y_WP:	0.000	Y_WP:	0.500	X:	0.060	Y:	0.018	Z:	0.610	yaw:	0.086	yaw rate:	-1.688	Roll:	6.716	Pitch:	3.879	Yaw:	0.414	Thrust:	95.148
Time:	2.650	Roll Set Point:	-0.119	Pitch Set Point:	-0.034	Yaw Set Point:	-0.003	X_WP:	0.000	Y_WP:	0.000	Y_WP:	0.500	X:	0.059	Y:	0.017	Z:	0.615	yaw:	0.146	yaw rate:	-6.048	Roll:	3.563	Pitch:	-0.784	Yaw:	1.804	Thrust:	36.344
Time:	2.660	Roll Set Point:	-0.118	Pitch Set Point:	-0.033	Yaw Set Point:	-0.003	X_WP:	0.000	Y_WP:	0.000	Y_WP:	0.500	X:	0.059	Y:	0.017	Z:	0.617	yaw:	0.166	yaw rate:	-1.987	Roll:	4.130	Pitch:	1.173	Yaw:	0.748	Thrust:	50.661
Time:	2.671	Roll Set Point:	-0.118	Pitch Set Point:	-0.032	Yaw Set Point:	-0.002	X_WP:	0.000	Y_WP:	0.000	Y_WP:	0.500	X:	0.059	Y:	0.016	Z:	0.619	yaw:	0.118	yaw rate:	4.827	Roll:	4.236	Pitch:	1.732	Yaw:	-1.013	Thrust:	50.039
Time:	2.684	Roll Set Point:	-0.117	Pitch Set Point:	-0.031	Yaw Set Point:	-0.002	X_WP:	0.000	Y_WP:	0.000	Y_WP:	0.500	X:	0.059	Y:	0.016	Z:	0.622	yaw:	0.112	yaw rate:	0.555	Roll:	4.829	Pitch:	1.746	Yaw:	0.069	Thrust:	64.598
Time:	2.697	Roll Set Point:	-0.117	Pitch Set Point:	-0.030	Yaw Set Point:	-0.002	X_WP:	0.000	Y_WP:	0.000	Y_WP:	0.500	X:	0.058	Y:	0.015	Z:	0.624	yaw:	0.118	yaw rate:	-0.555	Roll:	5.263	Pitch:	2.781	Yaw:	0.299	Thrust:	70.403
Time:	2.708	Roll Set Point:	-0.116	Pitch Set Point:	-0.027	Yaw Set Point:	-0.004	X_WP:	0.000	Y_WP:	0.000	Y_WP:	0.500	X:	0.058	Y:	0.014	Z:	0.628	yaw:	0.230	yaw rate:	-6.818	Roll:	4.485	Pitch:	-0.860	Yaw:	3.009	Thrust:	48.190
Time:	2.719	Roll Set Point:	-0.116	Pitch Set Point:	-0.026	Yaw Set Point:	-0.003	X_WP:	0.000	Y_WP:	0.000	Y_WP:	0.500	X:	0.058	Y:	0.013	Z:	0.631	yaw:	0.146	yaw rate:	8.380	Roll:	3.807	Pitch:	1.482	Yaw:	-1.960	Thrust:	45.602
Time:	2.729	Roll Set Point:	-0.115	Pitch Set Point:	-0.025	Yaw Set Point:	-0.001	X_WP:	0.000	Y_WP:	0.000	Y_WP:	0.500	X:	0.058	Y:	0.013	Z:	0.633	yaw:	0.043	yaw rate:	10.331	Roll:	3.984	Pitch:	1.522	Yaw:	-2.483	Thrust:	49.391
Time:	2.740	Roll Set Point:	-0.115	Pitch Set Point:	-0.024	Yaw Set Point:	-0.002	X_WP:	0.000	Y_WP:	0.000	Y_WP:	0.500	X:	0.057	Y:	0.012	Z:	0.635	yaw:	0.105	yaw rate:	-6.167	Roll:	4.285	Pitch:	0.852	Yaw:	1.713	Thrust:	49.217
Time:	2.751	Roll Set Point:	-0.114	Pitch Set Point:	-0.022	Yaw Set Point:	-0.002	X_WP:	0.000	Y_WP:	0.000	Y_WP:	0.500	X:	0.057	Y:	0.011	Z:	0.637	yaw:	0.131	yaw rate:	-2.633	Roll:	4.564	Pitch:	1.087	Yaw:	0.838	Thrust:	52.336
Time:	2.765	Roll Set Point:	-0.114	Pitch Set Point:	-0.021	Yaw Set Point:	-0.005	X_WP:	0.000	Y_WP:	0.000	Y_WP:	0.500	X:	0.057	Y:	0.011	Z:	0.639	yaw:	0.262	yaw rate:	-13.061	Roll:	5.483	Pitch:	1.762	Yaw:	2.830	Thrust:	73.889
Time:	2.776	Roll Set Point:	-0.113	Pitch Set Point:	-0.019	Yaw Set Point:	-0.003	X_WP:	0.000	Y_WP:	0.000	Y_WP:	0.500	X:	0.057	Y:	0.009	Z:	0.642	yaw:	0.188	yaw rate:	7.382	Roll:	3.455	Pitch:	0.219	Yaw:	-1.411	Thrust:	48.112
Time:	2.787	Roll Set Point:	-0.113	Pitch Set Point:	-0.017	Yaw Set Point:	-0.005	X_WP:	0.000	Y_WP:	0.000	Y_WP:	0.500	X:	0.056	Y:	0.009	Z:	0.644	yaw:	0.287	yaw rate:	-9.925	Roll:	4.536	Pitch:	0.444	Yaw:	2.785	Thrust:	53.463
Time:	2.799	Roll Set Point:	-0.112	Pitch Set Point:	-0.016	Yaw Set Point:	-0.005	X_WP:	0.000	Y_WP:	0.000	Y_WP:	0.500	X:	0.056	Y:	0.008	Z:	0.645	yaw:	0.259	yaw rate:	2.753	Roll:	4.449	Pitch:	1.767	Yaw:	-0.204	Thrust:	60.750
Time:	2.811	Roll Set Point:	-0.112	Pitch Set Point:	-0.015	Yaw Set Point:	-0.007	X_WP:	0.000	Y_WP:	0.000	Y_WP:	0.500	X:	0.056	Y:	0.007	Z:	0.646	yaw:	0.414	yaw rate:	-15.447	Roll:	4.853	Pitch:	0.254	Yaw:	3.968	Thrust:	54.871
Time:	2.831	Roll Set Point:	-0.112	Pitch Set Point:	-0.014	Yaw Set Point:	-0.006	X_WP:	0.000	Y_WP:	0.000	Y_WP:	0.500	X:	0.056	Y:	0.007	Z:	0.648	yaw:	0.330	yaw rate:	8.418	Roll:	4.934	Pitch:	3.228	Yaw:	-0.606	Thrust:	100.000
Time:	2.842	Roll Set Point:	-0.111	Pitch Set Point:	-0.012	Yaw Set Point:	-0.008	X_WP:	0.000	Y_WP:	0.000	Y_WP:	0.500	X:	0.056	Y:	0.006	Z:	0.648	yaw:	0.431	yaw rate:	-10.109	Roll:	6.460	Pitch:	2.874	Yaw:	2.943	Thrust:	64.914
Time:	2.852	Roll Set Point:	-0.111	Pitch Set Point:	-0.010	Yaw Set Point:	-0.007	X_WP:	0.000	Y_WP:	0.000	Y_WP:	0.500	X:	0.055	Y:	0.005	Z:	0.650	yaw:	0.423	yaw rate:	0.807	Roll:	3.632	Pitch:	-1.167	Yaw:	0.412	Thrust:	46.350
Time:	2.863	Roll Set Point:	-0.110	Pitch Set Point:	-0.009	Yaw Set Point:	-0.008	X_WP:	0.000	Y_WP:	0.000	Y_WP:	0.500	X:	0.055	Y:	0.005	Z:	0.650	yaw:	0.435	yaw rate:	-1.199	Roll:	4.137	Pitch:	0.753	Yaw:	0.954	Thrust:	50.733
Time:	2.873	Roll Set Point:	-0.110	Pitch Set Point:	-0.008	Yaw Set Point:	-0.009	X_WP:	0.000	Y_WP:	0.000	Y_WP:	0.500	X:	0.055	Y:	0.004	Z:	0.651	yaw:	0.500	yaw rate:	-6.508	Roll:	4.467	Pitch:	0.779	Yaw:	2.351	Thrust:	53.849
Time:	2.885	Roll Set Point:	-0.110	Pitch Set Point:	-0.007	Yaw Set Point:	-0.009	X_WP:	0.000	Y_WP:	0.000	Y_WP:	0.500	X:	0.055	Y:	0.004	Z:	0.651	yaw:	0.534	yaw rate:	-3.464	Roll:	4.165	Pitch:	1.218	Yaw:	1.544	Thrust:	57.876
Time:	2.900	Roll Set Point:	-0.109	Pitch Set Point:	-0.006	Yaw Set Point:	-0.010	X_WP:	0.000	Y_WP:	0.000	Y_WP:	0.500	X:	0.055	Y:	0.003	Z:	0.651	yaw:	0.567	yaw rate:	-3.221	Roll:	6.189	Pitch:	2.955	Yaw:	1.410	Thrust:	88.207
Time:	2.910	Roll Set Point:	-0.109	Pitch Set Point:	-0.003	Yaw Set Point:	-0.011	X_WP:	0.000	Y_WP:	0.000	Y_WP:	0.500	X:	0.054	Y:	0.002	Z:	0.650	yaw:	0.632	yaw rate:	-2.459	Roll:	3.790	Pitch:	-2.204	Yaw:	2.535	Thrust:	59.661
Time:	2.921	Roll Set Point:	-0.109	Pitch Set Point:	-0.002	Yaw Set Point:	-0.014	X_WP:	0.000	Y_WP:	0.000	Y_WP:	0.500	X:	0.054	Y:	0.001	Z:	0.649	yaw:	0.793	yaw rate:	-16.100	Roll:	4.779	Pitch:	0.652	Yaw:	4.987	Thrust:	60.248
Time:	2.932	Roll Set Point:	-0.108	Pitch Set Point:	-0.001	Yaw Set Point:	-0.011	X_WP:	0.000	Y_WP:	0.000	Y_WP:	0.500	X:	0.054	Y:	0.001	Z:	0.648	yaw:	0.631	yaw rate:	16.270	Roll:	3.958	Pitch:	2.350	Yaw:	-3.071	Thrust:	57.947
Time:	2.945	Roll Set Point:	-0.108	Pitch Set Point:	-0.001	Yaw Set Point:	-0.012	X_WP:	0.000	Y_WP:	0.000	Y_WP:	0.500	X:	0.054	Y:	0.001	Z:	0.648	yaw:	0.661	yaw rate:	-3.077	Roll:	4.939	Pitch:	1.810	Yaw:	1.625	Thrust:	63.354
Time:	2.963	Roll Set Point:	-0.108	Pitch Set Point:	0.000	Yaw Set Point:	-0.012	X_WP:	0.000	Y_WP:	0.000	Y_WP:	0.500	X:	0.054	Y:	0.000	Z:	0.647	yaw:	0.685	yaw rate:	-2.415	Roll:	6.243	Pitch:	3.811	Yaw:	1.397	Thrust:	100.000
Time:	2.974	Roll Set Point:	-0.108	Pitch Set Point:	0.002	Yaw Set Point:	-0.013	X_WP:	0.000	Y_WP:	0.000	Y_WP:	0.500	X:	0.054	Y:	-0.000	Z:	0.645	yaw:	0.772	yaw rate:	-0.590	Roll:	4.985	Pitch:	0.593	Yaw:	3.165	Thrust:	67.963
Time:	2.985	Roll Set Point:	-0.107	Pitch Set Point:	0.002	Yaw Set Point:	-0.012	X_WP:	0.000	Y_WP:	0.000	Y_WP:	0.500	X:	0.054	Y:	-0.001	Z:	0.644	yaw:	0.714	yaw rate:	5.774	Roll:	4.580	Pitch:	2.151	Yaw:	-0.312	Thrust:	60.137
Time:	2.995	Roll Set Point:	-0.107	Pitch Set Point:	0.003	Yaw Set Point:	-0.014	X_WP:	0.000	Y_WP:	0.000	Y_WP:	0.500	X:	0.054	Y:	-0.001	Z:	0.643	yaw:	0.779	yaw rate:	-6.556	Roll:	4.464	Pitch:	1.126	Yaw:	2.783	Thrust:	58.302
Time:	3.020	Roll Set Point:	-0.107	Pitch Set Point:	0.003	Yaw Set Point:	-0.014	X_WP:	0.000	Y_WP:	0.000	Y_WP:	0.500	X:	0.054	Y:	-0.001	Z:	0.642	yaw:	0.798	yaw rate:	-1.803	Roll:	4.744	Pitch:	1.927	Yaw:	1.455	Thrust:	59.288
Time:	3.033	Roll Set Point:	-0.107	Pitch Set Point:	0.004	Yaw Set Point:	-0.014	X_WP:	0.000	Y_WP:	0.000	Y_WP:	0.500	X:	0.053	Y:	-0.002	Z:	0.640	yaw:	0.807	yaw rate:	-11.943	Roll:	8.476	Pitch:	5.813	Yaw:	1.404	Thrust:	100.000
Time:	3.044	Roll Set Point:	-0.107	Pitch Set Point:	0.005	Yaw Set Point:	-0.012	X_WP:	0.000	Y_WP:	0.000	Y_WP:	0.500	X:	0.053	Y:	-0.002	Z:	0.639	yaw:	0.712	yaw rate:	9.530	Roll:	4.373	Pitch:	2.137	Yaw:	-1.283	Thrust:	63.703
Time:	3.055	Roll Set Point:	-0.107	Pitch Set Point:	0.005	Yaw Set Point:	-0.014	X_WP:	0.000	Y_WP:	0.000	Y_WP:	0.500	X:	0.053	Y:	-0.002	Z:	0.638	yaw:	0.794	yaw rate:	-8.180	Roll:	4.513	Pitch:	1.421	Yaw:	3.214	Thrust:	57.364
Time:	3.065	Roll Set Point:	-0.106	Pitch Set Point:	0.005	Yaw Set Point:	-0.012	X_WP:	0.000	Y_WP:	0.000	Y_WP:	0.500	X:	0.053	Y:	-0.002	Z:	0.637	yaw:	0.715	yaw rate:	7.825	Roll:	4.598	Pitch:	2.841	Yaw:	-0.755	Thrust:	60.081
Time:	3.077	Roll Set Point:	-0.106	Pitch Set Point:	0.005	Yaw Set Point:	-0.011	X_WP:	0.000	Y_WP:	0.000	Y_WP:	0.500	X:	0.053	Y:	-0.002	Z:	0.636	yaw:	0.648	yaw rate:	6.708	Roll:	4.710	Pitch:	2.566	Yaw:	-0.523	Thrust:	62.533
Time:	3.099	Roll Set Point:	-0.106	Pitch Set Point:	0.006	Yaw Set Point:	-0.011	X_WP:	0.000	Y_WP:	0.000	Y_WP:	0.500	X:	0.053	Y:	-0.002	Z:	0.635	yaw:	0.618	yaw rate:	3.034	Roll:	6.067	Pitch:	4.602	Yaw:	0.671	Thrust:	100.000
Time:	3.111	Roll Set Point:	-0.106	Pitch Set Point:	0.006	Yaw Set Point:	-0.014	X_WP:	0.000	Y_WP:	0.000	Y_WP:	0.500	X:	0.053	Y:	-0.003	Z:	0.634	yaw:	0.804	yaw rate:	-3.799	Roll:	6.603	Pitch:	2.126	Yaw:	5.388	Thrust:	66.199
Time:	3.121	Roll Set Point:	-0.106	Pitch Set Point:	0.006	Yaw Set Point:	-0.010	X_WP:	0.000	Y_WP:	0.000	Y_WP:	0.500	X:	0.053	Y:	-0.003	Z:	0.633	yaw:	0.593	yaw rate:	21.163	Roll:	4.140	Pitch:	3.357	Yaw:	-4.617	Thrust:	52.754
Time:	3.132	Roll Set Point:	-0.106	Pitch Set Point:	0.006	Yaw Set Point:	-0.010	X_WP:	0.000	Y_WP:	0.000	Y_WP:	0.500	X:	0.053	Y:	-0.003	Z:	0.632	yaw:	0.586	yaw rate:	0.696	Roll:	4.616	Pitch:	2.367	Yaw:	0.751	Thrust:	57.005
Time:	3.143	Roll Set Point:	-0.106	Pitch Set Point:	0.007	Yaw Set Point:	-0.013	X_WP:	0.000	Y_WP:	0.000	Y_WP:	0.500	X:	0.053	Y:	-0.003	Z:	0.632	yaw:	0.719	yaw rate:	-13.303	Roll:	4.968	Pitch:	1.586	Yaw:	4.367	Thrust:	59.371
Time:	3.156	Roll Set Point:	-0.105	Pitch Set Point:	0.006	Yaw Set Point:	-0.013	X_WP:	0.000	Y_WP:	0.000	Y_WP:	0.500	X:	0.053	Y:	-0.003	Z:	0.631	yaw:	0.734	yaw rate:	-1.517	Roll:	4.858	Pitch:	3.047	Yaw:	1.443	Thrust:	69.616
Time:	3.168	Roll Set Point:	-0.105	Pitch Set Point:	0.006	Yaw Set Point:	-0.009	X_WP:	0.000	Y_WP:	0.000	Y_WP:	0.500	X:	0.053	Y:	-0.003	Z:	0.630	yaw:	0.487	yaw rate:	24.689	Roll:	4.940	Pitch:	3.826	Yaw:	-4.376	Thrust:	67.332
Time:	3.180	Roll Set Point:	-0.105	Pitch Set Point:	0.006	Yaw Set Point:	-0.011	X_WP:	0.000	Y_WP:	0.000	Y_WP:	0.500	X:	0.053	Y:	-0.003	Z:	0.629	yaw:	0.606	yaw rate:	-11.852	Roll:	4.925	Pitch:	1.972	Yaw:	3.855	Thrust:	55.202
Time:	3.191	Roll Set Point:	-0.105	Pitch Set Point:	0.007	Yaw Set Point:	-0.012	X_WP:	0.000	Y_WP:	0.000	Y_WP:	0.500	X:	0.053	Y:	-0.003	Z:	0.629	yaw:	0.663	yaw rate:	-5.697	Roll:	4.977	Pitch:	2.422	Yaw:	2.231	Thrust:	65.687
Time:	3.203	Roll Set Point:	-0.105	Pitch Set Point:	0.006	Yaw Set Point:	-0.010	X_WP:	0.000	Y_WP:	0.000	Y_WP:	0.500	X:	0.052	Y:	-0.003	Z:	0.628	yaw:	0.580	yaw rate:	8.255	Roll:	4.506	Pitch:	3.176	Yaw:	-0.954	Thrust:	56.412
Time:	3.219	Roll Set Point:	-0.105	Pitch Set Point:	0.006	Yaw Set Point:	-0.008	X_WP:	0.000	Y_WP:	0.000	Y_WP:	0.500	X:	0.052	Y:	-0.003	Z:	0.627	yaw:	0.454	yaw rate:	8.254	Roll:	5.027	Pitch:	3.438	Yaw:	-1.567	Thrust:	72.178
Time:	3.236	Roll Set Point:	-0.104	Pitch Set Point:	0.006	Yaw Set Point:	-0.008	X_WP:	0.000	Y_WP:	0.000	Y_WP:	0.500	X:	0.052	Y:	-0.003	Z:	0.627	yaw:	0.485	yaw rate:	-3.073	Roll:	6.640	Pitch:	4.614	Yaw:	1.296	Thrust:	100.000
Time:	3.248	Roll Set Point:	-0.104	Pitch Set Point:	0.007	Yaw Set Point:	-0.010	X_WP:	0.000	Y_WP:	0.000	Y_WP:	0.500	X:	0.052	Y:	-0.003	Z:	0.626	yaw:	0.595	yaw rate:	-11.061	Roll:	5.301	Pitch:	2.060	Yaw:	3.493	Thrust:	62.991
Time:	3.259	Roll Set Point:	-0.104	Pitch Set Point:	0.007	Yaw Set Point:	-0.009	X_WP:	0.000	Y_WP:	0.000	Y_WP:	0.500	X:	0.052	Y:	-0.003	Z:	0.625	yaw:	0.488	yaw rate:	10.766	Roll:	4.424	Pitch:	3.255	Yaw:	-1.513	Thrust:	62.139
Time:	3.271	Roll Set Point:	-0.104	Pitch Set Point:	0.007	Yaw Set Point:	-0.009	X_WP:	0.000	Y_WP:	0.000	Y_WP:	0.500	X:	0.052	Y:	-0.003	Z:	0.625	yaw:	0.532	yaw rate:	-4.395	Roll:	4.833	Pitch:	2.582	Yaw:	1.864	Thrust:	58.520
Time:	3.285	Roll Set Point:	-0.104	Pitch Set Point:	0.007	Yaw Set Point:	-0.009	X_WP:	0.000	Y_WP:	0.000	Y_WP:	0.500	X:	0.052	Y:	-0.003	Z:	0.624	yaw:	0.519	yaw rate:	1.224	Roll:	4.668	Pitch:	2.577	Yaw:	0.650	Thrust:	66.900
Time:	3.300	Roll Set Point:	-0.104	Pitch Set Point:	0.007	Yaw Set Point:	-0.007	X_WP:	0.000	Y_WP:	0.000	Y_WP:	0.500	X:	0.052	Y:	-0.003	Z:	0.624	yaw:	0.387	yaw rate:	13.211	Roll:	5.998	Pitch:	4.469	Yaw:	-1.585	Thrust:	82.286
Time:	3.311	Roll Set Point:	-0.103	Pitch Set Point:	0.007	Yaw Set Point:	-0.007	X_WP:	0.000	Y_WP:	0.000	Y_WP:	0.500	X:	0.052	Y:	-0.003	Z:	0.623	yaw:	0.405	yaw rate:	-2.926	Roll:	4.871	Pitch:	1.810	Yaw:	1.111	Thrust:	53.980
Time:	3.322	Roll Set Point:	-0.103	Pitch Set Point:	0.007	Yaw Set Point:	-0.007	X_WP:	0.000	Y_WP:	0.000	Y_WP:	0.500	X:	0.052	Y:	-0.003	Z:	0.623	yaw:	0.395	yaw rate:	0.962	Roll:	4.674	Pitch:	2.425	Yaw:	0.448	Thrust:	53.997
Time:	3.334	Roll Set Point:	-0.103	Pitch Set Point:	0.007	Yaw Set Point:	-0.007	X_WP:	0.000	Y_WP:	0.000	Y_WP:	0.500	X:	0.052	Y:	-0.003	Z:	0.623	yaw:	0.407	yaw rate:	-1.175	Roll:	4.508	Pitch:	2.325	Yaw:	0.961	Thrust:	56.094
Time:	3.347	Roll Set Point:	-0.103	Pitch Set Point:	0.008	Yaw Set Point:	-0.007	X_WP:	0.000	Y_WP:	0.000	Y_WP:	0.500	X:	0.051	Y:	-0.004	Z:	0.623	yaw:	0.415	yaw rate:	-0.854	Roll:	4.946	Pitch:	2.666	Yaw:	0.904	Thrust:	62.437
Time:	3.365	Roll Set Point:	-0.103	Pitch Set Point:	0.008	Yaw Set Point:	-0.006	X_WP:	0.000	Y_WP:	0.000	Y_WP:	0.500	X:	0.051	Y:	-0.004	Z:	0.623	yaw:	0.364	yaw rate:	5.144	Roll:	5.514	Pitch:	3.556	Yaw:	0.024	Thrust:	85.610
Time:	3.378	Roll Set Point:	-0.102	Pitch Set Point:	0.008	Yaw Set Point:	-0.007	X_WP:	0.000	Y_WP:	0.000	Y_WP:	0.500	X:	0.051	Y:	-0.004	Z:	0.623	yaw:	0.379	yaw rate:	0.146	Roll:	6.095	Pitch:	3.009	Yaw:	0.993	Thrust:	74.553
Time:	3.389	Roll Set Point:	-0.102	Pitch Set Point:	0.008	Yaw Set Point:	-0.007	X_WP:	0.000	Y_WP:	0.000	Y_WP:	0.500	X:	0.051	Y:	-0.004	Z:	0.623	yaw:	0.418	yaw rate:	-3.910	Roll:	4.660	Pitch:	2.079	Yaw:	1.644	Thrust:	47.233
Time:	3.401	Roll Set Point:	-0.102	Pitch Set Point:	0.009	Yaw Set Point:	-0.007	X_WP:	0.000	Y_WP:	0.000	Y_WP:	0.500	X:	0.051	Y:	-0.004	Z:	0.623	yaw:	0.385	yaw rate:	3.347	Roll:	4.542	Pitch:	2.346	Yaw:	-0.059	Thrust:	59.301
