Time:	0.042	Roll Set Point:	-0.015	Pitch Set Point:	-0.128	Yaw Set Point:	-0.009	X_WP:	0.000	Y_WP:	0.000	Y_WP:	0.500	X:	0.007	Y:	0.064	Z:	0.055	yaw:	0.531	yaw rate:	-12.113	Roll:	0.227	Pitch:	1.851	Yaw:	0.741	Thrust:	24.471
Time:	0.063	Roll Set Point:	-0.014	Pitch Set Point:	-0.127	Yaw Set Point:	0.000	X_WP:	0.000	Y_WP:	0.000	Y_WP:	0.500	X:	0.007	Y:	0.064	Z:	0.055	yaw:	-0.017	yaw rate:	54.739	Roll:	-0.327	Pitch:	1.743	Yaw:	-7.282	Thrust:	25.862
Time:	0.084	Roll Set Point:	-0.015	Pitch Set Point:	-0.128	Yaw Set Point:	0.003	X_WP:	0.000	Y_WP:	0.000	Y_WP:	0.500	X:	0.007	Y:	0.064	Z:	0.056	yaw:	-0.185	yaw rate:	16.832	Roll:	0.231	Pitch:	2.193	Yaw:	-2.315	Thrust:	25.396
Time:	0.102	Roll Set Point:	-0.013	Pitch Set Point:	-0.128	Yaw Set Point:	0.013	X_WP:	0.000	Y_WP:	0.000	Y_WP:	0.500	X:	0.007	Y:	0.064	Z:	0.055	yaw:	-0.737	yaw rate:	55.265	Roll:	-0.791	Pitch:	2.032	Yaw:	-8.861	Thrust:	27.979
Time:	0.122	Roll Set Point:	-0.013	Pitch Set Point:	-0.128	Yaw Set Point:	0.021	X_WP:	0.000	Y_WP:	0.000	Y_WP:	0.500	X:	0.007	Y:	0.064	Z:	0.055	yaw:	-1.217	yaw rate:	47.958	Roll:	-0.009	Pitch:	1.708	Yaw:	-7.889	Thrust:	28.934
Time:	0.146	Roll Set Point:	-0.015	Pitch Set Point:	-0.128	Yaw Set Point:	0.007	X_WP:	0.000	Y_WP:	0.000	Y_WP:	0.500	X:	0.007	Y:	0.064	Z:	0.056	yaw:	-0.394	yaw rate:	-82.325	Roll:	1.059	Pitch:	1.966	Yaw:	8.608	Thrust:	29.793
Time:	0.163	Roll Set Point:	-0.015	Pitch Set Point:	-0.128	Yaw Set Point:	-0.000	X_WP:	0.000	Y_WP:	0.000	Y_WP:	0.500	X:	0.007	Y:	0.064	Z:	0.055	yaw:	0.027	yaw rate:	-42.072	Roll:	0.662	Pitch:	1.707	Yaw:	6.497	Thrust:	30.544
Time:	0.182	Roll Set Point:	-0.015	Pitch Set Point:	-0.128	Yaw Set Point:	0.003	X_WP:	0.000	Y_WP:	0.000	Y_WP:	0.500	X:	0.007	Y:	0.064	Z:	0.055	yaw:	-0.145	yaw rate:	17.203	Roll:	0.055	Pitch:	1.923	Yaw:	-2.584	Thrust:	31.535
Time:	0.203	Roll Set Point:	-0.015	Pitch Set Point:	-0.128	Yaw Set Point:	0.004	X_WP:	0.000	Y_WP:	0.000	Y_WP:	0.500	X:	0.007	Y:	0.064	Z:	0.055	yaw:	-0.210	yaw rate:	6.454	Roll:	0.128	Pitch:	1.903	Yaw:	-1.124	Thrust:	33.560
Time:	0.223	Roll Set Point:	-0.015	Pitch Set Point:	-0.128	Yaw Set Point:	-0.007	X_WP:	0.000	Y_WP:	0.000	Y_WP:	0.500	X:	0.007	Y:	0.064	Z:	0.056	yaw:	0.415	yaw rate:	-62.462	Roll:	0.829	Pitch:	1.767	Yaw:	8.758	Thrust:	33.532
Time:	0.243	Roll Set Point:	-0.012	Pitch Set Point:	-0.129	Yaw Set Point:	0.040	X_WP:	0.000	Y_WP:	0.000	Y_WP:	0.500	X:	0.007	Y:	0.064	Z:	0.055	yaw:	-2.290	yaw rate:	270.458	Roll:	-2.384	Pitch:	2.522	Yaw:	-38.443	Thrust:	36.530
Time:	0.262	Roll Set Point:	-0.014	Pitch Set Point:	-0.128	Yaw Set Point:	0.014	X_WP:	0.000	Y_WP:	0.000	Y_WP:	0.500	X:	0.007	Y:	0.064	Z:	0.055	yaw:	-0.793	yaw rate:	-149.637	Roll:	1.581	Pitch:	1.549	Yaw:	18.840	Thrust:	36.473
Time:	0.283	Roll Set Point:	-0.014	Pitch Set Point:	-0.128	Yaw Set Point:	0.009	X_WP:	0.000	Y_WP:	0.000	Y_WP:	0.500	X:	0.007	Y:	0.064	Z:	0.056	yaw:	-0.527	yaw rate:	-26.632	Roll:	0.512	Pitch:	1.914	Yaw:	2.613	Thrust:	35.736
Time:	0.302	Roll Set Point:	-0.014	Pitch Set Point:	-0.128	Yaw Set Point:	0.009	X_WP:	0.000	Y_WP:	0.000	Y_WP:	0.500	X:	0.008	Y:	0.064	Z:	0.056	yaw:	-0.496	yaw rate:	-3.073	Roll:	0.281	Pitch:	1.892	Yaw:	-0.299	Thrust:	37.624
Time:	0.322	Roll Set Point:	-0.013	Pitch Set Point:	-0.130	Yaw Set Point:	0.003	X_WP:	0.000	Y_WP:	0.000	Y_WP:	0.500	X:	0.007	Y:	0.065	Z:	0.053	yaw:	-0.189	yaw rate:	-30.673	Roll:	-0.152	Pitch:	2.589	Yaw:	3.638	Thrust:	45.388
Time:	0.347	Roll Set Point:	-0.014	Pitch Set Point:	-0.130	Yaw Set Point:	-0.006	X_WP:	0.000	Y_WP:	0.000	Y_WP:	0.500	X:	0.007	Y:	0.065	Z:	0.053	yaw:	0.357	yaw rate:	-54.599	Roll:	0.592	Pitch:	2.018	Yaw:	6.037	Thrust:	45.172
Time:	0.364	Roll Set Point:	-0.014	Pitch Set Point:	-0.130	Yaw Set Point:	-0.007	X_WP:	0.000	Y_WP:	0.000	Y_WP:	0.500	X:	0.007	Y:	0.065	Z:	0.053	yaw:	0.422	yaw rate:	-6.594	Roll:	0.318	Pitch:	1.967	Yaw:	1.665	Thrust:	37.864
Time:	0.382	Roll Set Point:	-0.012	Pitch Set Point:	-0.130	Yaw Set Point:	0.021	X_WP:	0.000	Y_WP:	0.000	Y_WP:	0.500	X:	0.007	Y:	0.065	Z:	0.053	yaw:	-1.193	yaw rate:	161.590	Roll:	-1.679	Pitch:	1.973	Yaw:	-23.729	Thrust:	42.536
Time:	0.402	Roll Set Point:	-0.013	Pitch Set Point:	-0.130	Yaw Set Point:	0.012	X_WP:	0.000	Y_WP:	0.000	Y_WP:	0.500	X:	0.007	Y:	0.065	Z:	0.053	yaw:	-0.663	yaw rate:	-53.084	Roll:	0.881	Pitch:	1.913	Yaw:	6.085	Thrust:	43.145
Time:	0.422	Roll Set Point:	-0.013	Pitch Set Point:	-0.129	Yaw Set Point:	0.029	X_WP:	0.000	Y_WP:	0.000	Y_WP:	0.500	X:	0.008	Y:	0.065	Z:	0.055	yaw:	-1.672	yaw rate:	100.956	Roll:	-0.147	Pitch:	1.587	Yaw:	-15.389	Thrust:	39.992
Time:	0.443	Roll Set Point:	-0.012	Pitch Set Point:	-0.131	Yaw Set Point:	0.020	X_WP:	0.000	Y_WP:	0.000	Y_WP:	0.500	X:	0.007	Y:	0.065	Z:	0.053	yaw:	-1.126	yaw rate:	-54.637	Roll:	0.035	Pitch:	2.583	Yaw:	5.269	Thrust:	51.545
Time:	0.465	Roll Set Point:	-0.014	Pitch Set Point:	-0.131	Yaw Set Point:	-0.009	X_WP:	0.000	Y_WP:	0.000	Y_WP:	0.500	X:	0.007	Y:	0.066	Z:	0.053	yaw:	0.525	yaw rate:	-165.087	Roll:	1.722	Pitch:	2.070	Yaw:	20.550	Thrust:	47.973
Time:	0.482	Roll Set Point:	-0.013	Pitch Set Point:	-0.132	Yaw Set Point:	0.002	X_WP:	0.000	Y_WP:	0.000	Y_WP:	0.500	X:	0.007	Y:	0.066	Z:	0.053	yaw:	-0.143	yaw rate:	66.782	Roll:	-0.521	Pitch:	2.244	Yaw:	-10.161	Thrust:	46.126
Time:	0.503	Roll Set Point:	-0.014	Pitch Set Point:	-0.131	Yaw Set Point:	-0.002	X_WP:	0.000	Y_WP:	0.000	Y_WP:	0.500	X:	0.007	Y:	0.066	Z:	0.053	yaw:	0.090	yaw rate:	-23.270	Roll:	0.650	Pitch:	1.767	Yaw:	2.985	Thrust:	50.649
Time:	0.524	Roll Set Point:	-0.015	Pitch Set Point:	-0.131	Yaw Set Point:	-0.007	X_WP:	0.000	Y_WP:	0.000	Y_WP:	0.500	X:	0.007	Y:	0.066	Z:	0.053	yaw:	0.406	yaw rate:	-31.617	Roll:	0.689	Pitch:	1.922	Yaw:	4.524	Thrust:	49.939
Time:	0.550	Roll Set Point:	-0.014	Pitch Set Point:	-0.132	Yaw Set Point:	-0.007	X_WP:	0.000	Y_WP:	0.000	Y_WP:	0.500	X:	0.007	Y:	0.066	Z:	0.053	yaw:	0.374	yaw rate:	3.252	Roll:	0.170	Pitch:	2.157	Yaw:	0.111	Thrust:	60.516
Time:	0.564	Roll Set Point:	-0.014	Pitch Set Point:	-0.132	Yaw Set Point:	0.002	X_WP:	0.000	Y_WP:	0.000	Y_WP:	0.500	X:	0.007	Y:	0.066	Z:	0.053	yaw:	-0.106	yaw rate:	47.979	Roll:	-0.480	Pitch:	2.198	Yaw:	-9.459	Thrust:	43.097
Time:	0.583	Roll Set Point:	-0.015	Pitch Set Point:	-0.132	Yaw Set Point:	-0.005	X_WP:	0.000	Y_WP:	0.000	Y_WP:	0.500	X:	0.007	Y:	0.066	Z:	0.053	yaw:	0.272	yaw rate:	-37.857	Roll:	0.903	Pitch:	1.948	Yaw:	5.251	Thrust:	51.803
Time:	0.604	Roll Set Point:	-0.016	Pitch Set Point:	-0.131	Yaw Set Point:	-0.013	X_WP:	0.000	Y_WP:	0.000	Y_WP:	0.500	X:	0.008	Y:	0.066	Z:	0.053	yaw:	0.754	yaw rate:	-48.189	Roll:	0.975	Pitch:	1.658	Yaw:	7.262	Thrust:	54.524
Time:	0.623	Roll Set Point:	-0.016	Pitch Set Point:	-0.132	Yaw Set Point:	-0.006	X_WP:	0.000	Y_WP:	0.000	Y_WP:	0.500	X:	0.008	Y:	0.066	Z:	0.053	yaw:	0.355	yaw rate:	39.918	Roll:	-0.159	Pitch:	2.262	Yaw:	-4.893	Thrust:	56.057
Time:	0.643	Roll Set Point:	-0.015	Pitch Set Point:	-0.132	Yaw Set Point:	0.012	X_WP:	0.000	Y_WP:	0.000	Y_WP:	0.500	X:	0.008	Y:	0.066	Z:	0.053	yaw:	-0.661	yaw rate:	101.595	Roll:	-0.721	Pitch:	2.028	Yaw:	-14.584	Thrust:	55.938
Time:	0.674	Roll Set Point:	-0.016	Pitch Set Point:	-0.131	Yaw Set Point:	0.001	X_WP:	0.000	Y_WP:	0.000	Y_WP:	0.500	X:	0.008	Y:	0.066	Z:	0.053	yaw:	-0.077	yaw rate:	-58.339	Roll:	0.672	Pitch:	1.945	Yaw:	4.723	Thrust:	75.229
Time:	0.687	Roll Set Point:	-0.016	Pitch Set Point:	-0.132	Yaw Set Point:	-0.000	X_WP:	0.000	Y_WP:	0.000	Y_WP:	0.500	X:	0.008	Y:	0.066	Z:	0.053	yaw:	0.006	yaw rate:	-8.356	Roll:	0.224	Pitch:	2.436	Yaw:	1.651	Thrust:	48.184
Time:	0.702	Roll Set Point:	-0.017	Pitch Set Point:	-0.132	Yaw Set Point:	-0.010	X_WP:	0.000	Y_WP:	0.000	Y_WP:	0.500	X:	0.008	Y:	0.066	Z:	0.054	yaw:	0.575	yaw rate:	-56.889	Roll:	1.147	Pitch:	1.819	Yaw:	10.337	Thrust:	51.046
Time:	0.722	Roll Set Point:	-0.015	Pitch Set Point:	-0.132	Yaw Set Point:	0.003	X_WP:	0.000	Y_WP:	0.000	Y_WP:	0.500	X:	0.008	Y:	0.066	Z:	0.054	yaw:	-0.197	yaw rate:	77.173	Roll:	-0.689	Pitch:	2.258	Yaw:	-10.519	Thrust:	60.116
Time:	0.748	Roll Set Point:	-0.016	Pitch Set Point:	-0.132	Yaw Set Point:	-0.003	X_WP:	0.000	Y_WP:	0.000	Y_WP:	0.500	X:	0.008	Y:	0.066	Z:	0.054	yaw:	0.160	yaw rate:	-35.638	Roll:	0.607	Pitch:	2.142	Yaw:	3.811	Thrust:	69.318
Time:	0.762	Roll Set Point:	-0.015	Pitch Set Point:	-0.133	Yaw Set Point:	-0.003	X_WP:	0.000	Y_WP:	0.000	Y_WP:	0.500	X:	0.007	Y:	0.066	Z:	0.055	yaw:	0.156	yaw rate:	0.381	Roll:	-0.250	Pitch:	2.087	Yaw:	0.110	Thrust:	54.582
Time:	0.782	Roll Set Point:	-0.014	Pitch Set Point:	-0.133	Yaw Set Point:	0.007	X_WP:	0.000	Y_WP:	0.000	Y_WP:	0.500	X:	0.007	Y:	0.066	Z:	0.055	yaw:	-0.428	yaw rate:	58.405	Roll:	-0.479	Pitch:	2.261	Yaw:	-8.287	Thrust:	62.639
Time:	0.813	Roll Set Point:	-0.014	Pitch Set Point:	-0.133	Yaw Set Point:	0.007	X_WP:	0.000	Y_WP:	0.000	Y_WP:	0.500	X:	0.007	Y:	0.067	Z:	0.056	yaw:	-0.398	yaw rate:	-3.034	Roll:	0.107	Pitch:	2.240	Yaw:	-0.376	Thrust:	83.909
Time:	0.830	Roll Set Point:	-0.013	Pitch Set Point:	-0.134	Yaw Set Point:	0.010	X_WP:	0.000	Y_WP:	0.000	Y_WP:	0.500	X:	0.007	Y:	0.067	Z:	0.058	yaw:	-0.559	yaw rate:	16.065	Roll:	-0.070	Pitch:	2.327	Yaw:	-3.193	Thrust:	57.557
Time:	0.850	Roll Set Point:	-0.012	Pitch Set Point:	-0.134	Yaw Set Point:	0.013	X_WP:	0.000	Y_WP:	0.000	Y_WP:	0.500	X:	0.007	Y:	0.067	Z:	0.060	yaw:	-0.743	yaw rate:	18.444	Roll:	-0.305	Pitch:	2.006	Yaw:	-3.549	Thrust:	60.661
Time:	0.863	Roll Set Point:	-0.013	Pitch Set Point:	-0.134	Yaw Set Point:	-0.001	X_WP:	0.000	Y_WP:	0.000	Y_WP:	0.500	X:	0.007	Y:	0.067	Z:	0.063	yaw:	0.036	yaw rate:	-77.882	Roll:	1.544	Pitch:	1.910	Yaw:	16.159	Thrust:	40.733
Time:	0.885	Roll Set Point:	-0.012	Pitch Set Point:	-0.134	Yaw Set Point:	0.006	X_WP:	0.000	Y_WP:	0.000	Y_WP:	0.500	X:	0.006	Y:	0.067	Z:	0.068	yaw:	-0.349	yaw rate:	38.454	Roll:	-0.399	Pitch:	2.282	Yaw:	-5.118	Thrust:	63.507
Time:	0.901	Roll Set Point:	-0.011	Pitch Set Point:	-0.134	Yaw Set Point:	0.015	X_WP:	0.000	Y_WP:	0.000	Y_WP:	0.500	X:	0.006	Y:	0.067	Z:	0.072	yaw:	-0.849	yaw rate:	50.005	Roll:	-0.591	Pitch:	1.935	Yaw:	-9.190	Thrust:	50.752
Time:	0.922	Roll Set Point:	-0.010	Pitch Set Point:	-0.134	Yaw Set Point:	0.023	X_WP:	0.000	Y_WP:	0.000	Y_WP:	0.500	X:	0.006	Y:	0.067	Z:	0.077	yaw:	-1.333	yaw rate:	48.379	Roll:	-0.688	Pitch:	2.341	Yaw:	-7.989	Thrust:	61.353
Time:	0.943	Roll Set Point:	-0.011	Pitch Set Point:	-0.133	Yaw Set Point:	0.017	X_WP:	0.000	Y_WP:	0.000	Y_WP:	0.500	X:	0.006	Y:	0.066	Z:	0.082	yaw:	-0.975	yaw rate:	-35.728	Roll:	0.849	Pitch:	1.424	Yaw:	2.954	Thrust:	61.736
Time:	0.963	Roll Set Point:	-0.009	Pitch Set Point:	-0.134	Yaw Set Point:	0.026	X_WP:	0.000	Y_WP:	0.000	Y_WP:	0.500	X:	0.005	Y:	0.067	Z:	0.088	yaw:	-1.487	yaw rate:	51.150	Roll:	-0.896	Pitch:	2.547	Yaw:	-9.530	Thrust:	54.451
Time:	0.986	Roll Set Point:	-0.009	Pitch Set Point:	-0.133	Yaw Set Point:	0.028	X_WP:	0.000	Y_WP:	0.000	Y_WP:	0.500	X:	0.005	Y:	0.067	Z:	0.094	yaw:	-1.620	yaw rate:	13.343	Roll:	-0.140	Pitch:	1.925	Yaw:	-3.831	Thrust:	71.964
Time:	1.014	Roll Set Point:	-0.008	Pitch Set Point:	-0.133	Yaw Set Point:	0.026	X_WP:	0.000	Y_WP:	0.000	Y_WP:	0.500	X:	0.005	Y:	0.066	Z:	0.100	yaw:	-1.472	yaw rate:	-14.855	Roll:	0.110	Pitch:	1.999	Yaw:	-0.841	Thrust:	83.918
Time:	1.032	Roll Set Point:	-0.007	Pitch Set Point:	-0.132	Yaw Set Point:	0.035	X_WP:	0.000	Y_WP:	0.000	Y_WP:	0.500	X:	0.005	Y:	0.066	Z:	0.110	yaw:	-1.986	yaw rate:	51.395	Roll:	-0.824	Pitch:	1.686	Yaw:	-10.210	Thrust:	45.693
Time:	1.052	Roll Set Point:	-0.009	Pitch Set Point:	-0.131	Yaw Set Point:	0.006	X_WP:	0.000	Y_WP:	0.000	Y_WP:	0.500	X:	0.005	Y:	0.065	Z:	0.117	yaw:	-0.317	yaw rate:	-166.828	Roll:	1.993	Pitch:	1.441	Yaw:	21.956	Thrust:	56.266
Time:	1.072	Roll Set Point:	-0.005	Pitch Set Point:	-0.131	Yaw Set Point:	0.037	X_WP:	0.000	Y_WP:	0.000	Y_WP:	0.500	X:	0.004	Y:	0.065	Z:	0.124	yaw:	-2.139	yaw rate:	182.135	Roll:	-2.385	Pitch:	2.021	Yaw:	-26.127	Thrust:	60.405
Time:	1.092	Roll Set Point:	-0.006	Pitch Set Point:	-0.130	Yaw Set Point:	0.020	X_WP:	0.000	Y_WP:	0.000	Y_WP:	0.500	X:	0.004	Y:	0.065	Z:	0.132	yaw:	-1.150	yaw rate:	-98.882	Roll:	0.740	Pitch:	1.877	Yaw:	11.357	Thrust:	55.716
Time:	1.113	Roll Set Point:	-0.005	Pitch Set Point:	-0.129	Yaw Set Point:	0.020	X_WP:	0.000	Y_WP:	0.000	Y_WP:	0.500	X:	0.003	Y:	0.065	Z:	0.140	yaw:	-1.155	yaw rate:	0.467	Roll:	-0.142	Pitch:	1.644	Yaw:	-1.839	Thrust:	59.213
Time:	1.134	Roll Set Point:	-0.005	Pitch Set Point:	-0.128	Yaw Set Point:	0.016	X_WP:	0.000	Y_WP:	0.000	Y_WP:	0.500	X:	0.003	Y:	0.064	Z:	0.149	yaw:	-0.943	yaw rate:	-21.177	Roll:	-0.118	Pitch:	1.757	Yaw:	1.166	Thrust:	59.695
Time:	1.152	Roll Set Point:	-0.004	Pitch Set Point:	-0.128	Yaw Set Point:	0.012	X_WP:	0.000	Y_WP:	0.000	Y_WP:	0.500	X:	0.002	Y:	0.064	Z:	0.157	yaw:	-0.678	yaw rate:	-26.503	Roll:	0.012	Pitch:	1.769	Yaw:	2.622	Thrust:	50.935
Time:	1.172	Roll Set Point:	-0.004	Pitch Set Point:	-0.127	Yaw Set Point:	0.011	X_WP:	0.000	Y_WP:	0.000	Y_WP:	0.500	X:	0.002	Y:	0.063	Z:	0.166	yaw:	-0.653	yaw rate:	-2.468	Roll:	-0.181	Pitch:	1.531	Yaw:	-0.754	Thrust:	54.317
Time:	1.192	Roll Set Point:	-0.003	Pitch Set Point:	-0.125	Yaw Set Point:	0.015	X_WP:	0.000	Y_WP:	0.000	Y_WP:	0.500	X:	0.002	Y:	0.063	Z:	0.175	yaw:	-0.869	yaw rate:	21.593	Roll:	-0.509	Pitch:	1.395	Yaw:	-4.213	Thrust:	57.596
Time:	1.214	Roll Set Point:	-0.002	Pitch Set Point:	-0.125	Yaw Set Point:	0.007	X_WP:	0.000	Y_WP:	0.000	Y_WP:	0.500	X:	0.001	Y:	0.062	Z:	0.184	yaw:	-0.396	yaw rate:	-47.301	Roll:	0.174	Pitch:	1.769	Yaw:	4.649	Thrust:	67.669
Time:	1.232	Roll Set Point:	-0.002	Pitch Set Point:	-0.124	Yaw Set Point:	0.008	X_WP:	0.000	Y_WP:	0.000	Y_WP:	0.500	X:	0.001	Y:	0.062	Z:	0.193	yaw:	-0.440	yaw rate:	4.385	Roll:	-0.353	Pitch:	1.613	Yaw:	-1.437	Thrust:	48.089
Time:	1.253	Roll Set Point:	-0.001	Pitch Set Point:	-0.123	Yaw Set Point:	0.004	X_WP:	0.000	Y_WP:	0.000	Y_WP:	0.500	X:	0.001	Y:	0.062	Z:	0.201	yaw:	-0.238	yaw rate:	-20.202	Roll:	-0.049	Pitch:	1.637	Yaw:	2.034	Thrust:	58.778
Time:	1.272	Roll Set Point:	-0.000	Pitch Set Point:	-0.122	Yaw Set Point:	0.007	X_WP:	0.000	Y_WP:	0.000	Y_WP:	0.500	X:	0.000	Y:	0.061	Z:	0.209	yaw:	-0.409	yaw rate:	17.169	Roll:	-0.404	Pitch:	1.589	Yaw:	-3.064	Thrust:	59.123
Time:	1.293	Roll Set Point:	-0.001	Pitch Set Point:	-0.121	Yaw Set Point:	0.003	X_WP:	0.000	Y_WP:	0.000	Y_WP:	0.500	X:	0.001	Y:	0.061	Z:	0.218	yaw:	-0.180	yaw rate:	-22.917	Roll:	0.339	Pitch:	1.507	Yaw:	2.605	Thrust:	58.133
Time:	1.314	Roll Set Point:	0.000	Pitch Set Point:	-0.121	Yaw Set Point:	-0.001	X_WP:	0.000	Y_WP:	0.000	Y_WP:	0.500	X:	-0.000	Y:	0.060	Z:	0.226	yaw:	0.033	yaw rate:	-21.377	Roll:	-0.401	Pitch:	1.873	Yaw:	2.422	Thrust:	65.724
Time:	1.334	Roll Set Point:	0.001	Pitch Set Point:	-0.120	Yaw Set Point:	0.001	X_WP:	0.000	Y_WP:	0.000	Y_WP:	0.500	X:	-0.001	Y:	0.060	Z:	0.234	yaw:	-0.059	yaw rate:	9.207	Roll:	-0.337	Pitch:	1.566	Yaw:	-1.461	Thrust:	63.136
Time:	1.352	Roll Set Point:	0.002	Pitch Set Point:	-0.119	Yaw Set Point:	-0.002	X_WP:	0.000	Y_WP:	0.000	Y_WP:	0.500	X:	-0.001	Y:	0.060	Z:	0.243	yaw:	0.132	yaw rate:	-19.046	Roll:	-0.133	Pitch:	1.488	Yaw:	2.802	Thrust:	50.054
Time:	1.373	Roll Set Point:	0.002	Pitch Set Point:	-0.119	Yaw Set Point:	-0.001	X_WP:	0.000	Y_WP:	0.000	Y_WP:	0.500	X:	-0.001	Y:	0.059	Z:	0.250	yaw:	0.066	yaw rate:	6.551	Roll:	-0.233	Pitch:	1.849	Yaw:	-0.961	Thrust:	62.830
Time:	1.393	Roll Set Point:	0.002	Pitch Set Point:	-0.118	Yaw Set Point:	0.005	X_WP:	0.000	Y_WP:	0.000	Y_WP:	0.500	X:	-0.001	Y:	0.059	Z:	0.258	yaw:	-0.288	yaw rate:	35.422	Roll:	-0.381	Pitch:	1.511	Yaw:	-5.151	Thrust:	64.143
Time:	1.413	Roll Set Point:	0.002	Pitch Set Point:	-0.118	Yaw Set Point:	-0.007	X_WP:	0.000	Y_WP:	0.000	Y_WP:	0.500	X:	-0.001	Y:	0.059	Z:	0.266	yaw:	0.427	yaw rate:	-71.465	Roll:	0.337	Pitch:	2.018	Yaw:	9.874	Thrust:	59.449
Time:	1.431	Roll Set Point:	0.001	Pitch Set Point:	-0.117	Yaw Set Point:	-0.028	X_WP:	0.000	Y_WP:	0.000	Y_WP:	0.500	X:	-0.001	Y:	0.058	Z:	0.274	yaw:	1.623	yaw rate:	-119.601	Roll:	1.406	Pitch:	1.197	Yaw:	18.896	Thrust:	55.876
Time:	1.452	Roll Set Point:	0.004	Pitch Set Point:	-0.117	Yaw Set Point:	-0.002	X_WP:	0.000	Y_WP:	0.000	Y_WP:	0.500	X:	-0.002	Y:	0.059	Z:	0.282	yaw:	0.098	yaw rate:	152.498	Roll:	-1.979	Pitch:	2.258	Yaw:	-19.025	Thrust:	65.922
Time:	1.472	Roll Set Point:	0.004	Pitch Set Point:	-0.117	Yaw Set Point:	-0.007	X_WP:	0.000	Y_WP:	0.000	Y_WP:	0.500	X:	-0.002	Y:	0.059	Z:	0.290	yaw:	0.383	yaw rate:	-28.532	Roll:	0.078	Pitch:	1.824	Yaw:	4.150	Thrust:	57.134
Time:	1.492	Roll Set Point:	0.004	Pitch Set Point:	-0.117	Yaw Set Point:	-0.004	X_WP:	0.000	Y_WP:	0.000	Y_WP:	0.500	X:	-0.002	Y:	0.059	Z:	0.298	yaw:	0.219	yaw rate:	16.399	Roll:	-0.364	Pitch:	1.868	Yaw:	-2.038	Thrust:	63.485
Time:	1.512	Roll Set Point:	0.004	Pitch Set Point:	-0.117	Yaw Set Point:	-0.007	X_WP:	0.000	Y_WP:	0.000	Y_WP:	0.500	X:	-0.002	Y:	0.058	Z:	0.306	yaw:	0.411	yaw rate:	-19.196	Roll:	0.032	Pitch:	1.840	Yaw:	2.824	Thrust:	61.501
Time:	1.533	Roll Set Point:	0.004	Pitch Set Point:	-0.117	Yaw Set Point:	-0.011	X_WP:	0.000	Y_WP:	0.000	Y_WP:	0.500	X:	-0.002	Y:	0.058	Z:	0.314	yaw:	0.620	yaw rate:	-20.855	Roll:	0.091	Pitch:	1.858	Yaw:	3.264	Thrust:	68.107
Time:	1.553	Roll Set Point:	0.005	Pitch Set Point:	-0.117	Yaw Set Point:	-0.009	X_WP:	0.000	Y_WP:	0.000	Y_WP:	0.500	X:	-0.003	Y:	0.058	Z:	0.323	yaw:	0.531	yaw rate:	8.873	Roll:	-0.281	Pitch:	1.943	Yaw:	-0.622	Thrust:	58.536
Time:	1.572	Roll Set Point:	0.005	Pitch Set Point:	-0.117	Yaw Set Point:	-0.004	X_WP:	0.000	Y_WP:	0.000	Y_WP:	0.500	X:	-0.003	Y:	0.058	Z:	0.331	yaw:	0.243	yaw rate:	28.791	Roll:	-0.413	Pitch:	1.876	Yaw:	-3.831	Thrust:	54.988
Time:	1.591	Roll Set Point:	0.005	Pitch Set Point:	-0.116	Yaw Set Point:	-0.003	X_WP:	0.000	Y_WP:	0.000	Y_WP:	0.500	X:	-0.003	Y:	0.058	Z:	0.340	yaw:	0.191	yaw rate:	5.210	Roll:	-0.072	Pitch:	1.897	Yaw:	-0.603	Thrust:	57.489
Time:	1.614	Roll Set Point:	0.005	Pitch Set Point:	-0.117	Yaw Set Point:	-0.004	X_WP:	0.000	Y_WP:	0.000	Y_WP:	0.500	X:	-0.003	Y:	0.058	Z:	0.349	yaw:	0.249	yaw rate:	-5.844	Roll:	-0.135	Pitch:	2.077	Yaw:	0.801	Thrust:	74.409
Time:	1.632	Roll Set Point:	0.006	Pitch Set Point:	-0.117	Yaw Set Point:	-0.003	X_WP:	0.000	Y_WP:	0.000	Y_WP:	0.500	X:	-0.003	Y:	0.058	Z:	0.358	yaw:	0.152	yaw rate:	9.747	Roll:	-0.183	Pitch:	1.974	Yaw:	-1.462	Thrust:	42.763
Time:	1.652	Roll Set Point:	0.003	Pitch Set Point:	-0.116	Yaw Set Point:	-0.025	X_WP:	0.000	Y_WP:	0.000	Y_WP:	0.500	X:	-0.002	Y:	0.058	Z:	0.367	yaw:	1.455	yaw rate:	-130.282	Roll:	1.551	Pitch:	1.674	Yaw:	18.464	Thrust:	61.278
Time:	1.672	Roll Set Point:	0.003	Pitch Set Point:	-0.116	Yaw Set Point:	-0.029	X_WP:	0.000	Y_WP:	0.000	Y_WP:	0.500	X:	-0.002	Y:	0.058	Z:	0.376	yaw:	1.642	yaw rate:	-18.721	Roll:	0.126	Pitch:	2.065	Yaw:	4.587	Thrust:	58.348
Time:	1.693	Roll Set Point:	0.003	Pitch Set Point:	-0.117	Yaw Set Point:	-0.026	X_WP:	0.000	Y_WP:	0.000	Y_WP:	0.500	X:	-0.002	Y:	0.058	Z:	0.385	yaw:	1.467	yaw rate:	17.488	Roll:	-0.158	Pitch:	2.146	Yaw:	-0.230	Thrust:	61.840
Time:	1.714	Roll Set Point:	0.004	Pitch Set Point:	-0.117	Yaw Set Point:	-0.017	X_WP:	0.000	Y_WP:	0.000	Y_WP:	0.500	X:	-0.003	Y:	0.059	Z:	0.393	yaw:	0.982	yaw rate:	48.527	Roll:	-0.524	Pitch:	2.167	Yaw:	-5.042	Thrust:	64.698
Time:	1.733	Roll Set Point:	0.003	Pitch Set Point:	-0.118	Yaw Set Point:	-0.029	X_WP:	0.000	Y_WP:	0.000	Y_WP:	0.500	X:	-0.003	Y:	0.059	Z:	0.402	yaw:	1.654	yaw rate:	-67.254	Roll:	0.523	Pitch:	2.377	Yaw:	11.078	Thrust:	57.643
Time:	1.753	Roll Set Point:	0.004	Pitch Set Point:	-0.118	Yaw Set Point:	-0.017	X_WP:	0.000	Y_WP:	0.000	Y_WP:	0.500	X:	-0.003	Y:	0.059	Z:	0.410	yaw:	0.951	yaw rate:	70.343	Roll:	-0.709	Pitch:	2.062	Yaw:	-8.339	Thrust:	56.415
Time:	1.772	Roll Set Point:	0.006	Pitch Set Point:	-0.119	Yaw Set Point:	0.001	X_WP:	0.000	Y_WP:	0.000	Y_WP:	0.500	X:	-0.003	Y:	0.060	Z:	0.419	yaw:	-0.044	yaw rate:	99.473	Roll:	-1.233	Pitch:	2.278	Yaw:	-13.259	Thrust:	59.039
Time:	1.792	Roll Set Point:	0.004	Pitch Set Point:	-0.119	Yaw Set Point:	-0.015	X_WP:	0.000	Y_WP:	0.000	Y_WP:	0.500	X:	-0.003	Y:	0.060	Z:	0.427	yaw:	0.885	yaw rate:	-92.867	Roll:	1.055	Pitch:	2.143	Yaw:	13.803	Thrust:	54.269
Time:	1.814	Roll Set Point:	0.005	Pitch Set Point:	-0.121	Yaw Set Point:	-0.019	X_WP:	0.000	Y_WP:	0.000	Y_WP:	0.500	X:	-0.003	Y:	0.060	Z:	0.436	yaw:	1.103	yaw rate:	-21.848	Roll:	-0.034	Pitch:	2.466	Yaw:	4.009	Thrust:	67.699
Time:	1.833	Roll Set Point:	0.004	Pitch Set Point:	-0.121	Yaw Set Point:	-0.022	X_WP:	0.000	Y_WP:	0.000	Y_WP:	0.500	X:	-0.003	Y:	0.061	Z:	0.444	yaw:	1.265	yaw rate:	-16.215	Roll:	0.198	Pitch:	2.276	Yaw:	3.889	Thrust:	54.359
Time:	1.852	Roll Set Point:	0.009	Pitch Set Point:	-0.122	Yaw Set Point:	0.030	X_WP:	0.000	Y_WP:	0.000	Y_WP:	0.500	X:	-0.004	Y:	0.061	Z:	0.452	yaw:	-1.712	yaw rate:	297.795	Roll:	-3.838	Pitch:	2.428	Yaw:	-42.801	Thrust:	53.646
Time:	1.872	Roll Set Point:	0.009	Pitch Set Point:	-0.123	Yaw Set Point:	0.028	X_WP:	0.000	Y_WP:	0.000	Y_WP:	0.500	X:	-0.004	Y:	0.061	Z:	0.460	yaw:	-1.612	yaw rate:	-10.014	Roll:	-0.035	Pitch:	2.358	Yaw:	-1.022	Thrust:	59.506
Time:	1.893	Roll Set Point:	0.009	Pitch Set Point:	-0.124	Yaw Set Point:	0.025	X_WP:	0.000	Y_WP:	0.000	Y_WP:	0.500	X:	-0.004	Y:	0.062	Z:	0.468	yaw:	-1.428	yaw rate:	-18.477	Roll:	-0.049	Pitch:	2.734	Yaw:	0.231	Thrust:	60.346
Time:	1.912	Roll Set Point:	0.009	Pitch Set Point:	-0.125	Yaw Set Point:	0.023	X_WP:	0.000	Y_WP:	0.000	Y_WP:	0.500	X:	-0.004	Y:	0.063	Z:	0.476	yaw:	-1.343	yaw rate:	-8.470	Roll:	-0.067	Pitch:	2.504	Yaw:	-0.862	Thrust:	55.942
Time:	1.935	Roll Set Point:	0.008	Pitch Set Point:	-0.125	Yaw Set Point:	0.023	X_WP:	0.000	Y_WP:	0.000	Y_WP:	0.500	X:	-0.003	Y:	0.063	Z:	0.483	yaw:	-1.291	yaw rate:	-5.232	Roll:	0.419	Pitch:	2.206	Yaw:	-1.306	Thrust:	65.307
Time:	1.953	Roll Set Point:	0.009	Pitch Set Point:	-0.127	Yaw Set Point:	0.024	X_WP:	0.000	Y_WP:	0.000	Y_WP:	0.500	X:	-0.004	Y:	0.064	Z:	0.491	yaw:	-1.384	yaw rate:	9.323	Roll:	-0.649	Pitch:	2.898	Yaw:	-3.309	Thrust:	56.252
Time:	1.973	Roll Set Point:	0.008	Pitch Set Point:	-0.128	Yaw Set Point:	0.024	X_WP:	0.000	Y_WP:	0.000	Y_WP:	0.500	X:	-0.003	Y:	0.064	Z:	0.498	yaw:	-1.399	yaw rate:	1.472	Roll:	0.060	Pitch:	2.473	Yaw:	-2.299	Thrust:	54.894
Time:	1.994	Roll Set Point:	0.008	Pitch Set Point:	-0.128	Yaw Set Point:	0.023	X_WP:	0.000	Y_WP:	0.000	Y_WP:	0.500	X:	-0.003	Y:	0.064	Z:	0.505	yaw:	-1.302	yaw rate:	-9.674	Roll:	0.191	Pitch:	2.376	Yaw:	-0.797	Thrust:	63.782
Time:	2.016	Roll Set Point:	0.008	Pitch Set Point:	-0.130	Yaw Set Point:	0.021	X_WP:	0.000	Y_WP:	0.000	Y_WP:	0.500	X:	-0.003	Y:	0.065	Z:	0.513	yaw:	-1.208	yaw rate:	-9.422	Roll:	-0.060	Pitch:	2.866	Yaw:	-0.756	Thrust:	64.119
Time:	2.032	Roll Set Point:	0.007	Pitch Set Point:	-0.131	Yaw Set Point:	0.021	X_WP:	0.000	Y_WP:	0.000	Y_WP:	0.500	X:	-0.003	Y:	0.065	Z:	0.520	yaw:	-1.209	yaw rate:	0.106	Roll:	0.073	Pitch:	2.573	Yaw:	-1.851	Thrust:	42.522
Time:	2.053	Roll Set Point:	0.007	Pitch Set Point:	-0.132	Yaw Set Point:	0.020	X_WP:	0.000	Y_WP:	0.000	Y_WP:	0.500	X:	-0.003	Y:	0.066	Z:	0.527	yaw:	-1.124	yaw rate:	-8.462	Roll:	0.114	Pitch:	2.673	Yaw:	-0.662	Thrust:	55.646
Time:	2.073	Roll Set Point:	0.006	Pitch Set Point:	-0.133	Yaw Set Point:	0.013	X_WP:	0.000	Y_WP:	0.000	Y_WP:	0.500	X:	-0.003	Y:	0.066	Z:	0.534	yaw:	-0.722	yaw rate:	-40.227	Roll:	0.522	Pitch:	2.642	Yaw:	4.141	Thrust:	57.561
Time:	2.093	Roll Set Point:	0.006	Pitch Set Point:	-0.133	Yaw Set Point:	0.020	X_WP:	0.000	Y_WP:	0.000	Y_WP:	0.500	X:	-0.002	Y:	0.067	Z:	0.541	yaw:	-1.125	yaw rate:	40.331	Roll:	-0.156	Pitch:	2.385	Yaw:	-6.857	Thrust:	60.867
Time:	2.114	Roll Set Point:	0.005	Pitch Set Point:	-0.134	Yaw Set Point:	0.018	X_WP:	0.000	Y_WP:	0.000	Y_WP:	0.500	X:	-0.002	Y:	0.067	Z:	0.547	yaw:	-1.037	yaw rate:	-8.781	Roll:	0.096	Pitch:	2.844	Yaw:	-0.544	Thrust:	56.245
Time:	2.133	Roll Set Point:	0.004	Pitch Set Point:	-0.135	Yaw Set Point:	0.012	X_WP:	0.000	Y_WP:	0.000	Y_WP:	0.500	X:	-0.002	Y:	0.068	Z:	0.553	yaw:	-0.680	yaw rate:	-35.745	Roll:	0.512	Pitch:	2.727	Yaw:	3.591	Thrust:	58.794
Time:	2.153	Roll Set Point:	0.004	Pitch Set Point:	-0.136	Yaw Set Point:	0.010	X_WP:	0.000	Y_WP:	0.000	Y_WP:	0.500	X:	-0.002	Y:	0.068	Z:	0.559	yaw:	-0.601	yaw rate:	-7.889	Roll:	0.195	Pitch:	2.696	Yaw:	-0.033	Thrust:	57.517
Time:	2.174	Roll Set Point:	0.004	Pitch Set Point:	-0.137	Yaw Set Point:	0.016	X_WP:	0.000	Y_WP:	0.000	Y_WP:	0.500	X:	-0.001	Y:	0.069	Z:	0.565	yaw:	-0.923	yaw rate:	32.210	Roll:	-0.135	Pitch:	2.631	Yaw:	-5.740	Thrust:	57.494
Time:	2.194	Roll Set Point:	0.003	Pitch Set Point:	-0.138	Yaw Set Point:	0.011	X_WP:	0.000	Y_WP:	0.000	Y_WP:	0.500	X:	-0.001	Y:	0.069	Z:	0.570	yaw:	-0.641	yaw rate:	-28.224	Roll:	0.519	Pitch:	2.694	Yaw:	2.521	Thrust:	58.905
Time:	2.216	Roll Set Point:	0.002	Pitch Set Point:	-0.138	Yaw Set Point:	0.016	X_WP:	0.000	Y_WP:	0.000	Y_WP:	0.500	X:	-0.001	Y:	0.069	Z:	0.575	yaw:	-0.926	yaw rate:	28.519	Roll:	-0.067	Pitch:	2.622	Yaw:	-4.895	Thrust:	65.162
Time:	2.231	Roll Set Point:	0.001	Pitch Set Point:	-0.140	Yaw Set Point:	0.010	X_WP:	0.000	Y_WP:	0.000	Y_WP:	0.500	X:	-0.000	Y:	0.070	Z:	0.580	yaw:	-0.583	yaw rate:	-34.242	Roll:	0.691	Pitch:	2.871	Yaw:	4.925	Thrust:	38.496
Time:	2.252	Roll Set Point:	0.001	Pitch Set Point:	-0.140	Yaw Set Point:	0.010	X_WP:	0.000	Y_WP:	0.000	Y_WP:	0.500	X:	0.000	Y:	0.070	Z:	0.585	yaw:	-0.601	yaw rate:	1.735	Roll:	0.324	Pitch:	2.466	Yaw:	-1.313	Thrust:	60.630
Time:	2.272	Roll Set Point:	-0.000	Pitch Set Point:	-0.140	Yaw Set Point:	0.010	X_WP:	0.000	Y_WP:	0.000	Y_WP:	0.500	X:	0.000	Y:	0.070	Z:	0.590	yaw:	-0.591	yaw rate:	-0.947	Roll:	0.286	Pitch:	2.614	Yaw:	-0.954	Thrust:	57.930
Time:	2.291	Roll Set Point:	-0.000	Pitch Set Point:	-0.142	Yaw Set Point:	0.008	X_WP:	0.000	Y_WP:	0.000	Y_WP:	0.500	X:	0.000	Y:	0.071	Z:	0.595	yaw:	-0.457	yaw rate:	-13.422	Roll:	0.211	Pitch:	3.001	Yaw:	0.954	Thrust:	53.189
Time:	2.313	Roll Set Point:	-0.001	Pitch Set Point:	-0.142	Yaw Set Point:	0.005	X_WP:	0.000	Y_WP:	0.000	Y_WP:	0.500	X:	0.001	Y:	0.071	Z:	0.599	yaw:	-0.302	yaw rate:	-15.486	Roll:	0.436	Pitch:	2.648	Yaw:	1.181	Thrust:	62.268
Time:	2.333	Roll Set Point:	-0.001	Pitch Set Point:	-0.143	Yaw Set Point:	0.012	X_WP:	0.000	Y_WP:	0.000	Y_WP:	0.500	X:	0.001	Y:	0.071	Z:	0.603	yaw:	-0.711	yaw rate:	40.912	Roll:	-0.199	Pitch:	2.637	Yaw:	-6.443	Thrust:	62.249
Time:	2.353	Roll Set Point:	-0.002	Pitch Set Point:	-0.143	Yaw Set Point:	0.010	X_WP:	0.000	Y_WP:	0.000	Y_WP:	0.500	X:	0.001	Y:	0.072	Z:	0.606	yaw:	-0.557	yaw rate:	-15.457	Roll:	0.390	Pitch:	2.758	Yaw:	1.035	Thrust:	53.849
Time:	2.371	Roll Set Point:	-0.003	Pitch Set Point:	-0.144	Yaw Set Point:	0.006	X_WP:	0.000	Y_WP:	0.000	Y_WP:	0.500	X:	0.002	Y:	0.072	Z:	0.610	yaw:	-0.362	yaw rate:	-19.532	Roll:	0.484	Pitch:	2.798	Yaw:	2.001	Thrust:	54.112
Time:	2.391	Roll Set Point:	-0.003	Pitch Set Point:	-0.145	Yaw Set Point:	0.006	X_WP:	0.000	Y_WP:	0.000	Y_WP:	0.500	X:	0.002	Y:	0.072	Z:	0.613	yaw:	-0.366	yaw rate:	0.421	Roll:	0.237	Pitch:	2.640	Yaw:	-0.832	Thrust:	55.845
Time:	2.415	Roll Set Point:	-0.004	Pitch Set Point:	-0.145	Yaw Set Point:	0.004	X_WP:	0.000	Y_WP:	0.000	Y_WP:	0.500	X:	0.002	Y:	0.073	Z:	0.616	yaw:	-0.248	yaw rate:	-11.806	Roll:	0.322	Pitch:	2.751	Yaw:	0.584	Thrust:	74.452
Time:	2.431	Roll Set Point:	-0.004	Pitch Set Point:	-0.146	Yaw Set Point:	0.003	X_WP:	0.000	Y_WP:	0.000	Y_WP:	0.500	X:	0.002	Y:	0.073	Z:	0.620	yaw:	-0.193	yaw rate:	-5.508	Roll:	0.225	Pitch:	2.928	Yaw:	0.435	Thrust:	39.483
Time:	2.451	Roll Set Point:	-0.004	Pitch Set Point:	-0.147	Yaw Set Point:	0.004	X_WP:	0.000	Y_WP:	0.000	Y_WP:	0.500	X:	0.002	Y:	0.073	Z:	0.623	yaw:	-0.206	yaw rate:	1.329	Roll:	0.181	Pitch:	2.790	Yaw:	-0.738	Thrust:	57.494
Time:	2.471	Roll Set Point:	-0.005	Pitch Set Point:	-0.147	Yaw Set Point:	0.001	X_WP:	0.000	Y_WP:	0.000	Y_WP:	0.500	X:	0.003	Y:	0.073	Z:	0.625	yaw:	-0.053	yaw rate:	-15.315	Roll:	0.666	Pitch:	2.562	Yaw:	1.634	Thrust:	57.754
Time:	2.491	Roll Set Point:	-0.005	Pitch Set Point:	-0.148	Yaw Set Point:	0.002	X_WP:	0.000	Y_WP:	0.000	Y_WP:	0.500	X:	0.003	Y:	0.074	Z:	0.628	yaw:	-0.109	yaw rate:	5.618	Roll:	-0.090	Pitch:	2.982	Yaw:	-1.174	Thrust:	54.998
Time:	2.512	Roll Set Point:	-0.005	Pitch Set Point:	-0.148	Yaw Set Point:	0.006	X_WP:	0.000	Y_WP:	0.000	Y_WP:	0.500	X:	0.003	Y:	0.074	Z:	0.631	yaw:	-0.320	yaw rate:	21.143	Roll:	-0.061	Pitch:	2.761	Yaw:	-3.426	Thrust:	57.209
Time:	2.535	Roll Set Point:	-0.006	Pitch Set Point:	-0.149	Yaw Set Point:	0.002	X_WP:	0.000	Y_WP:	0.000	Y_WP:	0.500	X:	0.003	Y:	0.074	Z:	0.633	yaw:	-0.139	yaw rate:	-18.118	Roll:	0.423	Pitch:	2.718	Yaw:	1.468	Thrust:	73.422
Time:	2.552	Roll Set Point:	-0.006	Pitch Set Point:	-0.149	Yaw Set Point:	0.004	X_WP:	0.000	Y_WP:	0.000	Y_WP:	0.500	X:	0.003	Y:	0.075	Z:	0.634	yaw:	-0.230	yaw rate:	9.120	Roll:	0.076	Pitch:	2.775	Yaw:	-1.998	Thrust:	44.438
Time:	2.572	Roll Set Point:	-0.006	Pitch Set Point:	-0.150	Yaw Set Point:	-0.000	X_WP:	0.000	Y_WP:	0.000	Y_WP:	0.500	X:	0.003	Y:	0.075	Z:	0.636	yaw:	0.005	yaw rate:	-23.542	Roll:	0.320	Pitch:	3.018	Yaw:	2.798	Thrust:	57.900
Time:	2.592	Roll Set Point:	-0.007	Pitch Set Point:	-0.150	Yaw Set Point:	-0.001	X_WP:	0.000	Y_WP:	0.000	Y_WP:	0.500	X:	0.003	Y:	0.075	Z:	0.637	yaw:	0.039	yaw rate:	-3.444	Roll:	0.609	Pitch:	2.403	Yaw:	0.210	Thrust:	59.022
Time:	2.613	Roll Set Point:	-0.006	Pitch Set Point:	-0.151	Yaw Set Point:	0.002	X_WP:	0.000	Y_WP:	0.000	Y_WP:	0.500	X:	0.003	Y:	0.076	Z:	0.638	yaw:	-0.096	yaw rate:	13.591	Roll:	-0.427	Pitch:	3.137	Yaw:	-2.145	Thrust:	60.446
Time:	2.632	Roll Set Point:	-0.007	Pitch Set Point:	-0.151	Yaw Set Point:	-0.000	X_WP:	0.000	Y_WP:	0.000	Y_WP:	0.500	X:	0.003	Y:	0.076	Z:	0.639	yaw:	0.007	yaw rate:	-10.304	Roll:	0.597	Pitch:	2.591	Yaw:	1.150	Thrust:	55.433
Time:	2.652	Roll Set Point:	-0.006	Pitch Set Point:	-0.152	Yaw Set Point:	0.002	X_WP:	0.000	Y_WP:	0.000	Y_WP:	0.500	X:	0.003	Y:	0.076	Z:	0.639	yaw:	-0.130	yaw rate:	13.640	Roll:	-0.393	Pitch:	3.167	Yaw:	-2.330	Thrust:	55.616
Time:	2.671	Roll Set Point:	-0.006	Pitch Set Point:	-0.152	Yaw Set Point:	0.000	X_WP:	0.000	Y_WP:	0.000	Y_WP:	0.500	X:	0.003	Y:	0.076	Z:	0.639	yaw:	-0.005	yaw rate:	-12.430	Roll:	0.365	Pitch:	2.640	Yaw:	1.318	Thrust:	60.152
Time:	2.691	Roll Set Point:	-0.006	Pitch Set Point:	-0.153	Yaw Set Point:	0.005	X_WP:	0.000	Y_WP:	0.000	Y_WP:	0.500	X:	0.003	Y:	0.076	Z:	0.639	yaw:	-0.315	yaw rate:	30.928	Roll:	-0.289	Pitch:	2.864	Yaw:	-4.883	Thrust:	57.198
Time:	2.712	Roll Set Point:	-0.006	Pitch Set Point:	-0.153	Yaw Set Point:	0.004	X_WP:	0.000	Y_WP:	0.000	Y_WP:	0.500	X:	0.003	Y:	0.077	Z:	0.639	yaw:	-0.242	yaw rate:	-7.231	Roll:	0.141	Pitch:	2.904	Yaw:	0.259	Thrust:	62.921
Time:	2.733	Roll Set Point:	-0.006	Pitch Set Point:	-0.154	Yaw Set Point:	-0.002	X_WP:	0.000	Y_WP:	0.000	Y_WP:	0.500	X:	0.003	Y:	0.077	Z:	0.639	yaw:	0.113	yaw rate:	-35.504	Roll:	0.386	Pitch:	3.029	Yaw:	4.123	Thrust:	61.357
Time:	2.752	Roll Set Point:	-0.007	Pitch Set Point:	-0.154	Yaw Set Point:	-0.003	X_WP:	0.000	Y_WP:	0.000	Y_WP:	0.500	X:	0.003	Y:	0.077	Z:	0.638	yaw:	0.174	yaw rate:	-6.176	Roll:	0.293	Pitch:	2.740	Yaw:	0.857	Thrust:	57.663
Time:	2.772	Roll Set Point:	-0.006	Pitch Set Point:	-0.155	Yaw Set Point:	-0.001	X_WP:	0.000	Y_WP:	0.000	Y_WP:	0.500	X:	0.003	Y:	0.077	Z:	0.637	yaw:	0.031	yaw rate:	14.292	Roll:	-0.038	Pitch:	2.817	Yaw:	-2.130	Thrust:	58.591
Time:	2.791	Roll Set Point:	-0.006	Pitch Set Point:	-0.155	Yaw Set Point:	-0.002	X_WP:	0.000	Y_WP:	0.000	Y_WP:	0.500	X:	0.003	Y:	0.078	Z:	0.637	yaw:	0.135	yaw rate:	-10.376	Roll:	0.178	Pitch:	2.910	Yaw:	1.299	Thrust:	57.496
Time:	2.813	Roll Set Point:	-0.006	Pitch Set Point:	-0.156	Yaw Set Point:	-0.003	X_WP:	0.000	Y_WP:	0.000	Y_WP:	0.500	X:	0.003	Y:	0.078	Z:	0.636	yaw:	0.148	yaw rate:	-1.323	Roll:	0.051	Pitch:	2.957	Yaw:	0.045	Thrust:	63.954
Time:	2.831	Roll Set Point:	-0.006	Pitch Set Point:	-0.156	Yaw Set Point:	-0.002	X_WP:	0.000	Y_WP:	0.000	Y_WP:	0.500	X:	0.003	Y:	0.078	Z:	0.636	yaw:	0.094	yaw rate:	5.490	Roll:	0.037	Pitch:	2.825	Yaw:	-0.945	Thrust:	51.085
Time:	2.852	Roll Set Point:	-0.007	Pitch Set Point:	-0.156	Yaw Set Point:	-0.004	X_WP:	0.000	Y_WP:	0.000	Y_WP:	0.500	X:	0.003	Y:	0.078	Z:	0.636	yaw:	0.257	yaw rate:	-16.321	Roll:	0.503	Pitch:	2.755	Yaw:	2.097	Thrust:	60.455
Time:	2.871	Roll Set Point:	-0.006	Pitch Set Point:	-0.157	Yaw Set Point:	-0.000	X_WP:	0.000	Y_WP:	0.000	Y_WP:	0.500	X:	0.003	Y:	0.078	Z:	0.635	yaw:	0.023	yaw rate:	23.385	Roll:	-0.198	Pitch:	2.925	Yaw:	-3.407	Thrust:	55.408
Time:	2.890	Roll Set Point:	-0.006	Pitch Set Point:	-0.158	Yaw Set Point:	0.002	X_WP:	0.000	Y_WP:	0.000	Y_WP:	0.500	X:	0.003	Y:	0.079	Z:	0.634	yaw:	-0.122	yaw rate:	14.505	Roll:	-0.385	Pitch:	3.186	Yaw:	-2.398	Thrust:	55.979
Time:	2.912	Roll Set Point:	-0.005	Pitch Set Point:	-0.158	Yaw Set Point:	0.006	X_WP:	0.000	Y_WP:	0.000	Y_WP:	0.500	X:	0.003	Y:	0.079	Z:	0.633	yaw:	-0.328	yaw rate:	20.563	Roll:	-0.179	Pitch:	2.881	Yaw:	-3.367	Thrust:	59.252
Time:	2.933	Roll Set Point:	-0.006	Pitch Set Point:	-0.158	Yaw Set Point:	-0.002	X_WP:	0.000	Y_WP:	0.000	Y_WP:	0.500	X:	0.003	Y:	0.079	Z:	0.633	yaw:	0.123	yaw rate:	-45.068	Roll:	0.649	Pitch:	2.931	Yaw:	5.134	Thrust:	61.506
Time:	2.951	Roll Set Point:	-0.006	Pitch Set Point:	-0.159	Yaw Set Point:	0.003	X_WP:	0.000	Y_WP:	0.000	Y_WP:	0.500	X:	0.003	Y:	0.079	Z:	0.632	yaw:	-0.145	yaw rate:	26.786	Roll:	-0.275	Pitch:	3.004	Yaw:	-4.476	Thrust:	52.666
Time:	2.971	Roll Set Point:	-0.005	Pitch Set Point:	-0.159	Yaw Set Point:	0.003	X_WP:	0.000	Y_WP:	0.000	Y_WP:	0.500	X:	0.003	Y:	0.080	Z:	0.630	yaw:	-0.188	yaw rate:	4.262	Roll:	0.000	Pitch:	2.974	Yaw:	-1.099	Thrust:	57.769
Time:	2.990	Roll Set Point:	-0.006	Pitch Set Point:	-0.159	Yaw Set Point:	-0.002	X_WP:	0.000	Y_WP:	0.000	Y_WP:	0.500	X:	0.003	Y:	0.080	Z:	0.629	yaw:	0.091	yaw rate:	-27.887	Roll:	0.489	Pitch:	2.884	Yaw:	3.661	Thrust:	56.934
Time:	3.014	Roll Set Point:	-0.007	Pitch Set Point:	-0.160	Yaw Set Point:	-0.003	X_WP:	0.000	Y_WP:	0.000	Y_WP:	0.500	X:	0.003	Y:	0.080	Z:	0.628	yaw:	0.152	yaw rate:	-6.036	Roll:	0.398	Pitch:	2.983	Yaw:	0.528	Thrust:	68.997
Time:	3.030	Roll Set Point:	-0.006	Pitch Set Point:	-0.160	Yaw Set Point:	-0.000	X_WP:	0.000	Y_WP:	0.000	Y_WP:	0.500	X:	0.003	Y:	0.080	Z:	0.626	yaw:	0.024	yaw rate:	12.768	Roll:	-0.349	Pitch:	3.136	Yaw:	-2.300	Thrust:	46.113
Time:	3.051	Roll Set Point:	-0.006	Pitch Set Point:	-0.161	Yaw Set Point:	-0.000	X_WP:	0.000	Y_WP:	0.000	Y_WP:	0.500	X:	0.003	Y:	0.080	Z:	0.624	yaw:	0.010	yaw rate:	1.346	Roll:	0.125	Pitch:	3.011	Yaw:	-0.449	Thrust:	59.478
Time:	3.071	Roll Set Point:	-0.006	Pitch Set Point:	-0.161	Yaw Set Point:	0.003	X_WP:	0.000	Y_WP:	0.000	Y_WP:	0.500	X:	0.003	Y:	0.080	Z:	0.623	yaw:	-0.167	yaw rate:	17.760	Roll:	-0.008	Pitch:	2.911	Yaw:	-2.829	Thrust:	57.891
Time:	3.091	Roll Set Point:	-0.007	Pitch Set Point:	-0.161	Yaw Set Point:	-0.007	X_WP:	0.000	Y_WP:	0.000	Y_WP:	0.500	X:	0.003	Y:	0.081	Z:	0.621	yaw:	0.397	yaw rate:	-56.447	Roll:	1.036	Pitch:	2.937	Yaw:	7.834	Thrust:	55.979
Time:	3.111	Roll Set Point:	-0.006	Pitch Set Point:	-0.162	Yaw Set Point:	0.000	X_WP:	0.000	Y_WP:	0.000	Y_WP:	0.500	X:	0.003	Y:	0.081	Z:	0.619	yaw:	-0.011	yaw rate:	40.796	Roll:	-0.520	Pitch:	3.130	Yaw:	-5.466	Thrust:	60.709
Time:	3.133	Roll Set Point:	-0.008	Pitch Set Point:	-0.162	Yaw Set Point:	-0.005	X_WP:	0.000	Y_WP:	0.000	Y_WP:	0.500	X:	0.004	Y:	0.081	Z:	0.617	yaw:	0.310	yaw rate:	-32.025	Roll:	0.815	Pitch:	2.898	Yaw:	4.159	Thrust:	60.120
Time:	3.151	Roll Set Point:	-0.007	Pitch Set Point:	-0.163	Yaw Set Point:	0.002	X_WP:	0.000	Y_WP:	0.000	Y_WP:	0.500	X:	0.003	Y:	0.081	Z:	0.614	yaw:	-0.109	yaw rate:	41.914	Roll:	-0.623	Pitch:	3.196	Yaw:	-6.137	Thrust:	55.474
Time:	3.171	Roll Set Point:	-0.007	Pitch Set Point:	-0.163	Yaw Set Point:	0.000	X_WP:	0.000	Y_WP:	0.000	Y_WP:	0.500	X:	0.003	Y:	0.081	Z:	0.612	yaw:	-0.007	yaw rate:	-10.243	Roll:	0.321	Pitch:	3.020	Yaw:	1.081	Thrust:	59.373
Time:	3.191	Roll Set Point:	-0.007	Pitch Set Point:	-0.163	Yaw Set Point:	-0.001	X_WP:	0.000	Y_WP:	0.000	Y_WP:	0.500	X:	0.004	Y:	0.081	Z:	0.609	yaw:	0.046	yaw rate:	-5.286	Roll:	0.409	Pitch:	2.921	Yaw:	0.472	Thrust:	59.221
Time:	3.214	Roll Set Point:	-0.008	Pitch Set Point:	-0.163	Yaw Set Point:	-0.005	X_WP:	0.000	Y_WP:	0.000	Y_WP:	0.500	X:	0.004	Y:	0.082	Z:	0.606	yaw:	0.260	yaw rate:	-21.379	Roll:	0.604	Pitch:	3.097	Yaw:	2.485	Thrust:	64.596
Time:	3.231	Roll Set Point:	-0.008	Pitch Set Point:	-0.164	Yaw Set Point:	-0.000	X_WP:	0.000	Y_WP:	0.000	Y_WP:	0.500	X:	0.004	Y:	0.082	Z:	0.604	yaw:	0.023	yaw rate:	23.681	Roll:	-0.258	Pitch:	3.172	Yaw:	-3.840	Thrust:	53.131
Time:	3.252	Roll Set Point:	-0.008	Pitch Set Point:	-0.164	Yaw Set Point:	-0.001	X_WP:	0.000	Y_WP:	0.000	Y_WP:	0.500	X:	0.004	Y:	0.082	Z:	0.601	yaw:	0.048	yaw rate:	-2.562	Roll:	0.317	Pitch:	3.010	Yaw:	0.103	Thrust:	60.754
Time:	3.272	Roll Set Point:	-0.009	Pitch Set Point:	-0.164	Yaw Set Point:	0.001	X_WP:	0.000	Y_WP:	0.000	Y_WP:	0.500	X:	0.004	Y:	0.082	Z:	0.598	yaw:	-0.047	yaw rate:	9.503	Roll:	0.207	Pitch:	3.017	Yaw:	-1.580	Thrust:	59.461
Time:	3.292	Roll Set Point:	-0.010	Pitch Set Point:	-0.165	Yaw Set Point:	-0.006	X_WP:	0.000	Y_WP:	0.000	Y_WP:	0.500	X:	0.005	Y:	0.082	Z:	0.595	yaw:	0.367	yaw rate:	-41.362	Roll:	1.074	Pitch:	2.986	Yaw:	5.716	Thrust:	57.739
Time:	3.312	Roll Set Point:	-0.010	Pitch Set Point:	-0.165	Yaw Set Point:	-0.006	X_WP:	0.000	Y_WP:	0.000	Y_WP:	0.500	X:	0.005	Y:	0.083	Z:	0.592	yaw:	0.315	yaw rate:	5.179	Roll:	0.118	Pitch:	3.258	Yaw:	-0.515	Thrust:	59.229
Time:	3.332	Roll Set Point:	-0.012	Pitch Set Point:	-0.165	Yaw Set Point:	-0.020	X_WP:	0.000	Y_WP:	0.000	Y_WP:	0.500	X:	0.005	Y:	0.083	Z:	0.590	yaw:	1.157	yaw rate:	-84.221	Roll:	1.643	Pitch:	2.937	Yaw:	12.015	Thrust:	59.281
Time:	3.351	Roll Set Point:	-0.011	Pitch Set Point:	-0.166	Yaw Set Point:	-0.008	X_WP:	0.000	Y_WP:	0.000	Y_WP:	0.500	X:	0.005	Y:	0.083	Z:	0.587	yaw:	0.439	yaw rate:	71.863	Roll:	-0.880	Pitch:	3.293	Yaw:	-9.483	Thrust:	56.709
Time:	3.371	Roll Set Point:	-0.011	Pitch Set Point:	-0.166	Yaw Set Point:	-0.003	X_WP:	0.000	Y_WP:	0.000	Y_WP:	0.500	X:	0.005	Y:	0.083	Z:	0.584	yaw:	0.175	yaw rate:	26.337	Roll:	0.077	Pitch:	3.102	Yaw:	-3.473	Thrust:	58.324
Time:	3.391	Roll Set Point:	-0.012	Pitch Set Point:	-0.166	Yaw Set Point:	-0.002	X_WP:	0.000	Y_WP:	0.000	Y_WP:	0.500	X:	0.006	Y:	0.083	Z:	0.581	yaw:	0.116	yaw rate:	5.928	Roll:	0.372	Pitch:	2.994	Yaw:	-0.877	Thrust:	58.473
Time:	3.414	Roll Set Point:	-0.012	Pitch Set Point:	-0.167	Yaw Set Point:	-0.001	X_WP:	0.000	Y_WP:	0.000	Y_WP:	0.500	X:	0.006	Y:	0.083	Z:	0.579	yaw:	0.036	yaw rate:	8.055	Roll:	0.323	Pitch:	3.220	Yaw:	-1.176	Thrust:	63.544
Time:	3.431	Roll Set Point:	-0.012	Pitch Set Point:	-0.167	Yaw Set Point:	-0.000	X_WP:	0.000	Y_WP:	0.000	Y_WP:	0.500	X:	0.006	Y:	0.084	Z:	0.576	yaw:	0.017	yaw rate:	1.833	Roll:	0.390	Pitch:	3.149	Yaw:	-0.479	Thrust:	53.177
Time:	3.450	Roll Set Point:	-0.013	Pitch Set Point:	-0.167	Yaw Set Point:	-0.003	X_WP:	0.000	Y_WP:	0.000	Y_WP:	0.500	X:	0.007	Y:	0.084	Z:	0.573	yaw:	0.193	yaw rate:	-17.589	Roll:	0.730	Pitch:	3.042	Yaw:	2.440	Thrust:	55.797
Time:	3.471	Roll Set Point:	-0.014	Pitch Set Point:	-0.167	Yaw Set Point:	-0.005	X_WP:	0.000	Y_WP:	0.000	Y_WP:	0.500	X:	0.007	Y:	0.084	Z:	0.570	yaw:	0.307	yaw rate:	-11.371	Roll:	0.688	Pitch:	3.007	Yaw:	1.607	Thrust:	59.510
Time:	3.491	Roll Set Point:	-0.014	Pitch Set Point:	-0.168	Yaw Set Point:	-0.001	X_WP:	0.000	Y_WP:	0.000	Y_WP:	0.500	X:	0.007	Y:	0.084	Z:	0.568	yaw:	0.030	yaw rate:	27.698	Roll:	0.020	Pitch:	3.252	Yaw:	-3.842	Thrust:	57.692
Time:	3.512	Roll Set Point:	-0.015	Pitch Set Point:	-0.168	Yaw Set Point:	-0.001	X_WP:	0.000	Y_WP:	0.000	Y_WP:	0.500	X:	0.007	Y:	0.084	Z:	0.565	yaw:	0.075	yaw rate:	-4.480	Roll:	0.520	Pitch:	3.168	Yaw:	0.410	Thrust:	58.752
Time:	3.533	Roll Set Point:	-0.015	Pitch Set Point:	-0.168	Yaw Set Point:	0.000	X_WP:	0.000	Y_WP:	0.000	Y_WP:	0.500	X:	0.008	Y:	0.084	Z:	0.562	yaw:	-0.022	yaw rate:	9.701	Roll:	0.423	Pitch:	3.074	Yaw:	-1.496	Thrust:	63.249
Time:	3.551	Roll Set Point:	-0.016	Pitch Set Point:	-0.168	Yaw Set Point:	-0.001	X_WP:	0.000	Y_WP:	0.000	Y_WP:	0.500	X:	0.008	Y:	0.084	Z:	0.559	yaw:	0.063	yaw rate:	-8.503	Roll:	0.606	Pitch:	3.165	Yaw:	1.111	Thrust:	53.627
Time:	3.571	Roll Set Point:	-0.016	Pitch Set Point:	-0.169	Yaw Set Point:	0.001	X_WP:	0.000	Y_WP:	0.000	Y_WP:	0.500	X:	0.008	Y:	0.084	Z:	0.555	yaw:	-0.032	yaw rate:	9.517	Roll:	0.315	Pitch:	3.284	Yaw:	-1.531	Thrust:	60.334
Time:	3.591	Roll Set Point:	-0.017	Pitch Set Point:	-0.169	Yaw Set Point:	-0.001	X_WP:	0.000	Y_WP:	0.000	Y_WP:	0.500	X:	0.009	Y:	0.084	Z:	0.552	yaw:	0.069	yaw rate:	-10.186	Roll:	0.798	Pitch:	2.959	Yaw:	1.200	Thrust:	58.791
Time:	3.615	Roll Set Point:	-0.018	Pitch Set Point:	-0.169	Yaw Set Point:	-0.001	X_WP:	0.000	Y_WP:	0.000	Y_WP:	0.500	X:	0.009	Y:	0.085	Z:	0.549	yaw:	0.029	yaw rate:	4.032	Roll:	0.392	Pitch:	3.301	Yaw:	-0.706	Thrust:	68.265
Time:	3.633	Roll Set Point:	-0.019	Pitch Set Point:	-0.169	Yaw Set Point:	-0.003	X_WP:	0.000	Y_WP:	0.000	Y_WP:	0.500	X:	0.009	Y:	0.085	Z:	0.545	yaw:	0.170	yaw rate:	-14.098	Roll:	0.950	Pitch:	3.100	Yaw:	1.988	Thrust:	57.989
Time:	3.652	Roll Set Point:	-0.019	Pitch Set Point:	-0.169	Yaw Set Point:	0.000	X_WP:	0.000	Y_WP:	0.000	Y_WP:	0.500	X:	0.009	Y:	0.085	Z:	0.542	yaw:	-0.021	yaw rate:	19.134	Roll:	0.058	Pitch:	3.070	Yaw:	-3.073	Thrust:	54.733
Time:	3.672	Roll Set Point:	-0.027	Pitch Set Point:	-0.168	Yaw Set Point:	-0.062	X_WP:	0.000	Y_WP:	0.000	Y_WP:	0.500	X:	0.011	Y:	0.084	Z:	0.539	yaw:	3.568	yaw rate:	-358.914	Roll:	5.980	Pitch:	2.083	Yaw:	50.011	Thrust:	60.038
Time:	3.692	Roll Set Point:	-0.023	Pitch Set Point:	-0.170	Yaw Set Point:	-0.030	X_WP:	0.000	Y_WP:	0.000	Y_WP:	0.500	X:	0.010	Y:	0.085	Z:	0.535	yaw:	1.745	yaw rate:	182.255	Roll:	-2.354	Pitch:	4.041	Yaw:	-21.802	Thrust:	58.658
Time:	3.711	Roll Set Point:	-0.026	Pitch Set Point:	-0.169	Yaw Set Point:	-0.045	X_WP:	0.000	Y_WP:	0.000	Y_WP:	0.500	X:	0.011	Y:	0.085	Z:	0.532	yaw:	2.565	yaw rate:	-82.008	Roll:	2.230	Pitch:	2.646	Yaw:	14.348	Thrust:	60.891
Time:	3.732	Roll Set Point:	-0.021	Pitch Set Point:	-0.170	Yaw Set Point:	-0.002	X_WP:	0.000	Y_WP:	0.000	Y_WP:	0.500	X:	0.010	Y:	0.085	Z:	0.529	yaw:	0.119	yaw rate:	244.632	Roll:	-3.105	Pitch:	3.744	Yaw:	-30.959	Thrust:	62.349
Time:	3.752	Roll Set Point:	-0.027	Pitch Set Point:	-0.169	Yaw Set Point:	-0.054	X_WP:	0.000	Y_WP:	0.000	Y_WP:	0.500	X:	0.011	Y:	0.085	Z:	0.526	yaw:	3.070	yaw rate:	-295.120	Roll:	5.082	Pitch:	2.423	Yaw:	44.429	Thrust:	57.126
Time:	3.772	Roll Set Point:	-0.027	Pitch Set Point:	-0.169	Yaw Set Point:	-0.053	X_WP:	0.000	Y_WP:	0.000	Y_WP:	0.500	X:	0.011	Y:	0.085	Z:	0.522	yaw:	3.010	yaw rate:	6.012	Roll:	0.586	Pitch:	3.024	Yaw:	3.264	Thrust:	61.634
Time:	3.792	Roll Set Point:	-0.028	Pitch Set Point:	-0.168	Yaw Set Point:	-0.055	X_WP:	0.000	Y_WP:	0.000	Y_WP:	0.500	X:	0.012	Y:	0.085	Z:	0.519	yaw:	3.123	yaw rate:	-11.269	Roll:	1.010	Pitch:	2.836	Yaw:	5.814	Thrust:	58.133
Time:	3.814	Roll Set Point:	-0.029	Pitch Set Point:	-0.169	Yaw Set Point:	-0.063	X_WP:	0.000	Y_WP:	0.000	Y_WP:	0.500	X:	0.012	Y:	0.085	Z:	0.516	yaw:	3.614	yaw rate:	-49.146	Roll:	1.007	Pitch:	3.235	Yaw:	10.426	Thrust:	67.876
Time:	3.835	Roll Set Point:	-0.022	Pitch Set Point:	-0.170	Yaw Set Point:	0.001	X_WP:	0.000	Y_WP:	0.000	Y_WP:	0.500	X:	0.011	Y:	0.085	Z:	0.513	yaw:	-0.042	yaw rate:	365.671	Roll:	-4.770	Pitch:	4.057	Yaw:	-47.600	Thrust:	61.112
Time:	3.859	Roll Set Point:	-0.027	Pitch Set Point:	-0.169	Yaw Set Point:	-0.045	X_WP:	0.000	Y_WP:	0.000	Y_WP:	0.500	X:	0.012	Y:	0.085	Z:	0.510	yaw:	2.570	yaw rate:	-261.205	Roll:	3.732	Pitch:	2.684	Yaw:	30.627	Thrust:	71.600
Time:	3.872	Roll Set Point:	-0.028	Pitch Set Point:	-0.168	Yaw Set Point:	-0.048	X_WP:	0.000	Y_WP:	0.000	Y_WP:	0.500	X:	0.012	Y:	0.085	Z:	0.507	yaw:	2.769	yaw rate:	-19.902	Roll:	0.970	Pitch:	2.631	Yaw:	7.963	Thrust:	43.624
Time:	3.891	Roll Set Point:	-0.028	Pitch Set Point:	-0.168	Yaw Set Point:	-0.050	X_WP:	0.000	Y_WP:	0.000	Y_WP:	0.500	X:	0.012	Y:	0.084	Z:	0.505	yaw:	2.855	yaw rate:	-8.600	Roll:	0.693	Pitch:	2.914	Yaw:	5.055	Thrust:	58.311
Time:	3.912	Roll Set Point:	-0.028	Pitch Set Point:	-0.168	Yaw Set Point:	-0.043	X_WP:	0.000	Y_WP:	0.000	Y_WP:	0.500	X:	0.012	Y:	0.084	Z:	0.503	yaw:	2.486	yaw rate:	36.848	Roll:	0.076	Pitch:	3.131	Yaw:	-1.284	Thrust:	59.818
Time:	3.940	Roll Set Point:	-0.028	Pitch Set Point:	-0.168	Yaw Set Point:	-0.046	X_WP:	0.000	Y_WP:	0.000	Y_WP:	0.500	X:	0.012	Y:	0.084	Z:	0.501	yaw:	2.646	yaw rate:	-15.983	Roll:	0.698	Pitch:	3.286	Yaw:	5.133	Thrust:	78.324
Time:	3.952	Roll Set Point:	-0.028	Pitch Set Point:	-0.167	Yaw Set Point:	-0.045	X_WP:	0.000	Y_WP:	0.000	Y_WP:	0.500	X:	0.012	Y:	0.084	Z:	0.500	yaw:	2.561	yaw rate:	8.455	Roll:	0.331	Pitch:	2.629	Yaw:	1.653	Thrust:	37.347
Time:	3.978	Roll Set Point:	-0.028	Pitch Set Point:	-0.167	Yaw Set Point:	-0.043	X_WP:	0.000	Y_WP:	0.000	Y_WP:	0.500	X:	0.012	Y:	0.084	Z:	0.498	yaw:	2.484	yaw rate:	7.719	Roll:	0.444	Pitch:	3.183	Yaw:	2.715	Thrust:	74.778
Time:	4.001	Roll Set Point:	-0.028	Pitch Set Point:	-0.167	Yaw Set Point:	-0.041	X_WP:	0.000	Y_WP:	0.000	Y_WP:	0.500	X:	0.012	Y:	0.084	Z:	0.497	yaw:	2.334	yaw rate:	15.018	Roll:	0.358	Pitch:	3.075	Yaw:	1.513	Thrust:	62.710
Time:	4.019	Roll Set Point:	-0.028	Pitch Set Point:	-0.166	Yaw Set Point:	-0.040	X_WP:	0.000	Y_WP:	0.000	Y_WP:	0.500	X:	0.012	Y:	0.083	Z:	0.496	yaw:	2.290	yaw rate:	4.368	Roll:	0.475	Pitch:	2.875	Yaw:	2.618	Thrust:	53.488
Time:	4.039	Roll Set Point:	-0.028	Pitch Set Point:	-0.166	Yaw Set Point:	-0.040	X_WP:	0.000	Y_WP:	0.000	Y_WP:	0.500	X:	0.012	Y:	0.083	Z:	0.494	yaw:	2.283	yaw rate:	0.749	Roll:	0.430	Pitch:	2.943	Yaw:	3.135	Thrust:	55.587
Time:	4.060	Roll Set Point:	-0.027	Pitch Set Point:	-0.165	Yaw Set Point:	-0.036	X_WP:	0.000	Y_WP:	0.000	Y_WP:	0.500	X:	0.012	Y:	0.083	Z:	0.494	yaw:	2.069	yaw rate:	21.431	Roll:	0.224	Pitch:	2.990	Yaw:	0.271	Thrust:	58.509
Time:	4.082	Roll Set Point:	-0.027	Pitch Set Point:	-0.165	Yaw Set Point:	-0.038	X_WP:	0.000	Y_WP:	0.000	Y_WP:	0.500	X:	0.012	Y:	0.083	Z:	0.493	yaw:	2.154	yaw rate:	-8.536	Roll:	0.534	Pitch:	3.009	Yaw:	4.130	Thrust:	58.264
Time:	4.098	Roll Set Point:	-0.027	Pitch Set Point:	-0.165	Yaw Set Point:	-0.035	X_WP:	0.000	Y_WP:	0.000	Y_WP:	0.500	X:	0.012	Y:	0.083	Z:	0.493	yaw:	2.019	yaw rate:	13.481	Roll:	0.214	Pitch:	2.750	Yaw:	0.740	Thrust:	46.943
Time:	4.119	Roll Set Point:	-0.028	Pitch Set Point:	-0.164	Yaw Set Point:	-0.040	X_WP:	0.000	Y_WP:	0.000	Y_WP:	0.500	X:	0.012	Y:	0.082	Z:	0.492	yaw:	2.313	yaw rate:	-29.427	Roll:	0.827	Pitch:	2.829	Yaw:	6.921	Thrust:	57.946
Time:	4.139	Roll Set Point:	-0.027	Pitch Set Point:	-0.163	Yaw Set Point:	-0.037	X_WP:	0.000	Y_WP:	0.000	Y_WP:	0.500	X:	0.012	Y:	0.082	Z:	0.492	yaw:	2.140	yaw rate:	17.372	Roll:	0.260	Pitch:	2.821	Yaw:	0.785	Thrust:	55.779
Time:	4.158	Roll Set Point:	-0.027	Pitch Set Point:	-0.163	Yaw Set Point:	-0.041	X_WP:	0.000	Y_WP:	0.000	Y_WP:	0.500	X:	0.012	Y:	0.082	Z:	0.491	yaw:	2.338	yaw rate:	-19.843	Roll:	0.663	Pitch:	2.890	Yaw:	6.128	Thrust:	52.762
Time:	4.179	Roll Set Point:	-0.021	Pitch Set Point:	-0.164	Yaw Set Point:	0.013	X_WP:	0.000	Y_WP:	0.000	Y_WP:	0.500	X:	0.011	Y:	0.082	Z:	0.490	yaw:	-0.754	yaw rate:	309.231	Roll:	-4.075	Pitch:	3.675	Yaw:	-40.185	Thrust:	58.654
Time:	4.201	Roll Set Point:	-0.021	Pitch Set Point:	-0.163	Yaw Set Point:	0.012	X_WP:	0.000	Y_WP:	0.000	Y_WP:	0.500	X:	0.011	Y:	0.081	Z:	0.489	yaw:	-0.699	yaw rate:	-5.484	Roll:	0.402	Pitch:	2.935	Yaw:	-0.154	Thrust:	61.641
Time:	4.219	Roll Set Point:	-0.026	Pitch Set Point:	-0.162	Yaw Set Point:	-0.035	X_WP:	0.000	Y_WP:	0.000	Y_WP:	0.500	X:	0.012	Y:	0.081	Z:	0.489	yaw:	1.996	yaw rate:	-269.538	Roll:	4.147	Pitch:	2.258	Yaw:	40.971	Thrust:	51.817
Time:	4.231	Roll Set Point:	-0.026	Pitch Set Point:	-0.161	Yaw Set Point:	-0.044	X_WP:	0.000	Y_WP:	0.000	Y_WP:	0.500	X:	0.011	Y:	0.081	Z:	0.487	yaw:	2.506	yaw rate:	-50.982	Roll:	1.361	Pitch:	2.147	Yaw:	14.595	Thrust:	39.086
Time:	4.252	Roll Set Point:	-0.026	Pitch Set Point:	-0.161	Yaw Set Point:	-0.039	X_WP:	0.000	Y_WP:	0.000	Y_WP:	0.500	X:	0.011	Y:	0.081	Z:	0.486	yaw:	2.216	yaw rate:	28.966	Roll:	-0.078	Pitch:	3.082	Yaw:	-0.406	Thrust:	59.204
Time:	4.272	Roll Set Point:	-0.025	Pitch Set Point:	-0.161	Yaw Set Point:	-0.035	X_WP:	0.000	Y_WP:	0.000	Y_WP:	0.500	X:	0.011	Y:	0.081	Z:	0.484	yaw:	2.020	yaw rate:	19.586	Roll:	-0.050	Pitch:	3.196	Yaw:	0.522	Thrust:	58.886
Time:	4.292	Roll Set Point:	-0.021	Pitch Set Point:	-0.161	Yaw Set Point:	-0.008	X_WP:	0.000	Y_WP:	0.000	Y_WP:	0.500	X:	0.010	Y:	0.081	Z:	0.482	yaw:	0.461	yaw rate:	155.965	Roll:	-2.094	Pitch:	3.328	Yaw:	-19.748	Thrust:	60.662
Time:	4.312	Roll Set Point:	-0.023	Pitch Set Point:	-0.161	Yaw Set Point:	-0.033	X_WP:	0.000	Y_WP:	0.000	Y_WP:	0.500	X:	0.010	Y:	0.081	Z:	0.480	yaw:	1.892	yaw rate:	-143.131	Roll:	2.101	Pitch:	2.675	Yaw:	21.532	Thrust:	60.755
Time:	4.334	Roll Set Point:	-0.024	Pitch Set Point:	-0.160	Yaw Set Point:	-0.042	X_WP:	0.000	Y_WP:	0.000	Y_WP:	0.500	X:	0.010	Y:	0.080	Z:	0.477	yaw:	2.434	yaw rate:	-54.194	Roll:	0.978	Pitch:	2.712	Yaw:	10.159	Thrust:	67.461
Time:	4.352	Roll Set Point:	-0.022	Pitch Set Point:	-0.160	Yaw Set Point:	-0.033	X_WP:	0.000	Y_WP:	0.000	Y_WP:	0.500	X:	0.010	Y:	0.080	Z:	0.473	yaw:	1.874	yaw rate:	55.951	Roll:	-0.731	Pitch:	3.142	Yaw:	-5.523	Thrust:	57.577
Time:	4.372	Roll Set Point:	-0.023	Pitch Set Point:	-0.159	Yaw Set Point:	-0.043	X_WP:	0.000	Y_WP:	0.000	Y_WP:	0.500	X:	0.010	Y:	0.080	Z:	0.469	yaw:	2.450	yaw rate:	-57.529	Roll:	0.920	Pitch:	2.815	Yaw:	10.942	Thrust:	66.597
Time:	4.392	Roll Set Point:	-0.021	Pitch Set Point:	-0.160	Yaw Set Point:	-0.036	X_WP:	0.000	Y_WP:	0.000	Y_WP:	0.500	X:	0.009	Y:	0.080	Z:	0.465	yaw:	2.075	yaw rate:	37.443	Roll:	-0.409	Pitch:	3.147	Yaw:	-1.844	Thrust:	64.144
Time:	4.414	Roll Set Point:	-0.017	Pitch Set Point:	-0.160	Yaw Set Point:	-0.006	X_WP:	0.000	Y_WP:	0.000	Y_WP:	0.500	X:	0.008	Y:	0.080	Z:	0.462	yaw:	0.370	yaw rate:	170.557	Roll:	-2.133	Pitch:	3.535	Yaw:	-19.506	Thrust:	69.881
Time:	4.432	Roll Set Point:	-0.019	Pitch Set Point:	-0.159	Yaw Set Point:	-0.031	X_WP:	0.000	Y_WP:	0.000	Y_WP:	0.500	X:	0.008	Y:	0.080	Z:	0.458	yaw:	1.760	yaw rate:	-139.045	Roll:	2.072	Pitch:	2.373	Yaw:	22.937	Thrust:	60.360
Time:	4.451	Roll Set Point:	-0.018	Pitch Set Point:	-0.159	Yaw Set Point:	-0.030	X_WP:	0.000	Y_WP:	0.000	Y_WP:	0.500	X:	0.008	Y:	0.080	Z:	0.455	yaw:	1.728	yaw rate:	3.181	Roll:	-0.205	Pitch:	3.079	Yaw:	2.277	Thrust:	63.172
Time:	4.471	Roll Set Point:	-0.016	Pitch Set Point:	-0.159	Yaw Set Point:	-0.026	X_WP:	0.000	Y_WP:	0.000	Y_WP:	0.500	X:	0.007	Y:	0.080	Z:	0.452	yaw:	1.499	yaw rate:	22.894	Roll:	-0.453	Pitch:	3.174	Yaw:	-0.531	Thrust:	63.631
Time:	4.491	Roll Set Point:	-0.016	Pitch Set Point:	-0.159	Yaw Set Point:	-0.031	X_WP:	0.000	Y_WP:	0.000	Y_WP:	0.500	X:	0.007	Y:	0.080	Z:	0.449	yaw:	1.802	yaw rate:	-30.224	Roll:	0.332	Pitch:	2.838	Yaw:	6.880	Thrust:	64.401
Time:	4.513	Roll Set Point:	-0.014	Pitch Set Point:	-0.159	Yaw Set Point:	-0.027	X_WP:	0.000	Y_WP:	0.000	Y_WP:	0.500	X:	0.006	Y:	0.080	Z:	0.447	yaw:	1.569	yaw rate:	23.286	Roll:	-0.416	Pitch:	3.241	Yaw:	-0.274	Thrust:	66.603
Time:	4.534	Roll Set Point:	-0.013	Pitch Set Point:	-0.159	Yaw Set Point:	-0.020	X_WP:	0.000	Y_WP:	0.000	Y_WP:	0.500	X:	0.006	Y:	0.080	Z:	0.445	yaw:	1.172	yaw rate:	39.677	Roll:	-0.420	Pitch:	3.143	Yaw:	-2.796	Thrust:	66.807
Time:	4.553	Roll Set Point:	-0.011	Pitch Set Point:	-0.159	Yaw Set Point:	-0.019	X_WP:	0.000	Y_WP:	0.000	Y_WP:	0.500	X:	0.005	Y:	0.080	Z:	0.444	yaw:	1.084	yaw rate:	8.820	Roll:	-0.606	Pitch:	3.044	Yaw:	0.644	Thrust:	59.535
Time:	4.572	Roll Set Point:	-0.011	Pitch Set Point:	-0.159	Yaw Set Point:	-0.025	X_WP:	0.000	Y_WP:	0.000	Y_WP:	0.500	X:	0.004	Y:	0.080	Z:	0.442	yaw:	1.425	yaw rate:	-34.083	Roll:	0.096	Pitch:	2.938	Yaw:	7.147	Thrust:	57.127
Time:	4.591	Roll Set Point:	-0.009	Pitch Set Point:	-0.159	Yaw Set Point:	-0.015	X_WP:	0.000	Y_WP:	0.000	Y_WP:	0.500	X:	0.004	Y:	0.080	Z:	0.442	yaw:	0.835	yaw rate:	58.987	Roll:	-1.080	Pitch:	3.165	Yaw:	-6.363	Thrust:	56.667
Time:	4.615	Roll Set Point:	-0.008	Pitch Set Point:	-0.160	Yaw Set Point:	-0.026	X_WP:	0.000	Y_WP:	0.000	Y_WP:	0.500	X:	0.003	Y:	0.080	Z:	0.441	yaw:	1.495	yaw rate:	-65.982	Roll:	0.541	Pitch:	3.241	Yaw:	9.769	Thrust:	72.537
Time:	4.631	Roll Set Point:	-0.008	Pitch Set Point:	-0.160	Yaw Set Point:	-0.029	X_WP:	0.000	Y_WP:	0.000	Y_WP:	0.500	X:	0.003	Y:	0.080	Z:	0.441	yaw:	1.652	yaw rate:	-15.697	Roll:	-0.078	Pitch:	2.886	Yaw:	5.233	Thrust:	48.723
Time:	4.652	Roll Set Point:	-0.006	Pitch Set Point:	-0.160	Yaw Set Point:	-0.022	X_WP:	0.000	Y_WP:	0.000	Y_WP:	0.500	X:	0.002	Y:	0.080	Z:	0.441	yaw:	1.272	yaw rate:	37.972	Roll:	-0.680	Pitch:	3.178	Yaw:	-2.525	Thrust:	62.093
Time:	4.672	Roll Set Point:	-0.004	Pitch Set Point:	-0.160	Yaw Set Point:	-0.011	X_WP:	0.000	Y_WP:	0.000	Y_WP:	0.500	X:	0.001	Y:	0.080	Z:	0.441	yaw:	0.637	yaw rate:	63.483	Roll:	-1.262	Pitch:	3.335	Yaw:	-7.114	Thrust:	58.142
Time:	4.692	Roll Set Point:	-0.001	Pitch Set Point:	-0.160	Yaw Set Point:	0.002	X_WP:	0.000	Y_WP:	0.000	Y_WP:	0.500	X:	0.001	Y:	0.080	Z:	0.441	yaw:	-0.114	yaw rate:	75.141	Roll:	-1.503	Pitch:	3.092	Yaw:	-9.383	Thrust:	61.049
Time:	4.713	Roll Set Point:	-0.000	Pitch Set Point:	-0.160	Yaw Set Point:	0.000	X_WP:	0.000	Y_WP:	0.000	Y_WP:	0.500	X:	0.000	Y:	0.080	Z:	0.441	yaw:	-0.025	yaw rate:	-8.916	Roll:	-0.231	Pitch:	3.105	Yaw:	1.543	Thrust:	60.280
Time:	4.734	Roll Set Point:	0.000	Pitch Set Point:	-0.161	Yaw Set Point:	-0.001	X_WP:	0.000	Y_WP:	0.000	Y_WP:	0.500	X:	-0.000	Y:	0.080	Z:	0.441	yaw:	0.049	yaw rate:	-7.396	Roll:	-0.235	Pitch:	3.232	Yaw:	1.398	Thrust:	66.572
Time:	4.751	Roll Set Point:	0.003	Pitch Set Point:	-0.161	Yaw Set Point:	0.011	X_WP:	0.000	Y_WP:	0.000	Y_WP:	0.500	X:	-0.001	Y:	0.081	Z:	0.441	yaw:	-0.633	yaw rate:	68.150	Roll:	-1.530	Pitch:	3.309	Yaw:	-11.067	Thrust:	51.038
Time:	4.771	Roll Set Point:	0.003	Pitch Set Point:	-0.161	Yaw Set Point:	0.006	X_WP:	0.000	Y_WP:	0.000	Y_WP:	0.500	X:	-0.001	Y:	0.081	Z:	0.441	yaw:	-0.351	yaw rate:	-28.136	Roll:	-0.005	Pitch:	3.192	Yaw:	3.647	Thrust:	59.425
Time:	4.791	Roll Set Point:	0.004	Pitch Set Point:	-0.162	Yaw Set Point:	0.006	X_WP:	0.000	Y_WP:	0.000	Y_WP:	0.500	X:	-0.002	Y:	0.081	Z:	0.441	yaw:	-0.355	yaw rate:	0.415	Roll:	-0.385	Pitch:	3.204	Yaw:	-0.147	Thrust:	60.078
Time:	4.814	Roll Set Point:	0.003	Pitch Set Point:	-0.162	Yaw Set Point:	-0.009	X_WP:	0.000	Y_WP:	0.000	Y_WP:	0.500	X:	-0.002	Y:	0.081	Z:	0.441	yaw:	0.524	yaw rate:	-87.990	Roll:	0.779	Pitch:	3.412	Yaw:	11.030	Thrust:	69.680
Time:	4.831	Roll Set Point:	0.003	Pitch Set Point:	-0.162	Yaw Set Point:	-0.015	X_WP:	0.000	Y_WP:	0.000	Y_WP:	0.500	X:	-0.002	Y:	0.081	Z:	0.441	yaw:	0.845	yaw rate:	-32.070	Roll:	0.139	Pitch:	3.115	Yaw:	6.534	Thrust:	51.124
Time:	4.851	Roll Set Point:	0.004	Pitch Set Point:	-0.163	Yaw Set Point:	-0.010	X_WP:	0.000	Y_WP:	0.000	Y_WP:	0.500	X:	-0.002	Y:	0.081	Z:	0.441	yaw:	0.581	yaw rate:	26.372	Roll:	-0.395	Pitch:	3.163	Yaw:	-2.186	Thrust:	61.631
Time:	4.871	Roll Set Point:	0.005	Pitch Set Point:	-0.163	Yaw Set Point:	-0.011	X_WP:	0.000	Y_WP:	0.000	Y_WP:	0.500	X:	-0.003	Y:	0.082	Z:	0.441	yaw:	0.603	yaw rate:	-2.127	Roll:	-0.598	Pitch:	3.463	Yaw:	1.537	Thrust:	59.830
Time:	4.891	Roll Set Point:	0.009	Pitch Set Point:	-0.164	Yaw Set Point:	0.016	X_WP:	0.000	Y_WP:	0.000	Y_WP:	0.500	X:	-0.004	Y:	0.082	Z:	0.441	yaw:	-0.921	yaw rate:	152.366	Roll:	-2.618	Pitch:	3.228	Yaw:	-20.676	Thrust:	61.173
Time:	4.912	Roll Set Point:	0.007	Pitch Set Point:	-0.164	Yaw Set Point:	-0.005	X_WP:	0.000	Y_WP:	0.000	Y_WP:	0.500	X:	-0.004	Y:	0.082	Z:	0.442	yaw:	0.300	yaw rate:	-122.139	Roll:	1.329	Pitch:	3.470	Yaw:	17.055	Thrust:	59.070
Time:	4.934	Roll Set Point:	0.008	Pitch Set Point:	-0.165	Yaw Set Point:	-0.008	X_WP:	0.000	Y_WP:	0.000	Y_WP:	0.500	X:	-0.004	Y:	0.082	Z:	0.442	yaw:	0.469	yaw rate:	-16.863	Roll:	-0.054	Pitch:	3.275	Yaw:	3.047	Thrust:	66.904
Time:	4.951	Roll Set Point:	0.008	Pitch Set Point:	-0.165	Yaw Set Point:	-0.010	X_WP:	0.000	Y_WP:	0.000	Y_WP:	0.500	X:	-0.005	Y:	0.082	Z:	0.442	yaw:	0.551	yaw rate:	-8.233	Roll:	-0.287	Pitch:	3.233	Yaw:	2.376	Thrust:	56.032
Time:	4.971	Roll Set Point:	0.008	Pitch Set Point:	-0.165	Yaw Set Point:	-0.015	X_WP:	0.000	Y_WP:	0.000	Y_WP:	0.500	X:	-0.005	Y:	0.083	Z:	0.443	yaw:	0.835	yaw rate:	-28.364	Roll:	0.100	Pitch:	3.252	Yaw:	5.344	Thrust:	58.905
Time:	4.991	Roll Set Point:	0.009	Pitch Set Point:	-0.165	Yaw Set Point:	-0.008	X_WP:	0.000	Y_WP:	0.000	Y_WP:	0.500	X:	-0.005	Y:	0.083	Z:	0.443	yaw:	0.479	yaw rate:	35.599	Roll:	-0.712	Pitch:	3.271	Yaw:	-3.650	Thrust:	61.382
Time:	5.014	Roll Set Point:	0.010	Pitch Set Point:	-0.166	Yaw Set Point:	-0.005	X_WP:	0.000	Y_WP:	0.000	Y_WP:	0.500	X:	-0.005	Y:	0.083	Z:	0.443	yaw:	0.271	yaw rate:	20.832	Roll:	-0.583	Pitch:	3.422	Yaw:	-1.457	Thrust:	70.677
Time:	5.031	Roll Set Point:	0.011	Pitch Set Point:	-0.166	Yaw Set Point:	-0.007	X_WP:	0.000	Y_WP:	0.000	Y_WP:	0.500	X:	-0.006	Y:	0.083	Z:	0.443	yaw:	0.404	yaw rate:	-13.325	Roll:	-0.183	Pitch:	3.213	Yaw:	2.972	Thrust:	53.011
Time:	5.052	Roll Set Point:	0.011	Pitch Set Point:	-0.167	Yaw Set Point:	-0.008	X_WP:	0.000	Y_WP:	0.000	Y_WP:	0.500	X:	-0.006	Y:	0.083	Z:	0.444	yaw:	0.474	yaw rate:	-7.025	Roll:	-0.183	Pitch:	3.357	Yaw:	1.997	Thrust:	63.354
Time:	5.073	Roll Set Point:	0.011	Pitch Set Point:	-0.167	Yaw Set Point:	-0.009	X_WP:	0.000	Y_WP:	0.000	Y_WP:	0.500	X:	-0.006	Y:	0.083	Z:	0.444	yaw:	0.514	yaw rate:	-3.978	Roll:	-0.216	Pitch:	3.297	Yaw:	1.680	Thrust:	62.063
Time:	5.094	Roll Set Point:	0.012	Pitch Set Point:	-0.167	Yaw Set Point:	-0.011	X_WP:	0.000	Y_WP:	0.000	Y_WP:	0.500	X:	-0.006	Y:	0.084	Z:	0.444	yaw:	0.654	yaw rate:	-13.984	Roll:	-0.099	Pitch:	3.338	Yaw:	3.120	Thrust:	63.842
Time:	5.113	Roll Set Point:	0.011	Pitch Set Point:	-0.167	Yaw Set Point:	-0.016	X_WP:	0.000	Y_WP:	0.000	Y_WP:	0.500	X:	-0.006	Y:	0.084	Z:	0.444	yaw:	0.932	yaw rate:	-27.842	Roll:	0.153	Pitch:	3.288	Yaw:	5.647	Thrust:	61.044
Time:	5.133	Roll Set Point:	0.012	Pitch Set Point:	-0.168	Yaw Set Point:	-0.015	X_WP:	0.000	Y_WP:	0.000	Y_WP:	0.500	X:	-0.007	Y:	0.084	Z:	0.444	yaw:	0.878	yaw rate:	5.431	Roll:	-0.258	Pitch:	3.301	Yaw:	1.040	Thrust:	65.842
Time:	5.152	Roll Set Point:	0.012	Pitch Set Point:	-0.168	Yaw Set Point:	-0.015	X_WP:	0.000	Y_WP:	0.000	Y_WP:	0.500	X:	-0.007	Y:	0.084	Z:	0.444	yaw:	0.864	yaw rate:	1.396	Roll:	-0.350	Pitch:	3.334	Yaw:	1.440	Thrust:	57.670
Time:	5.172	Roll Set Point:	0.013	Pitch Set Point:	-0.169	Yaw Set Point:	-0.012	X_WP:	0.000	Y_WP:	0.000	Y_WP:	0.500	X:	-0.007	Y:	0.084	Z:	0.445	yaw:	0.696	yaw rate:	16.755	Roll:	-0.520	Pitch:	3.445	Yaw:	-0.739	Thrust:	60.366
Time:	5.193	Roll Set Point:	0.014	Pitch Set Point:	-0.169	Yaw Set Point:	-0.006	X_WP:	0.000	Y_WP:	0.000	Y_WP:	0.500	X:	-0.007	Y:	0.084	Z:	0.445	yaw:	0.361	yaw rate:	33.517	Roll:	-0.664	Pitch:	3.253	Yaw:	-3.351	Thrust:	63.592
Time:	5.216	Roll Set Point:	0.016	Pitch Set Point:	-0.169	Yaw Set Point:	0.011	X_WP:	0.000	Y_WP:	0.000	Y_WP:	0.500	X:	-0.008	Y:	0.084	Z:	0.446	yaw:	-0.647	yaw rate:	100.793	Roll:	-1.563	Pitch:	3.286	Yaw:	-11.827	Thrust:	69.592
Time:	5.232	Roll Set Point:	0.014	Pitch Set Point:	-0.170	Yaw Set Point:	-0.007	X_WP:	0.000	Y_WP:	0.000	Y_WP:	0.500	X:	-0.007	Y:	0.085	Z:	0.447	yaw:	0.375	yaw rate:	-102.211	Roll:	1.425	Pitch:	3.710	Yaw:	16.929	Thrust:	48.359
Time:	5.252	Roll Set Point:	0.015	Pitch Set Point:	-0.170	Yaw Set Point:	-0.000	X_WP:	0.000	Y_WP:	0.000	Y_WP:	0.500	X:	-0.008	Y:	0.085	Z:	0.448	yaw:	0.017	yaw rate:	35.832	Roll:	-0.698	Pitch:	3.240	Yaw:	-4.290	Thrust:	63.057
Time:	5.272	Roll Set Point:	0.016	Pitch Set Point:	-0.170	Yaw Set Point:	0.009	X_WP:	0.000	Y_WP:	0.000	Y_WP:	0.500	X:	-0.008	Y:	0.085	Z:	0.449	yaw:	-0.542	yaw rate:	55.931	Roll:	-1.014	Pitch:	3.232	Yaw:	-7.646	Thrust:	60.849
Time:	5.292	Roll Set Point:	0.016	Pitch Set Point:	-0.171	Yaw Set Point:	0.006	X_WP:	0.000	Y_WP:	0.000	Y_WP:	0.500	X:	-0.008	Y:	0.085	Z:	0.450	yaw:	-0.356	yaw rate:	-18.646	Roll:	-0.058	Pitch:	3.371	Yaw:	2.399	Thrust:	61.068
Time:	5.313	Roll Set Point:	0.014	Pitch Set Point:	-0.171	Yaw Set Point:	-0.008	X_WP:	0.000	Y_WP:	0.000	Y_WP:	0.500	X:	-0.008	Y:	0.086	Z:	0.451	yaw:	0.435	yaw rate:	-79.096	Roll:	1.008	Pitch:	3.537	Yaw:	11.162	Thrust:	60.552
Time:	5.333	Roll Set Point:	0.016	Pitch Set Point:	-0.171	Yaw Set Point:	0.006	X_WP:	0.000	Y_WP:	0.000	Y_WP:	0.500	X:	-0.008	Y:	0.086	Z:	0.452	yaw:	-0.357	yaw rate:	79.194	Roll:	-1.314	Pitch:	3.211	Yaw:	-9.763	Thrust:	64.098
Time:	5.353	Roll Set Point:	0.016	Pitch Set Point:	-0.171	Yaw Set Point:	0.009	X_WP:	0.000	Y_WP:	0.000	Y_WP:	0.500	X:	-0.008	Y:	0.086	Z:	0.453	yaw:	-0.516	yaw rate:	15.888	Roll:	-0.445	Pitch:	3.315	Yaw:	-2.363	Thrust:	61.929
Time:	5.372	Roll Set Point:	0.015	Pitch Set Point:	-0.172	Yaw Set Point:	-0.006	X_WP:	0.000	Y_WP:	0.000	Y_WP:	0.500	X:	-0.008	Y:	0.086	Z:	0.454	yaw:	0.349	yaw rate:	-86.435	Roll:	1.146	Pitch:	3.604	Yaw:	12.984	Thrust:	56.546
