Time:	0.039	Roll Set Point:	-0.121	Pitch Set Point:	-0.033	Yaw Set Point:	0.152	X_WP:	0.000	Y_WP:	0.000	Y_WP:	0.500	X:	0.062	Y:	0.012	Z:	0.052	yaw:	-8.708	yaw rate:	-1.348	Roll:	1.716	Pitch:	0.607	Yaw:	-12.158	Thrust:	24.649
Time:	0.059	Roll Set Point:	-0.121	Pitch Set Point:	-0.033	Yaw Set Point:	0.152	X_WP:	0.000	Y_WP:	0.000	Y_WP:	0.500	X:	0.062	Y:	0.012	Z:	0.052	yaw:	-8.734	yaw rate:	2.622	Roll:	1.702	Pitch:	0.609	Yaw:	-12.595	Thrust:	25.712
Time:	0.078	Roll Set Point:	-0.121	Pitch Set Point:	-0.033	Yaw Set Point:	0.152	X_WP:	0.000	Y_WP:	0.000	Y_WP:	0.500	X:	0.062	Y:	0.012	Z:	0.052	yaw:	-8.707	yaw rate:	-2.649	Roll:	1.736	Pitch:	0.598	Yaw:	-11.923	Thrust:	26.754
Time:	0.099	Roll Set Point:	-0.121	Pitch Set Point:	-0.033	Yaw Set Point:	0.152	X_WP:	0.000	Y_WP:	0.000	Y_WP:	0.500	X:	0.062	Y:	0.012	Z:	0.052	yaw:	-8.726	yaw rate:	1.830	Roll:	1.727	Pitch:	0.621	Yaw:	-12.604	Thrust:	27.933
Time:	0.120	Roll Set Point:	-0.122	Pitch Set Point:	-0.033	Yaw Set Point:	0.145	X_WP:	0.000	Y_WP:	0.000	Y_WP:	0.500	X:	0.062	Y:	0.012	Z:	0.051	yaw:	-8.333	yaw rate:	-39.295	Roll:	2.073	Pitch:	0.640	Yaw:	-6.889	Thrust:	30.053
Time:	0.140	Roll Set Point:	-0.122	Pitch Set Point:	-0.033	Yaw Set Point:	0.146	X_WP:	0.000	Y_WP:	0.000	Y_WP:	0.500	X:	0.062	Y:	0.012	Z:	0.051	yaw:	-8.353	yaw rate:	2.078	Roll:	1.770	Pitch:	0.598	Yaw:	-12.237	Thrust:	29.818
Time:	0.159	Roll Set Point:	-0.122	Pitch Set Point:	-0.033	Yaw Set Point:	0.145	X_WP:	0.000	Y_WP:	0.000	Y_WP:	0.500	X:	0.062	Y:	0.012	Z:	0.051	yaw:	-8.307	yaw rate:	-4.660	Roll:	1.731	Pitch:	0.589	Yaw:	-11.309	Thrust:	30.978
Time:	0.179	Roll Set Point:	-0.122	Pitch Set Point:	-0.033	Yaw Set Point:	0.145	X_WP:	0.000	Y_WP:	0.000	Y_WP:	0.500	X:	0.062	Y:	0.012	Z:	0.051	yaw:	-8.317	yaw rate:	0.987	Roll:	1.766	Pitch:	0.633	Yaw:	-12.160	Thrust:	32.191
Time:	0.199	Roll Set Point:	-0.122	Pitch Set Point:	-0.033	Yaw Set Point:	0.145	X_WP:	0.000	Y_WP:	0.000	Y_WP:	0.500	X:	0.062	Y:	0.012	Z:	0.051	yaw:	-8.311	yaw rate:	-0.549	Roll:	1.727	Pitch:	0.614	Yaw:	-12.016	Thrust:	33.386
Time:	0.219	Roll Set Point:	-0.122	Pitch Set Point:	-0.033	Yaw Set Point:	0.145	X_WP:	0.000	Y_WP:	0.000	Y_WP:	0.500	X:	0.062	Y:	0.012	Z:	0.051	yaw:	-8.299	yaw rate:	-1.182	Roll:	1.774	Pitch:	0.583	Yaw:	-11.962	Thrust:	34.314
Time:	0.239	Roll Set Point:	-0.122	Pitch Set Point:	-0.033	Yaw Set Point:	0.145	X_WP:	0.000	Y_WP:	0.000	Y_WP:	0.500	X:	0.062	Y:	0.012	Z:	0.051	yaw:	-8.320	yaw rate:	2.054	Roll:	1.749	Pitch:	0.658	Yaw:	-12.488	Thrust:	35.710
Time:	0.260	Roll Set Point:	-0.122	Pitch Set Point:	-0.033	Yaw Set Point:	0.145	X_WP:	0.000	Y_WP:	0.000	Y_WP:	0.500	X:	0.062	Y:	0.012	Z:	0.052	yaw:	-8.298	yaw rate:	-2.216	Roll:	1.748	Pitch:	0.727	Yaw:	-11.958	Thrust:	36.160
Time:	0.279	Roll Set Point:	-0.122	Pitch Set Point:	-0.033	Yaw Set Point:	0.145	X_WP:	0.000	Y_WP:	0.000	Y_WP:	0.500	X:	0.062	Y:	0.012	Z:	0.051	yaw:	-8.319	yaw rate:	2.123	Roll:	1.774	Pitch:	0.491	Yaw:	-12.586	Thrust:	37.642
Time:	0.298	Roll Set Point:	-0.122	Pitch Set Point:	-0.033	Yaw Set Point:	0.146	X_WP:	0.000	Y_WP:	0.000	Y_WP:	0.500	X:	0.062	Y:	0.012	Z:	0.051	yaw:	-8.344	yaw rate:	2.535	Roll:	1.758	Pitch:	0.643	Yaw:	-12.741	Thrust:	38.474
Time:	0.320	Roll Set Point:	-0.122	Pitch Set Point:	-0.033	Yaw Set Point:	0.146	X_WP:	0.000	Y_WP:	0.000	Y_WP:	0.500	X:	0.062	Y:	0.012	Z:	0.051	yaw:	-8.352	yaw rate:	0.754	Roll:	1.762	Pitch:	0.645	Yaw:	-12.636	Thrust:	40.764
Time:	0.341	Roll Set Point:	-0.122	Pitch Set Point:	-0.033	Yaw Set Point:	0.145	X_WP:	0.000	Y_WP:	0.000	Y_WP:	0.500	X:	0.062	Y:	0.012	Z:	0.051	yaw:	-8.329	yaw rate:	-2.318	Roll:	1.794	Pitch:	0.591	Yaw:	-12.218	Thrust:	40.937
Time:	0.360	Roll Set Point:	-0.122	Pitch Set Point:	-0.033	Yaw Set Point:	0.145	X_WP:	0.000	Y_WP:	0.000	Y_WP:	0.500	X:	0.062	Y:	0.012	Z:	0.051	yaw:	-8.318	yaw rate:	-1.084	Roll:	1.771	Pitch:	0.611	Yaw:	-12.340	Thrust:	40.802
Time:	0.379	Roll Set Point:	-0.122	Pitch Set Point:	-0.033	Yaw Set Point:	0.145	X_WP:	0.000	Y_WP:	0.000	Y_WP:	0.500	X:	0.062	Y:	0.012	Z:	0.051	yaw:	-8.296	yaw rate:	-2.145	Roll:	1.791	Pitch:	0.607	Yaw:	-12.305	Thrust:	42.956
Time:	0.399	Roll Set Point:	-0.122	Pitch Set Point:	-0.033	Yaw Set Point:	0.145	X_WP:	0.000	Y_WP:	0.000	Y_WP:	0.500	X:	0.062	Y:	0.012	Z:	0.051	yaw:	-8.324	yaw rate:	2.798	Roll:	1.770	Pitch:	0.662	Yaw:	-13.056	Thrust:	44.348
Time:	0.420	Roll Set Point:	-0.122	Pitch Set Point:	-0.033	Yaw Set Point:	0.145	X_WP:	0.000	Y_WP:	0.000	Y_WP:	0.500	X:	0.062	Y:	0.012	Z:	0.052	yaw:	-8.325	yaw rate:	0.027	Roll:	1.763	Pitch:	0.730	Yaw:	-12.778	Thrust:	45.234
Time:	0.440	Roll Set Point:	-0.122	Pitch Set Point:	-0.033	Yaw Set Point:	0.146	X_WP:	0.000	Y_WP:	0.000	Y_WP:	0.500	X:	0.062	Y:	0.012	Z:	0.051	yaw:	-8.366	yaw rate:	4.186	Roll:	1.798	Pitch:	0.549	Yaw:	-13.408	Thrust:	46.944
Time:	0.461	Roll Set Point:	-0.122	Pitch Set Point:	-0.033	Yaw Set Point:	0.144	X_WP:	0.000	Y_WP:	0.000	Y_WP:	0.500	X:	0.062	Y:	0.012	Z:	0.051	yaw:	-8.262	yaw rate:	-10.451	Roll:	1.830	Pitch:	0.543	Yaw:	-11.531	Thrust:	48.419
Time:	0.480	Roll Set Point:	-0.121	Pitch Set Point:	-0.033	Yaw Set Point:	0.142	X_WP:	0.000	Y_WP:	0.000	Y_WP:	0.500	X:	0.062	Y:	0.012	Z:	0.052	yaw:	-8.110	yaw rate:	-15.177	Roll:	1.699	Pitch:	0.528	Yaw:	-10.414	Thrust:	46.616
Time:	0.500	Roll Set Point:	-0.122	Pitch Set Point:	-0.033	Yaw Set Point:	0.145	X_WP:	0.000	Y_WP:	0.000	Y_WP:	0.500	X:	0.062	Y:	0.012	Z:	0.051	yaw:	-8.302	yaw rate:	19.151	Roll:	1.866	Pitch:	0.744	Yaw:	-15.440	Thrust:	49.766
Time:	0.530	Roll Set Point:	-0.122	Pitch Set Point:	-0.033	Yaw Set Point:	0.145	X_WP:	0.000	Y_WP:	0.000	Y_WP:	0.500	X:	0.062	Y:	0.012	Z:	0.051	yaw:	-8.315	yaw rate:	1.372	Roll:	1.838	Pitch:	0.649	Yaw:	-13.856	Thrust:	62.490
Time:	0.544	Roll Set Point:	-0.122	Pitch Set Point:	-0.033	Yaw Set Point:	0.145	X_WP:	0.000	Y_WP:	0.000	Y_WP:	0.500	X:	0.062	Y:	0.012	Z:	0.052	yaw:	-8.314	yaw rate:	-0.134	Roll:	1.742	Pitch:	0.817	Yaw:	-12.539	Thrust:	42.900
Time:	0.560	Roll Set Point:	-0.122	Pitch Set Point:	-0.033	Yaw Set Point:	0.145	X_WP:	0.000	Y_WP:	0.000	Y_WP:	0.500	X:	0.062	Y:	0.012	Z:	0.051	yaw:	-8.302	yaw rate:	-1.205	Roll:	1.796	Pitch:	0.472	Yaw:	-12.705	Thrust:	49.208
Time:	0.578	Roll Set Point:	-0.122	Pitch Set Point:	-0.033	Yaw Set Point:	0.144	X_WP:	0.000	Y_WP:	0.000	Y_WP:	0.500	X:	0.062	Y:	0.012	Z:	0.051	yaw:	-8.279	yaw rate:	-2.307	Roll:	1.827	Pitch:	0.598	Yaw:	-12.648	Thrust:	50.899
Time:	0.599	Roll Set Point:	-0.122	Pitch Set Point:	-0.033	Yaw Set Point:	0.145	X_WP:	0.000	Y_WP:	0.000	Y_WP:	0.500	X:	0.062	Y:	0.012	Z:	0.051	yaw:	-8.329	yaw rate:	4.997	Roll:	1.786	Pitch:	0.691	Yaw:	-13.937	Thrust:	55.299
Time:	0.619	Roll Set Point:	-0.122	Pitch Set Point:	-0.033	Yaw Set Point:	0.145	X_WP:	0.000	Y_WP:	0.000	Y_WP:	0.500	X:	0.062	Y:	0.012	Z:	0.051	yaw:	-8.322	yaw rate:	-0.739	Roll:	1.828	Pitch:	0.641	Yaw:	-13.201	Thrust:	55.635
Time:	0.639	Roll Set Point:	-0.122	Pitch Set Point:	-0.033	Yaw Set Point:	0.145	X_WP:	0.000	Y_WP:	0.000	Y_WP:	0.500	X:	0.062	Y:	0.012	Z:	0.051	yaw:	-8.295	yaw rate:	-2.698	Roll:	1.828	Pitch:	0.592	Yaw:	-13.044	Thrust:	58.009
Time:	0.658	Roll Set Point:	-0.122	Pitch Set Point:	-0.033	Yaw Set Point:	0.145	X_WP:	0.000	Y_WP:	0.000	Y_WP:	0.500	X:	0.062	Y:	0.012	Z:	0.051	yaw:	-8.333	yaw rate:	3.855	Roll:	1.794	Pitch:	0.690	Yaw:	-13.906	Thrust:	56.842
Time:	0.679	Roll Set Point:	-0.122	Pitch Set Point:	-0.033	Yaw Set Point:	0.145	X_WP:	0.000	Y_WP:	0.000	Y_WP:	0.500	X:	0.062	Y:	0.012	Z:	0.051	yaw:	-8.313	yaw rate:	-2.048	Roll:	1.831	Pitch:	0.636	Yaw:	-13.230	Thrust:	59.505
Time:	0.699	Roll Set Point:	-0.122	Pitch Set Point:	-0.033	Yaw Set Point:	0.146	X_WP:	0.000	Y_WP:	0.000	Y_WP:	0.500	X:	0.062	Y:	0.012	Z:	0.051	yaw:	-8.350	yaw rate:	3.701	Roll:	1.830	Pitch:	0.638	Yaw:	-14.075	Thrust:	60.347
Time:	0.718	Roll Set Point:	-0.122	Pitch Set Point:	-0.033	Yaw Set Point:	0.144	X_WP:	0.000	Y_WP:	0.000	Y_WP:	0.500	X:	0.062	Y:	0.012	Z:	0.051	yaw:	-8.272	yaw rate:	-7.807	Roll:	1.844	Pitch:	0.596	Yaw:	-12.436	Thrust:	60.413
Time:	0.738	Roll Set Point:	-0.122	Pitch Set Point:	-0.033	Yaw Set Point:	0.145	X_WP:	0.000	Y_WP:	0.000	Y_WP:	0.500	X:	0.062	Y:	0.012	Z:	0.051	yaw:	-8.329	yaw rate:	5.712	Roll:	1.818	Pitch:	0.686	Yaw:	-14.427	Thrust:	62.456
Time:	0.759	Roll Set Point:	-0.122	Pitch Set Point:	-0.033	Yaw Set Point:	0.145	X_WP:	0.000	Y_WP:	0.000	Y_WP:	0.500	X:	0.062	Y:	0.012	Z:	0.051	yaw:	-8.301	yaw rate:	-2.724	Roll:	1.845	Pitch:	0.637	Yaw:	-13.448	Thrust:	65.313
Time:	0.780	Roll Set Point:	-0.122	Pitch Set Point:	-0.033	Yaw Set Point:	0.146	X_WP:	0.000	Y_WP:	0.000	Y_WP:	0.500	X:	0.062	Y:	0.012	Z:	0.051	yaw:	-8.368	yaw rate:	6.661	Roll:	1.827	Pitch:	0.677	Yaw:	-14.784	Thrust:	66.555
Time:	0.803	Roll Set Point:	-0.122	Pitch Set Point:	-0.033	Yaw Set Point:	0.145	X_WP:	0.000	Y_WP:	0.000	Y_WP:	0.500	X:	0.062	Y:	0.012	Z:	0.051	yaw:	-8.284	yaw rate:	-8.403	Roll:	1.888	Pitch:	0.600	Yaw:	-13.141	Thrust:	71.445
Time:	0.820	Roll Set Point:	-0.122	Pitch Set Point:	-0.033	Yaw Set Point:	0.145	X_WP:	0.000	Y_WP:	0.000	Y_WP:	0.500	X:	0.062	Y:	0.012	Z:	0.051	yaw:	-8.314	yaw rate:	2.982	Roll:	1.791	Pitch:	0.706	Yaw:	-13.913	Thrust:	58.245
Time:	0.839	Roll Set Point:	-0.122	Pitch Set Point:	-0.033	Yaw Set Point:	0.145	X_WP:	0.000	Y_WP:	0.000	Y_WP:	0.500	X:	0.062	Y:	0.012	Z:	0.051	yaw:	-8.323	yaw rate:	0.897	Roll:	1.863	Pitch:	0.620	Yaw:	-14.056	Thrust:	67.371
Time:	0.859	Roll Set Point:	-0.122	Pitch Set Point:	-0.033	Yaw Set Point:	0.144	X_WP:	0.000	Y_WP:	0.000	Y_WP:	0.500	X:	0.062	Y:	0.012	Z:	0.051	yaw:	-8.277	yaw rate:	-4.584	Roll:	1.847	Pitch:	0.629	Yaw:	-13.391	Thrust:	67.397
Time:	0.879	Roll Set Point:	-0.122	Pitch Set Point:	-0.033	Yaw Set Point:	0.145	X_WP:	0.000	Y_WP:	0.000	Y_WP:	0.500	X:	0.062	Y:	0.012	Z:	0.051	yaw:	-8.316	yaw rate:	3.908	Roll:	1.840	Pitch:	0.705	Yaw:	-14.519	Thrust:	70.808
Time:	0.899	Roll Set Point:	-0.122	Pitch Set Point:	-0.033	Yaw Set Point:	0.145	X_WP:	0.000	Y_WP:	0.000	Y_WP:	0.500	X:	0.062	Y:	0.012	Z:	0.051	yaw:	-8.309	yaw rate:	-0.690	Roll:	1.851	Pitch:	0.630	Yaw:	-14.064	Thrust:	71.791
Time:	0.919	Roll Set Point:	-0.122	Pitch Set Point:	-0.033	Yaw Set Point:	0.145	X_WP:	0.000	Y_WP:	0.000	Y_WP:	0.500	X:	0.062	Y:	0.012	Z:	0.051	yaw:	-8.334	yaw rate:	2.490	Roll:	1.860	Pitch:	0.657	Yaw:	-14.507	Thrust:	71.634
Time:	0.939	Roll Set Point:	-0.122	Pitch Set Point:	-0.033	Yaw Set Point:	0.145	X_WP:	0.000	Y_WP:	0.000	Y_WP:	0.500	X:	0.062	Y:	0.012	Z:	0.051	yaw:	-8.317	yaw rate:	-1.755	Roll:	1.867	Pitch:	0.644	Yaw:	-13.974	Thrust:	72.546
Time:	0.959	Roll Set Point:	-0.122	Pitch Set Point:	-0.033	Yaw Set Point:	0.145	X_WP:	0.000	Y_WP:	0.000	Y_WP:	0.500	X:	0.062	Y:	0.012	Z:	0.052	yaw:	-8.322	yaw rate:	0.517	Roll:	1.852	Pitch:	0.784	Yaw:	-14.340	Thrust:	73.155
Time:	0.980	Roll Set Point:	-0.122	Pitch Set Point:	-0.033	Yaw Set Point:	0.146	X_WP:	0.000	Y_WP:	0.000	Y_WP:	0.500	X:	0.062	Y:	0.012	Z:	0.051	yaw:	-8.366	yaw rate:	4.396	Roll:	1.891	Pitch:	0.572	Yaw:	-15.112	Thrust:	78.386
Time:	0.999	Roll Set Point:	-0.122	Pitch Set Point:	-0.033	Yaw Set Point:	0.145	X_WP:	0.000	Y_WP:	0.000	Y_WP:	0.500	X:	0.062	Y:	0.012	Z:	0.052	yaw:	-8.315	yaw rate:	-5.016	Roll:	1.850	Pitch:	0.752	Yaw:	-13.717	Thrust:	75.338
Time:	1.019	Roll Set Point:	-0.122	Pitch Set Point:	-0.033	Yaw Set Point:	0.145	X_WP:	0.000	Y_WP:	0.000	Y_WP:	0.500	X:	0.062	Y:	0.012	Z:	0.051	yaw:	-8.334	yaw rate:	1.804	Roll:	1.880	Pitch:	0.550	Yaw:	-14.650	Thrust:	76.396
Time:	1.039	Roll Set Point:	-0.122	Pitch Set Point:	-0.033	Yaw Set Point:	0.145	X_WP:	0.000	Y_WP:	0.000	Y_WP:	0.500	X:	0.062	Y:	0.012	Z:	0.051	yaw:	-8.314	yaw rate:	-1.947	Roll:	1.884	Pitch:	0.659	Yaw:	-14.359	Thrust:	80.081
Time:	1.061	Roll Set Point:	-0.122	Pitch Set Point:	-0.033	Yaw Set Point:	0.145	X_WP:	0.000	Y_WP:	0.000	Y_WP:	0.500	X:	0.062	Y:	0.012	Z:	0.051	yaw:	-8.316	yaw rate:	0.146	Roll:	1.912	Pitch:	0.638	Yaw:	-14.681	Thrust:	80.990
Time:	1.079	Roll Set Point:	-0.122	Pitch Set Point:	-0.033	Yaw Set Point:	0.145	X_WP:	0.000	Y_WP:	0.000	Y_WP:	0.500	X:	0.062	Y:	0.012	Z:	0.051	yaw:	-8.325	yaw rate:	0.936	Roll:	1.836	Pitch:	0.683	Yaw:	-14.577	Thrust:	76.892
Time:	1.098	Roll Set Point:	-0.122	Pitch Set Point:	-0.033	Yaw Set Point:	0.145	X_WP:	0.000	Y_WP:	0.000	Y_WP:	0.500	X:	0.062	Y:	0.012	Z:	0.051	yaw:	-8.335	yaw rate:	1.039	Roll:	1.890	Pitch:	0.673	Yaw:	-14.814	Thrust:	80.802
Time:	1.120	Roll Set Point:	-0.122	Pitch Set Point:	-0.033	Yaw Set Point:	0.145	X_WP:	0.000	Y_WP:	0.000	Y_WP:	0.500	X:	0.062	Y:	0.012	Z:	0.051	yaw:	-8.309	yaw rate:	-2.609	Roll:	1.905	Pitch:	0.646	Yaw:	-14.633	Thrust:	86.547
Time:	1.140	Roll Set Point:	-0.122	Pitch Set Point:	-0.033	Yaw Set Point:	0.145	X_WP:	0.000	Y_WP:	0.000	Y_WP:	0.500	X:	0.062	Y:	0.012	Z:	0.051	yaw:	-8.285	yaw rate:	-2.405	Roll:	1.895	Pitch:	0.653	Yaw:	-14.465	Thrust:	84.048
Time:	1.160	Roll Set Point:	-0.122	Pitch Set Point:	-0.033	Yaw Set Point:	0.145	X_WP:	0.000	Y_WP:	0.000	Y_WP:	0.500	X:	0.062	Y:	0.012	Z:	0.051	yaw:	-8.314	yaw rate:	2.935	Roll:	1.881	Pitch:	0.681	Yaw:	-15.265	Thrust:	85.120
Time:	1.181	Roll Set Point:	-0.122	Pitch Set Point:	-0.033	Yaw Set Point:	0.145	X_WP:	0.000	Y_WP:	0.000	Y_WP:	0.500	X:	0.062	Y:	0.012	Z:	0.051	yaw:	-8.290	yaw rate:	-2.422	Roll:	1.929	Pitch:	0.639	Yaw:	-14.577	Thrust:	86.024
Time:	1.199	Roll Set Point:	-0.122	Pitch Set Point:	-0.033	Yaw Set Point:	0.145	X_WP:	0.000	Y_WP:	0.000	Y_WP:	0.500	X:	0.062	Y:	0.012	Z:	0.051	yaw:	-8.329	yaw rate:	3.861	Roll:	1.867	Pitch:	0.703	Yaw:	-15.415	Thrust:	84.976
Time:	1.220	Roll Set Point:	-0.122	Pitch Set Point:	-0.033	Yaw Set Point:	0.145	X_WP:	0.000	Y_WP:	0.000	Y_WP:	0.500	X:	0.062	Y:	0.012	Z:	0.051	yaw:	-8.327	yaw rate:	-0.209	Roll:	1.916	Pitch:	0.657	Yaw:	-15.209	Thrust:	91.376
Time:	1.241	Roll Set Point:	-0.122	Pitch Set Point:	-0.033	Yaw Set Point:	0.145	X_WP:	0.000	Y_WP:	0.000	Y_WP:	0.500	X:	0.062	Y:	0.012	Z:	0.051	yaw:	-8.311	yaw rate:	-1.535	Roll:	1.909	Pitch:	0.670	Yaw:	-14.859	Thrust:	88.563
Time:	1.261	Roll Set Point:	-0.122	Pitch Set Point:	-0.033	Yaw Set Point:	0.146	X_WP:	0.000	Y_WP:	0.000	Y_WP:	0.500	X:	0.062	Y:	0.012	Z:	0.051	yaw:	-8.342	yaw rate:	3.059	Roll:	1.901	Pitch:	0.698	Yaw:	-15.578	Thrust:	89.922
Time:	1.281	Roll Set Point:	-0.122	Pitch Set Point:	-0.033	Yaw Set Point:	0.145	X_WP:	0.000	Y_WP:	0.000	Y_WP:	0.500	X:	0.062	Y:	0.012	Z:	0.051	yaw:	-8.313	yaw rate:	-2.945	Roll:	1.926	Pitch:	0.644	Yaw:	-15.024	Thrust:	92.951
Time:	1.300	Roll Set Point:	-0.122	Pitch Set Point:	-0.033	Yaw Set Point:	0.145	X_WP:	0.000	Y_WP:	0.000	Y_WP:	0.500	X:	0.062	Y:	0.012	Z:	0.051	yaw:	-8.325	yaw rate:	1.254	Roll:	1.910	Pitch:	0.681	Yaw:	-15.293	Thrust:	91.019
Time:	1.319	Roll Set Point:	-0.121	Pitch Set Point:	-0.033	Yaw Set Point:	0.142	X_WP:	0.000	Y_WP:	0.000	Y_WP:	0.500	X:	0.062	Y:	0.012	Z:	0.051	yaw:	-8.162	yaw rate:	-16.274	Roll:	1.898	Pitch:	0.453	Yaw:	-12.849	Thrust:	92.055
Time:	1.339	Roll Set Point:	-0.122	Pitch Set Point:	-0.033	Yaw Set Point:	0.145	X_WP:	0.000	Y_WP:	0.000	Y_WP:	0.500	X:	0.062	Y:	0.012	Z:	0.051	yaw:	-8.328	yaw rate:	16.597	Roll:	1.937	Pitch:	0.884	Yaw:	-17.604	Thrust:	95.316
Time:	1.360	Roll Set Point:	-0.122	Pitch Set Point:	-0.033	Yaw Set Point:	0.146	X_WP:	0.000	Y_WP:	0.000	Y_WP:	0.500	X:	0.062	Y:	0.012	Z:	0.051	yaw:	-8.360	yaw rate:	3.208	Roll:	1.900	Pitch:	0.723	Yaw:	-15.973	Thrust:	96.509
Time:	1.380	Roll Set Point:	-0.122	Pitch Set Point:	-0.033	Yaw Set Point:	0.145	X_WP:	0.000	Y_WP:	0.000	Y_WP:	0.500	X:	0.062	Y:	0.012	Z:	0.052	yaw:	-8.312	yaw rate:	-4.880	Roll:	1.952	Pitch:	0.765	Yaw:	-14.878	Thrust:	96.411
Time:	1.400	Roll Set Point:	-0.122	Pitch Set Point:	-0.033	Yaw Set Point:	0.146	X_WP:	0.000	Y_WP:	0.000	Y_WP:	0.500	X:	0.062	Y:	0.012	Z:	0.051	yaw:	-8.359	yaw rate:	4.779	Roll:	1.918	Pitch:	0.574	Yaw:	-16.265	Thrust:	96.838
Time:	1.419	Roll Set Point:	-0.122	Pitch Set Point:	-0.033	Yaw Set Point:	0.146	X_WP:	0.000	Y_WP:	0.000	Y_WP:	0.500	X:	0.062	Y:	0.012	Z:	0.051	yaw:	-8.342	yaw rate:	-1.761	Roll:	1.941	Pitch:	0.659	Yaw:	-15.316	Thrust:	99.016
Time:	1.440	Roll Set Point:	-0.122	Pitch Set Point:	-0.033	Yaw Set Point:	0.145	X_WP:	0.000	Y_WP:	0.000	Y_WP:	0.500	X:	0.062	Y:	0.012	Z:	0.051	yaw:	-8.313	yaw rate:	-2.920	Roll:	1.958	Pitch:	0.680	Yaw:	-15.406	Thrust:	100.000
Time:	1.462	Roll Set Point:	-0.122	Pitch Set Point:	-0.033	Yaw Set Point:	0.146	X_WP:	0.000	Y_WP:	0.000	Y_WP:	0.500	X:	0.062	Y:	0.012	Z:	0.051	yaw:	-8.338	yaw rate:	2.534	Roll:	1.905	Pitch:	0.707	Yaw:	-16.201	Thrust:	100.000
Time:	1.479	Roll Set Point:	-0.122	Pitch Set Point:	-0.033	Yaw Set Point:	0.145	X_WP:	0.000	Y_WP:	0.000	Y_WP:	0.500	X:	0.062	Y:	0.012	Z:	0.051	yaw:	-8.324	yaw rate:	-1.383	Roll:	1.972	Pitch:	0.633	Yaw:	-15.027	Thrust:	96.497
Time:	1.500	Roll Set Point:	-0.122	Pitch Set Point:	-0.033	Yaw Set Point:	0.145	X_WP:	0.000	Y_WP:	0.000	Y_WP:	0.500	X:	0.062	Y:	0.012	Z:	0.051	yaw:	-8.314	yaw rate:	-1.020	Roll:	1.945	Pitch:	0.711	Yaw:	-15.504	Thrust:	100.000
Time:	1.520	Roll Set Point:	-0.122	Pitch Set Point:	-0.033	Yaw Set Point:	0.145	X_WP:	0.000	Y_WP:	0.000	Y_WP:	0.500	X:	0.062	Y:	0.012	Z:	0.051	yaw:	-8.295	yaw rate:	-1.907	Roll:	1.970	Pitch:	0.660	Yaw:	-15.523	Thrust:	100.000
Time:	1.539	Roll Set Point:	-0.122	Pitch Set Point:	-0.033	Yaw Set Point:	0.146	X_WP:	0.000	Y_WP:	0.000	Y_WP:	0.500	X:	0.062	Y:	0.012	Z:	0.051	yaw:	-8.357	yaw rate:	6.232	Roll:	1.901	Pitch:	0.718	Yaw:	-16.268	Thrust:	100.000
Time:	1.559	Roll Set Point:	-0.122	Pitch Set Point:	-0.033	Yaw Set Point:	0.145	X_WP:	0.000	Y_WP:	0.000	Y_WP:	0.500	X:	0.062	Y:	0.012	Z:	0.051	yaw:	-8.298	yaw rate:	-5.906	Roll:	2.002	Pitch:	0.646	Yaw:	-14.809	Thrust:	100.000
Time:	1.580	Roll Set Point:	-0.122	Pitch Set Point:	-0.033	Yaw Set Point:	0.145	X_WP:	0.000	Y_WP:	0.000	Y_WP:	0.500	X:	0.062	Y:	0.012	Z:	0.051	yaw:	-8.295	yaw rate:	-0.274	Roll:	1.956	Pitch:	0.705	Yaw:	-15.759	Thrust:	100.000
Time:	1.600	Roll Set Point:	-0.122	Pitch Set Point:	-0.033	Yaw Set Point:	0.145	X_WP:	0.000	Y_WP:	0.000	Y_WP:	0.500	X:	0.062	Y:	0.012	Z:	0.051	yaw:	-8.309	yaw rate:	1.389	Roll:	1.951	Pitch:	0.687	Yaw:	-15.799	Thrust:	100.000
Time:	1.620	Roll Set Point:	-0.122	Pitch Set Point:	-0.033	Yaw Set Point:	0.146	X_WP:	0.000	Y_WP:	0.000	Y_WP:	0.500	X:	0.062	Y:	0.012	Z:	0.051	yaw:	-8.350	yaw rate:	4.055	Roll:	1.949	Pitch:	0.718	Yaw:	-16.129	Thrust:	100.000
Time:	1.640	Roll Set Point:	-0.122	Pitch Set Point:	-0.033	Yaw Set Point:	0.145	X_WP:	0.000	Y_WP:	0.000	Y_WP:	0.500	X:	0.062	Y:	0.012	Z:	0.051	yaw:	-8.322	yaw rate:	-2.741	Roll:	1.982	Pitch:	0.685	Yaw:	-15.140	Thrust:	100.000
Time:	1.662	Roll Set Point:	-0.122	Pitch Set Point:	-0.033	Yaw Set Point:	0.145	X_WP:	0.000	Y_WP:	0.000	Y_WP:	0.500	X:	0.062	Y:	0.012	Z:	0.051	yaw:	-8.330	yaw rate:	0.727	Roll:	1.990	Pitch:	0.696	Yaw:	-16.037	Thrust:	100.000
Time:	1.679	Roll Set Point:	-0.122	Pitch Set Point:	-0.033	Yaw Set Point:	0.146	X_WP:	0.000	Y_WP:	0.000	Y_WP:	0.500	X:	0.062	Y:	0.012	Z:	0.051	yaw:	-8.354	yaw rate:	2.421	Roll:	1.922	Pitch:	0.688	Yaw:	-15.631	Thrust:	100.000
Time:	1.699	Roll Set Point:	-0.122	Pitch Set Point:	-0.033	Yaw Set Point:	0.145	X_WP:	0.000	Y_WP:	0.000	Y_WP:	0.500	X:	0.062	Y:	0.012	Z:	0.051	yaw:	-8.299	yaw rate:	-5.484	Roll:	2.004	Pitch:	0.667	Yaw:	-14.819	Thrust:	100.000
Time:	1.718	Roll Set Point:	-0.122	Pitch Set Point:	-0.033	Yaw Set Point:	0.145	X_WP:	0.000	Y_WP:	0.000	Y_WP:	0.500	X:	0.062	Y:	0.012	Z:	0.051	yaw:	-8.325	yaw rate:	2.598	Roll:	1.966	Pitch:	0.719	Yaw:	-15.913	Thrust:	100.000
Time:	1.739	Roll Set Point:	-0.122	Pitch Set Point:	-0.033	Yaw Set Point:	0.145	X_WP:	0.000	Y_WP:	0.000	Y_WP:	0.500	X:	0.062	Y:	0.012	Z:	0.051	yaw:	-8.301	yaw rate:	-2.423	Roll:	1.991	Pitch:	0.668	Yaw:	-15.393	Thrust:	100.000
Time:	1.759	Roll Set Point:	-0.122	Pitch Set Point:	-0.033	Yaw Set Point:	0.145	X_WP:	0.000	Y_WP:	0.000	Y_WP:	0.500	X:	0.062	Y:	0.012	Z:	0.051	yaw:	-8.290	yaw rate:	-1.085	Roll:	1.992	Pitch:	0.687	Yaw:	-15.426	Thrust:	100.000
Time:	1.779	Roll Set Point:	-0.122	Pitch Set Point:	-0.033	Yaw Set Point:	0.145	X_WP:	0.000	Y_WP:	0.000	Y_WP:	0.500	X:	0.062	Y:	0.012	Z:	0.051	yaw:	-8.335	yaw rate:	4.474	Roll:	1.949	Pitch:	0.754	Yaw:	-16.231	Thrust:	100.000
Time:	1.800	Roll Set Point:	-0.122	Pitch Set Point:	-0.033	Yaw Set Point:	0.145	X_WP:	0.000	Y_WP:	0.000	Y_WP:	0.500	X:	0.062	Y:	0.012	Z:	0.051	yaw:	-8.336	yaw rate:	0.109	Roll:	2.008	Pitch:	0.670	Yaw:	-15.710	Thrust:	100.000
Time:	1.820	Roll Set Point:	-0.122	Pitch Set Point:	-0.033	Yaw Set Point:	0.145	X_WP:	0.000	Y_WP:	0.000	Y_WP:	0.500	X:	0.062	Y:	0.012	Z:	0.051	yaw:	-8.301	yaw rate:	-3.467	Roll:	1.998	Pitch:	0.692	Yaw:	-15.195	Thrust:	100.000
Time:	1.840	Roll Set Point:	-0.122	Pitch Set Point:	-0.033	Yaw Set Point:	0.145	X_WP:	0.000	Y_WP:	0.000	Y_WP:	0.500	X:	0.062	Y:	0.012	Z:	0.051	yaw:	-8.290	yaw rate:	-1.126	Roll:	2.005	Pitch:	0.703	Yaw:	-15.554	Thrust:	100.000
Time:	1.861	Roll Set Point:	-0.122	Pitch Set Point:	-0.033	Yaw Set Point:	0.145	X_WP:	0.000	Y_WP:	0.000	Y_WP:	0.500	X:	0.062	Y:	0.012	Z:	0.051	yaw:	-8.323	yaw rate:	3.271	Roll:	2.009	Pitch:	0.714	Yaw:	-16.120	Thrust:	100.000
Time:	1.879	Roll Set Point:	-0.122	Pitch Set Point:	-0.033	Yaw Set Point:	0.145	X_WP:	0.000	Y_WP:	0.000	Y_WP:	0.500	X:	0.062	Y:	0.012	Z:	0.051	yaw:	-8.334	yaw rate:	1.105	Roll:	1.966	Pitch:	0.718	Yaw:	-15.508	Thrust:	100.000
Time:	1.899	Roll Set Point:	-0.122	Pitch Set Point:	-0.033	Yaw Set Point:	0.145	X_WP:	0.000	Y_WP:	0.000	Y_WP:	0.500	X:	0.062	Y:	0.012	Z:	0.051	yaw:	-8.301	yaw rate:	-3.310	Roll:	2.027	Pitch:	0.676	Yaw:	-15.117	Thrust:	100.000
Time:	1.919	Roll Set Point:	-0.122	Pitch Set Point:	-0.033	Yaw Set Point:	0.145	X_WP:	0.000	Y_WP:	0.000	Y_WP:	0.500	X:	0.062	Y:	0.012	Z:	0.051	yaw:	-8.285	yaw rate:	-1.567	Roll:	1.982	Pitch:	0.703	Yaw:	-15.322	Thrust:	100.000
Time:	1.940	Roll Set Point:	-0.122	Pitch Set Point:	-0.033	Yaw Set Point:	0.145	X_WP:	0.000	Y_WP:	0.000	Y_WP:	0.500	X:	0.062	Y:	0.012	Z:	0.051	yaw:	-8.295	yaw rate:	1.057	Roll:	2.044	Pitch:	0.691	Yaw:	-15.692	Thrust:	100.000
Time:	1.959	Roll Set Point:	-0.122	Pitch Set Point:	-0.033	Yaw Set Point:	0.145	X_WP:	0.000	Y_WP:	0.000	Y_WP:	0.500	X:	0.062	Y:	0.012	Z:	0.051	yaw:	-8.310	yaw rate:	1.492	Roll:	1.989	Pitch:	0.737	Yaw:	-15.945	Thrust:	100.000
Time:	1.980	Roll Set Point:	-0.122	Pitch Set Point:	-0.033	Yaw Set Point:	0.146	X_WP:	0.000	Y_WP:	0.000	Y_WP:	0.500	X:	0.062	Y:	0.012	Z:	0.051	yaw:	-8.354	yaw rate:	4.338	Roll:	2.028	Pitch:	0.719	Yaw:	-16.248	Thrust:	100.000
Time:	1.999	Roll Set Point:	-0.122	Pitch Set Point:	-0.033	Yaw Set Point:	0.145	X_WP:	0.000	Y_WP:	0.000	Y_WP:	0.500	X:	0.062	Y:	0.012	Z:	0.051	yaw:	-8.287	yaw rate:	-6.637	Roll:	2.029	Pitch:	0.663	Yaw:	-14.608	Thrust:	100.000
Time:	2.020	Roll Set Point:	-0.122	Pitch Set Point:	-0.033	Yaw Set Point:	0.145	X_WP:	0.000	Y_WP:	0.000	Y_WP:	0.500	X:	0.062	Y:	0.012	Z:	0.051	yaw:	-8.288	yaw rate:	0.070	Roll:	2.039	Pitch:	0.721	Yaw:	-15.731	Thrust:	100.000
Time:	2.041	Roll Set Point:	-0.122	Pitch Set Point:	-0.033	Yaw Set Point:	0.145	X_WP:	0.000	Y_WP:	0.000	Y_WP:	0.500	X:	0.062	Y:	0.012	Z:	0.051	yaw:	-8.320	yaw rate:	3.146	Roll:	2.023	Pitch:	0.734	Yaw:	-16.147	Thrust:	100.000
Time:	2.061	Roll Set Point:	-0.122	Pitch Set Point:	-0.033	Yaw Set Point:	0.145	X_WP:	0.000	Y_WP:	0.000	Y_WP:	0.500	X:	0.062	Y:	0.012	Z:	0.051	yaw:	-8.310	yaw rate:	-0.957	Roll:	2.044	Pitch:	0.710	Yaw:	-15.564	Thrust:	100.000
Time:	2.079	Roll Set Point:	-0.122	Pitch Set Point:	-0.033	Yaw Set Point:	0.145	X_WP:	0.000	Y_WP:	0.000	Y_WP:	0.500	X:	0.062	Y:	0.012	Z:	0.051	yaw:	-8.317	yaw rate:	0.747	Roll:	1.991	Pitch:	0.705	Yaw:	-15.368	Thrust:	100.000
Time:	2.099	Roll Set Point:	-0.122	Pitch Set Point:	-0.033	Yaw Set Point:	0.146	X_WP:	0.000	Y_WP:	0.000	Y_WP:	0.500	X:	0.062	Y:	0.012	Z:	0.051	yaw:	-8.337	yaw rate:	1.982	Roll:	2.027	Pitch:	0.740	Yaw:	-15.853	Thrust:	100.000
Time:	2.119	Roll Set Point:	-0.122	Pitch Set Point:	-0.033	Yaw Set Point:	0.146	X_WP:	0.000	Y_WP:	0.000	Y_WP:	0.500	X:	0.062	Y:	0.012	Z:	0.052	yaw:	-8.362	yaw rate:	2.516	Roll:	2.015	Pitch:	0.856	Yaw:	-16.110	Thrust:	100.000
Time:	2.139	Roll Set Point:	-0.122	Pitch Set Point:	-0.033	Yaw Set Point:	0.145	X_WP:	0.000	Y_WP:	0.000	Y_WP:	0.500	X:	0.062	Y:	0.012	Z:	0.051	yaw:	-8.284	yaw rate:	-7.863	Roll:	2.069	Pitch:	0.544	Yaw:	-14.256	Thrust:	100.000
Time:	2.159	Roll Set Point:	-0.122	Pitch Set Point:	-0.033	Yaw Set Point:	0.145	X_WP:	0.000	Y_WP:	0.000	Y_WP:	0.500	X:	0.062	Y:	0.012	Z:	0.051	yaw:	-8.298	yaw rate:	1.408	Roll:	2.051	Pitch:	0.731	Yaw:	-15.881	Thrust:	100.000
Time:	2.180	Roll Set Point:	-0.122	Pitch Set Point:	-0.033	Yaw Set Point:	0.145	X_WP:	0.000	Y_WP:	0.000	Y_WP:	0.500	X:	0.062	Y:	0.012	Z:	0.051	yaw:	-8.292	yaw rate:	-0.537	Roll:	2.046	Pitch:	0.711	Yaw:	-15.520	Thrust:	100.000
Time:	2.199	Roll Set Point:	-0.122	Pitch Set Point:	-0.033	Yaw Set Point:	0.145	X_WP:	0.000	Y_WP:	0.000	Y_WP:	0.500	X:	0.062	Y:	0.012	Z:	0.052	yaw:	-8.332	yaw rate:	3.967	Roll:	2.045	Pitch:	0.861	Yaw:	-16.214	Thrust:	100.000
Time:	2.220	Roll Set Point:	-0.122	Pitch Set Point:	-0.033	Yaw Set Point:	0.145	X_WP:	0.000	Y_WP:	0.000	Y_WP:	0.500	X:	0.062	Y:	0.012	Z:	0.051	yaw:	-8.286	yaw rate:	-4.630	Roll:	2.062	Pitch:	0.595	Yaw:	-15.032	Thrust:	100.000
Time:	2.241	Roll Set Point:	-0.122	Pitch Set Point:	-0.033	Yaw Set Point:	0.146	X_WP:	0.000	Y_WP:	0.000	Y_WP:	0.500	X:	0.062	Y:	0.012	Z:	0.051	yaw:	-8.337	yaw rate:	5.091	Roll:	2.056	Pitch:	0.747	Yaw:	-16.345	Thrust:	100.000
Time:	2.261	Roll Set Point:	-0.122	Pitch Set Point:	-0.033	Yaw Set Point:	0.145	X_WP:	0.000	Y_WP:	0.000	Y_WP:	0.500	X:	0.062	Y:	0.012	Z:	0.052	yaw:	-8.307	yaw rate:	-3.024	Roll:	2.066	Pitch:	0.810	Yaw:	-15.376	Thrust:	100.000
Time:	2.279	Roll Set Point:	-0.122	Pitch Set Point:	-0.033	Yaw Set Point:	0.145	X_WP:	0.000	Y_WP:	0.000	Y_WP:	0.500	X:	0.062	Y:	0.012	Z:	0.051	yaw:	-8.294	yaw rate:	-1.238	Roll:	2.042	Pitch:	0.611	Yaw:	-15.030	Thrust:	100.000
Time:	2.308	Roll Set Point:	-0.122	Pitch Set Point:	-0.033	Yaw Set Point:	0.145	X_WP:	0.000	Y_WP:	0.000	Y_WP:	0.500	X:	0.062	Y:	0.012	Z:	0.051	yaw:	-8.308	yaw rate:	1.402	Roll:	2.206	Pitch:	0.775	Yaw:	-17.514	Thrust:	100.000
Time:	2.321	Roll Set Point:	-0.122	Pitch Set Point:	-0.033	Yaw Set Point:	0.145	X_WP:	0.000	Y_WP:	0.000	Y_WP:	0.500	X:	0.062	Y:	0.012	Z:	0.051	yaw:	-8.297	yaw rate:	-1.102	Roll:	1.973	Pitch:	0.659	Yaw:	-14.075	Thrust:	100.000
Time:	2.339	Roll Set Point:	-0.122	Pitch Set Point:	-0.033	Yaw Set Point:	0.145	X_WP:	0.000	Y_WP:	0.000	Y_WP:	0.500	X:	0.062	Y:	0.012	Z:	0.051	yaw:	-8.303	yaw rate:	0.583	Roll:	2.035	Pitch:	0.742	Yaw:	-15.158	Thrust:	100.000
Time:	2.358	Roll Set Point:	-0.122	Pitch Set Point:	-0.033	Yaw Set Point:	0.145	X_WP:	0.000	Y_WP:	0.000	Y_WP:	0.500	X:	0.062	Y:	0.012	Z:	0.051	yaw:	-8.298	yaw rate:	-0.533	Roll:	2.083	Pitch:	0.705	Yaw:	-15.452	Thrust:	100.000
Time:	2.378	Roll Set Point:	-0.122	Pitch Set Point:	-0.033	Yaw Set Point:	0.145	X_WP:	0.000	Y_WP:	0.000	Y_WP:	0.500	X:	0.062	Y:	0.012	Z:	0.051	yaw:	-8.321	yaw rate:	2.356	Roll:	2.051	Pitch:	0.759	Yaw:	-15.937	Thrust:	100.000
Time:	2.399	Roll Set Point:	-0.122	Pitch Set Point:	-0.033	Yaw Set Point:	0.146	X_WP:	0.000	Y_WP:	0.000	Y_WP:	0.500	X:	0.062	Y:	0.012	Z:	0.052	yaw:	-8.341	yaw rate:	2.003	Roll:	2.082	Pitch:	0.848	Yaw:	-15.849	Thrust:	100.000
Time:	2.420	Roll Set Point:	-0.122	Pitch Set Point:	-0.033	Yaw Set Point:	0.145	X_WP:	0.000	Y_WP:	0.000	Y_WP:	0.500	X:	0.062	Y:	0.012	Z:	0.052	yaw:	-8.297	yaw rate:	-4.385	Roll:	2.104	Pitch:	0.717	Yaw:	-15.273	Thrust:	100.000
Time:	2.440	Roll Set Point:	-0.122	Pitch Set Point:	-0.033	Yaw Set Point:	0.145	X_WP:	0.000	Y_WP:	0.000	Y_WP:	0.500	X:	0.062	Y:	0.012	Z:	0.051	yaw:	-8.307	yaw rate:	0.931	Roll:	2.093	Pitch:	0.623	Yaw:	-15.572	Thrust:	100.000
Time:	2.461	Roll Set Point:	-0.122	Pitch Set Point:	-0.033	Yaw Set Point:	0.145	X_WP:	0.000	Y_WP:	0.000	Y_WP:	0.500	X:	0.062	Y:	0.012	Z:	0.051	yaw:	-8.324	yaw rate:	1.754	Roll:	2.079	Pitch:	0.764	Yaw:	-16.152	Thrust:	100.000
Time:	2.480	Roll Set Point:	-0.122	Pitch Set Point:	-0.033	Yaw Set Point:	0.145	X_WP:	0.000	Y_WP:	0.000	Y_WP:	0.500	X:	0.062	Y:	0.012	Z:	0.052	yaw:	-8.315	yaw rate:	-0.952	Roll:	2.093	Pitch:	0.826	Yaw:	-15.293	Thrust:	100.000
Time:	2.499	Roll Set Point:	-0.122	Pitch Set Point:	-0.033	Yaw Set Point:	0.146	X_WP:	0.000	Y_WP:	0.000	Y_WP:	0.500	X:	0.062	Y:	0.012	Z:	0.052	yaw:	-8.352	yaw rate:	3.779	Roll:	2.081	Pitch:	0.774	Yaw:	-16.121	Thrust:	100.000
Time:	2.520	Roll Set Point:	-0.122	Pitch Set Point:	-0.033	Yaw Set Point:	0.145	X_WP:	0.000	Y_WP:	0.000	Y_WP:	0.500	X:	0.062	Y:	0.012	Z:	0.051	yaw:	-8.293	yaw rate:	-5.996	Roll:	2.115	Pitch:	0.584	Yaw:	-14.859	Thrust:	100.000
Time:	2.541	Roll Set Point:	-0.122	Pitch Set Point:	-0.033	Yaw Set Point:	0.145	X_WP:	0.000	Y_WP:	0.000	Y_WP:	0.500	X:	0.062	Y:	0.012	Z:	0.051	yaw:	-8.332	yaw rate:	3.906	Roll:	2.111	Pitch:	0.750	Yaw:	-16.325	Thrust:	100.000
Time:	2.560	Roll Set Point:	-0.122	Pitch Set Point:	-0.033	Yaw Set Point:	0.145	X_WP:	0.000	Y_WP:	0.000	Y_WP:	0.500	X:	0.062	Y:	0.012	Z:	0.051	yaw:	-8.314	yaw rate:	-1.747	Roll:	2.095	Pitch:	0.733	Yaw:	-15.123	Thrust:	100.000
Time:	2.580	Roll Set Point:	-0.122	Pitch Set Point:	-0.033	Yaw Set Point:	0.146	X_WP:	0.000	Y_WP:	0.000	Y_WP:	0.500	X:	0.062	Y:	0.012	Z:	0.051	yaw:	-8.382	yaw rate:	6.756	Roll:	2.072	Pitch:	0.800	Yaw:	-16.602	Thrust:	100.000
Time:	2.600	Roll Set Point:	-0.122	Pitch Set Point:	-0.033	Yaw Set Point:	0.144	X_WP:	0.000	Y_WP:	0.000	Y_WP:	0.500	X:	0.062	Y:	0.012	Z:	0.051	yaw:	-8.271	yaw rate:	-11.023	Roll:	2.156	Pitch:	0.666	Yaw:	-14.055	Thrust:	100.000
Time:	2.620	Roll Set Point:	-0.122	Pitch Set Point:	-0.033	Yaw Set Point:	0.145	X_WP:	0.000	Y_WP:	0.000	Y_WP:	0.500	X:	0.062	Y:	0.012	Z:	0.051	yaw:	-8.306	yaw rate:	3.451	Roll:	2.118	Pitch:	0.754	Yaw:	-16.091	Thrust:	100.000
Time:	2.640	Roll Set Point:	-0.122	Pitch Set Point:	-0.033	Yaw Set Point:	0.145	X_WP:	0.000	Y_WP:	0.000	Y_WP:	0.500	X:	0.062	Y:	0.012	Z:	0.051	yaw:	-8.334	yaw rate:	2.821	Roll:	2.073	Pitch:	0.775	Yaw:	-16.024	Thrust:	100.000
Time:	2.663	Roll Set Point:	-0.122	Pitch Set Point:	-0.033	Yaw Set Point:	0.144	X_WP:	0.000	Y_WP:	0.000	Y_WP:	0.500	X:	0.062	Y:	0.012	Z:	0.051	yaw:	-8.257	yaw rate:	-7.676	Roll:	2.185	Pitch:	0.719	Yaw:	-15.227	Thrust:	100.000
Time:	2.680	Roll Set Point:	-0.122	Pitch Set Point:	-0.033	Yaw Set Point:	0.146	X_WP:	0.000	Y_WP:	0.000	Y_WP:	0.500	X:	0.062	Y:	0.012	Z:	0.051	yaw:	-8.346	yaw rate:	8.857	Roll:	2.065	Pitch:	0.799	Yaw:	-16.455	Thrust:	100.000
Time:	2.699	Roll Set Point:	-0.122	Pitch Set Point:	-0.033	Yaw Set Point:	0.145	X_WP:	0.000	Y_WP:	0.000	Y_WP:	0.500	X:	0.062	Y:	0.012	Z:	0.051	yaw:	-8.325	yaw rate:	-2.137	Roll:	2.130	Pitch:	0.716	Yaw:	-15.187	Thrust:	100.000
Time:	2.719	Roll Set Point:	-0.122	Pitch Set Point:	-0.033	Yaw Set Point:	0.145	X_WP:	0.000	Y_WP:	0.000	Y_WP:	0.500	X:	0.062	Y:	0.012	Z:	0.051	yaw:	-8.288	yaw rate:	-3.634	Roll:	2.136	Pitch:	0.704	Yaw:	-14.831	Thrust:	100.000
Time:	2.739	Roll Set Point:	-0.122	Pitch Set Point:	-0.033	Yaw Set Point:	0.146	X_WP:	0.000	Y_WP:	0.000	Y_WP:	0.500	X:	0.062	Y:	0.012	Z:	0.051	yaw:	-8.370	yaw rate:	8.141	Roll:	2.080	Pitch:	0.831	Yaw:	-16.933	Thrust:	100.000
Time:	2.759	Roll Set Point:	-0.122	Pitch Set Point:	-0.033	Yaw Set Point:	0.145	X_WP:	0.000	Y_WP:	0.000	Y_WP:	0.500	X:	0.062	Y:	0.012	Z:	0.051	yaw:	-8.299	yaw rate:	-7.089	Roll:	2.159	Pitch:	0.701	Yaw:	-14.695	Thrust:	100.000
Time:	2.778	Roll Set Point:	-0.122	Pitch Set Point:	-0.033	Yaw Set Point:	0.145	X_WP:	0.000	Y_WP:	0.000	Y_WP:	0.500	X:	0.062	Y:	0.012	Z:	0.051	yaw:	-8.314	yaw rate:	1.473	Roll:	2.163	Pitch:	0.744	Yaw:	-15.621	Thrust:	100.000
Time:	2.799	Roll Set Point:	-0.122	Pitch Set Point:	-0.033	Yaw Set Point:	0.145	X_WP:	0.000	Y_WP:	0.000	Y_WP:	0.500	X:	0.062	Y:	0.012	Z:	0.051	yaw:	-8.312	yaw rate:	-0.195	Roll:	2.115	Pitch:	0.769	Yaw:	-15.635	Thrust:	100.000
Time:	2.819	Roll Set Point:	-0.122	Pitch Set Point:	-0.033	Yaw Set Point:	0.145	X_WP:	0.000	Y_WP:	0.000	Y_WP:	0.500	X:	0.062	Y:	0.012	Z:	0.051	yaw:	-8.320	yaw rate:	0.848	Roll:	2.134	Pitch:	0.745	Yaw:	-15.752	Thrust:	100.000
Time:	2.839	Roll Set Point:	-0.122	Pitch Set Point:	-0.033	Yaw Set Point:	0.145	X_WP:	0.000	Y_WP:	0.000	Y_WP:	0.500	X:	0.062	Y:	0.012	Z:	0.051	yaw:	-8.297	yaw rate:	-2.265	Roll:	2.164	Pitch:	0.733	Yaw:	-15.318	Thrust:	100.000
Time:	2.859	Roll Set Point:	-0.122	Pitch Set Point:	-0.033	Yaw Set Point:	0.145	X_WP:	0.000	Y_WP:	0.000	Y_WP:	0.500	X:	0.062	Y:	0.012	Z:	0.052	yaw:	-8.310	yaw rate:	1.303	Roll:	2.119	Pitch:	0.912	Yaw:	-15.818	Thrust:	100.000
Time:	2.879	Roll Set Point:	-0.122	Pitch Set Point:	-0.033	Yaw Set Point:	0.145	X_WP:	0.000	Y_WP:	0.000	Y_WP:	0.500	X:	0.062	Y:	0.012	Z:	0.051	yaw:	-8.334	yaw rate:	2.395	Roll:	2.176	Pitch:	0.659	Yaw:	-15.909	Thrust:	100.000
Time:	2.899	Roll Set Point:	-0.122	Pitch Set Point:	-0.033	Yaw Set Point:	0.145	X_WP:	0.000	Y_WP:	0.000	Y_WP:	0.500	X:	0.062	Y:	0.012	Z:	0.051	yaw:	-8.322	yaw rate:	-1.255	Roll:	2.149	Pitch:	0.732	Yaw:	-15.521	Thrust:	100.000
Time:	2.919	Roll Set Point:	-0.122	Pitch Set Point:	-0.033	Yaw Set Point:	0.146	X_WP:	0.000	Y_WP:	0.000	Y_WP:	0.500	X:	0.062	Y:	0.012	Z:	0.051	yaw:	-8.370	yaw rate:	4.808	Roll:	2.148	Pitch:	0.799	Yaw:	-16.251	Thrust:	100.000
Time:	2.939	Roll Set Point:	-0.122	Pitch Set Point:	-0.033	Yaw Set Point:	0.144	X_WP:	0.000	Y_WP:	0.000	Y_WP:	0.500	X:	0.062	Y:	0.012	Z:	0.051	yaw:	-8.276	yaw rate:	-9.345	Roll:	2.197	Pitch:	0.699	Yaw:	-14.416	Thrust:	100.000
Time:	2.959	Roll Set Point:	-0.122	Pitch Set Point:	-0.033	Yaw Set Point:	0.146	X_WP:	0.000	Y_WP:	0.000	Y_WP:	0.500	X:	0.062	Y:	0.012	Z:	0.052	yaw:	-8.351	yaw rate:	7.403	Roll:	2.103	Pitch:	0.931	Yaw:	-16.669	Thrust:	100.000
Time:	2.980	Roll Set Point:	-0.122	Pitch Set Point:	-0.033	Yaw Set Point:	0.146	X_WP:	0.000	Y_WP:	0.000	Y_WP:	0.500	X:	0.062	Y:	0.012	Z:	0.051	yaw:	-8.362	yaw rate:	1.131	Roll:	2.202	Pitch:	0.668	Yaw:	-15.828	Thrust:	100.000
Time:	2.999	Roll Set Point:	-0.122	Pitch Set Point:	-0.033	Yaw Set Point:	0.145	X_WP:	0.000	Y_WP:	0.000	Y_WP:	0.500	X:	0.062	Y:	0.012	Z:	0.051	yaw:	-8.316	yaw rate:	-4.586	Roll:	2.172	Pitch:	0.716	Yaw:	-14.855	Thrust:	100.000
Time:	3.020	Roll Set Point:	-0.122	Pitch Set Point:	-0.033	Yaw Set Point:	0.145	X_WP:	0.000	Y_WP:	0.000	Y_WP:	0.500	X:	0.062	Y:	0.012	Z:	0.051	yaw:	-8.316	yaw rate:	-0.003	Roll:	2.171	Pitch:	0.780	Yaw:	-15.841	Thrust:	100.000
Time:	3.041	Roll Set Point:	-0.122	Pitch Set Point:	-0.033	Yaw Set Point:	0.145	X_WP:	0.000	Y_WP:	0.000	Y_WP:	0.500	X:	0.062	Y:	0.012	Z:	0.051	yaw:	-8.291	yaw rate:	-2.483	Roll:	2.204	Pitch:	0.733	Yaw:	-15.389	Thrust:	100.000
Time:	3.061	Roll Set Point:	-0.122	Pitch Set Point:	-0.033	Yaw Set Point:	0.145	X_WP:	0.000	Y_WP:	0.000	Y_WP:	0.500	X:	0.062	Y:	0.012	Z:	0.051	yaw:	-8.282	yaw rate:	-0.951	Roll:	2.168	Pitch:	0.764	Yaw:	-15.416	Thrust:	100.000
Time:	3.081	Roll Set Point:	-0.122	Pitch Set Point:	-0.033	Yaw Set Point:	0.146	X_WP:	0.000	Y_WP:	0.000	Y_WP:	0.500	X:	0.062	Y:	0.012	Z:	0.051	yaw:	-8.343	yaw rate:	6.146	Roll:	2.181	Pitch:	0.806	Yaw:	-16.420	Thrust:	100.000
Time:	3.100	Roll Set Point:	-0.122	Pitch Set Point:	-0.033	Yaw Set Point:	0.145	X_WP:	0.000	Y_WP:	0.000	Y_WP:	0.500	X:	0.062	Y:	0.012	Z:	0.051	yaw:	-8.312	yaw rate:	-3.113	Roll:	2.170	Pitch:	0.751	Yaw:	-15.102	Thrust:	100.000
Time:	3.119	Roll Set Point:	-0.122	Pitch Set Point:	-0.033	Yaw Set Point:	0.145	X_WP:	0.000	Y_WP:	0.000	Y_WP:	0.500	X:	0.062	Y:	0.012	Z:	0.051	yaw:	-8.305	yaw rate:	-0.711	Roll:	2.187	Pitch:	0.748	Yaw:	-15.423	Thrust:	100.000
Time:	3.139	Roll Set Point:	-0.122	Pitch Set Point:	-0.033	Yaw Set Point:	0.145	X_WP:	0.000	Y_WP:	0.000	Y_WP:	0.500	X:	0.062	Y:	0.012	Z:	0.051	yaw:	-8.314	yaw rate:	0.961	Roll:	2.198	Pitch:	0.781	Yaw:	-15.651	Thrust:	100.000
Time:	3.160	Roll Set Point:	-0.122	Pitch Set Point:	-0.033	Yaw Set Point:	0.145	X_WP:	0.000	Y_WP:	0.000	Y_WP:	0.500	X:	0.062	Y:	0.012	Z:	0.051	yaw:	-8.283	yaw rate:	-3.182	Roll:	2.179	Pitch:	0.750	Yaw:	-15.287	Thrust:	100.000
Time:	3.179	Roll Set Point:	-0.122	Pitch Set Point:	-0.033	Yaw Set Point:	0.145	X_WP:	0.000	Y_WP:	0.000	Y_WP:	0.500	X:	0.062	Y:	0.012	Z:	0.051	yaw:	-8.291	yaw rate:	0.810	Roll:	2.215	Pitch:	0.762	Yaw:	-15.493	Thrust:	100.000
Time:	3.199	Roll Set Point:	-0.122	Pitch Set Point:	-0.033	Yaw Set Point:	0.145	X_WP:	0.000	Y_WP:	0.000	Y_WP:	0.500	X:	0.062	Y:	0.012	Z:	0.051	yaw:	-8.322	yaw rate:	3.133	Roll:	2.167	Pitch:	0.802	Yaw:	-16.080	Thrust:	100.000
Time:	3.219	Roll Set Point:	-0.122	Pitch Set Point:	-0.033	Yaw Set Point:	0.145	X_WP:	0.000	Y_WP:	0.000	Y_WP:	0.500	X:	0.062	Y:	0.012	Z:	0.051	yaw:	-8.299	yaw rate:	-2.336	Roll:	2.210	Pitch:	0.775	Yaw:	-15.341	Thrust:	100.000
Time:	3.239	Roll Set Point:	-0.122	Pitch Set Point:	-0.033	Yaw Set Point:	0.145	X_WP:	0.000	Y_WP:	0.000	Y_WP:	0.500	X:	0.062	Y:	0.012	Z:	0.051	yaw:	-8.319	yaw rate:	2.044	Roll:	2.212	Pitch:	0.775	Yaw:	-15.826	Thrust:	100.000
Time:	3.261	Roll Set Point:	-0.122	Pitch Set Point:	-0.033	Yaw Set Point:	0.145	X_WP:	0.000	Y_WP:	0.000	Y_WP:	0.500	X:	0.062	Y:	0.012	Z:	0.051	yaw:	-8.308	yaw rate:	-1.125	Roll:	2.224	Pitch:	0.763	Yaw:	-15.803	Thrust:	100.000
Time:	3.279	Roll Set Point:	-0.122	Pitch Set Point:	-0.033	Yaw Set Point:	0.145	X_WP:	0.000	Y_WP:	0.000	Y_WP:	0.500	X:	0.062	Y:	0.012	Z:	0.051	yaw:	-8.327	yaw rate:	1.900	Roll:	2.191	Pitch:	0.795	Yaw:	-15.602	Thrust:	100.000
Time:	3.300	Roll Set Point:	-0.122	Pitch Set Point:	-0.033	Yaw Set Point:	0.145	X_WP:	0.000	Y_WP:	0.000	Y_WP:	0.500	X:	0.062	Y:	0.012	Z:	0.051	yaw:	-8.296	yaw rate:	-3.128	Roll:	2.213	Pitch:	0.777	Yaw:	-15.155	Thrust:	100.000
Time:	3.318	Roll Set Point:	-0.122	Pitch Set Point:	-0.033	Yaw Set Point:	0.146	X_WP:	0.000	Y_WP:	0.000	Y_WP:	0.500	X:	0.062	Y:	0.012	Z:	0.051	yaw:	-8.338	yaw rate:	4.214	Roll:	2.220	Pitch:	0.773	Yaw:	-16.076	Thrust:	100.000
Time:	3.339	Roll Set Point:	-0.122	Pitch Set Point:	-0.033	Yaw Set Point:	0.145	X_WP:	0.000	Y_WP:	0.000	Y_WP:	0.500	X:	0.062	Y:	0.012	Z:	0.051	yaw:	-8.308	yaw rate:	-2.954	Roll:	2.224	Pitch:	0.758	Yaw:	-15.259	Thrust:	100.000
Time:	3.359	Roll Set Point:	-0.122	Pitch Set Point:	-0.033	Yaw Set Point:	0.144	X_WP:	0.000	Y_WP:	0.000	Y_WP:	0.500	X:	0.062	Y:	0.012	Z:	0.051	yaw:	-8.261	yaw rate:	-4.745	Roll:	2.248	Pitch:	0.780	Yaw:	-15.108	Thrust:	100.000
Time:	3.379	Roll Set Point:	-0.122	Pitch Set Point:	-0.033	Yaw Set Point:	0.145	X_WP:	0.000	Y_WP:	0.000	Y_WP:	0.500	X:	0.062	Y:	0.012	Z:	0.051	yaw:	-8.290	yaw rate:	2.914	Roll:	2.188	Pitch:	0.794	Yaw:	-15.785	Thrust:	100.000
Time:	3.399	Roll Set Point:	-0.122	Pitch Set Point:	-0.033	Yaw Set Point:	0.146	X_WP:	0.000	Y_WP:	0.000	Y_WP:	0.500	X:	0.062	Y:	0.012	Z:	0.051	yaw:	-8.337	yaw rate:	4.744	Roll:	2.247	Pitch:	0.786	Yaw:	-16.414	Thrust:	100.000
Time:	3.419	Roll Set Point:	-0.122	Pitch Set Point:	-0.033	Yaw Set Point:	0.146	X_WP:	0.000	Y_WP:	0.000	Y_WP:	0.500	X:	0.062	Y:	0.012	Z:	0.051	yaw:	-8.344	yaw rate:	0.626	Roll:	2.220	Pitch:	0.810	Yaw:	-15.595	Thrust:	100.000
Time:	3.439	Roll Set Point:	-0.122	Pitch Set Point:	-0.033	Yaw Set Point:	0.145	X_WP:	0.000	Y_WP:	0.000	Y_WP:	0.500	X:	0.062	Y:	0.012	Z:	0.051	yaw:	-8.316	yaw rate:	-2.800	Roll:	2.221	Pitch:	0.780	Yaw:	-15.243	Thrust:	100.000
Time:	3.458	Roll Set Point:	-0.122	Pitch Set Point:	-0.033	Yaw Set Point:	0.145	X_WP:	0.000	Y_WP:	0.000	Y_WP:	0.500	X:	0.062	Y:	0.012	Z:	0.051	yaw:	-8.326	yaw rate:	1.016	Roll:	2.249	Pitch:	0.759	Yaw:	-15.669	Thrust:	100.000
Time:	3.479	Roll Set Point:	-0.122	Pitch Set Point:	-0.033	Yaw Set Point:	0.145	X_WP:	0.000	Y_WP:	0.000	Y_WP:	0.500	X:	0.062	Y:	0.012	Z:	0.051	yaw:	-8.318	yaw rate:	-0.742	Roll:	2.246	Pitch:	0.799	Yaw:	-15.626	Thrust:	100.000
Time:	3.499	Roll Set Point:	-0.122	Pitch Set Point:	-0.033	Yaw Set Point:	0.145	X_WP:	0.000	Y_WP:	0.000	Y_WP:	0.500	X:	0.062	Y:	0.012	Z:	0.051	yaw:	-8.298	yaw rate:	-2.008	Roll:	2.249	Pitch:	0.773	Yaw:	-15.361	Thrust:	100.000
Time:	3.518	Roll Set Point:	-0.122	Pitch Set Point:	-0.033	Yaw Set Point:	0.145	X_WP:	0.000	Y_WP:	0.000	Y_WP:	0.500	X:	0.062	Y:	0.012	Z:	0.051	yaw:	-8.285	yaw rate:	-1.326	Roll:	2.220	Pitch:	0.781	Yaw:	-15.203	Thrust:	100.000
Time:	3.539	Roll Set Point:	-0.122	Pitch Set Point:	-0.033	Yaw Set Point:	0.145	X_WP:	0.000	Y_WP:	0.000	Y_WP:	0.500	X:	0.062	Y:	0.012	Z:	0.051	yaw:	-8.307	yaw rate:	2.184	Roll:	2.270	Pitch:	0.806	Yaw:	-16.098	Thrust:	100.000
Time:	3.559	Roll Set Point:	-0.122	Pitch Set Point:	-0.033	Yaw Set Point:	0.145	X_WP:	0.000	Y_WP:	0.000	Y_WP:	0.500	X:	0.062	Y:	0.012	Z:	0.051	yaw:	-8.303	yaw rate:	-0.378	Roll:	2.247	Pitch:	0.779	Yaw:	-15.562	Thrust:	100.000
Time:	3.580	Roll Set Point:	-0.122	Pitch Set Point:	-0.033	Yaw Set Point:	0.145	X_WP:	0.000	Y_WP:	0.000	Y_WP:	0.500	X:	0.062	Y:	0.012	Z:	0.051	yaw:	-8.287	yaw rate:	-1.606	Roll:	2.291	Pitch:	0.797	Yaw:	-15.582	Thrust:	100.000
Time:	3.599	Roll Set Point:	-0.122	Pitch Set Point:	-0.033	Yaw Set Point:	0.145	X_WP:	0.000	Y_WP:	0.000	Y_WP:	0.500	X:	0.062	Y:	0.012	Z:	0.051	yaw:	-8.316	yaw rate:	2.935	Roll:	2.224	Pitch:	0.797	Yaw:	-15.690	Thrust:	100.000
Time:	3.619	Roll Set Point:	-0.122	Pitch Set Point:	-0.033	Yaw Set Point:	0.145	X_WP:	0.000	Y_WP:	0.000	Y_WP:	0.500	X:	0.062	Y:	0.012	Z:	0.051	yaw:	-8.315	yaw rate:	-0.140	Roll:	2.261	Pitch:	0.801	Yaw:	-15.692	Thrust:	100.000
Time:	3.639	Roll Set Point:	-0.122	Pitch Set Point:	-0.033	Yaw Set Point:	0.145	X_WP:	0.000	Y_WP:	0.000	Y_WP:	0.500	X:	0.062	Y:	0.012	Z:	0.051	yaw:	-8.321	yaw rate:	0.653	Roll:	2.251	Pitch:	0.787	Yaw:	-15.684	Thrust:	100.000
Time:	3.659	Roll Set Point:	-0.122	Pitch Set Point:	-0.033	Yaw Set Point:	0.145	X_WP:	0.000	Y_WP:	0.000	Y_WP:	0.500	X:	0.062	Y:	0.012	Z:	0.051	yaw:	-8.321	yaw rate:	-0.070	Roll:	2.293	Pitch:	0.819	Yaw:	-15.609	Thrust:	100.000
Time:	3.679	Roll Set Point:	-0.122	Pitch Set Point:	-0.033	Yaw Set Point:	0.145	X_WP:	0.000	Y_WP:	0.000	Y_WP:	0.500	X:	0.062	Y:	0.012	Z:	0.051	yaw:	-8.305	yaw rate:	-1.583	Roll:	2.249	Pitch:	0.771	Yaw:	-15.257	Thrust:	100.000
Time:	3.699	Roll Set Point:	-0.122	Pitch Set Point:	-0.033	Yaw Set Point:	0.145	X_WP:	0.000	Y_WP:	0.000	Y_WP:	0.500	X:	0.062	Y:	0.012	Z:	0.051	yaw:	-8.318	yaw rate:	1.316	Roll:	2.282	Pitch:	0.806	Yaw:	-15.894	Thrust:	100.000
Time:	3.721	Roll Set Point:	-0.122	Pitch Set Point:	-0.033	Yaw Set Point:	0.146	X_WP:	0.000	Y_WP:	0.000	Y_WP:	0.500	X:	0.062	Y:	0.012	Z:	0.051	yaw:	-8.347	yaw rate:	2.899	Roll:	2.332	Pitch:	0.837	Yaw:	-16.322	Thrust:	100.000
Time:	3.738	Roll Set Point:	-0.122	Pitch Set Point:	-0.033	Yaw Set Point:	0.145	X_WP:	0.000	Y_WP:	0.000	Y_WP:	0.500	X:	0.062	Y:	0.012	Z:	0.051	yaw:	-8.312	yaw rate:	-3.479	Roll:	2.216	Pitch:	0.752	Yaw:	-14.627	Thrust:	100.000
Time:	3.759	Roll Set Point:	-0.122	Pitch Set Point:	-0.033	Yaw Set Point:	0.145	X_WP:	0.000	Y_WP:	0.000	Y_WP:	0.500	X:	0.062	Y:	0.012	Z:	0.051	yaw:	-8.309	yaw rate:	-0.322	Roll:	2.266	Pitch:	0.806	Yaw:	-15.715	Thrust:	100.000
Time:	3.780	Roll Set Point:	-0.122	Pitch Set Point:	-0.033	Yaw Set Point:	0.145	X_WP:	0.000	Y_WP:	0.000	Y_WP:	0.500	X:	0.062	Y:	0.012	Z:	0.051	yaw:	-8.324	yaw rate:	1.542	Roll:	2.334	Pitch:	0.805	Yaw:	-16.025	Thrust:	100.000
Time:	3.799	Roll Set Point:	-0.122	Pitch Set Point:	-0.033	Yaw Set Point:	0.146	X_WP:	0.000	Y_WP:	0.000	Y_WP:	0.500	X:	0.062	Y:	0.012	Z:	0.051	yaw:	-8.344	yaw rate:	1.989	Roll:	2.241	Pitch:	0.854	Yaw:	-15.660	Thrust:	100.000
Time:	3.821	Roll Set Point:	-0.122	Pitch Set Point:	-0.033	Yaw Set Point:	0.146	X_WP:	0.000	Y_WP:	0.000	Y_WP:	0.500	X:	0.062	Y:	0.012	Z:	0.052	yaw:	-8.377	yaw rate:	3.291	Roll:	2.362	Pitch:	0.938	Yaw:	-16.638	Thrust:	100.000
Time:	3.839	Roll Set Point:	-0.122	Pitch Set Point:	-0.033	Yaw Set Point:	0.145	X_WP:	0.000	Y_WP:	0.000	Y_WP:	0.500	X:	0.062	Y:	0.012	Z:	0.051	yaw:	-8.301	yaw rate:	-7.669	Roll:	2.248	Pitch:	0.549	Yaw:	-13.963	Thrust:	100.000
Time:	3.860	Roll Set Point:	-0.122	Pitch Set Point:	-0.033	Yaw Set Point:	0.145	X_WP:	0.000	Y_WP:	0.000	Y_WP:	0.500	X:	0.062	Y:	0.012	Z:	0.051	yaw:	-8.309	yaw rate:	0.800	Roll:	2.334	Pitch:	0.846	Yaw:	-15.910	Thrust:	100.000
Time:	3.879	Roll Set Point:	-0.122	Pitch Set Point:	-0.033	Yaw Set Point:	0.145	X_WP:	0.000	Y_WP:	0.000	Y_WP:	0.500	X:	0.062	Y:	0.012	Z:	0.051	yaw:	-8.327	yaw rate:	1.875	Roll:	2.276	Pitch:	0.809	Yaw:	-15.718	Thrust:	100.000
Time:	3.899	Roll Set Point:	-0.122	Pitch Set Point:	-0.033	Yaw Set Point:	0.145	X_WP:	0.000	Y_WP:	0.000	Y_WP:	0.500	X:	0.062	Y:	0.012	Z:	0.051	yaw:	-8.298	yaw rate:	-2.919	Roll:	2.292	Pitch:	0.759	Yaw:	-15.090	Thrust:	100.000
Time:	3.918	Roll Set Point:	-0.122	Pitch Set Point:	-0.033	Yaw Set Point:	0.145	X_WP:	0.000	Y_WP:	0.000	Y_WP:	0.500	X:	0.062	Y:	0.012	Z:	0.051	yaw:	-8.314	yaw rate:	1.556	Roll:	2.302	Pitch:	0.841	Yaw:	-15.691	Thrust:	100.000
Time:	3.940	Roll Set Point:	-0.122	Pitch Set Point:	-0.033	Yaw Set Point:	0.144	X_WP:	0.000	Y_WP:	0.000	Y_WP:	0.500	X:	0.062	Y:	0.012	Z:	0.052	yaw:	-8.278	yaw rate:	-3.587	Roll:	2.289	Pitch:	0.957	Yaw:	-15.431	Thrust:	100.000
Time:	3.958	Roll Set Point:	-0.122	Pitch Set Point:	-0.033	Yaw Set Point:	0.146	X_WP:	0.000	Y_WP:	0.000	Y_WP:	0.500	X:	0.062	Y:	0.012	Z:	0.051	yaw:	-8.372	yaw rate:	9.400	Roll:	2.332	Pitch:	0.680	Yaw:	-16.753	Thrust:	100.000
Time:	3.978	Roll Set Point:	-0.122	Pitch Set Point:	-0.033	Yaw Set Point:	0.145	X_WP:	0.000	Y_WP:	0.000	Y_WP:	0.500	X:	0.062	Y:	0.012	Z:	0.051	yaw:	-8.303	yaw rate:	-6.845	Roll:	2.321	Pitch:	0.793	Yaw:	-14.711	Thrust:	100.000
Time:	3.999	Roll Set Point:	-0.122	Pitch Set Point:	-0.033	Yaw Set Point:	0.145	X_WP:	0.000	Y_WP:	0.000	Y_WP:	0.500	X:	0.062	Y:	0.012	Z:	0.051	yaw:	-8.281	yaw rate:	-2.270	Roll:	2.318	Pitch:	0.822	Yaw:	-15.380	Thrust:	100.000
Time:	4.019	Roll Set Point:	-0.122	Pitch Set Point:	-0.033	Yaw Set Point:	0.145	X_WP:	0.000	Y_WP:	0.000	Y_WP:	0.500	X:	0.062	Y:	0.012	Z:	0.051	yaw:	-8.334	yaw rate:	5.371	Roll:	2.336	Pitch:	0.817	Yaw:	-16.289	Thrust:	100.000
Time:	4.040	Roll Set Point:	-0.122	Pitch Set Point:	-0.033	Yaw Set Point:	0.145	X_WP:	0.000	Y_WP:	0.000	Y_WP:	0.500	X:	0.062	Y:	0.012	Z:	0.051	yaw:	-8.282	yaw rate:	-5.232	Roll:	2.337	Pitch:	0.792	Yaw:	-15.019	Thrust:	100.000
Time:	4.060	Roll Set Point:	-0.122	Pitch Set Point:	-0.033	Yaw Set Point:	0.145	X_WP:	0.000	Y_WP:	0.000	Y_WP:	0.500	X:	0.062	Y:	0.012	Z:	0.051	yaw:	-8.321	yaw rate:	3.921	Roll:	2.326	Pitch:	0.852	Yaw:	-16.148	Thrust:	100.000
Time:	4.080	Roll Set Point:	-0.122	Pitch Set Point:	-0.033	Yaw Set Point:	0.144	X_WP:	0.000	Y_WP:	0.000	Y_WP:	0.500	X:	0.062	Y:	0.012	Z:	0.051	yaw:	-8.273	yaw rate:	-4.864	Roll:	2.328	Pitch:	0.798	Yaw:	-14.960	Thrust:	100.000
Time:	4.100	Roll Set Point:	-0.122	Pitch Set Point:	-0.033	Yaw Set Point:	0.146	X_WP:	0.000	Y_WP:	0.000	Y_WP:	0.500	X:	0.062	Y:	0.012	Z:	0.051	yaw:	-8.338	yaw rate:	6.545	Roll:	2.334	Pitch:	0.844	Yaw:	-16.533	Thrust:	100.000
Time:	4.120	Roll Set Point:	-0.122	Pitch Set Point:	-0.033	Yaw Set Point:	0.145	X_WP:	0.000	Y_WP:	0.000	Y_WP:	0.500	X:	0.062	Y:	0.012	Z:	0.051	yaw:	-8.319	yaw rate:	-1.936	Roll:	2.335	Pitch:	0.808	Yaw:	-15.262	Thrust:	100.000
Time:	4.140	Roll Set Point:	-0.122	Pitch Set Point:	-0.033	Yaw Set Point:	0.145	X_WP:	0.000	Y_WP:	0.000	Y_WP:	0.500	X:	0.062	Y:	0.012	Z:	0.051	yaw:	-8.289	yaw rate:	-3.000	Roll:	2.367	Pitch:	0.828	Yaw:	-15.321	Thrust:	100.000
Time:	4.160	Roll Set Point:	-0.122	Pitch Set Point:	-0.033	Yaw Set Point:	0.145	X_WP:	0.000	Y_WP:	0.000	Y_WP:	0.500	X:	0.062	Y:	0.012	Z:	0.051	yaw:	-8.309	yaw rate:	2.040	Roll:	2.310	Pitch:	0.808	Yaw:	-15.889	Thrust:	100.000
Time:	4.180	Roll Set Point:	-0.122	Pitch Set Point:	-0.033	Yaw Set Point:	0.146	X_WP:	0.000	Y_WP:	0.000	Y_WP:	0.500	X:	0.062	Y:	0.012	Z:	0.051	yaw:	-8.344	yaw rate:	3.473	Roll:	2.336	Pitch:	0.845	Yaw:	-15.938	Thrust:	100.000
Time:	4.200	Roll Set Point:	-0.122	Pitch Set Point:	-0.033	Yaw Set Point:	0.145	X_WP:	0.000	Y_WP:	0.000	Y_WP:	0.500	X:	0.062	Y:	0.012	Z:	0.051	yaw:	-8.299	yaw rate:	-4.448	Roll:	2.378	Pitch:	0.799	Yaw:	-15.289	Thrust:	100.000
Time:	4.219	Roll Set Point:	-0.122	Pitch Set Point:	-0.033	Yaw Set Point:	0.145	X_WP:	0.000	Y_WP:	0.000	Y_WP:	0.500	X:	0.062	Y:	0.012	Z:	0.051	yaw:	-8.312	yaw rate:	1.282	Roll:	2.298	Pitch:	0.859	Yaw:	-15.537	Thrust:	100.000
Time:	4.240	Roll Set Point:	-0.122	Pitch Set Point:	-0.033	Yaw Set Point:	0.145	X_WP:	0.000	Y_WP:	0.000	Y_WP:	0.500	X:	0.062	Y:	0.012	Z:	0.051	yaw:	-8.306	yaw rate:	-0.620	Roll:	2.382	Pitch:	0.805	Yaw:	-15.694	Thrust:	100.000
Time:	4.259	Roll Set Point:	-0.122	Pitch Set Point:	-0.033	Yaw Set Point:	0.145	X_WP:	0.000	Y_WP:	0.000	Y_WP:	0.500	X:	0.062	Y:	0.012	Z:	0.051	yaw:	-8.326	yaw rate:	1.949	Roll:	2.340	Pitch:	0.806	Yaw:	-15.752	Thrust:	100.000
Time:	4.279	Roll Set Point:	-0.122	Pitch Set Point:	-0.033	Yaw Set Point:	0.144	X_WP:	0.000	Y_WP:	0.000	Y_WP:	0.500	X:	0.062	Y:	0.012	Z:	0.051	yaw:	-8.275	yaw rate:	-5.034	Roll:	2.374	Pitch:	0.829	Yaw:	-14.842	Thrust:	100.000
Time:	4.299	Roll Set Point:	-0.122	Pitch Set Point:	-0.033	Yaw Set Point:	0.146	X_WP:	0.000	Y_WP:	0.000	Y_WP:	0.500	X:	0.062	Y:	0.012	Z:	0.051	yaw:	-8.347	yaw rate:	7.230	Roll:	2.340	Pitch:	0.888	Yaw:	-16.574	Thrust:	100.000
Time:	4.319	Roll Set Point:	-0.122	Pitch Set Point:	-0.033	Yaw Set Point:	0.145	X_WP:	0.000	Y_WP:	0.000	Y_WP:	0.500	X:	0.062	Y:	0.012	Z:	0.051	yaw:	-8.309	yaw rate:	-3.884	Roll:	2.364	Pitch:	0.771	Yaw:	-15.075	Thrust:	100.000
Time:	4.338	Roll Set Point:	-0.122	Pitch Set Point:	-0.033	Yaw Set Point:	0.145	X_WP:	0.000	Y_WP:	0.000	Y_WP:	0.500	X:	0.062	Y:	0.012	Z:	0.051	yaw:	-8.310	yaw rate:	0.129	Roll:	2.392	Pitch:	0.836	Yaw:	-15.509	Thrust:	100.000
Time:	4.359	Roll Set Point:	-0.122	Pitch Set Point:	-0.033	Yaw Set Point:	0.146	X_WP:	0.000	Y_WP:	0.000	Y_WP:	0.500	X:	0.062	Y:	0.012	Z:	0.051	yaw:	-8.356	yaw rate:	4.567	Roll:	2.353	Pitch:	0.892	Yaw:	-16.458	Thrust:	100.000
Time:	4.380	Roll Set Point:	-0.122	Pitch Set Point:	-0.033	Yaw Set Point:	0.146	X_WP:	0.000	Y_WP:	0.000	Y_WP:	0.500	X:	0.062	Y:	0.012	Z:	0.051	yaw:	-8.337	yaw rate:	-1.812	Roll:	2.404	Pitch:	0.823	Yaw:	-15.628	Thrust:	100.000
Time:	4.399	Roll Set Point:	-0.122	Pitch Set Point:	-0.033	Yaw Set Point:	0.145	X_WP:	0.000	Y_WP:	0.000	Y_WP:	0.500	X:	0.062	Y:	0.012	Z:	0.051	yaw:	-8.297	yaw rate:	-4.061	Roll:	2.369	Pitch:	0.774	Yaw:	-14.600	Thrust:	100.000
Time:	4.419	Roll Set Point:	-0.122	Pitch Set Point:	-0.033	Yaw Set Point:	0.145	X_WP:	0.000	Y_WP:	0.000	Y_WP:	0.500	X:	0.062	Y:	0.012	Z:	0.051	yaw:	-8.302	yaw rate:	0.550	Roll:	2.367	Pitch:	0.867	Yaw:	-15.795	Thrust:	100.000
Time:	4.440	Roll Set Point:	-0.122	Pitch Set Point:	-0.033	Yaw Set Point:	0.145	X_WP:	0.000	Y_WP:	0.000	Y_WP:	0.500	X:	0.062	Y:	0.012	Z:	0.052	yaw:	-8.319	yaw rate:	1.615	Roll:	2.375	Pitch:	0.959	Yaw:	-15.967	Thrust:	100.000
Time:	4.460	Roll Set Point:	-0.122	Pitch Set Point:	-0.033	Yaw Set Point:	0.146	X_WP:	0.000	Y_WP:	0.000	Y_WP:	0.500	X:	0.062	Y:	0.012	Z:	0.051	yaw:	-8.345	yaw rate:	2.655	Roll:	2.406	Pitch:	0.744	Yaw:	-15.869	Thrust:	100.000
Time:	4.479	Roll Set Point:	-0.122	Pitch Set Point:	-0.033	Yaw Set Point:	0.145	X_WP:	0.000	Y_WP:	0.000	Y_WP:	0.500	X:	0.062	Y:	0.012	Z:	0.051	yaw:	-8.325	yaw rate:	-1.982	Roll:	2.404	Pitch:	0.819	Yaw:	-15.386	Thrust:	100.000
Time:	4.499	Roll Set Point:	-0.122	Pitch Set Point:	-0.033	Yaw Set Point:	0.145	X_WP:	0.000	Y_WP:	0.000	Y_WP:	0.500	X:	0.062	Y:	0.012	Z:	0.051	yaw:	-8.329	yaw rate:	0.411	Roll:	2.392	Pitch:	0.837	Yaw:	-15.621	Thrust:	100.000
Time:	4.519	Roll Set Point:	-0.122	Pitch Set Point:	-0.033	Yaw Set Point:	0.146	X_WP:	0.000	Y_WP:	0.000	Y_WP:	0.500	X:	0.062	Y:	0.012	Z:	0.052	yaw:	-8.366	yaw rate:	3.705	Roll:	2.331	Pitch:	0.994	Yaw:	-16.227	Thrust:	100.000
Time:	4.539	Roll Set Point:	-0.122	Pitch Set Point:	-0.033	Yaw Set Point:	0.145	X_WP:	0.000	Y_WP:	0.000	Y_WP:	0.500	X:	0.062	Y:	0.012	Z:	0.051	yaw:	-8.317	yaw rate:	-4.918	Roll:	2.434	Pitch:	0.704	Yaw:	-14.961	Thrust:	100.000
Time:	4.559	Roll Set Point:	-0.122	Pitch Set Point:	-0.033	Yaw Set Point:	0.146	X_WP:	0.000	Y_WP:	0.000	Y_WP:	0.500	X:	0.062	Y:	0.012	Z:	0.052	yaw:	-8.378	yaw rate:	6.105	Roll:	2.369	Pitch:	1.009	Yaw:	-16.364	Thrust:	100.000
Time:	4.583	Roll Set Point:	-0.122	Pitch Set Point:	-0.033	Yaw Set Point:	0.145	X_WP:	0.000	Y_WP:	0.000	Y_WP:	0.500	X:	0.062	Y:	0.012	Z:	0.051	yaw:	-8.307	yaw rate:	-7.084	Roll:	2.509	Pitch:	0.741	Yaw:	-15.640	Thrust:	100.000
Time:	4.602	Roll Set Point:	-0.122	Pitch Set Point:	-0.033	Yaw Set Point:	0.146	X_WP:	0.000	Y_WP:	0.000	Y_WP:	0.500	X:	0.062	Y:	0.012	Z:	0.051	yaw:	-8.351	yaw rate:	4.355	Roll:	2.403	Pitch:	0.864	Yaw:	-16.057	Thrust:	100.000
Time:	4.620	Roll Set Point:	-0.122	Pitch Set Point:	-0.033	Yaw Set Point:	0.145	X_WP:	0.000	Y_WP:	0.000	Y_WP:	0.500	X:	0.062	Y:	0.012	Z:	0.051	yaw:	-8.313	yaw rate:	-3.799	Roll:	2.363	Pitch:	0.800	Yaw:	-14.685	Thrust:	100.000
Time:	4.641	Roll Set Point:	-0.122	Pitch Set Point:	-0.033	Yaw Set Point:	0.145	X_WP:	0.000	Y_WP:	0.000	Y_WP:	0.500	X:	0.062	Y:	0.012	Z:	0.051	yaw:	-8.308	yaw rate:	-0.518	Roll:	2.409	Pitch:	0.848	Yaw:	-15.625	Thrust:	100.000
Time:	4.661	Roll Set Point:	-0.122	Pitch Set Point:	-0.033	Yaw Set Point:	0.145	X_WP:	0.000	Y_WP:	0.000	Y_WP:	0.500	X:	0.062	Y:	0.012	Z:	0.051	yaw:	-8.326	yaw rate:	1.778	Roll:	2.449	Pitch:	0.856	Yaw:	-15.981	Thrust:	100.000
Time:	4.680	Roll Set Point:	-0.122	Pitch Set Point:	-0.033	Yaw Set Point:	0.146	X_WP:	0.000	Y_WP:	0.000	Y_WP:	0.500	X:	0.062	Y:	0.012	Z:	0.051	yaw:	-8.343	yaw rate:	1.765	Roll:	2.383	Pitch:	0.855	Yaw:	-15.631	Thrust:	100.000
Time:	4.699	Roll Set Point:	-0.122	Pitch Set Point:	-0.033	Yaw Set Point:	0.146	X_WP:	0.000	Y_WP:	0.000	Y_WP:	0.500	X:	0.062	Y:	0.012	Z:	0.051	yaw:	-8.344	yaw rate:	0.038	Roll:	2.408	Pitch:	0.857	Yaw:	-15.597	Thrust:	100.000
Time:	4.718	Roll Set Point:	-0.122	Pitch Set Point:	-0.033	Yaw Set Point:	0.144	X_WP:	0.000	Y_WP:	0.000	Y_WP:	0.500	X:	0.062	Y:	0.012	Z:	0.051	yaw:	-8.258	yaw rate:	-8.610	Roll:	2.417	Pitch:	0.787	Yaw:	-14.077	Thrust:	100.000
Time:	4.739	Roll Set Point:	-0.122	Pitch Set Point:	-0.033	Yaw Set Point:	0.146	X_WP:	0.000	Y_WP:	0.000	Y_WP:	0.500	X:	0.062	Y:	0.012	Z:	0.051	yaw:	-8.346	yaw rate:	8.812	Roll:	2.455	Pitch:	0.897	Yaw:	-16.980	Thrust:	100.000
Time:	4.763	Roll Set Point:	-0.122	Pitch Set Point:	-0.033	Yaw Set Point:	0.145	X_WP:	0.000	Y_WP:	0.000	Y_WP:	0.500	X:	0.062	Y:	0.012	Z:	0.051	yaw:	-8.287	yaw rate:	-5.853	Roll:	2.419	Pitch:	0.829	Yaw:	-15.731	Thrust:	100.000
Time:	4.779	Roll Set Point:	-0.122	Pitch Set Point:	-0.033	Yaw Set Point:	0.145	X_WP:	0.000	Y_WP:	0.000	Y_WP:	0.500	X:	0.062	Y:	0.012	Z:	0.051	yaw:	-8.297	yaw rate:	0.984	Roll:	2.424	Pitch:	0.865	Yaw:	-14.949	Thrust:	100.000
Time:	4.799	Roll Set Point:	-0.122	Pitch Set Point:	-0.033	Yaw Set Point:	0.145	X_WP:	0.000	Y_WP:	0.000	Y_WP:	0.500	X:	0.062	Y:	0.012	Z:	0.051	yaw:	-8.315	yaw rate:	1.831	Roll:	2.435	Pitch:	0.872	Yaw:	-15.835	Thrust:	100.000
Time:	4.820	Roll Set Point:	-0.122	Pitch Set Point:	-0.033	Yaw Set Point:	0.145	X_WP:	0.000	Y_WP:	0.000	Y_WP:	0.500	X:	0.062	Y:	0.012	Z:	0.051	yaw:	-8.303	yaw rate:	-1.272	Roll:	2.455	Pitch:	0.840	Yaw:	-15.455	Thrust:	100.000
Time:	4.839	Roll Set Point:	-0.122	Pitch Set Point:	-0.033	Yaw Set Point:	0.145	X_WP:	0.000	Y_WP:	0.000	Y_WP:	0.500	X:	0.062	Y:	0.012	Z:	0.051	yaw:	-8.283	yaw rate:	-1.975	Roll:	2.476	Pitch:	0.847	Yaw:	-15.319	Thrust:	100.000
Time:	4.861	Roll Set Point:	-0.122	Pitch Set Point:	-0.033	Yaw Set Point:	0.145	X_WP:	0.000	Y_WP:	0.000	Y_WP:	0.500	X:	0.062	Y:	0.012	Z:	0.051	yaw:	-8.307	yaw rate:	2.382	Roll:	2.434	Pitch:	0.889	Yaw:	-15.967	Thrust:	100.000
Time:	4.880	Roll Set Point:	-0.122	Pitch Set Point:	-0.033	Yaw Set Point:	0.146	X_WP:	0.000	Y_WP:	0.000	Y_WP:	0.500	X:	0.062	Y:	0.012	Z:	0.051	yaw:	-8.367	yaw rate:	6.076	Roll:	2.421	Pitch:	0.890	Yaw:	-16.488	Thrust:	100.000
Time:	4.899	Roll Set Point:	-0.122	Pitch Set Point:	-0.033	Yaw Set Point:	0.145	X_WP:	0.000	Y_WP:	0.000	Y_WP:	0.500	X:	0.062	Y:	0.012	Z:	0.051	yaw:	-8.312	yaw rate:	-5.556	Roll:	2.454	Pitch:	0.832	Yaw:	-14.826	Thrust:	100.000
Time:	4.919	Roll Set Point:	-0.122	Pitch Set Point:	-0.033	Yaw Set Point:	0.145	X_WP:	0.000	Y_WP:	0.000	Y_WP:	0.500	X:	0.062	Y:	0.012	Z:	0.051	yaw:	-8.289	yaw rate:	-2.243	Roll:	2.446	Pitch:	0.841	Yaw:	-15.262	Thrust:	100.000
Time:	4.939	Roll Set Point:	-0.122	Pitch Set Point:	-0.033	Yaw Set Point:	0.146	X_WP:	0.000	Y_WP:	0.000	Y_WP:	0.500	X:	0.062	Y:	0.012	Z:	0.051	yaw:	-8.357	yaw rate:	6.800	Roll:	2.493	Pitch:	0.899	Yaw:	-16.555	Thrust:	100.000
Time:	4.959	Roll Set Point:	-0.122	Pitch Set Point:	-0.033	Yaw Set Point:	0.145	X_WP:	0.000	Y_WP:	0.000	Y_WP:	0.500	X:	0.062	Y:	0.012	Z:	0.051	yaw:	-8.286	yaw rate:	-7.098	Roll:	2.424	Pitch:	0.797	Yaw:	-14.590	Thrust:	100.000
Time:	4.979	Roll Set Point:	-0.122	Pitch Set Point:	-0.033	Yaw Set Point:	0.145	X_WP:	0.000	Y_WP:	0.000	Y_WP:	0.500	X:	0.062	Y:	0.012	Z:	0.051	yaw:	-8.328	yaw rate:	4.129	Roll:	2.482	Pitch:	0.929	Yaw:	-16.177	Thrust:	100.000
Time:	4.999	Roll Set Point:	-0.122	Pitch Set Point:	-0.033	Yaw Set Point:	0.146	X_WP:	0.000	Y_WP:	0.000	Y_WP:	0.500	X:	0.062	Y:	0.012	Z:	0.051	yaw:	-8.353	yaw rate:	2.499	Roll:	2.441	Pitch:	0.873	Yaw:	-15.942	Thrust:	100.000
Time:	5.020	Roll Set Point:	-0.122	Pitch Set Point:	-0.033	Yaw Set Point:	0.145	X_WP:	0.000	Y_WP:	0.000	Y_WP:	0.500	X:	0.062	Y:	0.012	Z:	0.051	yaw:	-8.316	yaw rate:	-3.653	Roll:	2.473	Pitch:	0.842	Yaw:	-15.191	Thrust:	100.000
Time:	5.041	Roll Set Point:	-0.122	Pitch Set Point:	-0.033	Yaw Set Point:	0.145	X_WP:	0.000	Y_WP:	0.000	Y_WP:	0.500	X:	0.062	Y:	0.012	Z:	0.051	yaw:	-8.329	yaw rate:	1.321	Roll:	2.503	Pitch:	0.889	Yaw:	-16.115	Thrust:	100.000
Time:	5.063	Roll Set Point:	-0.122	Pitch Set Point:	-0.033	Yaw Set Point:	0.145	X_WP:	0.000	Y_WP:	0.000	Y_WP:	0.500	X:	0.062	Y:	0.012	Z:	0.051	yaw:	-8.320	yaw rate:	-0.978	Roll:	2.529	Pitch:	0.905	Yaw:	-15.957	Thrust:	100.000
Time:	5.081	Roll Set Point:	-0.122	Pitch Set Point:	-0.033	Yaw Set Point:	0.145	X_WP:	0.000	Y_WP:	0.000	Y_WP:	0.500	X:	0.062	Y:	0.012	Z:	0.051	yaw:	-8.328	yaw rate:	0.852	Roll:	2.438	Pitch:	0.846	Yaw:	-15.293	Thrust:	100.000
Time:	5.100	Roll Set Point:	-0.122	Pitch Set Point:	-0.033	Yaw Set Point:	0.145	X_WP:	0.000	Y_WP:	0.000	Y_WP:	0.500	X:	0.062	Y:	0.012	Z:	0.051	yaw:	-8.327	yaw rate:	-0.150	Roll:	2.462	Pitch:	0.851	Yaw:	-15.523	Thrust:	100.000
Time:	5.119	Roll Set Point:	-0.122	Pitch Set Point:	-0.033	Yaw Set Point:	0.145	X_WP:	0.000	Y_WP:	0.000	Y_WP:	0.500	X:	0.062	Y:	0.012	Z:	0.051	yaw:	-8.303	yaw rate:	-2.329	Roll:	2.470	Pitch:	0.862	Yaw:	-15.125	Thrust:	100.000
Time:	5.142	Roll Set Point:	-0.122	Pitch Set Point:	-0.033	Yaw Set Point:	0.146	X_WP:	0.000	Y_WP:	0.000	Y_WP:	0.500	X:	0.062	Y:	0.012	Z:	0.051	yaw:	-8.373	yaw rate:	6.986	Roll:	2.466	Pitch:	0.926	Yaw:	-16.884	Thrust:	100.000
Time:	5.160	Roll Set Point:	-0.122	Pitch Set Point:	-0.033	Yaw Set Point:	0.145	X_WP:	0.000	Y_WP:	0.000	Y_WP:	0.500	X:	0.062	Y:	0.012	Z:	0.051	yaw:	-8.305	yaw rate:	-6.822	Roll:	2.521	Pitch:	0.832	Yaw:	-14.504	Thrust:	100.000
Time:	5.189	Roll Set Point:	-0.122	Pitch Set Point:	-0.033	Yaw Set Point:	0.145	X_WP:	0.000	Y_WP:	0.000	Y_WP:	0.500	X:	0.062	Y:	0.012	Z:	0.051	yaw:	-8.326	yaw rate:	2.075	Roll:	2.703	Pitch:	0.977	Yaw:	-17.316	Thrust:	100.000
Time:	5.202	Roll Set Point:	-0.122	Pitch Set Point:	-0.033	Yaw Set Point:	0.145	X_WP:	0.000	Y_WP:	0.000	Y_WP:	0.500	X:	0.062	Y:	0.012	Z:	0.051	yaw:	-8.306	yaw rate:	-1.929	Roll:	2.350	Pitch:	0.784	Yaw:	-14.137	Thrust:	100.000
Time:	5.220	Roll Set Point:	-0.122	Pitch Set Point:	-0.033	Yaw Set Point:	0.145	X_WP:	0.000	Y_WP:	0.000	Y_WP:	0.500	X:	0.062	Y:	0.012	Z:	0.051	yaw:	-8.304	yaw rate:	-0.275	Roll:	2.371	Pitch:	0.859	Yaw:	-15.122	Thrust:	100.000
Time:	5.244	Roll Set Point:	-0.122	Pitch Set Point:	-0.033	Yaw Set Point:	0.146	X_WP:	0.000	Y_WP:	0.000	Y_WP:	0.500	X:	0.062	Y:	0.012	Z:	0.051	yaw:	-8.337	yaw rate:	3.325	Roll:	2.476	Pitch:	0.901	Yaw:	-16.401	Thrust:	100.000
Time:	5.263	Roll Set Point:	-0.122	Pitch Set Point:	-0.033	Yaw Set Point:	0.146	X_WP:	0.000	Y_WP:	0.000	Y_WP:	0.500	X:	0.062	Y:	0.012	Z:	0.051	yaw:	-8.337	yaw rate:	0.049	Roll:	2.555	Pitch:	0.902	Yaw:	-15.922	Thrust:	100.000
Time:	5.280	Roll Set Point:	-0.122	Pitch Set Point:	-0.033	Yaw Set Point:	0.146	X_WP:	0.000	Y_WP:	0.000	Y_WP:	0.500	X:	0.062	Y:	0.012	Z:	0.051	yaw:	-8.340	yaw rate:	0.270	Roll:	2.415	Pitch:	0.861	Yaw:	-15.025	Thrust:	100.000
Time:	5.301	Roll Set Point:	-0.122	Pitch Set Point:	-0.033	Yaw Set Point:	0.145	X_WP:	0.000	Y_WP:	0.000	Y_WP:	0.500	X:	0.062	Y:	0.012	Z:	0.051	yaw:	-8.297	yaw rate:	-4.336	Roll:	2.481	Pitch:	0.863	Yaw:	-15.213	Thrust:	100.000
Time:	5.332	Roll Set Point:	-0.122	Pitch Set Point:	-0.033	Yaw Set Point:	0.145	X_WP:	0.000	Y_WP:	0.000	Y_WP:	0.500	X:	0.062	Y:	0.012	Z:	0.051	yaw:	-8.317	yaw rate:	1.994	Roll:	2.491	Pitch:	0.883	Yaw:	-17.839	Thrust:	100.000
Time:	5.344	Roll Set Point:	-0.122	Pitch Set Point:	-0.033	Yaw Set Point:	0.145	X_WP:	0.000	Y_WP:	0.000	Y_WP:	0.500	X:	0.062	Y:	0.012	Z:	0.051	yaw:	-8.302	yaw rate:	-1.500	Roll:	2.606	Pitch:	0.914	Yaw:	-13.783	Thrust:	100.000
