Time:	0.046	Roll Set Point:	-0.028	Pitch Set Point:	-0.011	Yaw Set Point:	-0.058	X_WP:	0.000	Y_WP:	0.000	Y_WP:	0.500	X:	0.014	Y:	0.006	Z:	0.052	yaw:	3.329	yaw rate:	15.646	Roll:	0.417	Pitch:	0.154	Yaw:	4.648	Thrust:	24.637
Time:	0.067	Roll Set Point:	-0.028	Pitch Set Point:	-0.012	Yaw Set Point:	-0.061	X_WP:	0.000	Y_WP:	0.000	Y_WP:	0.500	X:	0.014	Y:	0.006	Z:	0.052	yaw:	3.503	yaw rate:	-17.442	Roll:	0.403	Pitch:	0.188	Yaw:	7.138	Thrust:	25.706
Time:	0.088	Roll Set Point:	-0.028	Pitch Set Point:	-0.011	Yaw Set Point:	-0.059	X_WP:	0.000	Y_WP:	0.000	Y_WP:	0.500	X:	0.014	Y:	0.006	Z:	0.052	yaw:	3.406	yaw rate:	9.749	Roll:	0.445	Pitch:	0.098	Yaw:	3.596	Thrust:	27.010
Time:	0.106	Roll Set Point:	-0.028	Pitch Set Point:	-0.012	Yaw Set Point:	-0.048	X_WP:	0.000	Y_WP:	0.000	Y_WP:	0.500	X:	0.014	Y:	0.006	Z:	0.052	yaw:	2.770	yaw rate:	63.548	Roll:	0.107	Pitch:	0.522	Yaw:	-5.279	Thrust:	27.638
Time:	0.127	Roll Set Point:	-0.028	Pitch Set Point:	-0.012	Yaw Set Point:	-0.059	X_WP:	0.000	Y_WP:	0.000	Y_WP:	0.500	X:	0.014	Y:	0.006	Z:	0.052	yaw:	3.371	yaw rate:	-60.042	Roll:	0.662	Pitch:	-0.076	Yaw:	12.058	Thrust:	29.454
Time:	0.149	Roll Set Point:	-0.028	Pitch Set Point:	-0.012	Yaw Set Point:	-0.063	X_WP:	0.000	Y_WP:	0.000	Y_WP:	0.500	X:	0.014	Y:	0.006	Z:	0.052	yaw:	3.619	yaw rate:	-24.862	Roll:	0.415	Pitch:	0.159	Yaw:	8.483	Thrust:	29.607
Time:	0.167	Roll Set Point:	-0.028	Pitch Set Point:	-0.012	Yaw Set Point:	-0.058	X_WP:	0.000	Y_WP:	0.000	Y_WP:	0.500	X:	0.014	Y:	0.006	Z:	0.052	yaw:	3.340	yaw rate:	27.953	Roll:	0.406	Pitch:	0.164	Yaw:	1.042	Thrust:	31.049
Time:	0.189	Roll Set Point:	-0.028	Pitch Set Point:	-0.012	Yaw Set Point:	-0.060	X_WP:	0.000	Y_WP:	0.000	Y_WP:	0.500	X:	0.014	Y:	0.006	Z:	0.052	yaw:	3.426	yaw rate:	-8.582	Roll:	0.406	Pitch:	0.135	Yaw:	5.978	Thrust:	32.964
Time:	0.206	Roll Set Point:	-0.028	Pitch Set Point:	-0.012	Yaw Set Point:	-0.053	X_WP:	0.000	Y_WP:	0.000	Y_WP:	0.500	X:	0.014	Y:	0.006	Z:	0.052	yaw:	3.024	yaw rate:	40.206	Roll:	0.406	Pitch:	0.393	Yaw:	-1.788	Thrust:	31.753
Time:	0.227	Roll Set Point:	-0.028	Pitch Set Point:	-0.012	Yaw Set Point:	-0.048	X_WP:	0.000	Y_WP:	0.000	Y_WP:	0.500	X:	0.014	Y:	0.006	Z:	0.052	yaw:	2.754	yaw rate:	26.972	Roll:	0.481	Pitch:	0.101	Yaw:	0.671	Thrust:	35.356
Time:	0.246	Roll Set Point:	-0.028	Pitch Set Point:	-0.011	Yaw Set Point:	-0.053	X_WP:	0.000	Y_WP:	0.000	Y_WP:	0.500	X:	0.014	Y:	0.006	Z:	0.052	yaw:	3.018	yaw rate:	-26.413	Roll:	0.435	Pitch:	0.037	Yaw:	7.971	Thrust:	34.758
Time:	0.268	Roll Set Point:	-0.028	Pitch Set Point:	-0.012	Yaw Set Point:	-0.051	X_WP:	0.000	Y_WP:	0.000	Y_WP:	0.500	X:	0.014	Y:	0.006	Z:	0.052	yaw:	2.943	yaw rate:	7.517	Roll:	0.341	Pitch:	0.324	Yaw:	3.497	Thrust:	37.917
Time:	0.286	Roll Set Point:	-0.029	Pitch Set Point:	-0.012	Yaw Set Point:	-0.058	X_WP:	0.000	Y_WP:	0.000	Y_WP:	0.500	X:	0.014	Y:	0.006	Z:	0.052	yaw:	3.315	yaw rate:	-37.217	Roll:	0.573	Pitch:	0.038	Yaw:	10.416	Thrust:	35.419
Time:	0.306	Roll Set Point:	-0.029	Pitch Set Point:	-0.010	Yaw Set Point:	-0.072	X_WP:	0.000	Y_WP:	0.000	Y_WP:	0.500	X:	0.014	Y:	0.006	Z:	0.052	yaw:	4.124	yaw rate:	-80.877	Roll:	0.734	Pitch:	-0.465	Yaw:	16.599	Thrust:	39.548
Time:	0.328	Roll Set Point:	-0.029	Pitch Set Point:	-0.011	Yaw Set Point:	-0.057	X_WP:	0.000	Y_WP:	0.000	Y_WP:	0.500	X:	0.014	Y:	0.006	Z:	0.052	yaw:	3.253	yaw rate:	87.065	Roll:	0.426	Pitch:	0.544	Yaw:	-5.253	Thrust:	41.240
Time:	0.346	Roll Set Point:	-0.029	Pitch Set Point:	-0.011	Yaw Set Point:	-0.070	X_WP:	0.000	Y_WP:	0.000	Y_WP:	0.500	X:	0.015	Y:	0.006	Z:	0.052	yaw:	3.999	yaw rate:	-74.576	Roll:	0.598	Pitch:	-0.086	Yaw:	16.828	Thrust:	38.769
Time:	0.367	Roll Set Point:	-0.029	Pitch Set Point:	-0.011	Yaw Set Point:	-0.060	X_WP:	0.000	Y_WP:	0.000	Y_WP:	0.500	X:	0.015	Y:	0.006	Z:	0.052	yaw:	3.409	yaw rate:	58.950	Roll:	0.414	Pitch:	0.373	Yaw:	-2.389	Thrust:	42.384
Time:	0.388	Roll Set Point:	-0.030	Pitch Set Point:	-0.011	Yaw Set Point:	-0.058	X_WP:	0.000	Y_WP:	0.000	Y_WP:	0.500	X:	0.015	Y:	0.006	Z:	0.052	yaw:	3.331	yaw rate:	7.846	Roll:	0.633	Pitch:	-0.008	Yaw:	4.127	Thrust:	44.769
Time:	0.406	Roll Set Point:	-0.030	Pitch Set Point:	-0.011	Yaw Set Point:	-0.069	X_WP:	0.000	Y_WP:	0.000	Y_WP:	0.500	X:	0.015	Y:	0.006	Z:	0.052	yaw:	3.937	yaw rate:	-60.549	Roll:	0.363	Pitch:	0.064	Yaw:	14.889	Thrust:	40.903
Time:	0.428	Roll Set Point:	-0.031	Pitch Set Point:	-0.010	Yaw Set Point:	-0.074	X_WP:	0.000	Y_WP:	0.000	Y_WP:	0.500	X:	0.015	Y:	0.006	Z:	0.052	yaw:	4.218	yaw rate:	-28.120	Roll:	0.861	Pitch:	-0.108	Yaw:	9.708	Thrust:	47.965
Time:	0.446	Roll Set Point:	-0.030	Pitch Set Point:	-0.011	Yaw Set Point:	-0.058	X_WP:	0.000	Y_WP:	0.000	Y_WP:	0.500	X:	0.015	Y:	0.006	Z:	0.052	yaw:	3.331	yaw rate:	88.647	Roll:	0.271	Pitch:	0.554	Yaw:	-7.728	Thrust:	44.179
Time:	0.466	Roll Set Point:	-0.030	Pitch Set Point:	-0.011	Yaw Set Point:	-0.063	X_WP:	0.000	Y_WP:	0.000	Y_WP:	0.500	X:	0.015	Y:	0.006	Z:	0.052	yaw:	3.596	yaw rate:	-26.506	Roll:	0.408	Pitch:	0.043	Yaw:	8.978	Thrust:	46.595
Time:	0.487	Roll Set Point:	-0.030	Pitch Set Point:	-0.010	Yaw Set Point:	-0.074	X_WP:	0.000	Y_WP:	0.000	Y_WP:	0.500	X:	0.015	Y:	0.006	Z:	0.052	yaw:	4.214	yaw rate:	-61.753	Roll:	0.543	Pitch:	-0.106	Yaw:	14.310	Thrust:	49.404
Time:	0.509	Roll Set Point:	-0.030	Pitch Set Point:	-0.011	Yaw Set Point:	-0.066	X_WP:	0.000	Y_WP:	0.000	Y_WP:	0.500	X:	0.015	Y:	0.006	Z:	0.052	yaw:	3.769	yaw rate:	44.501	Roll:	0.311	Pitch:	0.283	Yaw:	0.456	Thrust:	51.260
Time:	0.527	Roll Set Point:	-0.029	Pitch Set Point:	-0.011	Yaw Set Point:	-0.060	X_WP:	0.000	Y_WP:	0.000	Y_WP:	0.500	X:	0.014	Y:	0.006	Z:	0.052	yaw:	3.423	yaw rate:	34.549	Roll:	-0.039	Pitch:	0.454	Yaw:	0.413	Thrust:	47.919
Time:	0.547	Roll Set Point:	-0.029	Pitch Set Point:	-0.011	Yaw Set Point:	-0.069	X_WP:	0.000	Y_WP:	0.000	Y_WP:	0.500	X:	0.014	Y:	0.006	Z:	0.052	yaw:	3.964	yaw rate:	-54.081	Roll:	0.541	Pitch:	-0.001	Yaw:	13.582	Thrust:	50.272
Time:	0.568	Roll Set Point:	-0.030	Pitch Set Point:	-0.011	Yaw Set Point:	-0.066	X_WP:	0.000	Y_WP:	0.000	Y_WP:	0.500	X:	0.015	Y:	0.006	Z:	0.052	yaw:	3.806	yaw rate:	15.844	Roll:	0.589	Pitch:	0.152	Yaw:	4.172	Thrust:	55.989
Time:	0.587	Roll Set Point:	-0.029	Pitch Set Point:	-0.011	Yaw Set Point:	-0.057	X_WP:	0.000	Y_WP:	0.000	Y_WP:	0.500	X:	0.014	Y:	0.006	Z:	0.052	yaw:	3.276	yaw rate:	52.931	Roll:	0.309	Pitch:	0.345	Yaw:	-2.069	Thrust:	52.407
Time:	0.608	Roll Set Point:	-0.030	Pitch Set Point:	-0.011	Yaw Set Point:	-0.057	X_WP:	0.000	Y_WP:	0.000	Y_WP:	0.500	X:	0.015	Y:	0.006	Z:	0.052	yaw:	3.287	yaw rate:	-1.025	Roll:	0.531	Pitch:	0.079	Yaw:	5.425	Thrust:	55.742
Time:	0.628	Roll Set Point:	-0.030	Pitch Set Point:	-0.011	Yaw Set Point:	-0.068	X_WP:	0.000	Y_WP:	0.000	Y_WP:	0.500	X:	0.015	Y:	0.006	Z:	0.052	yaw:	3.883	yaw rate:	-59.668	Roll:	0.548	Pitch:	-0.136	Yaw:	14.031	Thrust:	54.395
Time:	0.646	Roll Set Point:	-0.029	Pitch Set Point:	-0.011	Yaw Set Point:	-0.061	X_WP:	0.000	Y_WP:	0.000	Y_WP:	0.500	X:	0.015	Y:	0.006	Z:	0.052	yaw:	3.505	yaw rate:	37.857	Roll:	0.348	Pitch:	0.344	Yaw:	0.139	Thrust:	54.591
Time:	0.666	Roll Set Point:	-0.029	Pitch Set Point:	-0.011	Yaw Set Point:	-0.047	X_WP:	0.000	Y_WP:	0.000	Y_WP:	0.500	X:	0.014	Y:	0.006	Z:	0.052	yaw:	2.719	yaw rate:	78.602	Roll:	0.308	Pitch:	0.361	Yaw:	-5.699	Thrust:	58.029
Time:	0.687	Roll Set Point:	-0.029	Pitch Set Point:	-0.011	Yaw Set Point:	-0.055	X_WP:	0.000	Y_WP:	0.000	Y_WP:	0.500	X:	0.014	Y:	0.006	Z:	0.053	yaw:	3.155	yaw rate:	-43.589	Roll:	0.403	Pitch:	0.080	Yaw:	10.620	Thrust:	60.231
Time:	0.706	Roll Set Point:	-0.029	Pitch Set Point:	-0.011	Yaw Set Point:	-0.045	X_WP:	0.000	Y_WP:	0.000	Y_WP:	0.500	X:	0.014	Y:	0.006	Z:	0.053	yaw:	2.561	yaw rate:	59.405	Roll:	0.253	Pitch:	0.347	Yaw:	-4.062	Thrust:	56.847
Time:	0.726	Roll Set Point:	-0.028	Pitch Set Point:	-0.012	Yaw Set Point:	-0.034	X_WP:	0.000	Y_WP:	0.000	Y_WP:	0.500	X:	0.014	Y:	0.006	Z:	0.054	yaw:	1.959	yaw rate:	60.112	Roll:	0.088	Pitch:	0.496	Yaw:	-4.194	Thrust:	60.035
Time:	0.747	Roll Set Point:	-0.027	Pitch Set Point:	-0.012	Yaw Set Point:	-0.036	X_WP:	0.000	Y_WP:	0.000	Y_WP:	0.500	X:	0.014	Y:	0.006	Z:	0.055	yaw:	2.038	yaw rate:	-7.830	Roll:	0.249	Pitch:	0.223	Yaw:	4.690	Thrust:	61.495
Time:	0.769	Roll Set Point:	-0.027	Pitch Set Point:	-0.013	Yaw Set Point:	-0.033	X_WP:	0.000	Y_WP:	0.000	Y_WP:	0.500	X:	0.013	Y:	0.006	Z:	0.057	yaw:	1.900	yaw rate:	13.755	Roll:	0.182	Pitch:	0.400	Yaw:	1.867	Thrust:	61.566
Time:	0.789	Roll Set Point:	-0.026	Pitch Set Point:	-0.013	Yaw Set Point:	-0.021	X_WP:	0.000	Y_WP:	0.000	Y_WP:	0.500	X:	0.013	Y:	0.007	Z:	0.059	yaw:	1.199	yaw rate:	70.153	Roll:	-0.111	Pitch:	0.626	Yaw:	-6.875	Thrust:	57.797
Time:	0.806	Roll Set Point:	-0.025	Pitch Set Point:	-0.013	Yaw Set Point:	-0.033	X_WP:	0.000	Y_WP:	0.000	Y_WP:	0.500	X:	0.012	Y:	0.007	Z:	0.062	yaw:	1.905	yaw rate:	-70.592	Roll:	0.033	Pitch:	0.032	Yaw:	13.854	Thrust:	53.309
Time:	0.826	Roll Set Point:	-0.024	Pitch Set Point:	-0.014	Yaw Set Point:	-0.034	X_WP:	0.000	Y_WP:	0.000	Y_WP:	0.500	X:	0.012	Y:	0.007	Z:	0.065	yaw:	1.959	yaw rate:	-5.487	Roll:	-0.177	Pitch:	0.447	Yaw:	4.333	Thrust:	59.156
Time:	0.846	Roll Set Point:	-0.022	Pitch Set Point:	-0.014	Yaw Set Point:	-0.013	X_WP:	0.000	Y_WP:	0.000	Y_WP:	0.500	X:	0.011	Y:	0.007	Z:	0.070	yaw:	0.768	yaw rate:	119.105	Roll:	-0.472	Pitch:	0.406	Yaw:	-14.176	Thrust:	55.156
Time:	0.866	Roll Set Point:	-0.020	Pitch Set Point:	-0.015	Yaw Set Point:	-0.010	X_WP:	0.000	Y_WP:	0.000	Y_WP:	0.500	X:	0.010	Y:	0.007	Z:	0.074	yaw:	0.599	yaw rate:	16.925	Roll:	-0.529	Pitch:	0.529	Yaw:	-0.341	Thrust:	59.286
Time:	0.888	Roll Set Point:	-0.018	Pitch Set Point:	-0.014	Yaw Set Point:	-0.010	X_WP:	0.000	Y_WP:	0.000	Y_WP:	0.500	X:	0.009	Y:	0.007	Z:	0.079	yaw:	0.557	yaw rate:	4.184	Roll:	-0.332	Pitch:	0.124	Yaw:	1.174	Thrust:	58.145
Time:	0.906	Roll Set Point:	-0.016	Pitch Set Point:	-0.014	Yaw Set Point:	-0.005	X_WP:	0.000	Y_WP:	0.000	Y_WP:	0.500	X:	0.008	Y:	0.007	Z:	0.085	yaw:	0.300	yaw rate:	25.773	Roll:	-0.840	Pitch:	0.005	Yaw:	-2.270	Thrust:	54.332
Time:	0.928	Roll Set Point:	-0.014	Pitch Set Point:	-0.014	Yaw Set Point:	-0.004	X_WP:	0.000	Y_WP:	0.000	Y_WP:	0.500	X:	0.007	Y:	0.007	Z:	0.090	yaw:	0.222	yaw rate:	7.753	Roll:	-0.483	Pitch:	0.110	Yaw:	0.381	Thrust:	62.591
Time:	0.946	Roll Set Point:	-0.012	Pitch Set Point:	-0.013	Yaw Set Point:	0.011	X_WP:	0.000	Y_WP:	0.000	Y_WP:	0.500	X:	0.006	Y:	0.007	Z:	0.096	yaw:	-0.638	yaw rate:	85.995	Roll:	-0.846	Pitch:	0.144	Yaw:	-12.494	Thrust:	50.468
Time:	0.969	Roll Set Point:	-0.010	Pitch Set Point:	-0.013	Yaw Set Point:	0.010	X_WP:	0.000	Y_WP:	0.000	Y_WP:	0.500	X:	0.005	Y:	0.006	Z:	0.103	yaw:	-0.555	yaw rate:	-8.242	Roll:	-0.476	Pitch:	-0.092	Yaw:	1.201	Thrust:	66.016
Time:	0.988	Roll Set Point:	-0.008	Pitch Set Point:	-0.012	Yaw Set Point:	0.011	X_WP:	0.000	Y_WP:	0.000	Y_WP:	0.500	X:	0.004	Y:	0.006	Z:	0.109	yaw:	-0.633	yaw rate:	7.729	Roll:	-0.666	Pitch:	-0.265	Yaw:	-1.088	Thrust:	53.667
Time:	1.006	Roll Set Point:	-0.006	Pitch Set Point:	-0.011	Yaw Set Point:	0.008	X_WP:	0.000	Y_WP:	0.000	Y_WP:	0.500	X:	0.003	Y:	0.006	Z:	0.115	yaw:	-0.448	yaw rate:	-18.464	Roll:	-0.916	Pitch:	-0.028	Yaw:	2.857	Thrust:	51.226
Time:	1.027	Roll Set Point:	-0.004	Pitch Set Point:	-0.011	Yaw Set Point:	0.002	X_WP:	0.000	Y_WP:	0.000	Y_WP:	0.500	X:	0.002	Y:	0.005	Z:	0.122	yaw:	-0.129	yaw rate:	-31.950	Roll:	-0.593	Pitch:	-0.129	Yaw:	4.883	Thrust:	58.240
Time:	1.046	Roll Set Point:	-0.002	Pitch Set Point:	-0.010	Yaw Set Point:	0.011	X_WP:	0.000	Y_WP:	0.000	Y_WP:	0.500	X:	0.001	Y:	0.005	Z:	0.129	yaw:	-0.642	yaw rate:	51.301	Roll:	-0.962	Pitch:	-0.113	Yaw:	-6.839	Thrust:	57.132
Time:	1.067	Roll Set Point:	-0.000	Pitch Set Point:	-0.008	Yaw Set Point:	0.009	X_WP:	0.000	Y_WP:	0.000	Y_WP:	0.500	X:	0.000	Y:	0.004	Z:	0.135	yaw:	-0.490	yaw rate:	-15.117	Roll:	-0.779	Pitch:	-0.562	Yaw:	2.111	Thrust:	61.565
Time:	1.088	Roll Set Point:	0.002	Pitch Set Point:	-0.008	Yaw Set Point:	0.012	X_WP:	0.000	Y_WP:	0.000	Y_WP:	0.500	X:	-0.001	Y:	0.004	Z:	0.141	yaw:	-0.688	yaw rate:	19.721	Roll:	-0.766	Pitch:	-0.144	Yaw:	-2.681	Thrust:	61.921
Time:	1.106	Roll Set Point:	0.004	Pitch Set Point:	-0.007	Yaw Set Point:	0.006	X_WP:	0.000	Y_WP:	0.000	Y_WP:	0.500	X:	-0.002	Y:	0.003	Z:	0.148	yaw:	-0.360	yaw rate:	-32.759	Roll:	-0.830	Pitch:	-0.274	Yaw:	4.957	Thrust:	54.809
Time:	1.129	Roll Set Point:	0.006	Pitch Set Point:	-0.005	Yaw Set Point:	0.006	X_WP:	0.000	Y_WP:	0.000	Y_WP:	0.500	X:	-0.003	Y:	0.003	Z:	0.154	yaw:	-0.358	yaw rate:	-0.225	Roll:	-0.856	Pitch:	-0.361	Yaw:	0.523	Thrust:	70.506
Time:	1.147	Roll Set Point:	0.007	Pitch Set Point:	-0.004	Yaw Set Point:	0.012	X_WP:	0.000	Y_WP:	0.000	Y_WP:	0.500	X:	-0.004	Y:	0.002	Z:	0.160	yaw:	-0.675	yaw rate:	31.754	Roll:	-0.837	Pitch:	-0.517	Yaw:	-4.544	Thrust:	57.211
Time:	1.166	Roll Set Point:	0.009	Pitch Set Point:	-0.003	Yaw Set Point:	0.009	X_WP:	0.000	Y_WP:	0.000	Y_WP:	0.500	X:	-0.005	Y:	0.002	Z:	0.167	yaw:	-0.489	yaw rate:	-18.677	Roll:	-0.965	Pitch:	-0.331	Yaw:	2.729	Thrust:	57.617
Time:	1.190	Roll Set Point:	0.011	Pitch Set Point:	-0.002	Yaw Set Point:	0.006	X_WP:	0.000	Y_WP:	0.000	Y_WP:	0.500	X:	-0.006	Y:	0.001	Z:	0.173	yaw:	-0.344	yaw rate:	-14.439	Roll:	-0.841	Pitch:	-0.332	Yaw:	2.143	Thrust:	71.390
Time:	1.206	Roll Set Point:	0.013	Pitch Set Point:	-0.001	Yaw Set Point:	0.013	X_WP:	0.000	Y_WP:	0.000	Y_WP:	0.500	X:	-0.006	Y:	0.000	Z:	0.180	yaw:	-0.722	yaw rate:	37.772	Roll:	-0.960	Pitch:	-0.723	Yaw:	-6.297	Thrust:	52.308
Time:	1.232	Roll Set Point:	0.015	Pitch Set Point:	-0.001	Yaw Set Point:	-0.012	X_WP:	0.000	Y_WP:	0.000	Y_WP:	0.500	X:	-0.008	Y:	0.000	Z:	0.187	yaw:	0.697	yaw rate:	-141.869	Roll:	-0.873	Pitch:	0.004	Yaw:	16.305	Thrust:	83.681
Time:	1.246	Roll Set Point:	0.016	Pitch Set Point:	0.002	Yaw Set Point:	0.008	X_WP:	0.000	Y_WP:	0.000	Y_WP:	0.500	X:	-0.008	Y:	-0.001	Z:	0.194	yaw:	-0.483	yaw rate:	117.947	Roll:	-1.117	Pitch:	-1.398	Yaw:	-22.399	Thrust:	36.049
Time:	1.267	Roll Set Point:	0.018	Pitch Set Point:	0.003	Yaw Set Point:	-0.001	X_WP:	0.000	Y_WP:	0.000	Y_WP:	0.500	X:	-0.009	Y:	-0.002	Z:	0.202	yaw:	0.057	yaw rate:	-53.969	Roll:	-0.878	Pitch:	-0.764	Yaw:	7.902	Thrust:	61.582
Time:	1.287	Roll Set Point:	0.019	Pitch Set Point:	0.004	Yaw Set Point:	-0.001	X_WP:	0.000	Y_WP:	0.000	Y_WP:	0.500	X:	-0.010	Y:	-0.002	Z:	0.209	yaw:	0.058	yaw rate:	-0.141	Roll:	-0.774	Pitch:	-0.462	Yaw:	0.984	Thrust:	59.464
Time:	1.306	Roll Set Point:	0.021	Pitch Set Point:	0.005	Yaw Set Point:	0.005	X_WP:	0.000	Y_WP:	0.000	Y_WP:	0.500	X:	-0.010	Y:	-0.003	Z:	0.218	yaw:	-0.288	yaw rate:	34.681	Roll:	-1.007	Pitch:	-0.560	Yaw:	-4.481	Thrust:	57.891
Time:	1.328	Roll Set Point:	0.022	Pitch Set Point:	0.007	Yaw Set Point:	-0.005	X_WP:	0.000	Y_WP:	0.000	Y_WP:	0.500	X:	-0.011	Y:	-0.003	Z:	0.226	yaw:	0.278	yaw rate:	-56.683	Roll:	-0.757	Pitch:	-0.613	Yaw:	7.924	Thrust:	69.726
Time:	1.345	Roll Set Point:	0.024	Pitch Set Point:	0.008	Yaw Set Point:	0.003	X_WP:	0.000	Y_WP:	0.000	Y_WP:	0.500	X:	-0.012	Y:	-0.004	Z:	0.235	yaw:	-0.157	yaw rate:	43.583	Roll:	-1.017	Pitch:	-0.620	Yaw:	-6.179	Thrust:	45.573
Time:	1.366	Roll Set Point:	0.024	Pitch Set Point:	0.009	Yaw Set Point:	-0.006	X_WP:	0.000	Y_WP:	0.000	Y_WP:	0.500	X:	-0.012	Y:	-0.005	Z:	0.244	yaw:	0.357	yaw rate:	-51.487	Roll:	-0.602	Pitch:	-0.736	Yaw:	7.840	Thrust:	62.661
Time:	1.388	Roll Set Point:	0.026	Pitch Set Point:	0.011	Yaw Set Point:	-0.002	X_WP:	0.000	Y_WP:	0.000	Y_WP:	0.500	X:	-0.013	Y:	-0.005	Z:	0.254	yaw:	0.112	yaw rate:	24.574	Roll:	-0.976	Pitch:	-0.717	Yaw:	-1.966	Thrust:	63.417
Time:	1.406	Roll Set Point:	0.027	Pitch Set Point:	0.012	Yaw Set Point:	-0.001	X_WP:	0.000	Y_WP:	0.000	Y_WP:	0.500	X:	-0.013	Y:	-0.006	Z:	0.263	yaw:	0.075	yaw rate:	3.693	Roll:	-0.873	Pitch:	-0.653	Yaw:	0.348	Thrust:	49.448
Time:	1.429	Roll Set Point:	0.028	Pitch Set Point:	0.013	Yaw Set Point:	-0.005	X_WP:	0.000	Y_WP:	0.000	Y_WP:	0.500	X:	-0.014	Y:	-0.007	Z:	0.272	yaw:	0.300	yaw rate:	-22.567	Roll:	-0.644	Pitch:	-0.648	Yaw:	3.964	Thrust:	72.606
Time:	1.446	Roll Set Point:	0.029	Pitch Set Point:	0.014	Yaw Set Point:	0.004	X_WP:	0.000	Y_WP:	0.000	Y_WP:	0.500	X:	-0.015	Y:	-0.007	Z:	0.282	yaw:	-0.231	yaw rate:	53.130	Roll:	-1.051	Pitch:	-0.889	Yaw:	-7.918	Thrust:	42.870
Time:	1.466	Roll Set Point:	0.030	Pitch Set Point:	0.015	Yaw Set Point:	0.015	X_WP:	0.000	Y_WP:	0.000	Y_WP:	0.500	X:	-0.015	Y:	-0.008	Z:	0.291	yaw:	-0.864	yaw rate:	63.324	Roll:	-0.912	Pitch:	-0.713	Yaw:	-8.602	Thrust:	58.972
Time:	1.486	Roll Set Point:	0.031	Pitch Set Point:	0.017	Yaw Set Point:	-0.005	X_WP:	0.000	Y_WP:	0.000	Y_WP:	0.500	X:	-0.015	Y:	-0.008	Z:	0.300	yaw:	0.293	yaw rate:	-115.691	Roll:	-0.718	Pitch:	-0.661	Yaw:	16.341	Thrust:	58.640
Time:	1.506	Roll Set Point:	0.032	Pitch Set Point:	0.018	Yaw Set Point:	-0.007	X_WP:	0.000	Y_WP:	0.000	Y_WP:	0.500	X:	-0.016	Y:	-0.009	Z:	0.310	yaw:	0.379	yaw rate:	-8.594	Roll:	-0.928	Pitch:	-0.584	Yaw:	2.512	Thrust:	58.036
Time:	1.526	Roll Set Point:	0.033	Pitch Set Point:	0.019	Yaw Set Point:	0.002	X_WP:	0.000	Y_WP:	0.000	Y_WP:	0.500	X:	-0.016	Y:	-0.010	Z:	0.320	yaw:	-0.135	yaw rate:	51.417	Roll:	-0.661	Pitch:	-0.900	Yaw:	-5.836	Thrust:	59.775
Time:	1.546	Roll Set Point:	0.033	Pitch Set Point:	0.020	Yaw Set Point:	-0.013	X_WP:	0.000	Y_WP:	0.000	Y_WP:	0.500	X:	-0.016	Y:	-0.010	Z:	0.330	yaw:	0.752	yaw rate:	-88.787	Roll:	-0.708	Pitch:	-0.765	Yaw:	13.727	Thrust:	55.028
Time:	1.567	Roll Set Point:	0.033	Pitch Set Point:	0.021	Yaw Set Point:	-0.008	X_WP:	0.000	Y_WP:	0.000	Y_WP:	0.500	X:	-0.017	Y:	-0.011	Z:	0.339	yaw:	0.470	yaw rate:	28.254	Roll:	-0.639	Pitch:	-0.780	Yaw:	-1.931	Thrust:	60.198
Time:	1.587	Roll Set Point:	0.034	Pitch Set Point:	0.023	Yaw Set Point:	0.000	X_WP:	0.000	Y_WP:	0.000	Y_WP:	0.500	X:	-0.017	Y:	-0.011	Z:	0.349	yaw:	-0.022	yaw rate:	49.162	Roll:	-0.461	Pitch:	-0.824	Yaw:	-5.725	Thrust:	56.561
Time:	1.606	Roll Set Point:	0.034	Pitch Set Point:	0.024	Yaw Set Point:	-0.002	X_WP:	0.000	Y_WP:	0.000	Y_WP:	0.500	X:	-0.017	Y:	-0.012	Z:	0.359	yaw:	0.102	yaw rate:	-12.413	Roll:	-0.749	Pitch:	-0.825	Yaw:	2.654	Thrust:	51.717
Time:	1.627	Roll Set Point:	0.034	Pitch Set Point:	0.025	Yaw Set Point:	0.000	X_WP:	0.000	Y_WP:	0.000	Y_WP:	0.500	X:	-0.017	Y:	-0.012	Z:	0.369	yaw:	-0.011	yaw rate:	11.305	Roll:	-0.598	Pitch:	-0.709	Yaw:	-0.503	Thrust:	63.252
Time:	1.645	Roll Set Point:	0.035	Pitch Set Point:	0.026	Yaw Set Point:	-0.002	X_WP:	0.000	Y_WP:	0.000	Y_WP:	0.500	X:	-0.017	Y:	-0.013	Z:	0.379	yaw:	0.142	yaw rate:	-15.244	Roll:	-0.629	Pitch:	-0.799	Yaw:	3.224	Thrust:	44.564
Time:	1.666	Roll Set Point:	0.034	Pitch Set Point:	0.027	Yaw Set Point:	-0.004	X_WP:	0.000	Y_WP:	0.000	Y_WP:	0.500	X:	-0.017	Y:	-0.013	Z:	0.389	yaw:	0.213	yaw rate:	-7.137	Roll:	-0.406	Pitch:	-0.835	Yaw:	2.102	Thrust:	61.049
Time:	1.687	Roll Set Point:	0.035	Pitch Set Point:	0.028	Yaw Set Point:	-0.008	X_WP:	0.000	Y_WP:	0.000	Y_WP:	0.500	X:	-0.017	Y:	-0.014	Z:	0.399	yaw:	0.468	yaw rate:	-25.480	Roll:	-0.632	Pitch:	-0.801	Yaw:	4.754	Thrust:	59.391
Time:	1.706	Roll Set Point:	0.034	Pitch Set Point:	0.029	Yaw Set Point:	-0.006	X_WP:	0.000	Y_WP:	0.000	Y_WP:	0.500	X:	-0.017	Y:	-0.014	Z:	0.409	yaw:	0.334	yaw rate:	13.432	Roll:	-0.293	Pitch:	-0.765	Yaw:	-0.548	Thrust:	51.209
Time:	1.726	Roll Set Point:	0.034	Pitch Set Point:	0.030	Yaw Set Point:	-0.001	X_WP:	0.000	Y_WP:	0.000	Y_WP:	0.500	X:	-0.017	Y:	-0.015	Z:	0.418	yaw:	0.055	yaw rate:	27.857	Roll:	-0.330	Pitch:	-0.976	Yaw:	-2.781	Thrust:	53.386
Time:	1.745	Roll Set Point:	0.034	Pitch Set Point:	0.031	Yaw Set Point:	0.008	X_WP:	0.000	Y_WP:	0.000	Y_WP:	0.500	X:	-0.017	Y:	-0.015	Z:	0.428	yaw:	-0.437	yaw rate:	49.243	Roll:	-0.315	Pitch:	-1.007	Yaw:	-6.306	Thrust:	54.304
Time:	1.767	Roll Set Point:	0.034	Pitch Set Point:	0.032	Yaw Set Point:	0.014	X_WP:	0.000	Y_WP:	0.000	Y_WP:	0.500	X:	-0.017	Y:	-0.016	Z:	0.438	yaw:	-0.799	yaw rate:	36.168	Roll:	-0.451	Pitch:	-0.884	Yaw:	-4.756	Thrust:	57.531
Time:	1.787	Roll Set Point:	0.033	Pitch Set Point:	0.032	Yaw Set Point:	-0.008	X_WP:	0.000	Y_WP:	0.000	Y_WP:	0.500	X:	-0.017	Y:	-0.016	Z:	0.447	yaw:	0.444	yaw rate:	-124.284	Roll:	-0.417	Pitch:	-0.419	Yaw:	16.898	Thrust:	59.398
Time:	1.806	Roll Set Point:	0.033	Pitch Set Point:	0.033	Yaw Set Point:	0.009	X_WP:	0.000	Y_WP:	0.000	Y_WP:	0.500	X:	-0.016	Y:	-0.016	Z:	0.457	yaw:	-0.541	yaw rate:	98.519	Roll:	-0.045	Pitch:	-1.060	Yaw:	-14.264	Thrust:	44.253
Time:	1.828	Roll Set Point:	0.033	Pitch Set Point:	0.034	Yaw Set Point:	0.001	X_WP:	0.000	Y_WP:	0.000	Y_WP:	0.500	X:	-0.016	Y:	-0.017	Z:	0.466	yaw:	-0.062	yaw rate:	-47.931	Roll:	-0.516	Pitch:	-0.781	Yaw:	6.441	Thrust:	66.365
Time:	1.845	Roll Set Point:	0.032	Pitch Set Point:	0.035	Yaw Set Point:	0.001	X_WP:	0.000	Y_WP:	0.000	Y_WP:	0.500	X:	-0.016	Y:	-0.017	Z:	0.475	yaw:	-0.070	yaw rate:	0.782	Roll:	-0.180	Pitch:	-1.007	Yaw:	0.535	Thrust:	41.513
Time:	1.867	Roll Set Point:	0.032	Pitch Set Point:	0.036	Yaw Set Point:	0.003	X_WP:	0.000	Y_WP:	0.000	Y_WP:	0.500	X:	-0.016	Y:	-0.018	Z:	0.484	yaw:	-0.165	yaw rate:	9.515	Roll:	-0.258	Pitch:	-0.784	Yaw:	-0.499	Thrust:	56.944
Time:	1.886	Roll Set Point:	0.031	Pitch Set Point:	0.037	Yaw Set Point:	-0.003	X_WP:	0.000	Y_WP:	0.000	Y_WP:	0.500	X:	-0.016	Y:	-0.018	Z:	0.492	yaw:	0.158	yaw rate:	-32.349	Roll:	-0.271	Pitch:	-0.894	Yaw:	5.483	Thrust:	53.942
Time:	1.906	Roll Set Point:	0.030	Pitch Set Point:	0.038	Yaw Set Point:	-0.014	X_WP:	0.000	Y_WP:	0.000	Y_WP:	0.500	X:	-0.015	Y:	-0.019	Z:	0.500	yaw:	0.806	yaw rate:	-64.707	Roll:	-0.182	Pitch:	-0.943	Yaw:	10.444	Thrust:	56.345
Time:	1.926	Roll Set Point:	0.030	Pitch Set Point:	0.038	Yaw Set Point:	0.009	X_WP:	0.000	Y_WP:	0.000	Y_WP:	0.500	X:	-0.015	Y:	-0.019	Z:	0.507	yaw:	-0.527	yaw rate:	133.260	Roll:	-0.218	Pitch:	-0.991	Yaw:	-16.924	Thrust:	59.200
Time:	1.946	Roll Set Point:	0.030	Pitch Set Point:	0.039	Yaw Set Point:	0.012	X_WP:	0.000	Y_WP:	0.000	Y_WP:	0.500	X:	-0.015	Y:	-0.019	Z:	0.514	yaw:	-0.679	yaw rate:	15.245	Roll:	-0.270	Pitch:	-0.800	Yaw:	-2.120	Thrust:	56.415
Time:	1.967	Roll Set Point:	0.029	Pitch Set Point:	0.039	Yaw Set Point:	-0.004	X_WP:	0.000	Y_WP:	0.000	Y_WP:	0.500	X:	-0.014	Y:	-0.020	Z:	0.520	yaw:	0.248	yaw rate:	-92.701	Roll:	-0.129	Pitch:	-0.716	Yaw:	12.780	Thrust:	61.910
Time:	1.989	Roll Set Point:	0.029	Pitch Set Point:	0.040	Yaw Set Point:	-0.011	X_WP:	0.000	Y_WP:	0.000	Y_WP:	0.500	X:	-0.014	Y:	-0.020	Z:	0.526	yaw:	0.650	yaw rate:	-40.261	Roll:	-0.447	Pitch:	-0.828	Yaw:	6.837	Thrust:	63.578
Time:	2.006	Roll Set Point:	0.028	Pitch Set Point:	0.040	Yaw Set Point:	-0.005	X_WP:	0.000	Y_WP:	0.000	Y_WP:	0.500	X:	-0.014	Y:	-0.020	Z:	0.532	yaw:	0.270	yaw rate:	37.983	Roll:	-0.177	Pitch:	-0.830	Yaw:	-4.328	Thrust:	49.789
Time:	2.029	Roll Set Point:	0.028	Pitch Set Point:	0.042	Yaw Set Point:	0.011	X_WP:	0.000	Y_WP:	0.000	Y_WP:	0.500	X:	-0.014	Y:	-0.021	Z:	0.537	yaw:	-0.646	yaw rate:	91.653	Roll:	-0.107	Pitch:	-1.116	Yaw:	-10.502	Thrust:	68.190
Time:	2.047	Roll Set Point:	0.027	Pitch Set Point:	0.042	Yaw Set Point:	0.007	X_WP:	0.000	Y_WP:	0.000	Y_WP:	0.500	X:	-0.014	Y:	-0.021	Z:	0.543	yaw:	-0.395	yaw rate:	-25.141	Roll:	-0.176	Pitch:	-0.902	Yaw:	3.879	Thrust:	47.595
Time:	2.067	Roll Set Point:	0.027	Pitch Set Point:	0.043	Yaw Set Point:	0.006	X_WP:	0.000	Y_WP:	0.000	Y_WP:	0.500	X:	-0.014	Y:	-0.021	Z:	0.549	yaw:	-0.340	yaw rate:	-5.516	Roll:	-0.227	Pitch:	-0.786	Yaw:	1.115	Thrust:	62.608
Time:	2.087	Roll Set Point:	0.027	Pitch Set Point:	0.043	Yaw Set Point:	0.003	X_WP:	0.000	Y_WP:	0.000	Y_WP:	0.500	X:	-0.013	Y:	-0.022	Z:	0.554	yaw:	-0.200	yaw rate:	-13.933	Roll:	-0.320	Pitch:	-0.859	Yaw:	2.424	Thrust:	56.255
Time:	2.106	Roll Set Point:	0.027	Pitch Set Point:	0.044	Yaw Set Point:	0.006	X_WP:	0.000	Y_WP:	0.000	Y_WP:	0.500	X:	-0.013	Y:	-0.022	Z:	0.560	yaw:	-0.353	yaw rate:	15.261	Roll:	-0.278	Pitch:	-0.819	Yaw:	-1.765	Thrust:	51.835
Time:	2.127	Roll Set Point:	0.026	Pitch Set Point:	0.044	Yaw Set Point:	0.009	X_WP:	0.000	Y_WP:	0.000	Y_WP:	0.500	X:	-0.013	Y:	-0.022	Z:	0.566	yaw:	-0.526	yaw rate:	17.302	Roll:	-0.206	Pitch:	-0.779	Yaw:	-1.982	Thrust:	60.745
Time:	2.146	Roll Set Point:	0.026	Pitch Set Point:	0.044	Yaw Set Point:	0.010	X_WP:	0.000	Y_WP:	0.000	Y_WP:	0.500	X:	-0.013	Y:	-0.022	Z:	0.571	yaw:	-0.601	yaw rate:	7.537	Roll:	-0.114	Pitch:	-0.761	Yaw:	-1.002	Thrust:	51.141
Time:	2.169	Roll Set Point:	0.026	Pitch Set Point:	0.044	Yaw Set Point:	0.006	X_WP:	0.000	Y_WP:	0.000	Y_WP:	0.500	X:	-0.013	Y:	-0.022	Z:	0.576	yaw:	-0.353	yaw rate:	-24.815	Roll:	-0.424	Pitch:	-0.736	Yaw:	3.388	Thrust:	66.556
Time:	2.190	Roll Set Point:	0.025	Pitch Set Point:	0.044	Yaw Set Point:	0.006	X_WP:	0.000	Y_WP:	0.000	Y_WP:	0.500	X:	-0.013	Y:	-0.022	Z:	0.581	yaw:	-0.347	yaw rate:	-0.632	Roll:	-0.180	Pitch:	-0.685	Yaw:	0.452	Thrust:	59.015
Time:	2.208	Roll Set Point:	0.025	Pitch Set Point:	0.045	Yaw Set Point:	0.008	X_WP:	0.000	Y_WP:	0.000	Y_WP:	0.500	X:	-0.013	Y:	-0.022	Z:	0.587	yaw:	-0.451	yaw rate:	10.428	Roll:	-0.192	Pitch:	-0.816	Yaw:	-1.256	Thrust:	51.527
Time:	2.226	Roll Set Point:	0.025	Pitch Set Point:	0.044	Yaw Set Point:	0.011	X_WP:	0.000	Y_WP:	0.000	Y_WP:	0.500	X:	-0.013	Y:	-0.022	Z:	0.592	yaw:	-0.639	yaw rate:	18.802	Roll:	-0.343	Pitch:	-0.601	Yaw:	-2.712	Thrust:	50.045
Time:	2.246	Roll Set Point:	0.025	Pitch Set Point:	0.045	Yaw Set Point:	0.002	X_WP:	0.000	Y_WP:	0.000	Y_WP:	0.500	X:	-0.012	Y:	-0.022	Z:	0.597	yaw:	-0.116	yaw rate:	-52.305	Roll:	-0.391	Pitch:	-0.666	Yaw:	7.636	Thrust:	52.893
Time:	2.267	Roll Set Point:	0.025	Pitch Set Point:	0.045	Yaw Set Point:	0.000	X_WP:	0.000	Y_WP:	0.000	Y_WP:	0.500	X:	-0.012	Y:	-0.022	Z:	0.603	yaw:	-0.005	yaw rate:	-11.066	Roll:	-0.401	Pitch:	-0.771	Yaw:	2.250	Thrust:	57.102
Time:	2.287	Roll Set Point:	0.025	Pitch Set Point:	0.045	Yaw Set Point:	0.010	X_WP:	0.000	Y_WP:	0.000	Y_WP:	0.500	X:	-0.012	Y:	-0.022	Z:	0.608	yaw:	-0.596	yaw rate:	59.011	Roll:	-0.134	Pitch:	-0.598	Yaw:	-7.896	Thrust:	47.210
Time:	2.306	Roll Set Point:	0.025	Pitch Set Point:	0.044	Yaw Set Point:	0.006	X_WP:	0.000	Y_WP:	0.000	Y_WP:	0.500	X:	-0.013	Y:	-0.022	Z:	0.614	yaw:	-0.332	yaw rate:	-26.307	Roll:	-0.531	Pitch:	-0.585	Yaw:	3.943	Thrust:	52.081
Time:	2.326	Roll Set Point:	0.025	Pitch Set Point:	0.044	Yaw Set Point:	0.004	X_WP:	0.000	Y_WP:	0.000	Y_WP:	0.500	X:	-0.012	Y:	-0.022	Z:	0.618	yaw:	-0.239	yaw rate:	-9.389	Roll:	-0.370	Pitch:	-0.460	Yaw:	1.725	Thrust:	54.050
Time:	2.345	Roll Set Point:	0.025	Pitch Set Point:	0.044	Yaw Set Point:	0.009	X_WP:	0.000	Y_WP:	0.000	Y_WP:	0.500	X:	-0.013	Y:	-0.022	Z:	0.624	yaw:	-0.509	yaw rate:	27.071	Roll:	-0.446	Pitch:	-0.743	Yaw:	-3.540	Thrust:	49.672
Time:	2.367	Roll Set Point:	0.025	Pitch Set Point:	0.044	Yaw Set Point:	0.003	X_WP:	0.000	Y_WP:	0.000	Y_WP:	0.500	X:	-0.013	Y:	-0.022	Z:	0.628	yaw:	-0.152	yaw rate:	-35.767	Roll:	-0.338	Pitch:	-0.476	Yaw:	5.022	Thrust:	60.053
Time:	2.387	Roll Set Point:	0.025	Pitch Set Point:	0.043	Yaw Set Point:	0.006	X_WP:	0.000	Y_WP:	0.000	Y_WP:	0.500	X:	-0.013	Y:	-0.022	Z:	0.632	yaw:	-0.331	yaw rate:	17.951	Roll:	-0.480	Pitch:	-0.504	Yaw:	-1.972	Thrust:	52.553
Time:	2.406	Roll Set Point:	0.025	Pitch Set Point:	0.043	Yaw Set Point:	0.002	X_WP:	0.000	Y_WP:	0.000	Y_WP:	0.500	X:	-0.013	Y:	-0.021	Z:	0.635	yaw:	-0.105	yaw rate:	-22.612	Roll:	-0.353	Pitch:	-0.390	Yaw:	3.805	Thrust:	49.941
Time:	2.428	Roll Set Point:	0.025	Pitch Set Point:	0.042	Yaw Set Point:	0.002	X_WP:	0.000	Y_WP:	0.000	Y_WP:	0.500	X:	-0.013	Y:	-0.021	Z:	0.638	yaw:	-0.139	yaw rate:	3.435	Roll:	-0.418	Pitch:	-0.469	Yaw:	0.322	Thrust:	62.948
Time:	2.447	Roll Set Point:	0.026	Pitch Set Point:	0.041	Yaw Set Point:	0.026	X_WP:	0.000	Y_WP:	0.000	Y_WP:	0.500	X:	-0.013	Y:	-0.021	Z:	0.641	yaw:	-1.505	yaw rate:	136.519	Roll:	-0.308	Pitch:	-0.396	Yaw:	-20.603	Thrust:	49.334
Time:	2.468	Roll Set Point:	0.025	Pitch Set Point:	0.041	Yaw Set Point:	-0.000	X_WP:	0.000	Y_WP:	0.000	Y_WP:	0.500	X:	-0.013	Y:	-0.021	Z:	0.643	yaw:	0.024	yaw rate:	-152.862	Roll:	-0.518	Pitch:	-0.423	Yaw:	19.137	Thrust:	58.622
Time:	2.488	Roll Set Point:	0.025	Pitch Set Point:	0.041	Yaw Set Point:	0.003	X_WP:	0.000	Y_WP:	0.000	Y_WP:	0.500	X:	-0.013	Y:	-0.020	Z:	0.646	yaw:	-0.171	yaw rate:	19.507	Roll:	-0.343	Pitch:	-0.400	Yaw:	-2.099	Thrust:	56.296
Time:	2.506	Roll Set Point:	0.025	Pitch Set Point:	0.040	Yaw Set Point:	0.002	X_WP:	0.000	Y_WP:	0.000	Y_WP:	0.500	X:	-0.013	Y:	-0.020	Z:	0.647	yaw:	-0.098	yaw rate:	-7.267	Roll:	-0.323	Pitch:	-0.444	Yaw:	1.650	Thrust:	49.122
Time:	2.530	Roll Set Point:	0.025	Pitch Set Point:	0.040	Yaw Set Point:	0.007	X_WP:	0.000	Y_WP:	0.000	Y_WP:	0.500	X:	-0.013	Y:	-0.020	Z:	0.648	yaw:	-0.421	yaw rate:	32.269	Roll:	-0.387	Pitch:	-0.348	Yaw:	-3.101	Thrust:	70.528
Time:	2.546	Roll Set Point:	0.026	Pitch Set Point:	0.038	Yaw Set Point:	-0.016	X_WP:	0.000	Y_WP:	0.000	Y_WP:	0.500	X:	-0.013	Y:	-0.019	Z:	0.649	yaw:	0.898	yaw rate:	-131.866	Roll:	-0.831	Pitch:	0.356	Yaw:	24.091	Thrust:	41.289
Time:	2.568	Roll Set Point:	0.025	Pitch Set Point:	0.038	Yaw Set Point:	0.013	X_WP:	0.000	Y_WP:	0.000	Y_WP:	0.500	X:	-0.013	Y:	-0.019	Z:	0.650	yaw:	-0.738	yaw rate:	163.559	Roll:	-0.045	Pitch:	-0.778	Yaw:	-19.998	Thrust:	62.235
Time:	2.587	Roll Set Point:	0.025	Pitch Set Point:	0.037	Yaw Set Point:	0.006	X_WP:	0.000	Y_WP:	0.000	Y_WP:	0.500	X:	-0.013	Y:	-0.019	Z:	0.651	yaw:	-0.366	yaw rate:	-37.160	Roll:	-0.450	Pitch:	-0.225	Yaw:	5.254	Thrust:	54.789
Time:	2.606	Roll Set Point:	0.025	Pitch Set Point:	0.037	Yaw Set Point:	0.005	X_WP:	0.000	Y_WP:	0.000	Y_WP:	0.500	X:	-0.013	Y:	-0.018	Z:	0.651	yaw:	-0.264	yaw rate:	-10.188	Roll:	-0.313	Pitch:	-0.344	Yaw:	1.795	Thrust:	54.461
Time:	2.628	Roll Set Point:	0.025	Pitch Set Point:	0.036	Yaw Set Point:	0.012	X_WP:	0.000	Y_WP:	0.000	Y_WP:	0.500	X:	-0.013	Y:	-0.018	Z:	0.651	yaw:	-0.698	yaw rate:	43.364	Roll:	-0.282	Pitch:	-0.273	Yaw:	-5.403	Thrust:	61.385
Time:	2.647	Roll Set Point:	0.025	Pitch Set Point:	0.036	Yaw Set Point:	0.008	X_WP:	0.000	Y_WP:	0.000	Y_WP:	0.500	X:	-0.012	Y:	-0.018	Z:	0.651	yaw:	-0.475	yaw rate:	-22.262	Roll:	-0.277	Pitch:	-0.347	Yaw:	3.090	Thrust:	56.347
Time:	2.667	Roll Set Point:	0.025	Pitch Set Point:	0.035	Yaw Set Point:	0.015	X_WP:	0.000	Y_WP:	0.000	Y_WP:	0.500	X:	-0.013	Y:	-0.017	Z:	0.650	yaw:	-0.872	yaw rate:	39.687	Roll:	-0.320	Pitch:	-0.158	Yaw:	-5.592	Thrust:	57.279
Time:	2.689	Roll Set Point:	0.025	Pitch Set Point:	0.034	Yaw Set Point:	0.015	X_WP:	0.000	Y_WP:	0.000	Y_WP:	0.500	X:	-0.012	Y:	-0.017	Z:	0.650	yaw:	-0.852	yaw rate:	-2.009	Roll:	-0.242	Pitch:	-0.343	Yaw:	-0.086	Thrust:	61.654
Time:	2.706	Roll Set Point:	0.024	Pitch Set Point:	0.033	Yaw Set Point:	-0.006	X_WP:	0.000	Y_WP:	0.000	Y_WP:	0.500	X:	-0.012	Y:	-0.017	Z:	0.650	yaw:	0.355	yaw rate:	-120.689	Roll:	-0.254	Pitch:	0.135	Yaw:	20.227	Thrust:	48.804
Time:	2.729	Roll Set Point:	0.024	Pitch Set Point:	0.033	Yaw Set Point:	0.010	X_WP:	0.000	Y_WP:	0.000	Y_WP:	0.500	X:	-0.012	Y:	-0.016	Z:	0.649	yaw:	-0.546	yaw rate:	90.068	Roll:	-0.264	Pitch:	-0.514	Yaw:	-10.189	Thrust:	64.940
Time:	2.747	Roll Set Point:	0.024	Pitch Set Point:	0.032	Yaw Set Point:	0.034	X_WP:	0.000	Y_WP:	0.000	Y_WP:	0.500	X:	-0.012	Y:	-0.016	Z:	0.648	yaw:	-1.923	yaw rate:	137.666	Roll:	-0.314	Pitch:	-0.089	Yaw:	-23.322	Thrust:	48.553
Time:	2.767	Roll Set Point:	0.023	Pitch Set Point:	0.031	Yaw Set Point:	0.013	X_WP:	0.000	Y_WP:	0.000	Y_WP:	0.500	X:	-0.012	Y:	-0.016	Z:	0.647	yaw:	-0.756	yaw rate:	-116.677	Roll:	-0.187	Pitch:	-0.270	Yaw:	14.226	Thrust:	59.695
Time:	2.789	Roll Set Point:	0.023	Pitch Set Point:	0.031	Yaw Set Point:	0.010	X_WP:	0.000	Y_WP:	0.000	Y_WP:	0.500	X:	-0.012	Y:	-0.015	Z:	0.646	yaw:	-0.569	yaw rate:	-18.711	Roll:	-0.184	Pitch:	-0.278	Yaw:	2.279	Thrust:	62.460
Time:	2.806	Roll Set Point:	0.023	Pitch Set Point:	0.030	Yaw Set Point:	0.016	X_WP:	0.000	Y_WP:	0.000	Y_WP:	0.500	X:	-0.011	Y:	-0.015	Z:	0.645	yaw:	-0.924	yaw rate:	35.505	Roll:	-0.176	Pitch:	-0.081	Yaw:	-5.909	Thrust:	49.112
Time:	2.828	Roll Set Point:	0.022	Pitch Set Point:	0.029	Yaw Set Point:	0.015	X_WP:	0.000	Y_WP:	0.000	Y_WP:	0.500	X:	-0.011	Y:	-0.015	Z:	0.644	yaw:	-0.858	yaw rate:	-6.567	Roll:	-0.141	Pitch:	-0.285	Yaw:	0.411	Thrust:	61.767
Time:	2.848	Roll Set Point:	0.021	Pitch Set Point:	0.028	Yaw Set Point:	-0.000	X_WP:	0.000	Y_WP:	0.000	Y_WP:	0.500	X:	-0.011	Y:	-0.014	Z:	0.643	yaw:	0.008	yaw rate:	-86.590	Roll:	-0.018	Pitch:	0.052	Yaw:	12.328	Thrust:	53.538
Time:	2.867	Roll Set Point:	0.021	Pitch Set Point:	0.028	Yaw Set Point:	0.023	X_WP:	0.000	Y_WP:	0.000	Y_WP:	0.500	X:	-0.011	Y:	-0.014	Z:	0.641	yaw:	-1.322	yaw rate:	132.917	Roll:	-0.256	Pitch:	-0.327	Yaw:	-18.997	Thrust:	57.138
Time:	2.889	Roll Set Point:	0.021	Pitch Set Point:	0.027	Yaw Set Point:	0.013	X_WP:	0.000	Y_WP:	0.000	Y_WP:	0.500	X:	-0.010	Y:	-0.014	Z:	0.640	yaw:	-0.734	yaw rate:	-58.713	Roll:	-0.109	Pitch:	-0.150	Yaw:	6.893	Thrust:	59.601
Time:	2.907	Roll Set Point:	0.020	Pitch Set Point:	0.027	Yaw Set Point:	0.012	X_WP:	0.000	Y_WP:	0.000	Y_WP:	0.500	X:	-0.010	Y:	-0.013	Z:	0.638	yaw:	-0.716	yaw rate:	-1.869	Roll:	-0.057	Pitch:	-0.258	Yaw:	-0.087	Thrust:	52.013
Time:	2.926	Roll Set Point:	0.020	Pitch Set Point:	0.026	Yaw Set Point:	0.018	X_WP:	0.000	Y_WP:	0.000	Y_WP:	0.500	X:	-0.010	Y:	-0.013	Z:	0.636	yaw:	-1.027	yaw rate:	31.120	Roll:	-0.095	Pitch:	-0.050	Yaw:	-4.694	Thrust:	57.434
Time:	2.946	Roll Set Point:	0.019	Pitch Set Point:	0.025	Yaw Set Point:	0.017	X_WP:	0.000	Y_WP:	0.000	Y_WP:	0.500	X:	-0.010	Y:	-0.013	Z:	0.634	yaw:	-0.951	yaw rate:	-7.544	Roll:	-0.018	Pitch:	-0.175	Yaw:	0.384	Thrust:	53.270
Time:	2.968	Roll Set Point:	0.018	Pitch Set Point:	0.025	Yaw Set Point:	0.015	X_WP:	0.000	Y_WP:	0.000	Y_WP:	0.500	X:	-0.009	Y:	-0.013	Z:	0.632	yaw:	-0.887	yaw rate:	-6.460	Roll:	0.061	Pitch:	-0.339	Yaw:	0.315	Thrust:	63.024
Time:	2.988	Roll Set Point:	0.018	Pitch Set Point:	0.024	Yaw Set Point:	0.012	X_WP:	0.000	Y_WP:	0.000	Y_WP:	0.500	X:	-0.009	Y:	-0.012	Z:	0.630	yaw:	-0.708	yaw rate:	-17.857	Roll:	-0.225	Pitch:	0.192	Yaw:	2.046	Thrust:	58.410
Time:	3.007	Roll Set Point:	0.017	Pitch Set Point:	0.024	Yaw Set Point:	0.011	X_WP:	0.000	Y_WP:	0.000	Y_WP:	0.500	X:	-0.009	Y:	-0.012	Z:	0.627	yaw:	-0.634	yaw rate:	-7.463	Roll:	0.121	Pitch:	-0.281	Yaw:	0.804	Thrust:	55.846
Time:	3.027	Roll Set Point:	0.016	Pitch Set Point:	0.023	Yaw Set Point:	0.008	X_WP:	0.000	Y_WP:	0.000	Y_WP:	0.500	X:	-0.008	Y:	-0.011	Z:	0.625	yaw:	-0.484	yaw rate:	-15.013	Roll:	-0.052	Pitch:	-0.159	Yaw:	1.972	Thrust:	58.089
Time:	3.047	Roll Set Point:	0.016	Pitch Set Point:	0.023	Yaw Set Point:	0.011	X_WP:	0.000	Y_WP:	0.000	Y_WP:	0.500	X:	-0.008	Y:	-0.011	Z:	0.623	yaw:	-0.648	yaw rate:	16.459	Roll:	0.122	Pitch:	-0.152	Yaw:	-2.400	Thrust:	53.682
Time:	3.069	Roll Set Point:	0.015	Pitch Set Point:	0.022	Yaw Set Point:	0.014	X_WP:	0.000	Y_WP:	0.000	Y_WP:	0.500	X:	-0.008	Y:	-0.011	Z:	0.621	yaw:	-0.798	yaw rate:	15.029	Roll:	0.015	Pitch:	-0.261	Yaw:	-2.248	Thrust:	60.260
Time:	3.088	Roll Set Point:	0.014	Pitch Set Point:	0.021	Yaw Set Point:	0.018	X_WP:	0.000	Y_WP:	0.000	Y_WP:	0.500	X:	-0.007	Y:	-0.011	Z:	0.618	yaw:	-1.018	yaw rate:	21.998	Roll:	0.065	Pitch:	-0.065	Yaw:	-3.795	Thrust:	55.688
Time:	3.106	Roll Set Point:	0.013	Pitch Set Point:	0.020	Yaw Set Point:	0.008	X_WP:	0.000	Y_WP:	0.000	Y_WP:	0.500	X:	-0.007	Y:	-0.010	Z:	0.616	yaw:	-0.457	yaw rate:	-56.113	Roll:	0.258	Pitch:	0.284	Yaw:	7.946	Thrust:	50.974
Time:	3.127	Roll Set Point:	0.013	Pitch Set Point:	0.021	Yaw Set Point:	0.015	X_WP:	0.000	Y_WP:	0.000	Y_WP:	0.500	X:	-0.006	Y:	-0.010	Z:	0.614	yaw:	-0.871	yaw rate:	41.416	Roll:	-0.001	Pitch:	-0.581	Yaw:	-5.608	Thrust:	58.733
Time:	3.146	Roll Set Point:	0.012	Pitch Set Point:	0.020	Yaw Set Point:	0.011	X_WP:	0.000	Y_WP:	0.000	Y_WP:	0.500	X:	-0.006	Y:	-0.010	Z:	0.611	yaw:	-0.641	yaw rate:	-22.997	Roll:	-0.063	Pitch:	0.160	Yaw:	2.937	Thrust:	54.857
Time:	3.168	Roll Set Point:	0.012	Pitch Set Point:	0.019	Yaw Set Point:	0.017	X_WP:	0.000	Y_WP:	0.000	Y_WP:	0.500	X:	-0.006	Y:	-0.009	Z:	0.609	yaw:	-0.970	yaw rate:	32.880	Roll:	0.061	Pitch:	-0.121	Yaw:	-4.630	Thrust:	60.365
Time:	3.186	Roll Set Point:	0.011	Pitch Set Point:	0.018	Yaw Set Point:	0.017	X_WP:	0.000	Y_WP:	0.000	Y_WP:	0.500	X:	-0.006	Y:	-0.009	Z:	0.606	yaw:	-0.974	yaw rate:	0.421	Roll:	0.132	Pitch:	0.058	Yaw:	-0.790	Thrust:	51.159
Time:	3.206	Roll Set Point:	0.010	Pitch Set Point:	0.018	Yaw Set Point:	0.015	X_WP:	0.000	Y_WP:	0.000	Y_WP:	0.500	X:	-0.005	Y:	-0.009	Z:	0.604	yaw:	-0.878	yaw rate:	-9.669	Roll:	0.118	Pitch:	-0.151	Yaw:	0.704	Thrust:	57.957
Time:	3.227	Roll Set Point:	0.010	Pitch Set Point:	0.017	Yaw Set Point:	0.011	X_WP:	0.000	Y_WP:	0.000	Y_WP:	0.500	X:	-0.005	Y:	-0.009	Z:	0.601	yaw:	-0.648	yaw rate:	-22.999	Roll:	0.042	Pitch:	-0.099	Yaw:	2.668	Thrust:	58.757
Time:	3.246	Roll Set Point:	0.009	Pitch Set Point:	0.016	Yaw Set Point:	0.022	X_WP:	0.000	Y_WP:	0.000	Y_WP:	0.500	X:	-0.005	Y:	-0.008	Z:	0.598	yaw:	-1.276	yaw rate:	62.825	Roll:	0.179	Pitch:	0.282	Yaw:	-9.650	Thrust:	54.271
Time:	3.269	Roll Set Point:	0.009	Pitch Set Point:	0.016	Yaw Set Point:	0.013	X_WP:	0.000	Y_WP:	0.000	Y_WP:	0.500	X:	-0.004	Y:	-0.008	Z:	0.595	yaw:	-0.747	yaw rate:	-52.892	Roll:	0.039	Pitch:	-0.277	Yaw:	5.864	Thrust:	61.329
Time:	3.288	Roll Set Point:	0.008	Pitch Set Point:	0.016	Yaw Set Point:	0.013	X_WP:	0.000	Y_WP:	0.000	Y_WP:	0.500	X:	-0.004	Y:	-0.008	Z:	0.592	yaw:	-0.738	yaw rate:	-0.888	Roll:	0.113	Pitch:	-0.204	Yaw:	-0.306	Thrust:	56.725
Time:	3.306	Roll Set Point:	0.007	Pitch Set Point:	0.015	Yaw Set Point:	0.011	X_WP:	0.000	Y_WP:	0.000	Y_WP:	0.500	X:	-0.004	Y:	-0.008	Z:	0.589	yaw:	-0.628	yaw rate:	-11.055	Roll:	0.194	Pitch:	-0.167	Yaw:	1.286	Thrust:	52.539
Time:	3.329	Roll Set Point:	0.006	Pitch Set Point:	0.015	Yaw Set Point:	0.007	X_WP:	0.000	Y_WP:	0.000	Y_WP:	0.500	X:	-0.003	Y:	-0.008	Z:	0.586	yaw:	-0.428	yaw rate:	-19.992	Roll:	0.363	Pitch:	-0.222	Yaw:	2.347	Thrust:	65.767
Time:	3.346	Roll Set Point:	0.006	Pitch Set Point:	0.014	Yaw Set Point:	0.006	X_WP:	0.000	Y_WP:	0.000	Y_WP:	0.500	X:	-0.003	Y:	-0.007	Z:	0.583	yaw:	-0.336	yaw rate:	-9.170	Roll:	-0.262	Pitch:	0.262	Yaw:	1.515	Thrust:	47.688
Time:	3.367	Roll Set Point:	0.006	Pitch Set Point:	0.013	Yaw Set Point:	0.036	X_WP:	0.000	Y_WP:	0.000	Y_WP:	0.500	X:	-0.003	Y:	-0.007	Z:	0.580	yaw:	-2.077	yaw rate:	174.131	Roll:	-0.049	Pitch:	0.113	Yaw:	-23.380	Thrust:	60.431
Time:	3.388	Roll Set Point:	0.005	Pitch Set Point:	0.013	Yaw Set Point:	0.004	X_WP:	0.000	Y_WP:	0.000	Y_WP:	0.500	X:	-0.002	Y:	-0.006	Z:	0.577	yaw:	-0.234	yaw rate:	-184.356	Roll:	0.495	Pitch:	0.040	Yaw:	24.779	Thrust:	54.538
Time:	3.406	Roll Set Point:	0.005	Pitch Set Point:	0.013	Yaw Set Point:	0.016	X_WP:	0.000	Y_WP:	0.000	Y_WP:	0.500	X:	-0.002	Y:	-0.006	Z:	0.574	yaw:	-0.907	yaw rate:	67.327	Roll:	-0.137	Pitch:	-0.209	Yaw:	-10.060	Thrust:	54.690
Time:	3.427	Roll Set Point:	0.004	Pitch Set Point:	0.012	Yaw Set Point:	0.011	X_WP:	0.000	Y_WP:	0.000	Y_WP:	0.500	X:	-0.002	Y:	-0.006	Z:	0.571	yaw:	-0.653	yaw rate:	-25.410	Roll:	0.193	Pitch:	-0.140	Yaw:	2.867	Thrust:	57.760
Time:	3.447	Roll Set Point:	0.003	Pitch Set Point:	0.012	Yaw Set Point:	0.010	X_WP:	0.000	Y_WP:	0.000	Y_WP:	0.500	X:	-0.002	Y:	-0.006	Z:	0.568	yaw:	-0.556	yaw rate:	-9.674	Roll:	0.144	Pitch:	-0.109	Yaw:	1.077	Thrust:	57.726
Time:	3.467	Roll Set Point:	0.003	Pitch Set Point:	0.012	Yaw Set Point:	0.004	X_WP:	0.000	Y_WP:	0.000	Y_WP:	0.500	X:	-0.001	Y:	-0.006	Z:	0.565	yaw:	-0.242	yaw rate:	-31.411	Roll:	0.153	Pitch:	-0.095	Yaw:	4.344	Thrust:	56.967
Time:	3.489	Roll Set Point:	0.003	Pitch Set Point:	0.011	Yaw Set Point:	0.013	X_WP:	0.000	Y_WP:	0.000	Y_WP:	0.500	X:	-0.001	Y:	-0.006	Z:	0.562	yaw:	-0.753	yaw rate:	51.104	Roll:	0.054	Pitch:	0.009	Yaw:	-6.443	Thrust:	61.498
Time:	3.506	Roll Set Point:	0.002	Pitch Set Point:	0.011	Yaw Set Point:	0.010	X_WP:	0.000	Y_WP:	0.000	Y_WP:	0.500	X:	-0.001	Y:	-0.005	Z:	0.559	yaw:	-0.563	yaw rate:	-19.031	Roll:	0.228	Pitch:	-0.094	Yaw:	2.604	Thrust:	50.595
Time:	3.528	Roll Set Point:	0.002	Pitch Set Point:	0.011	Yaw Set Point:	0.008	X_WP:	0.000	Y_WP:	0.000	Y_WP:	0.500	X:	-0.001	Y:	-0.005	Z:	0.556	yaw:	-0.465	yaw rate:	-9.830	Roll:	0.129	Pitch:	-0.140	Yaw:	1.146	Thrust:	60.897
Time:	3.547	Roll Set Point:	0.001	Pitch Set Point:	0.011	Yaw Set Point:	0.006	X_WP:	0.000	Y_WP:	0.000	Y_WP:	0.500	X:	-0.001	Y:	-0.005	Z:	0.552	yaw:	-0.328	yaw rate:	-13.654	Roll:	0.172	Pitch:	-0.193	Yaw:	1.986	Thrust:	55.564
Time:	3.567	Roll Set Point:	0.001	Pitch Set Point:	0.010	Yaw Set Point:	0.014	X_WP:	0.000	Y_WP:	0.000	Y_WP:	0.500	X:	-0.000	Y:	-0.005	Z:	0.549	yaw:	-0.819	yaw rate:	49.094	Roll:	0.091	Pitch:	0.036	Yaw:	-6.990	Thrust:	57.297
Time:	3.587	Roll Set Point:	0.000	Pitch Set Point:	0.009	Yaw Set Point:	-0.008	X_WP:	0.000	Y_WP:	0.000	Y_WP:	0.500	X:	-0.000	Y:	-0.005	Z:	0.546	yaw:	0.455	yaw rate:	-127.366	Roll:	0.178	Pitch:	0.030	Yaw:	17.294	Thrust:	58.699
Time:	3.606	Roll Set Point:	-0.000	Pitch Set Point:	0.009	Yaw Set Point:	-0.008	X_WP:	0.000	Y_WP:	0.000	Y_WP:	0.500	X:	0.000	Y:	-0.005	Z:	0.542	yaw:	0.452	yaw rate:	0.266	Roll:	0.227	Pitch:	-0.138	Yaw:	1.100	Thrust:	54.150
Time:	3.627	Roll Set Point:	-0.001	Pitch Set Point:	0.009	Yaw Set Point:	-0.012	X_WP:	0.000	Y_WP:	0.000	Y_WP:	0.500	X:	0.000	Y:	-0.005	Z:	0.539	yaw:	0.659	yaw rate:	-20.717	Roll:	0.123	Pitch:	-0.109	Yaw:	4.058	Thrust:	61.585
Time:	3.647	Roll Set Point:	-0.001	Pitch Set Point:	0.009	Yaw Set Point:	-0.012	X_WP:	0.000	Y_WP:	0.000	Y_WP:	0.500	X:	0.001	Y:	-0.005	Z:	0.535	yaw:	0.692	yaw rate:	-3.254	Roll:	0.210	Pitch:	-0.217	Yaw:	1.960	Thrust:	58.427
Time:	3.666	Roll Set Point:	-0.001	Pitch Set Point:	0.008	Yaw Set Point:	-0.005	X_WP:	0.000	Y_WP:	0.000	Y_WP:	0.500	X:	0.001	Y:	-0.004	Z:	0.532	yaw:	0.286	yaw rate:	40.559	Roll:	0.005	Pitch:	0.163	Yaw:	-4.664	Thrust:	55.698
Time:	3.693	Roll Set Point:	-0.001	Pitch Set Point:	0.009	Yaw Set Point:	0.013	X_WP:	0.000	Y_WP:	0.000	Y_WP:	0.500	X:	0.001	Y:	-0.004	Z:	0.528	yaw:	-0.729	yaw rate:	101.529	Roll:	0.033	Pitch:	-0.310	Yaw:	-10.437	Thrust:	71.849
Time:	3.707	Roll Set Point:	-0.002	Pitch Set Point:	0.009	Yaw Set Point:	0.012	X_WP:	0.000	Y_WP:	0.000	Y_WP:	0.500	X:	0.001	Y:	-0.004	Z:	0.525	yaw:	-0.711	yaw rate:	-1.812	Roll:	0.108	Pitch:	-0.281	Yaw:	-0.248	Thrust:	48.873
Time:	3.729	Roll Set Point:	-0.002	Pitch Set Point:	0.008	Yaw Set Point:	0.011	X_WP:	0.000	Y_WP:	0.000	Y_WP:	0.500	X:	0.001	Y:	-0.004	Z:	0.521	yaw:	-0.637	yaw rate:	-7.356	Roll:	0.053	Pitch:	-0.022	Yaw:	0.611	Thrust:	62.532
Time:	3.746	Roll Set Point:	-0.002	Pitch Set Point:	0.008	Yaw Set Point:	0.014	X_WP:	0.000	Y_WP:	0.000	Y_WP:	0.500	X:	0.001	Y:	-0.004	Z:	0.518	yaw:	-0.817	yaw rate:	17.909	Roll:	0.196	Pitch:	-0.180	Yaw:	-3.407	Thrust:	52.703
Time:	3.767	Roll Set Point:	-0.003	Pitch Set Point:	0.008	Yaw Set Point:	0.011	X_WP:	0.000	Y_WP:	0.000	Y_WP:	0.500	X:	0.001	Y:	-0.004	Z:	0.514	yaw:	-0.605	yaw rate:	-21.151	Roll:	0.148	Pitch:	-0.174	Yaw:	2.357	Thrust:	61.113
Time:	3.787	Roll Set Point:	-0.003	Pitch Set Point:	0.008	Yaw Set Point:	0.006	X_WP:	0.000	Y_WP:	0.000	Y_WP:	0.500	X:	0.001	Y:	-0.004	Z:	0.511	yaw:	-0.339	yaw rate:	-26.593	Roll:	0.095	Pitch:	-0.121	Yaw:	3.607	Thrust:	57.955
Time:	3.806	Roll Set Point:	-0.003	Pitch Set Point:	0.008	Yaw Set Point:	0.008	X_WP:	0.000	Y_WP:	0.000	Y_WP:	0.500	X:	0.002	Y:	-0.004	Z:	0.508	yaw:	-0.481	yaw rate:	14.183	Roll:	0.175	Pitch:	-0.224	Yaw:	-2.103	Thrust:	56.775
Time:	3.826	Roll Set Point:	-0.003	Pitch Set Point:	0.008	Yaw Set Point:	0.004	X_WP:	0.000	Y_WP:	0.000	Y_WP:	0.500	X:	0.002	Y:	-0.004	Z:	0.504	yaw:	-0.235	yaw rate:	-24.607	Roll:	0.096	Pitch:	-0.155	Yaw:	3.384	Thrust:	59.977
Time:	3.845	Roll Set Point:	-0.004	Pitch Set Point:	0.008	Yaw Set Point:	0.003	X_WP:	0.000	Y_WP:	0.000	Y_WP:	0.500	X:	0.002	Y:	-0.004	Z:	0.501	yaw:	-0.153	yaw rate:	-8.214	Roll:	0.100	Pitch:	-0.149	Yaw:	1.424	Thrust:	57.286
Time:	3.869	Roll Set Point:	-0.004	Pitch Set Point:	0.008	Yaw Set Point:	0.004	X_WP:	0.000	Y_WP:	0.000	Y_WP:	0.500	X:	0.002	Y:	-0.004	Z:	0.498	yaw:	-0.210	yaw rate:	5.708	Roll:	0.113	Pitch:	-0.200	Yaw:	-0.278	Thrust:	67.615
Time:	3.886	Roll Set Point:	-0.004	Pitch Set Point:	0.008	Yaw Set Point:	0.003	X_WP:	0.000	Y_WP:	0.000	Y_WP:	0.500	X:	0.002	Y:	-0.004	Z:	0.495	yaw:	-0.195	yaw rate:	-1.505	Roll:	0.146	Pitch:	-0.183	Yaw:	0.421	Thrust:	52.488
Time:	3.906	Roll Set Point:	-0.004	Pitch Set Point:	0.008	Yaw Set Point:	0.002	X_WP:	0.000	Y_WP:	0.000	Y_WP:	0.500	X:	0.002	Y:	-0.004	Z:	0.492	yaw:	-0.095	yaw rate:	-10.008	Roll:	0.105	Pitch:	-0.160	Yaw:	1.715	Thrust:	59.144
Time:	3.927	Roll Set Point:	-0.004	Pitch Set Point:	0.008	Yaw Set Point:	0.006	X_WP:	0.000	Y_WP:	0.000	Y_WP:	0.500	X:	0.002	Y:	-0.004	Z:	0.490	yaw:	-0.347	yaw rate:	25.255	Roll:	0.064	Pitch:	-0.119	Yaw:	-3.145	Thrust:	59.805
Time:	3.949	Roll Set Point:	-0.004	Pitch Set Point:	0.008	Yaw Set Point:	0.010	X_WP:	0.000	Y_WP:	0.000	Y_WP:	0.500	X:	0.002	Y:	-0.004	Z:	0.487	yaw:	-0.582	yaw rate:	23.474	Roll:	0.065	Pitch:	-0.225	Yaw:	-3.077	Thrust:	60.097
Time:	3.967	Roll Set Point:	-0.005	Pitch Set Point:	0.008	Yaw Set Point:	0.012	X_WP:	0.000	Y_WP:	0.000	Y_WP:	0.500	X:	0.002	Y:	-0.004	Z:	0.484	yaw:	-0.676	yaw rate:	9.442	Roll:	0.153	Pitch:	-0.095	Yaw:	-1.833	Thrust:	56.283
Time:	3.989	Roll Set Point:	-0.005	Pitch Set Point:	0.008	Yaw Set Point:	0.010	X_WP:	0.000	Y_WP:	0.000	Y_WP:	0.500	X:	0.002	Y:	-0.004	Z:	0.482	yaw:	-0.583	yaw rate:	-9.305	Roll:	0.035	Pitch:	-0.211	Yaw:	0.860	Thrust:	64.483
Time:	4.006	Roll Set Point:	-0.005	Pitch Set Point:	0.008	Yaw Set Point:	0.008	X_WP:	0.000	Y_WP:	0.000	Y_WP:	0.500	X:	0.002	Y:	-0.004	Z:	0.480	yaw:	-0.440	yaw rate:	-14.332	Roll:	0.100	Pitch:	-0.121	Yaw:	2.092	Thrust:	50.379
Time:	4.027	Roll Set Point:	-0.005	Pitch Set Point:	0.008	Yaw Set Point:	0.010	X_WP:	0.000	Y_WP:	0.000	Y_WP:	0.500	X:	0.002	Y:	-0.004	Z:	0.477	yaw:	-0.573	yaw rate:	13.287	Roll:	0.096	Pitch:	-0.212	Yaw:	-1.865	Thrust:	61.747
Time:	4.046	Roll Set Point:	-0.005	Pitch Set Point:	0.008	Yaw Set Point:	0.010	X_WP:	0.000	Y_WP:	0.000	Y_WP:	0.500	X:	0.002	Y:	-0.004	Z:	0.475	yaw:	-0.563	yaw rate:	-1.010	Roll:	0.080	Pitch:	-0.175	Yaw:	-0.161	Thrust:	55.600
Time:	4.066	Roll Set Point:	-0.005	Pitch Set Point:	0.008	Yaw Set Point:	0.003	X_WP:	0.000	Y_WP:	0.000	Y_WP:	0.500	X:	0.003	Y:	-0.004	Z:	0.473	yaw:	-0.197	yaw rate:	-36.606	Roll:	0.087	Pitch:	-0.309	Yaw:	5.011	Thrust:	57.623
Time:	4.089	Roll Set Point:	-0.005	Pitch Set Point:	0.008	Yaw Set Point:	0.003	X_WP:	0.000	Y_WP:	0.000	Y_WP:	0.500	X:	0.003	Y:	-0.004	Z:	0.470	yaw:	-0.179	yaw rate:	-1.761	Roll:	0.129	Pitch:	-0.225	Yaw:	0.539	Thrust:	65.446
Time:	4.107	Roll Set Point:	-0.005	Pitch Set Point:	0.008	Yaw Set Point:	0.014	X_WP:	0.000	Y_WP:	0.000	Y_WP:	0.500	X:	0.003	Y:	-0.004	Z:	0.468	yaw:	-0.826	yaw rate:	64.716	Roll:	-0.070	Pitch:	0.049	Yaw:	-10.971	Thrust:	53.043
Time:	4.127	Roll Set Point:	-0.005	Pitch Set Point:	0.008	Yaw Set Point:	0.013	X_WP:	0.000	Y_WP:	0.000	Y_WP:	0.500	X:	0.003	Y:	-0.004	Z:	0.466	yaw:	-0.732	yaw rate:	-9.453	Roll:	0.082	Pitch:	-0.149	Yaw:	0.673	Thrust:	62.540
Time:	4.147	Roll Set Point:	-0.006	Pitch Set Point:	0.007	Yaw Set Point:	0.001	X_WP:	0.000	Y_WP:	0.000	Y_WP:	0.500	X:	0.003	Y:	-0.004	Z:	0.464	yaw:	-0.057	yaw rate:	-67.495	Roll:	0.379	Pitch:	0.020	Yaw:	9.086	Thrust:	59.842
Time:	4.168	Roll Set Point:	-0.006	Pitch Set Point:	0.007	Yaw Set Point:	-0.001	X_WP:	0.000	Y_WP:	0.000	Y_WP:	0.500	X:	0.003	Y:	-0.004	Z:	0.462	yaw:	0.084	yaw rate:	-14.070	Roll:	0.091	Pitch:	-0.183	Yaw:	2.453	Thrust:	59.813
Time:	4.189	Roll Set Point:	-0.005	Pitch Set Point:	0.007	Yaw Set Point:	0.009	X_WP:	0.000	Y_WP:	0.000	Y_WP:	0.500	X:	0.003	Y:	-0.004	Z:	0.459	yaw:	-0.508	yaw rate:	59.167	Roll:	-0.362	Pitch:	-0.261	Yaw:	-7.523	Thrust:	63.557
Time:	4.206	Roll Set Point:	-0.006	Pitch Set Point:	0.007	Yaw Set Point:	-0.003	X_WP:	0.000	Y_WP:	0.000	Y_WP:	0.500	X:	0.003	Y:	-0.003	Z:	0.458	yaw:	0.146	yaw rate:	-65.380	Roll:	0.393	Pitch:	0.080	Yaw:	10.602	Thrust:	51.616
Time:	4.227	Roll Set Point:	-0.006	Pitch Set Point:	0.007	Yaw Set Point:	-0.001	X_WP:	0.000	Y_WP:	0.000	Y_WP:	0.500	X:	0.003	Y:	-0.003	Z:	0.456	yaw:	0.052	yaw rate:	9.453	Roll:	0.056	Pitch:	-0.136	Yaw:	-0.615	Thrust:	61.206
Time:	4.246	Roll Set Point:	-0.006	Pitch Set Point:	0.007	Yaw Set Point:	0.001	X_WP:	0.000	Y_WP:	0.000	Y_WP:	0.500	X:	0.003	Y:	-0.003	Z:	0.454	yaw:	-0.036	yaw rate:	8.707	Roll:	0.027	Pitch:	-0.139	Yaw:	-0.688	Thrust:	59.704
Time:	4.267	Roll Set Point:	-0.007	Pitch Set Point:	0.007	Yaw Set Point:	0.005	X_WP:	0.000	Y_WP:	0.000	Y_WP:	0.500	X:	0.003	Y:	-0.004	Z:	0.452	yaw:	-0.296	yaw rate:	26.091	Roll:	0.414	Pitch:	-0.348	Yaw:	-3.173	Thrust:	60.312
Time:	4.288	Roll Set Point:	-0.005	Pitch Set Point:	0.006	Yaw Set Point:	-0.000	X_WP:	0.000	Y_WP:	0.000	Y_WP:	0.500	X:	0.003	Y:	-0.003	Z:	0.451	yaw:	0.016	yaw rate:	-31.233	Roll:	-0.519	Pitch:	0.079	Yaw:	4.420	Thrust:	63.527
Time:	4.306	Roll Set Point:	-0.005	Pitch Set Point:	0.007	Yaw Set Point:	0.001	X_WP:	0.000	Y_WP:	0.000	Y_WP:	0.500	X:	0.002	Y:	-0.003	Z:	0.449	yaw:	-0.075	yaw rate:	9.048	Roll:	-0.028	Pitch:	-0.183	Yaw:	-0.982	Thrust:	54.069
Time:	4.327	Roll Set Point:	-0.005	Pitch Set Point:	0.006	Yaw Set Point:	-0.000	X_WP:	0.000	Y_WP:	0.000	Y_WP:	0.500	X:	0.003	Y:	-0.003	Z:	0.448	yaw:	0.021	yaw rate:	-9.523	Roll:	0.080	Pitch:	0.029	Yaw:	1.732	Thrust:	60.467
Time:	4.346	Roll Set Point:	-0.004	Pitch Set Point:	0.006	Yaw Set Point:	0.011	X_WP:	0.000	Y_WP:	0.000	Y_WP:	0.500	X:	0.002	Y:	-0.003	Z:	0.447	yaw:	-0.624	yaw rate:	64.456	Roll:	-0.399	Pitch:	-0.090	Yaw:	-9.475	Thrust:	57.742
Time:	4.367	Roll Set Point:	-0.004	Pitch Set Point:	0.006	Yaw Set Point:	-0.000	X_WP:	0.000	Y_WP:	0.000	Y_WP:	0.500	X:	0.002	Y:	-0.003	Z:	0.446	yaw:	0.023	yaw rate:	-64.659	Roll:	0.182	Pitch:	-0.208	Yaw:	8.779	Thrust:	60.103
Time:	4.387	Roll Set Point:	-0.005	Pitch Set Point:	0.006	Yaw Set Point:	0.009	X_WP:	0.000	Y_WP:	0.000	Y_WP:	0.500	X:	0.003	Y:	-0.003	Z:	0.444	yaw:	-0.487	yaw rate:	50.995	Roll:	0.355	Pitch:	-0.354	Yaw:	-6.672	Thrust:	59.074
Time:	4.406	Roll Set Point:	-0.004	Pitch Set Point:	0.006	Yaw Set Point:	0.008	X_WP:	0.000	Y_WP:	0.000	Y_WP:	0.500	X:	0.002	Y:	-0.003	Z:	0.443	yaw:	-0.476	yaw rate:	-1.140	Roll:	-0.570	Pitch:	0.018	Yaw:	-0.052	Thrust:	58.659
Time:	4.426	Roll Set Point:	-0.004	Pitch Set Point:	0.006	Yaw Set Point:	0.004	X_WP:	0.000	Y_WP:	0.000	Y_WP:	0.500	X:	0.002	Y:	-0.003	Z:	0.442	yaw:	-0.214	yaw rate:	-26.170	Roll:	-0.087	Pitch:	-0.072	Yaw:	3.574	Thrust:	60.668
Time:	4.446	Roll Set Point:	-0.004	Pitch Set Point:	0.006	Yaw Set Point:	0.002	X_WP:	0.000	Y_WP:	0.000	Y_WP:	0.500	X:	0.002	Y:	-0.003	Z:	0.440	yaw:	-0.133	yaw rate:	-8.142	Roll:	0.039	Pitch:	-0.153	Yaw:	1.373	Thrust:	59.402
Time:	4.466	Roll Set Point:	-0.004	Pitch Set Point:	0.006	Yaw Set Point:	0.003	X_WP:	0.000	Y_WP:	0.000	Y_WP:	0.500	X:	0.002	Y:	-0.003	Z:	0.439	yaw:	-0.190	yaw rate:	5.761	Roll:	0.234	Pitch:	-0.239	Yaw:	-0.561	Thrust:	59.938
Time:	4.486	Roll Set Point:	-0.003	Pitch Set Point:	0.006	Yaw Set Point:	-0.001	X_WP:	0.000	Y_WP:	0.000	Y_WP:	0.500	X:	0.001	Y:	-0.003	Z:	0.439	yaw:	0.054	yaw rate:	-24.413	Roll:	-0.512	Pitch:	0.039	Yaw:	3.740	Thrust:	60.641
Time:	4.506	Roll Set Point:	-0.002	Pitch Set Point:	0.004	Yaw Set Point:	0.031	X_WP:	0.000	Y_WP:	0.000	Y_WP:	0.500	X:	0.001	Y:	-0.002	Z:	0.437	yaw:	-1.781	yaw rate:	183.442	Roll:	-0.383	Pitch:	0.407	Yaw:	-26.054	Thrust:	61.258
Time:	4.530	Roll Set Point:	-0.002	Pitch Set Point:	0.004	Yaw Set Point:	0.028	X_WP:	0.000	Y_WP:	0.000	Y_WP:	0.500	X:	0.001	Y:	-0.002	Z:	0.436	yaw:	-1.614	yaw rate:	-16.631	Roll:	-0.095	Pitch:	-0.164	Yaw:	0.145	Thrust:	69.303
Time:	4.546	Roll Set Point:	-0.003	Pitch Set Point:	0.004	Yaw Set Point:	-0.011	X_WP:	0.000	Y_WP:	0.000	Y_WP:	0.500	X:	0.001	Y:	-0.002	Z:	0.436	yaw:	0.653	yaw rate:	-226.779	Roll:	0.460	Pitch:	-0.173	Yaw:	37.159	Thrust:	49.961
Time:	4.566	Roll Set Point:	-0.003	Pitch Set Point:	0.004	Yaw Set Point:	-0.005	X_WP:	0.000	Y_WP:	0.000	Y_WP:	0.500	X:	0.001	Y:	-0.002	Z:	0.435	yaw:	0.279	yaw rate:	37.484	Roll:	-0.014	Pitch:	0.145	Yaw:	-3.966	Thrust:	61.866
Time:	4.588	Roll Set Point:	-0.002	Pitch Set Point:	0.004	Yaw Set Point:	0.003	X_WP:	0.000	Y_WP:	0.000	Y_WP:	0.500	X:	0.001	Y:	-0.002	Z:	0.435	yaw:	-0.182	yaw rate:	46.071	Roll:	-0.188	Pitch:	-0.139	Yaw:	-5.208	Thrust:	61.875
Time:	4.606	Roll Set Point:	-0.002	Pitch Set Point:	0.003	Yaw Set Point:	-0.002	X_WP:	0.000	Y_WP:	0.000	Y_WP:	0.500	X:	0.001	Y:	-0.002	Z:	0.434	yaw:	0.097	yaw rate:	-27.865	Roll:	-0.073	Pitch:	0.214	Yaw:	4.692	Thrust:	57.511
Time:	4.626	Roll Set Point:	-0.002	Pitch Set Point:	0.003	Yaw Set Point:	-0.006	X_WP:	0.000	Y_WP:	0.000	Y_WP:	0.500	X:	0.001	Y:	-0.001	Z:	0.433	yaw:	0.323	yaw rate:	-22.619	Roll:	-0.046	Pitch:	-0.071	Yaw:	3.908	Thrust:	58.754
Time:	4.645	Roll Set Point:	-0.002	Pitch Set Point:	0.003	Yaw Set Point:	-0.005	X_WP:	0.000	Y_WP:	0.000	Y_WP:	0.500	X:	0.001	Y:	-0.001	Z:	0.433	yaw:	0.284	yaw rate:	3.925	Roll:	-0.084	Pitch:	-0.009	Yaw:	0.324	Thrust:	61.078
Time:	4.667	Roll Set Point:	-0.002	Pitch Set Point:	0.003	Yaw Set Point:	-0.004	X_WP:	0.000	Y_WP:	0.000	Y_WP:	0.500	X:	0.001	Y:	-0.001	Z:	0.432	yaw:	0.242	yaw rate:	4.110	Roll:	-0.046	Pitch:	-0.073	Yaw:	0.338	Thrust:	65.093
Time:	4.686	Roll Set Point:	-0.001	Pitch Set Point:	0.002	Yaw Set Point:	-0.010	X_WP:	0.000	Y_WP:	0.000	Y_WP:	0.500	X:	0.001	Y:	-0.001	Z:	0.431	yaw:	0.569	yaw rate:	-32.616	Roll:	-0.065	Pitch:	-0.034	Yaw:	5.617	Thrust:	57.720
Time:	4.705	Roll Set Point:	-0.001	Pitch Set Point:	0.002	Yaw Set Point:	-0.006	X_WP:	0.000	Y_WP:	0.000	Y_WP:	0.500	X:	0.001	Y:	-0.001	Z:	0.430	yaw:	0.342	yaw rate:	22.661	Roll:	-0.008	Pitch:	-0.137	Yaw:	-2.209	Thrust:	61.498
Time:	4.726	Roll Set Point:	-0.001	Pitch Set Point:	0.002	Yaw Set Point:	-0.007	X_WP:	0.000	Y_WP:	0.000	Y_WP:	0.500	X:	0.001	Y:	-0.001	Z:	0.430	yaw:	0.396	yaw rate:	-5.387	Roll:	-0.126	Pitch:	-0.007	Yaw:	1.724	Thrust:	63.623
Time:	4.746	Roll Set Point:	-0.001	Pitch Set Point:	0.002	Yaw Set Point:	-0.002	X_WP:	0.000	Y_WP:	0.000	Y_WP:	0.500	X:	0.000	Y:	-0.001	Z:	0.430	yaw:	0.102	yaw rate:	29.396	Roll:	-0.074	Pitch:	-0.009	Yaw:	-3.324	Thrust:	60.101
Time:	4.772	Roll Set Point:	-0.001	Pitch Set Point:	0.002	Yaw Set Point:	0.002	X_WP:	0.000	Y_WP:	0.000	Y_WP:	0.500	X:	0.000	Y:	-0.001	Z:	0.429	yaw:	-0.106	yaw rate:	20.788	Roll:	-0.081	Pitch:	-0.068	Yaw:	-1.609	Thrust:	62.608
Time:	4.786	Roll Set Point:	-0.001	Pitch Set Point:	0.002	Yaw Set Point:	0.004	X_WP:	0.000	Y_WP:	0.000	Y_WP:	0.500	X:	0.000	Y:	-0.001	Z:	0.429	yaw:	-0.251	yaw rate:	14.495	Roll:	-0.050	Pitch:	-0.021	Yaw:	-2.710	Thrust:	59.750
Time:	4.806	Roll Set Point:	-0.001	Pitch Set Point:	0.001	Yaw Set Point:	0.002	X_WP:	0.000	Y_WP:	0.000	Y_WP:	0.500	X:	0.000	Y:	-0.001	Z:	0.430	yaw:	-0.092	yaw rate:	-15.923	Roll:	-0.086	Pitch:	0.041	Yaw:	2.426	Thrust:	60.559
Time:	4.829	Roll Set Point:	-0.000	Pitch Set Point:	0.001	Yaw Set Point:	0.015	X_WP:	0.000	Y_WP:	0.000	Y_WP:	0.500	X:	0.000	Y:	-0.001	Z:	0.430	yaw:	-0.865	yaw rate:	77.298	Roll:	-0.211	Pitch:	-0.088	Yaw:	-9.179	Thrust:	71.553
Time:	4.846	Roll Set Point:	0.000	Pitch Set Point:	0.001	Yaw Set Point:	0.034	X_WP:	0.000	Y_WP:	0.000	Y_WP:	0.500	X:	-0.000	Y:	-0.001	Z:	0.430	yaw:	-1.948	yaw rate:	108.310	Roll:	-0.339	Pitch:	0.095	Yaw:	-20.589	Thrust:	47.217
Time:	4.866	Roll Set Point:	-0.001	Pitch Set Point:	0.002	Yaw Set Point:	0.001	X_WP:	0.000	Y_WP:	0.000	Y_WP:	0.500	X:	0.000	Y:	-0.001	Z:	0.431	yaw:	-0.048	yaw rate:	-189.965	Roll:	0.507	Pitch:	-0.310	Yaw:	24.591	Thrust:	60.700
Time:	4.886	Roll Set Point:	-0.001	Pitch Set Point:	0.001	Yaw Set Point:	-0.000	X_WP:	0.000	Y_WP:	0.000	Y_WP:	0.500	X:	0.000	Y:	-0.001	Z:	0.432	yaw:	0.011	yaw rate:	-5.913	Roll:	-0.034	Pitch:	-0.067	Yaw:	1.241	Thrust:	59.663
Time:	4.906	Roll Set Point:	-0.001	Pitch Set Point:	0.001	Yaw Set Point:	0.001	X_WP:	0.000	Y_WP:	0.000	Y_WP:	0.500	X:	0.000	Y:	-0.001	Z:	0.433	yaw:	-0.037	yaw rate:	4.816	Roll:	-0.049	Pitch:	-0.066	Yaw:	-0.224	Thrust:	57.574
Time:	4.926	Roll Set Point:	-0.001	Pitch Set Point:	0.001	Yaw Set Point:	0.004	X_WP:	0.000	Y_WP:	0.000	Y_WP:	0.500	X:	0.000	Y:	-0.001	Z:	0.435	yaw:	-0.221	yaw rate:	18.430	Roll:	-0.055	Pitch:	-0.085	Yaw:	-2.301	Thrust:	59.185
Time:	4.948	Roll Set Point:	-0.001	Pitch Set Point:	0.001	Yaw Set Point:	0.004	X_WP:	0.000	Y_WP:	0.000	Y_WP:	0.500	X:	0.000	Y:	-0.001	Z:	0.436	yaw:	-0.242	yaw rate:	2.027	Roll:	0.008	Pitch:	-0.108	Yaw:	-0.075	Thrust:	64.939
Time:	4.969	Roll Set Point:	-0.001	Pitch Set Point:	0.001	Yaw Set Point:	0.004	X_WP:	0.000	Y_WP:	0.000	Y_WP:	0.500	X:	0.000	Y:	-0.001	Z:	0.438	yaw:	-0.257	yaw rate:	1.548	Roll:	-0.077	Pitch:	-0.057	Yaw:	-0.076	Thrust:	61.648
Time:	4.987	Roll Set Point:	-0.001	Pitch Set Point:	0.002	Yaw Set Point:	0.005	X_WP:	0.000	Y_WP:	0.000	Y_WP:	0.500	X:	0.000	Y:	-0.001	Z:	0.439	yaw:	-0.296	yaw rate:	3.890	Roll:	0.081	Pitch:	-0.190	Yaw:	-0.555	Thrust:	50.019
Time:	5.006	Roll Set Point:	-0.001	Pitch Set Point:	0.001	Yaw Set Point:	0.002	X_WP:	0.000	Y_WP:	0.000	Y_WP:	0.500	X:	0.000	Y:	-0.001	Z:	0.441	yaw:	-0.120	yaw rate:	-17.596	Roll:	-0.067	Pitch:	-0.054	Yaw:	2.728	Thrust:	55.261
Time:	5.026	Roll Set Point:	-0.001	Pitch Set Point:	0.002	Yaw Set Point:	0.002	X_WP:	0.000	Y_WP:	0.000	Y_WP:	0.500	X:	0.000	Y:	-0.001	Z:	0.443	yaw:	-0.119	yaw rate:	-0.110	Roll:	0.117	Pitch:	-0.229	Yaw:	0.296	Thrust:	59.941
Time:	5.046	Roll Set Point:	-0.001	Pitch Set Point:	0.002	Yaw Set Point:	0.005	X_WP:	0.000	Y_WP:	0.000	Y_WP:	0.500	X:	0.000	Y:	-0.001	Z:	0.445	yaw:	-0.268	yaw rate:	14.891	Roll:	-0.049	Pitch:	-0.023	Yaw:	-1.812	Thrust:	59.764
Time:	5.068	Roll Set Point:	-0.000	Pitch Set Point:	0.001	Yaw Set Point:	0.015	X_WP:	0.000	Y_WP:	0.000	Y_WP:	0.500	X:	0.000	Y:	-0.001	Z:	0.446	yaw:	-0.857	yaw rate:	58.852	Roll:	-0.270	Pitch:	-0.087	Yaw:	-7.978	Thrust:	60.977
Time:	5.087	Roll Set Point:	-0.001	Pitch Set Point:	0.002	Yaw Set Point:	0.006	X_WP:	0.000	Y_WP:	0.000	Y_WP:	0.500	X:	0.000	Y:	-0.001	Z:	0.448	yaw:	-0.336	yaw rate:	-52.024	Roll:	0.226	Pitch:	-0.128	Yaw:	7.277	Thrust:	55.064
Time:	5.106	Roll Set Point:	-0.001	Pitch Set Point:	0.002	Yaw Set Point:	0.002	X_WP:	0.000	Y_WP:	0.000	Y_WP:	0.500	X:	0.000	Y:	-0.001	Z:	0.449	yaw:	-0.106	yaw rate:	-23.045	Roll:	-0.048	Pitch:	-0.092	Yaw:	3.353	Thrust:	56.606
Time:	5.127	Roll Set Point:	-0.001	Pitch Set Point:	0.002	Yaw Set Point:	-0.003	X_WP:	0.000	Y_WP:	0.000	Y_WP:	0.500	X:	0.000	Y:	-0.001	Z:	0.451	yaw:	0.150	yaw rate:	-25.589	Roll:	0.051	Pitch:	-0.152	Yaw:	3.848	Thrust:	62.176
Time:	5.149	Roll Set Point:	0.000	Pitch Set Point:	0.001	Yaw Set Point:	0.039	X_WP:	0.000	Y_WP:	0.000	Y_WP:	0.500	X:	-0.000	Y:	-0.001	Z:	0.452	yaw:	-2.240	yaw rate:	239.049	Roll:	-0.583	Pitch:	0.167	Yaw:	-32.373	Thrust:	61.568
Time:	5.167	Roll Set Point:	-0.000	Pitch Set Point:	0.001	Yaw Set Point:	0.018	X_WP:	0.000	Y_WP:	0.000	Y_WP:	0.500	X:	0.000	Y:	-0.001	Z:	0.453	yaw:	-1.013	yaw rate:	-122.720	Roll:	0.257	Pitch:	-0.233	Yaw:	16.258	Thrust:	57.413
Time:	5.194	Roll Set Point:	-0.000	Pitch Set Point:	0.001	Yaw Set Point:	0.017	X_WP:	0.000	Y_WP:	0.000	Y_WP:	0.500	X:	0.000	Y:	-0.001	Z:	0.455	yaw:	-0.953	yaw rate:	-6.043	Roll:	0.015	Pitch:	-0.125	Yaw:	-0.186	Thrust:	74.491
Time:	5.207	Roll Set Point:	-0.000	Pitch Set Point:	0.001	Yaw Set Point:	0.013	X_WP:	0.000	Y_WP:	0.000	Y_WP:	0.500	X:	0.000	Y:	-0.001	Z:	0.456	yaw:	-0.766	yaw rate:	-18.726	Roll:	-0.092	Pitch:	-0.111	Yaw:	3.203	Thrust:	41.055
Time:	5.229	Roll Set Point:	-0.000	Pitch Set Point:	0.001	Yaw Set Point:	0.018	X_WP:	0.000	Y_WP:	0.000	Y_WP:	0.500	X:	0.000	Y:	-0.001	Z:	0.457	yaw:	-1.017	yaw rate:	25.160	Roll:	-0.089	Pitch:	-0.062	Yaw:	-3.796	Thrust:	69.407
Time:	5.246	Roll Set Point:	0.000	Pitch Set Point:	0.001	Yaw Set Point:	0.019	X_WP:	0.000	Y_WP:	0.000	Y_WP:	0.500	X:	-0.000	Y:	-0.001	Z:	0.459	yaw:	-1.109	yaw rate:	9.198	Roll:	-0.125	Pitch:	0.031	Yaw:	-2.600	Thrust:	50.450
Time:	5.269	Roll Set Point:	0.000	Pitch Set Point:	0.001	Yaw Set Point:	0.017	X_WP:	0.000	Y_WP:	0.000	Y_WP:	0.500	X:	-0.000	Y:	-0.001	Z:	0.460	yaw:	-0.990	yaw rate:	-11.926	Roll:	-0.007	Pitch:	-0.138	Yaw:	0.438	Thrust:	64.336
Time:	5.289	Roll Set Point:	0.001	Pitch Set Point:	0.001	Yaw Set Point:	0.023	X_WP:	0.000	Y_WP:	0.000	Y_WP:	0.500	X:	-0.000	Y:	-0.000	Z:	0.461	yaw:	-1.307	yaw rate:	31.677	Roll:	-0.222	Pitch:	0.073	Yaw:	-5.467	Thrust:	61.434
Time:	5.306	Roll Set Point:	0.001	Pitch Set Point:	0.001	Yaw Set Point:	0.012	X_WP:	0.000	Y_WP:	0.000	Y_WP:	0.500	X:	-0.000	Y:	-0.000	Z:	0.462	yaw:	-0.673	yaw rate:	-63.341	Roll:	-0.047	Pitch:	-0.120	Yaw:	9.370	Thrust:	53.784
Time:	5.328	Roll Set Point:	0.001	Pitch Set Point:	0.000	Yaw Set Point:	0.019	X_WP:	0.000	Y_WP:	0.000	Y_WP:	0.500	X:	-0.000	Y:	-0.000	Z:	0.462	yaw:	-1.105	yaw rate:	43.206	Roll:	-0.174	Pitch:	0.141	Yaw:	-6.331	Thrust:	65.142
Time:	5.346	Roll Set Point:	0.001	Pitch Set Point:	0.000	Yaw Set Point:	0.019	X_WP:	0.000	Y_WP:	0.000	Y_WP:	0.500	X:	-0.000	Y:	-0.000	Z:	0.462	yaw:	-1.066	yaw rate:	-3.905	Roll:	-0.048	Pitch:	-0.110	Yaw:	-0.601	Thrust:	58.306
