Time:	0.043	Roll Set Point:	-0.117	Pitch Set Point:	-2.247	Yaw Set Point:	-0.016	X_WP:	0.000	Y_WP:	0.000	Y_WP:	0.750	X:	0.049	Y:	1.124	Z:	0.410	yaw:	0.943	yaw rate:	5.875	Roll:	1.967	Pitch:	30.000	Yaw:	1.317	Thrust:	18.727
Time:	0.063	Roll Set Point:	-0.117	Pitch Set Point:	-2.247	Yaw Set Point:	-0.016	X_WP:	0.000	Y_WP:	0.000	Y_WP:	0.750	X:	0.049	Y:	1.124	Z:	0.410	yaw:	0.926	yaw rate:	1.687	Roll:	1.704	Pitch:	30.000	Yaw:	1.074	Thrust:	19.371
Time:	0.082	Roll Set Point:	-0.117	Pitch Set Point:	-2.247	Yaw Set Point:	-0.016	X_WP:	0.000	Y_WP:	0.000	Y_WP:	0.750	X:	0.049	Y:	1.124	Z:	0.410	yaw:	0.932	yaw rate:	-0.572	Roll:	2.041	Pitch:	30.000	Yaw:	1.390	Thrust:	20.437
Time:	0.103	Roll Set Point:	-0.115	Pitch Set Point:	-2.247	Yaw Set Point:	-0.014	X_WP:	0.000	Y_WP:	0.000	Y_WP:	0.750	X:	0.049	Y:	1.124	Z:	0.410	yaw:	0.818	yaw rate:	11.365	Roll:	0.030	Pitch:	30.000	Yaw:	-0.293	Thrust:	21.181
Time:	0.124	Roll Set Point:	-0.115	Pitch Set Point:	-2.247	Yaw Set Point:	-0.015	X_WP:	0.000	Y_WP:	0.000	Y_WP:	0.750	X:	0.049	Y:	1.124	Z:	0.410	yaw:	0.833	yaw rate:	-1.517	Roll:	2.172	Pitch:	30.000	Yaw:	1.382	Thrust:	22.092
Time:	0.144	Roll Set Point:	-0.114	Pitch Set Point:	-2.247	Yaw Set Point:	-0.014	X_WP:	0.000	Y_WP:	0.000	Y_WP:	0.750	X:	0.049	Y:	1.124	Z:	0.410	yaw:	0.796	yaw rate:	3.702	Roll:	1.258	Pitch:	30.000	Yaw:	0.644	Thrust:	22.470
Time:	0.169	Roll Set Point:	-0.116	Pitch Set Point:	-2.247	Yaw Set Point:	-0.016	X_WP:	0.000	Y_WP:	0.000	Y_WP:	0.750	X:	0.049	Y:	1.124	Z:	0.410	yaw:	0.890	yaw rate:	-9.349	Roll:	3.118	Pitch:	30.000	Yaw:	2.226	Thrust:	25.387
Time:	0.183	Roll Set Point:	-0.116	Pitch Set Point:	-2.247	Yaw Set Point:	-0.015	X_WP:	0.000	Y_WP:	0.000	Y_WP:	0.750	X:	0.049	Y:	1.124	Z:	0.410	yaw:	0.868	yaw rate:	2.207	Roll:	1.412	Pitch:	30.000	Yaw:	0.811	Thrust:	22.678
Time:	0.203	Roll Set Point:	-0.115	Pitch Set Point:	-2.247	Yaw Set Point:	-0.015	X_WP:	0.000	Y_WP:	0.000	Y_WP:	0.750	X:	0.049	Y:	1.124	Z:	0.410	yaw:	0.838	yaw rate:	3.005	Roll:	1.435	Pitch:	30.000	Yaw:	0.835	Thrust:	25.367
Time:	0.223	Roll Set Point:	-0.114	Pitch Set Point:	-2.247	Yaw Set Point:	-0.013	X_WP:	0.000	Y_WP:	0.000	Y_WP:	0.750	X:	0.049	Y:	1.124	Z:	0.410	yaw:	0.772	yaw rate:	6.530	Roll:	0.844	Pitch:	30.000	Yaw:	0.258	Thrust:	25.864
Time:	0.243	Roll Set Point:	-0.117	Pitch Set Point:	-2.247	Yaw Set Point:	-0.017	X_WP:	0.000	Y_WP:	0.000	Y_WP:	0.750	X:	0.049	Y:	1.124	Z:	0.410	yaw:	0.952	yaw rate:	-17.940	Roll:	4.892	Pitch:	30.000	Yaw:	3.683	Thrust:	27.201
Time:	0.263	Roll Set Point:	-0.115	Pitch Set Point:	-2.247	Yaw Set Point:	-0.015	X_WP:	0.000	Y_WP:	0.000	Y_WP:	0.750	X:	0.049	Y:	1.124	Z:	0.410	yaw:	0.836	yaw rate:	11.533	Roll:	0.029	Pitch:	30.000	Yaw:	-0.298	Thrust:	27.523
Time:	0.283	Roll Set Point:	-0.116	Pitch Set Point:	-2.247	Yaw Set Point:	-0.015	X_WP:	0.000	Y_WP:	0.000	Y_WP:	0.750	X:	0.049	Y:	1.124	Z:	0.410	yaw:	0.870	yaw rate:	-3.393	Roll:	2.530	Pitch:	30.000	Yaw:	1.727	Thrust:	28.658
Time:	0.303	Roll Set Point:	-0.115	Pitch Set Point:	-2.247	Yaw Set Point:	-0.014	X_WP:	0.000	Y_WP:	0.000	Y_WP:	0.750	X:	0.049	Y:	1.124	Z:	0.410	yaw:	0.820	yaw rate:	5.006	Roll:	1.104	Pitch:	30.000	Yaw:	0.545	Thrust:	29.045
Time:	0.323	Roll Set Point:	-0.116	Pitch Set Point:	-2.247	Yaw Set Point:	-0.016	X_WP:	0.000	Y_WP:	0.000	Y_WP:	0.750	X:	0.049	Y:	1.124	Z:	0.410	yaw:	0.900	yaw rate:	-7.985	Roll:	3.306	Pitch:	30.000	Yaw:	2.367	Thrust:	30.478
Time:	0.344	Roll Set Point:	-0.115	Pitch Set Point:	-2.247	Yaw Set Point:	-0.015	X_WP:	0.000	Y_WP:	0.000	Y_WP:	0.750	X:	0.049	Y:	1.124	Z:	0.410	yaw:	0.838	yaw rate:	6.244	Roll:	1.029	Pitch:	30.000	Yaw:	0.497	Thrust:	31.613
Time:	0.363	Roll Set Point:	-0.115	Pitch Set Point:	-2.247	Yaw Set Point:	-0.014	X_WP:	0.000	Y_WP:	0.000	Y_WP:	0.750	X:	0.049	Y:	1.124	Z:	0.410	yaw:	0.821	yaw rate:	1.691	Roll:	1.633	Pitch:	30.000	Yaw:	1.002	Thrust:	31.109
Time:	0.384	Roll Set Point:	-0.115	Pitch Set Point:	-2.247	Yaw Set Point:	-0.015	X_WP:	0.000	Y_WP:	0.000	Y_WP:	0.750	X:	0.049	Y:	1.124	Z:	0.410	yaw:	0.833	yaw rate:	-1.182	Roll:	2.150	Pitch:	30.000	Yaw:	1.418	Thrust:	32.972
Time:	0.404	Roll Set Point:	-0.117	Pitch Set Point:	-2.247	Yaw Set Point:	-0.017	X_WP:	0.000	Y_WP:	0.000	Y_WP:	0.750	X:	0.049	Y:	1.124	Z:	0.410	yaw:	0.948	yaw rate:	-11.547	Roll:	4.061	Pitch:	30.000	Yaw:	2.993	Thrust:	32.989
Time:	0.423	Roll Set Point:	-0.115	Pitch Set Point:	-2.247	Yaw Set Point:	-0.015	X_WP:	0.000	Y_WP:	0.000	Y_WP:	0.750	X:	0.049	Y:	1.124	Z:	0.410	yaw:	0.833	yaw rate:	11.545	Roll:	0.162	Pitch:	30.000	Yaw:	-0.187	Thrust:	34.164
Time:	0.443	Roll Set Point:	-0.117	Pitch Set Point:	-2.247	Yaw Set Point:	-0.017	X_WP:	0.000	Y_WP:	0.000	Y_WP:	0.750	X:	0.049	Y:	1.124	Z:	0.410	yaw:	0.949	yaw rate:	-11.609	Roll:	4.007	Pitch:	30.000	Yaw:	2.965	Thrust:	34.816
Time:	0.463	Roll Set Point:	-0.115	Pitch Set Point:	-2.247	Yaw Set Point:	-0.014	X_WP:	0.000	Y_WP:	0.000	Y_WP:	0.750	X:	0.049	Y:	1.124	Z:	0.410	yaw:	0.811	yaw rate:	13.824	Roll:	-0.287	Pitch:	30.000	Yaw:	-0.572	Thrust:	36.454
Time:	0.483	Roll Set Point:	-0.116	Pitch Set Point:	-2.247	Yaw Set Point:	-0.015	X_WP:	0.000	Y_WP:	0.000	Y_WP:	0.750	X:	0.049	Y:	1.124	Z:	0.410	yaw:	0.887	yaw rate:	-7.662	Roll:	3.301	Pitch:	30.000	Yaw:	2.422	Thrust:	35.780
Time:	0.503	Roll Set Point:	-0.115	Pitch Set Point:	-2.247	Yaw Set Point:	-0.014	X_WP:	0.000	Y_WP:	0.000	Y_WP:	0.750	X:	0.049	Y:	1.124	Z:	0.410	yaw:	0.804	yaw rate:	8.298	Roll:	0.643	Pitch:	30.000	Yaw:	0.203	Thrust:	37.918
Time:	0.524	Roll Set Point:	-0.114	Pitch Set Point:	-2.247	Yaw Set Point:	-0.014	X_WP:	0.000	Y_WP:	0.000	Y_WP:	0.750	X:	0.049	Y:	1.124	Z:	0.410	yaw:	0.783	yaw rate:	2.147	Roll:	1.614	Pitch:	30.000	Yaw:	0.969	Thrust:	38.959
Time:	0.544	Roll Set Point:	-0.114	Pitch Set Point:	-2.247	Yaw Set Point:	-0.014	X_WP:	0.000	Y_WP:	0.000	Y_WP:	0.750	X:	0.049	Y:	1.124	Z:	0.410	yaw:	0.787	yaw rate:	-0.442	Roll:	2.024	Pitch:	30.000	Yaw:	1.312	Thrust:	40.225
Time:	0.563	Roll Set Point:	-0.115	Pitch Set Point:	-2.247	Yaw Set Point:	-0.015	X_WP:	0.000	Y_WP:	0.000	Y_WP:	0.750	X:	0.049	Y:	1.124	Z:	0.410	yaw:	0.841	yaw rate:	-5.345	Roll:	2.909	Pitch:	30.000	Yaw:	2.072	Thrust:	38.432
Time:	0.583	Roll Set Point:	-0.117	Pitch Set Point:	-2.247	Yaw Set Point:	-0.016	X_WP:	0.000	Y_WP:	0.000	Y_WP:	0.750	X:	0.049	Y:	1.124	Z:	0.410	yaw:	0.945	yaw rate:	-10.473	Roll:	3.812	Pitch:	30.000	Yaw:	2.853	Thrust:	40.873
Time:	0.603	Roll Set Point:	-0.117	Pitch Set Point:	-2.247	Yaw Set Point:	-0.017	X_WP:	0.000	Y_WP:	0.000	Y_WP:	0.750	X:	0.049	Y:	1.124	Z:	0.410	yaw:	0.946	yaw rate:	-0.035	Roll:	2.040	Pitch:	30.000	Yaw:	1.491	Thrust:	41.400
Time:	0.624	Roll Set Point:	-0.116	Pitch Set Point:	-2.247	Yaw Set Point:	-0.015	X_WP:	0.000	Y_WP:	0.000	Y_WP:	0.750	X:	0.049	Y:	1.124	Z:	0.410	yaw:	0.853	yaw rate:	9.277	Roll:	0.561	Pitch:	30.000	Yaw:	0.222	Thrust:	42.996
Time:	0.642	Roll Set Point:	-0.115	Pitch Set Point:	-2.247	Yaw Set Point:	-0.015	X_WP:	0.000	Y_WP:	0.000	Y_WP:	0.750	X:	0.049	Y:	1.124	Z:	0.410	yaw:	0.843	yaw rate:	0.965	Roll:	1.829	Pitch:	30.000	Yaw:	1.210	Thrust:	42.183
Time:	0.664	Roll Set Point:	-0.115	Pitch Set Point:	-2.247	Yaw Set Point:	-0.015	X_WP:	0.000	Y_WP:	0.000	Y_WP:	0.750	X:	0.049	Y:	1.124	Z:	0.410	yaw:	0.849	yaw rate:	-0.547	Roll:	2.104	Pitch:	30.000	Yaw:	1.450	Thrust:	44.989
Time:	0.683	Roll Set Point:	-0.116	Pitch Set Point:	-2.247	Yaw Set Point:	-0.015	X_WP:	0.000	Y_WP:	0.000	Y_WP:	0.750	X:	0.049	Y:	1.124	Z:	0.410	yaw:	0.886	yaw rate:	-3.761	Roll:	2.668	Pitch:	30.000	Yaw:	1.931	Thrust:	44.821
Time:	0.704	Roll Set Point:	-0.117	Pitch Set Point:	-2.247	Yaw Set Point:	-0.016	X_WP:	0.000	Y_WP:	0.000	Y_WP:	0.750	X:	0.049	Y:	1.124	Z:	0.410	yaw:	0.907	yaw rate:	-2.048	Roll:	2.422	Pitch:	30.000	Yaw:	1.735	Thrust:	45.077
Time:	0.723	Roll Set Point:	-0.117	Pitch Set Point:	-2.247	Yaw Set Point:	-0.016	X_WP:	0.000	Y_WP:	0.000	Y_WP:	0.750	X:	0.049	Y:	1.124	Z:	0.410	yaw:	0.914	yaw rate:	-0.678	Roll:	2.166	Pitch:	30.000	Yaw:	1.571	Thrust:	46.751
Time:	0.744	Roll Set Point:	-0.117	Pitch Set Point:	-2.247	Yaw Set Point:	-0.016	X_WP:	0.000	Y_WP:	0.000	Y_WP:	0.750	X:	0.049	Y:	1.124	Z:	0.410	yaw:	0.943	yaw rate:	-2.916	Roll:	2.522	Pitch:	30.000	Yaw:	1.902	Thrust:	48.790
Time:	0.763	Roll Set Point:	-0.116	Pitch Set Point:	-2.247	Yaw Set Point:	-0.015	X_WP:	0.000	Y_WP:	0.000	Y_WP:	0.750	X:	0.049	Y:	1.124	Z:	0.410	yaw:	0.877	yaw rate:	6.575	Roll:	0.911	Pitch:	30.000	Yaw:	0.546	Thrust:	47.125
Time:	0.783	Roll Set Point:	-0.117	Pitch Set Point:	-2.247	Yaw Set Point:	-0.016	X_WP:	0.000	Y_WP:	0.000	Y_WP:	0.750	X:	0.049	Y:	1.124	Z:	0.410	yaw:	0.911	yaw rate:	-3.405	Roll:	2.635	Pitch:	30.000	Yaw:	1.943	Thrust:	48.740
Time:	0.802	Roll Set Point:	-0.117	Pitch Set Point:	-2.247	Yaw Set Point:	-0.016	X_WP:	0.000	Y_WP:	0.000	Y_WP:	0.750	X:	0.049	Y:	1.124	Z:	0.410	yaw:	0.912	yaw rate:	-0.049	Roll:	2.056	Pitch:	30.000	Yaw:	1.501	Thrust:	48.711
Time:	0.823	Roll Set Point:	-0.116	Pitch Set Point:	-2.247	Yaw Set Point:	-0.015	X_WP:	0.000	Y_WP:	0.000	Y_WP:	0.750	X:	0.049	Y:	1.124	Z:	0.410	yaw:	0.870	yaw rate:	4.113	Roll:	1.409	Pitch:	30.000	Yaw:	0.941	Thrust:	51.606
Time:	0.846	Roll Set Point:	-0.115	Pitch Set Point:	-2.247	Yaw Set Point:	-0.015	X_WP:	0.000	Y_WP:	0.000	Y_WP:	0.750	X:	0.049	Y:	1.124	Z:	0.410	yaw:	0.837	yaw rate:	3.385	Roll:	1.536	Pitch:	30.000	Yaw:	1.028	Thrust:	54.455
Time:	0.864	Roll Set Point:	-0.115	Pitch Set Point:	-2.247	Yaw Set Point:	-0.014	X_WP:	0.000	Y_WP:	0.000	Y_WP:	0.750	X:	0.049	Y:	1.124	Z:	0.410	yaw:	0.822	yaw rate:	1.457	Roll:	1.729	Pitch:	30.000	Yaw:	1.184	Thrust:	50.715
Time:	0.884	Roll Set Point:	-0.115	Pitch Set Point:	-2.247	Yaw Set Point:	-0.014	X_WP:	0.000	Y_WP:	0.000	Y_WP:	0.750	X:	0.049	Y:	1.124	Z:	0.410	yaw:	0.815	yaw rate:	0.645	Roll:	1.957	Pitch:	30.000	Yaw:	1.301	Thrust:	52.201
Time:	0.906	Roll Set Point:	-0.116	Pitch Set Point:	-2.247	Yaw Set Point:	-0.015	X_WP:	0.000	Y_WP:	0.000	Y_WP:	0.750	X:	0.049	Y:	1.124	Z:	0.410	yaw:	0.861	yaw rate:	-4.576	Roll:	2.823	Pitch:	30.000	Yaw:	2.029	Thrust:	56.240
Time:	0.924	Roll Set Point:	-0.116	Pitch Set Point:	-2.246	Yaw Set Point:	-0.015	X_WP:	0.000	Y_WP:	0.000	Y_WP:	0.750	X:	0.049	Y:	1.124	Z:	0.409	yaw:	0.885	yaw rate:	-2.341	Roll:	2.422	Pitch:	30.000	Yaw:	1.815	Thrust:	53.313
Time:	0.944	Roll Set Point:	-0.117	Pitch Set Point:	-2.247	Yaw Set Point:	-0.016	X_WP:	0.000	Y_WP:	0.000	Y_WP:	0.750	X:	0.049	Y:	1.124	Z:	0.410	yaw:	0.919	yaw rate:	-3.405	Roll:	2.677	Pitch:	30.000	Yaw:	1.999	Thrust:	55.729
Time:	0.964	Roll Set Point:	-0.116	Pitch Set Point:	-2.247	Yaw Set Point:	-0.015	X_WP:	0.000	Y_WP:	0.000	Y_WP:	0.750	X:	0.049	Y:	1.124	Z:	0.410	yaw:	0.863	yaw rate:	5.575	Roll:	1.108	Pitch:	30.000	Yaw:	0.752	Thrust:	55.315
Time:	0.984	Roll Set Point:	-0.116	Pitch Set Point:	-2.247	Yaw Set Point:	-0.016	X_WP:	0.000	Y_WP:	0.000	Y_WP:	0.750	X:	0.049	Y:	1.124	Z:	0.410	yaw:	0.893	yaw rate:	-3.019	Roll:	2.599	Pitch:	30.000	Yaw:	1.927	Thrust:	57.021
Time:	1.004	Roll Set Point:	-0.115	Pitch Set Point:	-2.247	Yaw Set Point:	-0.014	X_WP:	0.000	Y_WP:	0.000	Y_WP:	0.750	X:	0.049	Y:	1.124	Z:	0.410	yaw:	0.825	yaw rate:	6.810	Roll:	0.920	Pitch:	30.000	Yaw:	0.538	Thrust:	58.525
Time:	1.025	Roll Set Point:	-0.118	Pitch Set Point:	-2.247	Yaw Set Point:	-0.017	X_WP:	0.000	Y_WP:	0.000	Y_WP:	0.750	X:	0.049	Y:	1.124	Z:	0.410	yaw:	0.972	yaw rate:	-14.697	Roll:	4.486	Pitch:	30.000	Yaw:	3.516	Thrust:	59.432
Time:	1.045	Roll Set Point:	-0.114	Pitch Set Point:	-2.247	Yaw Set Point:	-0.014	X_WP:	0.000	Y_WP:	0.000	Y_WP:	0.750	X:	0.049	Y:	1.124	Z:	0.410	yaw:	0.787	yaw rate:	18.508	Roll:	-0.941	Pitch:	30.000	Yaw:	-1.097	Thrust:	59.397
Time:	1.065	Roll Set Point:	-0.116	Pitch Set Point:	-2.247	Yaw Set Point:	-0.015	X_WP:	0.000	Y_WP:	0.000	Y_WP:	0.750	X:	0.049	Y:	1.124	Z:	0.410	yaw:	0.880	yaw rate:	-9.330	Roll:	3.674	Pitch:	30.000	Yaw:	2.750	Thrust:	60.839
Time:	1.085	Roll Set Point:	-0.117	Pitch Set Point:	-2.247	Yaw Set Point:	-0.016	X_WP:	0.000	Y_WP:	0.000	Y_WP:	0.750	X:	0.049	Y:	1.124	Z:	0.410	yaw:	0.933	yaw rate:	-5.305	Roll:	2.995	Pitch:	30.000	Yaw:	2.310	Thrust:	61.502
Time:	1.105	Roll Set Point:	-0.115	Pitch Set Point:	-2.247	Yaw Set Point:	-0.014	X_WP:	0.000	Y_WP:	0.000	Y_WP:	0.750	X:	0.049	Y:	1.124	Z:	0.410	yaw:	0.830	yaw rate:	10.347	Roll:	0.249	Pitch:	30.000	Yaw:	0.153	Thrust:	60.555
Time:	1.124	Roll Set Point:	-0.115	Pitch Set Point:	-2.247	Yaw Set Point:	-0.015	X_WP:	0.000	Y_WP:	0.000	Y_WP:	0.750	X:	0.049	Y:	1.124	Z:	0.410	yaw:	0.848	yaw rate:	-1.800	Roll:	2.414	Pitch:	30.000	Yaw:	1.743	Thrust:	61.884
Time:	1.144	Roll Set Point:	-0.114	Pitch Set Point:	-2.247	Yaw Set Point:	-0.014	X_WP:	0.000	Y_WP:	0.000	Y_WP:	0.750	X:	0.049	Y:	1.124	Z:	0.410	yaw:	0.801	yaw rate:	4.670	Roll:	1.265	Pitch:	30.000	Yaw:	0.853	Thrust:	65.325
Time:	1.164	Roll Set Point:	-0.116	Pitch Set Point:	-2.247	Yaw Set Point:	-0.016	X_WP:	0.000	Y_WP:	0.000	Y_WP:	0.750	X:	0.049	Y:	1.124	Z:	0.410	yaw:	0.888	yaw rate:	-8.724	Roll:	3.579	Pitch:	30.000	Yaw:	2.720	Thrust:	63.509
Time:	1.184	Roll Set Point:	-0.115	Pitch Set Point:	-2.247	Yaw Set Point:	-0.015	X_WP:	0.000	Y_WP:	0.000	Y_WP:	0.750	X:	0.049	Y:	1.124	Z:	0.410	yaw:	0.844	yaw rate:	4.470	Roll:	1.359	Pitch:	30.000	Yaw:	0.931	Thrust:	64.990
Time:	1.205	Roll Set Point:	-0.117	Pitch Set Point:	-2.247	Yaw Set Point:	-0.016	X_WP:	0.000	Y_WP:	0.000	Y_WP:	0.750	X:	0.050	Y:	1.124	Z:	0.410	yaw:	0.911	yaw rate:	-6.770	Roll:	3.631	Pitch:	30.000	Yaw:	2.518	Thrust:	66.293
Time:	1.224	Roll Set Point:	-0.117	Pitch Set Point:	-2.247	Yaw Set Point:	-0.016	X_WP:	0.000	Y_WP:	0.000	Y_WP:	0.750	X:	0.049	Y:	1.124	Z:	0.410	yaw:	0.925	yaw rate:	-1.410	Roll:	2.083	Pitch:	30.000	Yaw:	1.835	Thrust:	67.403
Time:	1.245	Roll Set Point:	-0.115	Pitch Set Point:	-2.247	Yaw Set Point:	-0.014	X_WP:	0.000	Y_WP:	0.000	Y_WP:	0.750	X:	0.049	Y:	1.124	Z:	0.410	yaw:	0.821	yaw rate:	10.476	Roll:	0.481	Pitch:	30.000	Yaw:	0.266	Thrust:	69.115
Time:	1.264	Roll Set Point:	-0.118	Pitch Set Point:	-2.247	Yaw Set Point:	-0.017	X_WP:	0.000	Y_WP:	0.000	Y_WP:	0.750	X:	0.049	Y:	1.124	Z:	0.410	yaw:	0.972	yaw rate:	-15.122	Roll:	4.784	Pitch:	30.000	Yaw:	3.815	Thrust:	67.863
Time:	1.284	Roll Set Point:	-0.115	Pitch Set Point:	-2.247	Yaw Set Point:	-0.014	X_WP:	0.000	Y_WP:	0.000	Y_WP:	0.750	X:	0.049	Y:	1.124	Z:	0.410	yaw:	0.812	yaw rate:	16.028	Roll:	-0.569	Pitch:	30.000	Yaw:	-0.546	Thrust:	69.001
Time:	1.306	Roll Set Point:	-0.115	Pitch Set Point:	-2.247	Yaw Set Point:	-0.014	X_WP:	0.000	Y_WP:	0.000	Y_WP:	0.750	X:	0.049	Y:	1.124	Z:	0.410	yaw:	0.811	yaw rate:	0.043	Roll:	2.089	Pitch:	30.000	Yaw:	1.529	Thrust:	71.621
Time:	1.324	Roll Set Point:	-0.115	Pitch Set Point:	-2.247	Yaw Set Point:	-0.015	X_WP:	0.000	Y_WP:	0.000	Y_WP:	0.750	X:	0.049	Y:	1.124	Z:	0.410	yaw:	0.833	yaw rate:	-2.192	Roll:	2.488	Pitch:	30.000	Yaw:	1.834	Thrust:	69.801
Time:	1.345	Roll Set Point:	-0.117	Pitch Set Point:	-2.247	Yaw Set Point:	-0.016	X_WP:	0.000	Y_WP:	0.000	Y_WP:	0.750	X:	0.049	Y:	1.124	Z:	0.410	yaw:	0.913	yaw rate:	-8.014	Roll:	3.522	Pitch:	30.000	Yaw:	2.727	Thrust:	72.480
Time:	1.364	Roll Set Point:	-0.114	Pitch Set Point:	-2.247	Yaw Set Point:	-0.014	X_WP:	0.000	Y_WP:	0.000	Y_WP:	0.750	X:	0.049	Y:	1.124	Z:	0.410	yaw:	0.782	yaw rate:	13.124	Roll:	-0.095	Pitch:	30.000	Yaw:	-0.283	Thrust:	71.201
Time:	1.384	Roll Set Point:	-0.116	Pitch Set Point:	-2.247	Yaw Set Point:	-0.015	X_WP:	0.000	Y_WP:	0.000	Y_WP:	0.750	X:	0.049	Y:	1.124	Z:	0.410	yaw:	0.858	yaw rate:	-7.627	Roll:	3.403	Pitch:	30.000	Yaw:	2.588	Thrust:	74.915
Time:	1.406	Roll Set Point:	-0.115	Pitch Set Point:	-2.247	Yaw Set Point:	-0.014	X_WP:	0.000	Y_WP:	0.000	Y_WP:	0.750	X:	0.049	Y:	1.124	Z:	0.410	yaw:	0.804	yaw rate:	5.422	Roll:	1.234	Pitch:	30.000	Yaw:	0.884	Thrust:	74.546
Time:	1.424	Roll Set Point:	-0.117	Pitch Set Point:	-2.247	Yaw Set Point:	-0.016	X_WP:	0.000	Y_WP:	0.000	Y_WP:	0.750	X:	0.049	Y:	1.124	Z:	0.410	yaw:	0.909	yaw rate:	-10.536	Roll:	3.904	Pitch:	30.000	Yaw:	3.136	Thrust:	74.190
Time:	1.445	Roll Set Point:	-0.115	Pitch Set Point:	-2.247	Yaw Set Point:	-0.014	X_WP:	0.000	Y_WP:	0.000	Y_WP:	0.750	X:	0.049	Y:	1.124	Z:	0.410	yaw:	0.815	yaw rate:	9.485	Roll:	0.630	Pitch:	30.000	Yaw:	0.368	Thrust:	77.626
Time:	1.465	Roll Set Point:	-0.115	Pitch Set Point:	-2.247	Yaw Set Point:	-0.014	X_WP:	0.000	Y_WP:	0.000	Y_WP:	0.750	X:	0.049	Y:	1.124	Z:	0.410	yaw:	0.824	yaw rate:	-0.926	Roll:	2.309	Pitch:	30.000	Yaw:	1.694	Thrust:	75.519
Time:	1.484	Roll Set Point:	-0.116	Pitch Set Point:	-2.247	Yaw Set Point:	-0.015	X_WP:	0.000	Y_WP:	0.000	Y_WP:	0.750	X:	0.049	Y:	1.124	Z:	0.410	yaw:	0.862	yaw rate:	-3.799	Roll:	2.785	Pitch:	30.000	Yaw:	2.137	Thrust:	76.471
Time:	1.505	Roll Set Point:	-0.116	Pitch Set Point:	-2.247	Yaw Set Point:	-0.015	X_WP:	0.000	Y_WP:	0.000	Y_WP:	0.750	X:	0.049	Y:	1.124	Z:	0.410	yaw:	0.867	yaw rate:	-0.561	Roll:	2.267	Pitch:	30.000	Yaw:	1.727	Thrust:	78.636
Time:	1.525	Roll Set Point:	-0.117	Pitch Set Point:	-2.247	Yaw Set Point:	-0.017	X_WP:	0.000	Y_WP:	0.000	Y_WP:	0.750	X:	0.049	Y:	1.124	Z:	0.410	yaw:	0.953	yaw rate:	-8.554	Roll:	3.571	Pitch:	30.000	Yaw:	2.873	Thrust:	80.057
Time:	1.544	Roll Set Point:	-0.117	Pitch Set Point:	-2.247	Yaw Set Point:	-0.017	X_WP:	0.000	Y_WP:	0.000	Y_WP:	0.750	X:	0.049	Y:	1.124	Z:	0.410	yaw:	0.953	yaw rate:	-0.006	Roll:	2.226	Pitch:	30.000	Yaw:	1.766	Thrust:	75.856
Time:	1.566	Roll Set Point:	-0.116	Pitch Set Point:	-2.247	Yaw Set Point:	-0.015	X_WP:	0.000	Y_WP:	0.000	Y_WP:	0.750	X:	0.049	Y:	1.124	Z:	0.410	yaw:	0.864	yaw rate:	8.922	Roll:	0.842	Pitch:	30.000	Yaw:	0.627	Thrust:	89.141
Time:	1.586	Roll Set Point:	-0.115	Pitch Set Point:	-2.247	Yaw Set Point:	-0.014	X_WP:	0.000	Y_WP:	0.000	Y_WP:	0.750	X:	0.049	Y:	1.124	Z:	0.410	yaw:	0.824	yaw rate:	4.011	Roll:	1.504	Pitch:	30.000	Yaw:	1.092	Thrust:	81.637
Time:	1.609	Roll Set Point:	-0.117	Pitch Set Point:	-2.247	Yaw Set Point:	-0.016	X_WP:	0.000	Y_WP:	0.000	Y_WP:	0.750	X:	0.049	Y:	1.124	Z:	0.410	yaw:	0.929	yaw rate:	-10.543	Roll:	3.973	Pitch:	30.000	Yaw:	3.055	Thrust:	87.256
Time:	1.628	Roll Set Point:	-0.117	Pitch Set Point:	-2.247	Yaw Set Point:	-0.016	X_WP:	0.000	Y_WP:	0.000	Y_WP:	0.750	X:	0.049	Y:	1.124	Z:	0.410	yaw:	0.935	yaw rate:	-0.595	Roll:	2.342	Pitch:	30.000	Yaw:	1.853	Thrust:	83.483
Time:	1.647	Roll Set Point:	-0.117	Pitch Set Point:	-2.247	Yaw Set Point:	-0.016	X_WP:	0.000	Y_WP:	0.000	Y_WP:	0.750	X:	0.049	Y:	1.124	Z:	0.410	yaw:	0.927	yaw rate:	0.826	Roll:	2.080	Pitch:	30.000	Yaw:	1.644	Thrust:	82.806
Time:	1.665	Roll Set Point:	-0.118	Pitch Set Point:	-2.247	Yaw Set Point:	-0.017	X_WP:	0.000	Y_WP:	0.000	Y_WP:	0.750	X:	0.049	Y:	1.124	Z:	0.410	yaw:	0.986	yaw rate:	-5.879	Roll:	3.344	Pitch:	30.000	Yaw:	2.669	Thrust:	77.462
Time:	1.684	Roll Set Point:	-0.117	Pitch Set Point:	-2.247	Yaw Set Point:	-0.016	X_WP:	0.000	Y_WP:	0.000	Y_WP:	0.750	X:	0.049	Y:	1.124	Z:	0.410	yaw:	0.918	yaw rate:	6.804	Roll:	1.094	Pitch:	30.000	Yaw:	0.828	Thrust:	84.362
Time:	1.706	Roll Set Point:	-0.117	Pitch Set Point:	-2.247	Yaw Set Point:	-0.017	X_WP:	0.000	Y_WP:	0.000	Y_WP:	0.750	X:	0.049	Y:	1.124	Z:	0.410	yaw:	0.951	yaw rate:	-3.356	Roll:	2.829	Pitch:	30.000	Yaw:	2.275	Thrust:	89.273
Time:	1.724	Roll Set Point:	-0.118	Pitch Set Point:	-2.247	Yaw Set Point:	-0.017	X_WP:	0.000	Y_WP:	0.000	Y_WP:	0.750	X:	0.049	Y:	1.124	Z:	0.410	yaw:	0.966	yaw rate:	-1.488	Roll:	2.498	Pitch:	30.000	Yaw:	2.048	Thrust:	84.117
Time:	1.745	Roll Set Point:	-0.115	Pitch Set Point:	-2.247	Yaw Set Point:	-0.014	X_WP:	0.000	Y_WP:	0.000	Y_WP:	0.750	X:	0.049	Y:	1.124	Z:	0.410	yaw:	0.810	yaw rate:	15.608	Roll:	-0.299	Pitch:	30.000	Yaw:	-0.302	Thrust:	88.876
Time:	1.764	Roll Set Point:	-0.117	Pitch Set Point:	-2.247	Yaw Set Point:	-0.017	X_WP:	0.000	Y_WP:	0.000	Y_WP:	0.750	X:	0.049	Y:	1.124	Z:	0.410	yaw:	0.946	yaw rate:	-13.604	Roll:	4.599	Pitch:	30.000	Yaw:	3.684	Thrust:	87.793
Time:	1.785	Roll Set Point:	-0.117	Pitch Set Point:	-2.247	Yaw Set Point:	-0.016	X_WP:	0.000	Y_WP:	0.000	Y_WP:	0.750	X:	0.049	Y:	1.124	Z:	0.410	yaw:	0.942	yaw rate:	0.448	Roll:	2.192	Pitch:	30.000	Yaw:	1.798	Thrust:	91.264
Time:	1.806	Roll Set Point:	-0.115	Pitch Set Point:	-2.247	Yaw Set Point:	-0.014	X_WP:	0.000	Y_WP:	0.000	Y_WP:	0.750	X:	0.049	Y:	1.124	Z:	0.410	yaw:	0.826	yaw rate:	11.542	Roll:	0.275	Pitch:	30.000	Yaw:	0.283	Thrust:	92.501
Time:	1.825	Roll Set Point:	-0.117	Pitch Set Point:	-2.247	Yaw Set Point:	-0.017	X_WP:	0.000	Y_WP:	0.000	Y_WP:	0.750	X:	0.049	Y:	1.124	Z:	0.410	yaw:	0.958	yaw rate:	-13.148	Roll:	4.451	Pitch:	30.000	Yaw:	3.699	Thrust:	89.733
Time:	1.844	Roll Set Point:	-0.116	Pitch Set Point:	-2.247	Yaw Set Point:	-0.015	X_WP:	0.000	Y_WP:	0.000	Y_WP:	0.750	X:	0.049	Y:	1.124	Z:	0.410	yaw:	0.855	yaw rate:	10.306	Roll:	0.462	Pitch:	30.000	Yaw:	0.389	Thrust:	92.035
Time:	1.865	Roll Set Point:	-0.117	Pitch Set Point:	-2.247	Yaw Set Point:	-0.015	X_WP:	0.000	Y_WP:	0.000	Y_WP:	0.750	X:	0.050	Y:	1.124	Z:	0.410	yaw:	0.885	yaw rate:	-3.030	Roll:	3.014	Pitch:	30.000	Yaw:	2.190	Thrust:	93.942
Time:	1.884	Roll Set Point:	-0.116	Pitch Set Point:	-2.247	Yaw Set Point:	-0.015	X_WP:	0.000	Y_WP:	0.000	Y_WP:	0.750	X:	0.049	Y:	1.124	Z:	0.410	yaw:	0.879	yaw rate:	0.633	Roll:	1.830	Pitch:	30.000	Yaw:	1.688	Thrust:	92.330
Time:	1.906	Roll Set Point:	-0.115	Pitch Set Point:	-2.247	Yaw Set Point:	-0.014	X_WP:	0.000	Y_WP:	0.000	Y_WP:	0.750	X:	0.049	Y:	1.124	Z:	0.410	yaw:	0.820	yaw rate:	5.823	Roll:	1.312	Pitch:	30.000	Yaw:	1.083	Thrust:	98.796
Time:	1.924	Roll Set Point:	-0.115	Pitch Set Point:	-2.247	Yaw Set Point:	-0.014	X_WP:	0.000	Y_WP:	0.000	Y_WP:	0.750	X:	0.049	Y:	1.124	Z:	0.410	yaw:	0.827	yaw rate:	-0.703	Roll:	2.317	Pitch:	30.000	Yaw:	1.776	Thrust:	90.138
Time:	1.946	Roll Set Point:	-0.115	Pitch Set Point:	-2.247	Yaw Set Point:	-0.015	X_WP:	0.000	Y_WP:	0.000	Y_WP:	0.750	X:	0.049	Y:	1.124	Z:	0.410	yaw:	0.845	yaw rate:	-1.756	Roll:	2.509	Pitch:	30.000	Yaw:	2.019	Thrust:	100.000
Time:	1.964	Roll Set Point:	-0.117	Pitch Set Point:	-2.247	Yaw Set Point:	-0.016	X_WP:	0.000	Y_WP:	0.000	Y_WP:	0.750	X:	0.049	Y:	1.124	Z:	0.410	yaw:	0.916	yaw rate:	-7.123	Roll:	3.533	Pitch:	30.000	Yaw:	2.841	Thrust:	93.271
Time:	1.984	Roll Set Point:	-0.115	Pitch Set Point:	-2.247	Yaw Set Point:	-0.014	X_WP:	0.000	Y_WP:	0.000	Y_WP:	0.750	X:	0.049	Y:	1.124	Z:	0.410	yaw:	0.819	yaw rate:	9.663	Roll:	0.642	Pitch:	30.000	Yaw:	0.524	Thrust:	98.348
Time:	2.004	Roll Set Point:	-0.115	Pitch Set Point:	-2.247	Yaw Set Point:	-0.015	X_WP:	0.000	Y_WP:	0.000	Y_WP:	0.750	X:	0.049	Y:	1.124	Z:	0.410	yaw:	0.850	yaw rate:	-3.065	Roll:	2.758	Pitch:	30.000	Yaw:	2.177	Thrust:	97.199
Time:	2.025	Roll Set Point:	-0.115	Pitch Set Point:	-2.247	Yaw Set Point:	-0.015	X_WP:	0.000	Y_WP:	0.000	Y_WP:	0.750	X:	0.049	Y:	1.124	Z:	0.410	yaw:	0.841	yaw rate:	0.900	Roll:	2.106	Pitch:	30.000	Yaw:	1.716	Thrust:	100.000
Time:	2.044	Roll Set Point:	-0.115	Pitch Set Point:	-2.247	Yaw Set Point:	-0.014	X_WP:	0.000	Y_WP:	0.000	Y_WP:	0.750	X:	0.049	Y:	1.124	Z:	0.410	yaw:	0.824	yaw rate:	1.714	Roll:	1.960	Pitch:	30.000	Yaw:	1.475	Thrust:	96.734
Time:	2.065	Roll Set Point:	-0.114	Pitch Set Point:	-2.247	Yaw Set Point:	-0.014	X_WP:	0.000	Y_WP:	0.000	Y_WP:	0.750	X:	0.049	Y:	1.124	Z:	0.410	yaw:	0.796	yaw rate:	2.749	Roll:	1.770	Pitch:	30.000	Yaw:	1.389	Thrust:	100.000
Time:	2.084	Roll Set Point:	-0.117	Pitch Set Point:	-2.247	Yaw Set Point:	-0.016	X_WP:	0.000	Y_WP:	0.000	Y_WP:	0.750	X:	0.049	Y:	1.124	Z:	0.409	yaw:	0.926	yaw rate:	-12.920	Roll:	4.437	Pitch:	30.000	Yaw:	3.619	Thrust:	100.000
Time:	2.107	Roll Set Point:	-0.116	Pitch Set Point:	-2.247	Yaw Set Point:	-0.015	X_WP:	0.000	Y_WP:	0.000	Y_WP:	0.750	X:	0.049	Y:	1.124	Z:	0.410	yaw:	0.887	yaw rate:	3.915	Roll:	1.696	Pitch:	30.000	Yaw:	1.496	Thrust:	100.000
Time:	2.125	Roll Set Point:	-0.116	Pitch Set Point:	-2.247	Yaw Set Point:	-0.015	X_WP:	0.000	Y_WP:	0.000	Y_WP:	0.750	X:	0.049	Y:	1.124	Z:	0.410	yaw:	0.873	yaw rate:	1.370	Roll:	2.022	Pitch:	30.000	Yaw:	1.595	Thrust:	98.009
Time:	2.145	Roll Set Point:	-0.115	Pitch Set Point:	-2.247	Yaw Set Point:	-0.014	X_WP:	0.000	Y_WP:	0.000	Y_WP:	0.750	X:	0.049	Y:	1.124	Z:	0.410	yaw:	0.808	yaw rate:	6.518	Roll:	1.205	Pitch:	30.000	Yaw:	0.883	Thrust:	100.000
Time:	2.165	Roll Set Point:	-0.117	Pitch Set Point:	-2.247	Yaw Set Point:	-0.016	X_WP:	0.000	Y_WP:	0.000	Y_WP:	0.750	X:	0.049	Y:	1.124	Z:	0.410	yaw:	0.914	yaw rate:	-10.630	Roll:	4.113	Pitch:	30.000	Yaw:	3.311	Thrust:	100.000
Time:	2.185	Roll Set Point:	-0.116	Pitch Set Point:	-2.247	Yaw Set Point:	-0.015	X_WP:	0.000	Y_WP:	0.000	Y_WP:	0.750	X:	0.049	Y:	1.124	Z:	0.410	yaw:	0.880	yaw rate:	3.400	Roll:	1.791	Pitch:	30.000	Yaw:	1.462	Thrust:	100.000
Time:	2.205	Roll Set Point:	-0.117	Pitch Set Point:	-2.247	Yaw Set Point:	-0.016	X_WP:	0.000	Y_WP:	0.000	Y_WP:	0.750	X:	0.049	Y:	1.124	Z:	0.410	yaw:	0.943	yaw rate:	-6.319	Roll:	3.425	Pitch:	30.000	Yaw:	2.815	Thrust:	100.000
Time:	2.224	Roll Set Point:	-0.115	Pitch Set Point:	-2.247	Yaw Set Point:	-0.014	X_WP:	0.000	Y_WP:	0.000	Y_WP:	0.750	X:	0.049	Y:	1.124	Z:	0.410	yaw:	0.805	yaw rate:	13.770	Roll:	0.122	Pitch:	30.000	Yaw:	0.070	Thrust:	100.000
Time:	2.246	Roll Set Point:	-0.119	Pitch Set Point:	-2.247	Yaw Set Point:	-0.018	X_WP:	0.000	Y_WP:	0.000	Y_WP:	0.750	X:	0.049	Y:	1.124	Z:	0.410	yaw:	1.027	yaw rate:	-22.190	Roll:	5.930	Pitch:	30.000	Yaw:	4.863	Thrust:	100.000
Time:	2.264	Roll Set Point:	-0.115	Pitch Set Point:	-2.247	Yaw Set Point:	-0.015	X_WP:	0.000	Y_WP:	0.000	Y_WP:	0.750	X:	0.049	Y:	1.124	Z:	0.410	yaw:	0.853	yaw rate:	17.412	Roll:	-0.827	Pitch:	30.000	Yaw:	-0.688	Thrust:	100.000
Time:	2.285	Roll Set Point:	-0.114	Pitch Set Point:	-2.247	Yaw Set Point:	-0.013	X_WP:	0.000	Y_WP:	0.000	Y_WP:	0.750	X:	0.049	Y:	1.124	Z:	0.410	yaw:	0.768	yaw rate:	8.539	Roll:	0.861	Pitch:	30.000	Yaw:	0.701	Thrust:	100.000
Time:	2.312	Roll Set Point:	-0.116	Pitch Set Point:	-2.247	Yaw Set Point:	-0.015	X_WP:	0.000	Y_WP:	0.000	Y_WP:	0.750	X:	0.049	Y:	1.124	Z:	0.410	yaw:	0.875	yaw rate:	-10.711	Roll:	3.727	Pitch:	30.000	Yaw:	3.191	Thrust:	100.000
Time:	2.324	Roll Set Point:	-0.118	Pitch Set Point:	-2.247	Yaw Set Point:	-0.017	X_WP:	0.000	Y_WP:	0.000	Y_WP:	0.750	X:	0.049	Y:	1.124	Z:	0.410	yaw:	0.960	yaw rate:	-8.481	Roll:	4.442	Pitch:	30.000	Yaw:	3.488	Thrust:	79.851
Time:	2.345	Roll Set Point:	-0.116	Pitch Set Point:	-2.247	Yaw Set Point:	-0.016	X_WP:	0.000	Y_WP:	0.000	Y_WP:	0.750	X:	0.049	Y:	1.124	Z:	0.410	yaw:	0.895	yaw rate:	6.436	Roll:	1.155	Pitch:	30.000	Yaw:	1.141	Thrust:	100.000
Time:	2.365	Roll Set Point:	-0.115	Pitch Set Point:	-2.247	Yaw Set Point:	-0.015	X_WP:	0.000	Y_WP:	0.000	Y_WP:	0.750	X:	0.049	Y:	1.124	Z:	0.410	yaw:	0.836	yaw rate:	5.955	Roll:	1.361	Pitch:	30.000	Yaw:	1.062	Thrust:	100.000
Time:	2.384	Roll Set Point:	-0.115	Pitch Set Point:	-2.247	Yaw Set Point:	-0.015	X_WP:	0.000	Y_WP:	0.000	Y_WP:	0.750	X:	0.049	Y:	1.124	Z:	0.410	yaw:	0.850	yaw rate:	-1.448	Roll:	2.561	Pitch:	30.000	Yaw:	2.067	Thrust:	100.000
Time:	2.405	Roll Set Point:	-0.117	Pitch Set Point:	-2.247	Yaw Set Point:	-0.016	X_WP:	0.000	Y_WP:	0.000	Y_WP:	0.750	X:	0.049	Y:	1.124	Z:	0.410	yaw:	0.920	yaw rate:	-6.957	Roll:	3.451	Pitch:	30.000	Yaw:	2.906	Thrust:	100.000
Time:	2.425	Roll Set Point:	-0.117	Pitch Set Point:	-2.247	Yaw Set Point:	-0.017	X_WP:	0.000	Y_WP:	0.000	Y_WP:	0.750	X:	0.049	Y:	1.124	Z:	0.410	yaw:	0.949	yaw rate:	-2.934	Roll:	2.854	Pitch:	30.000	Yaw:	2.437	Thrust:	100.000
Time:	2.445	Roll Set Point:	-0.115	Pitch Set Point:	-2.247	Yaw Set Point:	-0.014	X_WP:	0.000	Y_WP:	0.000	Y_WP:	0.750	X:	0.049	Y:	1.124	Z:	0.410	yaw:	0.817	yaw rate:	13.220	Roll:	0.161	Pitch:	30.000	Yaw:	0.180	Thrust:	100.000
Time:	2.465	Roll Set Point:	-0.115	Pitch Set Point:	-2.247	Yaw Set Point:	-0.015	X_WP:	0.000	Y_WP:	0.000	Y_WP:	0.750	X:	0.049	Y:	1.124	Z:	0.410	yaw:	0.843	yaw rate:	-2.567	Roll:	2.755	Pitch:	30.000	Yaw:	2.243	Thrust:	100.000
Time:	2.484	Roll Set Point:	-0.117	Pitch Set Point:	-2.247	Yaw Set Point:	-0.016	X_WP:	0.000	Y_WP:	0.000	Y_WP:	0.750	X:	0.049	Y:	1.124	Z:	0.410	yaw:	0.925	yaw rate:	-8.216	Roll:	3.729	Pitch:	30.000	Yaw:	3.123	Thrust:	100.000
Time:	2.506	Roll Set Point:	-0.115	Pitch Set Point:	-2.247	Yaw Set Point:	-0.014	X_WP:	0.000	Y_WP:	0.000	Y_WP:	0.750	X:	0.049	Y:	1.124	Z:	0.410	yaw:	0.824	yaw rate:	10.036	Roll:	0.678	Pitch:	30.000	Yaw:	0.696	Thrust:	100.000
Time:	2.524	Roll Set Point:	-0.116	Pitch Set Point:	-2.247	Yaw Set Point:	-0.015	X_WP:	0.000	Y_WP:	0.000	Y_WP:	0.750	X:	0.049	Y:	1.124	Z:	0.410	yaw:	0.868	yaw rate:	-4.341	Roll:	3.051	Pitch:	30.000	Yaw:	2.525	Thrust:	100.000
Time:	2.543	Roll Set Point:	-0.117	Pitch Set Point:	-2.247	Yaw Set Point:	-0.016	X_WP:	0.000	Y_WP:	0.000	Y_WP:	0.750	X:	0.049	Y:	1.124	Z:	0.410	yaw:	0.923	yaw rate:	-5.462	Roll:	3.296	Pitch:	30.000	Yaw:	2.764	Thrust:	100.000
Time:	2.563	Roll Set Point:	-0.117	Pitch Set Point:	-2.247	Yaw Set Point:	-0.016	X_WP:	0.000	Y_WP:	0.000	Y_WP:	0.750	X:	0.049	Y:	1.124	Z:	0.410	yaw:	0.924	yaw rate:	-0.115	Roll:	2.400	Pitch:	30.000	Yaw:	2.076	Thrust:	100.000
Time:	2.584	Roll Set Point:	-0.115	Pitch Set Point:	-2.247	Yaw Set Point:	-0.014	X_WP:	0.000	Y_WP:	0.000	Y_WP:	0.750	X:	0.049	Y:	1.124	Z:	0.410	yaw:	0.804	yaw rate:	11.956	Roll:	0.440	Pitch:	30.000	Yaw:	0.430	Thrust:	100.000
Time:	2.603	Roll Set Point:	-0.115	Pitch Set Point:	-2.247	Yaw Set Point:	-0.015	X_WP:	0.000	Y_WP:	0.000	Y_WP:	0.750	X:	0.049	Y:	1.124	Z:	0.410	yaw:	0.835	yaw rate:	-3.055	Roll:	2.866	Pitch:	30.000	Yaw:	2.335	Thrust:	100.000
Time:	2.625	Roll Set Point:	-0.115	Pitch Set Point:	-2.247	Yaw Set Point:	-0.015	X_WP:	0.000	Y_WP:	0.000	Y_WP:	0.750	X:	0.049	Y:	1.124	Z:	0.410	yaw:	0.842	yaw rate:	-0.754	Roll:	2.463	Pitch:	30.000	Yaw:	2.115	Thrust:	100.000
Time:	2.644	Roll Set Point:	-0.115	Pitch Set Point:	-2.247	Yaw Set Point:	-0.014	X_WP:	0.000	Y_WP:	0.000	Y_WP:	0.750	X:	0.049	Y:	1.124	Z:	0.410	yaw:	0.818	yaw rate:	2.391	Roll:	1.971	Pitch:	30.000	Yaw:	1.588	Thrust:	100.000
Time:	2.666	Roll Set Point:	-0.117	Pitch Set Point:	-2.247	Yaw Set Point:	-0.016	X_WP:	0.000	Y_WP:	0.000	Y_WP:	0.750	X:	0.049	Y:	1.124	Z:	0.410	yaw:	0.908	yaw rate:	-8.970	Roll:	3.810	Pitch:	30.000	Yaw:	3.211	Thrust:	100.000
Time:	2.684	Roll Set Point:	-0.118	Pitch Set Point:	-2.247	Yaw Set Point:	-0.017	X_WP:	0.000	Y_WP:	0.000	Y_WP:	0.750	X:	0.049	Y:	1.124	Z:	0.410	yaw:	0.965	yaw rate:	-5.701	Roll:	3.401	Pitch:	30.000	Yaw:	2.901	Thrust:	100.000
Time:	2.706	Roll Set Point:	-0.116	Pitch Set Point:	-2.247	Yaw Set Point:	-0.015	X_WP:	0.000	Y_WP:	0.000	Y_WP:	0.750	X:	0.049	Y:	1.124	Z:	0.410	yaw:	0.859	yaw rate:	10.599	Roll:	0.541	Pitch:	30.000	Yaw:	0.598	Thrust:	100.000
Time:	2.725	Roll Set Point:	-0.114	Pitch Set Point:	-2.247	Yaw Set Point:	-0.014	X_WP:	0.000	Y_WP:	0.000	Y_WP:	0.750	X:	0.049	Y:	1.124	Z:	0.410	yaw:	0.803	yaw rate:	5.561	Roll:	1.426	Pitch:	30.000	Yaw:	1.257	Thrust:	100.000
Time:	2.746	Roll Set Point:	-0.116	Pitch Set Point:	-2.247	Yaw Set Point:	-0.016	X_WP:	0.000	Y_WP:	0.000	Y_WP:	0.750	X:	0.049	Y:	1.124	Z:	0.410	yaw:	0.901	yaw rate:	-9.758	Roll:	4.022	Pitch:	30.000	Yaw:	3.345	Thrust:	100.000
Time:	2.764	Roll Set Point:	-0.115	Pitch Set Point:	-2.247	Yaw Set Point:	-0.015	X_WP:	0.000	Y_WP:	0.000	Y_WP:	0.750	X:	0.049	Y:	1.124	Z:	0.410	yaw:	0.837	yaw rate:	6.404	Roll:	1.213	Pitch:	30.000	Yaw:	1.030	Thrust:	100.000
Time:	2.784	Roll Set Point:	-0.117	Pitch Set Point:	-2.247	Yaw Set Point:	-0.016	X_WP:	0.000	Y_WP:	0.000	Y_WP:	0.750	X:	0.049	Y:	1.124	Z:	0.410	yaw:	0.928	yaw rate:	-9.152	Roll:	3.917	Pitch:	30.000	Yaw:	3.323	Thrust:	100.000
Time:	2.806	Roll Set Point:	-0.115	Pitch Set Point:	-2.247	Yaw Set Point:	-0.015	X_WP:	0.000	Y_WP:	0.000	Y_WP:	0.750	X:	0.049	Y:	1.124	Z:	0.410	yaw:	0.837	yaw rate:	9.115	Roll:	0.869	Pitch:	30.000	Yaw:	0.904	Thrust:	100.000
Time:	2.825	Roll Set Point:	-0.114	Pitch Set Point:	-2.247	Yaw Set Point:	-0.014	X_WP:	0.000	Y_WP:	0.000	Y_WP:	0.750	X:	0.049	Y:	1.124	Z:	0.410	yaw:	0.797	yaw rate:	4.039	Roll:	1.714	Pitch:	30.000	Yaw:	1.417	Thrust:	100.000
Time:	2.844	Roll Set Point:	-0.114	Pitch Set Point:	-2.247	Yaw Set Point:	-0.014	X_WP:	0.000	Y_WP:	0.000	Y_WP:	0.750	X:	0.049	Y:	1.124	Z:	0.410	yaw:	0.787	yaw rate:	0.949	Roll:	2.168	Pitch:	30.000	Yaw:	1.804	Thrust:	100.000
Time:	2.864	Roll Set Point:	-0.115	Pitch Set Point:	-2.247	Yaw Set Point:	-0.014	X_WP:	0.000	Y_WP:	0.000	Y_WP:	0.750	X:	0.050	Y:	1.124	Z:	0.410	yaw:	0.818	yaw rate:	-3.098	Roll:	3.181	Pitch:	30.000	Yaw:	2.396	Thrust:	100.000
Time:	2.884	Roll Set Point:	-0.116	Pitch Set Point:	-2.247	Yaw Set Point:	-0.016	X_WP:	0.000	Y_WP:	0.000	Y_WP:	0.750	X:	0.049	Y:	1.124	Z:	0.410	yaw:	0.894	yaw rate:	-7.591	Roll:	3.413	Pitch:	30.000	Yaw:	3.105	Thrust:	100.000
Time:	2.905	Roll Set Point:	-0.115	Pitch Set Point:	-2.247	Yaw Set Point:	-0.014	X_WP:	0.000	Y_WP:	0.000	Y_WP:	0.750	X:	0.049	Y:	1.124	Z:	0.410	yaw:	0.818	yaw rate:	7.669	Roll:	1.149	Pitch:	30.000	Yaw:	1.087	Thrust:	100.000
Time:	2.925	Roll Set Point:	-0.115	Pitch Set Point:	-2.247	Yaw Set Point:	-0.015	X_WP:	0.000	Y_WP:	0.000	Y_WP:	0.750	X:	0.049	Y:	1.124	Z:	0.410	yaw:	0.831	yaw rate:	-1.337	Roll:	2.606	Pitch:	30.000	Yaw:	2.215	Thrust:	100.000
Time:	2.946	Roll Set Point:	-0.115	Pitch Set Point:	-2.247	Yaw Set Point:	-0.015	X_WP:	0.000	Y_WP:	0.000	Y_WP:	0.750	X:	0.049	Y:	1.124	Z:	0.410	yaw:	0.845	yaw rate:	-1.427	Roll:	2.657	Pitch:	30.000	Yaw:	2.285	Thrust:	100.000
Time:	2.964	Roll Set Point:	-0.116	Pitch Set Point:	-2.247	Yaw Set Point:	-0.015	X_WP:	0.000	Y_WP:	0.000	Y_WP:	0.750	X:	0.049	Y:	1.124	Z:	0.410	yaw:	0.858	yaw rate:	-1.298	Roll:	2.591	Pitch:	30.000	Yaw:	2.190	Thrust:	100.000
Time:	2.984	Roll Set Point:	-0.117	Pitch Set Point:	-2.247	Yaw Set Point:	-0.016	X_WP:	0.000	Y_WP:	0.000	Y_WP:	0.750	X:	0.049	Y:	1.124	Z:	0.410	yaw:	0.930	yaw rate:	-7.155	Roll:	3.663	Pitch:	30.000	Yaw:	3.128	Thrust:	100.000
Time:	3.003	Roll Set Point:	-0.115	Pitch Set Point:	-2.247	Yaw Set Point:	-0.014	X_WP:	0.000	Y_WP:	0.000	Y_WP:	0.750	X:	0.049	Y:	1.124	Z:	0.410	yaw:	0.827	yaw rate:	10.266	Roll:	0.711	Pitch:	30.000	Yaw:	0.607	Thrust:	100.000
Time:	3.024	Roll Set Point:	-0.116	Pitch Set Point:	-2.247	Yaw Set Point:	-0.015	X_WP:	0.000	Y_WP:	0.000	Y_WP:	0.750	X:	0.049	Y:	1.124	Z:	0.410	yaw:	0.870	yaw rate:	-4.310	Roll:	3.146	Pitch:	30.000	Yaw:	2.703	Thrust:	100.000
Time:	3.045	Roll Set Point:	-0.116	Pitch Set Point:	-2.247	Yaw Set Point:	-0.016	X_WP:	0.000	Y_WP:	0.000	Y_WP:	0.750	X:	0.049	Y:	1.124	Z:	0.410	yaw:	0.901	yaw rate:	-3.072	Roll:	2.940	Pitch:	30.000	Yaw:	2.563	Thrust:	100.000
Time:	3.064	Roll Set Point:	-0.117	Pitch Set Point:	-2.247	Yaw Set Point:	-0.017	X_WP:	0.000	Y_WP:	0.000	Y_WP:	0.750	X:	0.049	Y:	1.124	Z:	0.410	yaw:	0.950	yaw rate:	-4.860	Roll:	3.286	Pitch:	30.000	Yaw:	2.893	Thrust:	100.000
Time:	3.085	Roll Set Point:	-0.117	Pitch Set Point:	-2.247	Yaw Set Point:	-0.016	X_WP:	0.000	Y_WP:	0.000	Y_WP:	0.750	X:	0.049	Y:	1.124	Z:	0.410	yaw:	0.934	yaw rate:	1.527	Roll:	2.229	Pitch:	30.000	Yaw:	2.029	Thrust:	100.000
Time:	3.104	Roll Set Point:	-0.114	Pitch Set Point:	-2.247	Yaw Set Point:	-0.013	X_WP:	0.000	Y_WP:	0.000	Y_WP:	0.750	X:	0.049	Y:	1.124	Z:	0.410	yaw:	0.758	yaw rate:	17.599	Roll:	-0.637	Pitch:	30.000	Yaw:	-0.416	Thrust:	100.000
Time:	3.126	Roll Set Point:	-0.114	Pitch Set Point:	-2.247	Yaw Set Point:	-0.014	X_WP:	0.000	Y_WP:	0.000	Y_WP:	0.750	X:	0.049	Y:	1.124	Z:	0.410	yaw:	0.796	yaw rate:	-3.769	Roll:	3.036	Pitch:	30.000	Yaw:	2.592	Thrust:	100.000
Time:	3.145	Roll Set Point:	-0.119	Pitch Set Point:	-2.247	Yaw Set Point:	-0.018	X_WP:	0.000	Y_WP:	0.000	Y_WP:	0.750	X:	0.049	Y:	1.124	Z:	0.410	yaw:	1.023	yaw rate:	-22.666	Roll:	6.383	Pitch:	30.000	Yaw:	5.430	Thrust:	100.000
Time:	3.164	Roll Set Point:	-0.117	Pitch Set Point:	-2.247	Yaw Set Point:	-0.016	X_WP:	0.000	Y_WP:	0.000	Y_WP:	0.750	X:	0.049	Y:	1.124	Z:	0.410	yaw:	0.906	yaw rate:	11.621	Roll:	0.427	Pitch:	30.000	Yaw:	0.573	Thrust:	100.000
Time:	3.185	Roll Set Point:	-0.116	Pitch Set Point:	-2.247	Yaw Set Point:	-0.015	X_WP:	0.000	Y_WP:	0.000	Y_WP:	0.750	X:	0.049	Y:	1.124	Z:	0.410	yaw:	0.864	yaw rate:	4.271	Roll:	1.767	Pitch:	30.000	Yaw:	1.661	Thrust:	100.000
Time:	3.204	Roll Set Point:	-0.114	Pitch Set Point:	-2.247	Yaw Set Point:	-0.014	X_WP:	0.000	Y_WP:	0.000	Y_WP:	0.750	X:	0.049	Y:	1.124	Z:	0.410	yaw:	0.785	yaw rate:	7.876	Roll:	1.025	Pitch:	30.000	Yaw:	0.900	Thrust:	100.000
Time:	3.225	Roll Set Point:	-0.115	Pitch Set Point:	-2.247	Yaw Set Point:	-0.014	X_WP:	0.000	Y_WP:	0.000	Y_WP:	0.750	X:	0.049	Y:	1.124	Z:	0.410	yaw:	0.811	yaw rate:	-2.567	Roll:	2.858	Pitch:	30.000	Yaw:	2.467	Thrust:	100.000
Time:	3.246	Roll Set Point:	-0.115	Pitch Set Point:	-2.247	Yaw Set Point:	-0.015	X_WP:	0.000	Y_WP:	0.000	Y_WP:	0.750	X:	0.049	Y:	1.124	Z:	0.410	yaw:	0.833	yaw rate:	-2.272	Roll:	2.805	Pitch:	30.000	Yaw:	2.476	Thrust:	100.000
Time:	3.264	Roll Set Point:	-0.119	Pitch Set Point:	-2.247	Yaw Set Point:	-0.017	X_WP:	0.000	Y_WP:	0.000	Y_WP:	0.750	X:	0.050	Y:	1.124	Z:	0.410	yaw:	0.978	yaw rate:	-14.423	Roll:	5.276	Pitch:	30.000	Yaw:	4.318	Thrust:	100.000
Time:	3.285	Roll Set Point:	-0.117	Pitch Set Point:	-2.247	Yaw Set Point:	-0.016	X_WP:	0.000	Y_WP:	0.000	Y_WP:	0.750	X:	0.049	Y:	1.124	Z:	0.410	yaw:	0.920	yaw rate:	5.800	Roll:	1.238	Pitch:	30.000	Yaw:	1.510	Thrust:	100.000
Time:	3.305	Roll Set Point:	-0.115	Pitch Set Point:	-2.247	Yaw Set Point:	-0.014	X_WP:	0.000	Y_WP:	0.000	Y_WP:	0.750	X:	0.049	Y:	1.124	Z:	0.410	yaw:	0.821	yaw rate:	9.826	Roll:	0.848	Pitch:	30.000	Yaw:	0.862	Thrust:	100.000
Time:	3.325	Roll Set Point:	-0.116	Pitch Set Point:	-2.247	Yaw Set Point:	-0.015	X_WP:	0.000	Y_WP:	0.000	Y_WP:	0.750	X:	0.049	Y:	1.124	Z:	0.410	yaw:	0.858	yaw rate:	-3.706	Roll:	3.065	Pitch:	30.000	Yaw:	2.682	Thrust:	100.000
Time:	3.346	Roll Set Point:	-0.114	Pitch Set Point:	-2.247	Yaw Set Point:	-0.014	X_WP:	0.000	Y_WP:	0.000	Y_WP:	0.750	X:	0.049	Y:	1.124	Z:	0.410	yaw:	0.797	yaw rate:	6.165	Roll:	1.502	Pitch:	30.000	Yaw:	1.406	Thrust:	100.000
Time:	3.365	Roll Set Point:	-0.116	Pitch Set Point:	-2.247	Yaw Set Point:	-0.016	X_WP:	0.000	Y_WP:	0.000	Y_WP:	0.750	X:	0.049	Y:	1.124	Z:	0.410	yaw:	0.902	yaw rate:	-10.572	Roll:	4.292	Pitch:	30.000	Yaw:	3.689	Thrust:	100.000
Time:	3.385	Roll Set Point:	-0.116	Pitch Set Point:	-2.247	Yaw Set Point:	-0.016	X_WP:	0.000	Y_WP:	0.000	Y_WP:	0.750	X:	0.049	Y:	1.124	Z:	0.410	yaw:	0.902	yaw rate:	0.021	Roll:	2.527	Pitch:	30.000	Yaw:	2.277	Thrust:	100.000
Time:	3.407	Roll Set Point:	-0.115	Pitch Set Point:	-2.247	Yaw Set Point:	-0.015	X_WP:	0.000	Y_WP:	0.000	Y_WP:	0.750	X:	0.049	Y:	1.124	Z:	0.410	yaw:	0.851	yaw rate:	5.099	Roll:	1.611	Pitch:	30.000	Yaw:	1.654	Thrust:	100.000
Time:	3.425	Roll Set Point:	-0.115	Pitch Set Point:	-2.247	Yaw Set Point:	-0.014	X_WP:	0.000	Y_WP:	0.000	Y_WP:	0.750	X:	0.049	Y:	1.124	Z:	0.410	yaw:	0.812	yaw rate:	3.899	Roll:	1.823	Pitch:	30.000	Yaw:	1.600	Thrust:	100.000
Time:	3.445	Roll Set Point:	-0.116	Pitch Set Point:	-2.247	Yaw Set Point:	-0.015	X_WP:	0.000	Y_WP:	0.000	Y_WP:	0.750	X:	0.049	Y:	1.124	Z:	0.410	yaw:	0.875	yaw rate:	-6.229	Roll:	3.537	Pitch:	30.000	Yaw:	3.060	Thrust:	100.000
Time:	3.465	Roll Set Point:	-0.115	Pitch Set Point:	-2.247	Yaw Set Point:	-0.014	X_WP:	0.000	Y_WP:	0.000	Y_WP:	0.750	X:	0.049	Y:	1.124	Z:	0.410	yaw:	0.803	yaw rate:	7.124	Roll:	1.250	Pitch:	30.000	Yaw:	1.251	Thrust:	100.000
Time:	3.484	Roll Set Point:	-0.119	Pitch Set Point:	-2.247	Yaw Set Point:	-0.017	X_WP:	0.000	Y_WP:	0.000	Y_WP:	0.750	X:	0.050	Y:	1.124	Z:	0.410	yaw:	0.982	yaw rate:	-17.852	Roll:	5.883	Pitch:	30.000	Yaw:	4.755	Thrust:	100.000
Time:	3.505	Roll Set Point:	-0.117	Pitch Set Point:	-2.247	Yaw Set Point:	-0.016	X_WP:	0.000	Y_WP:	0.000	Y_WP:	0.750	X:	0.049	Y:	1.124	Z:	0.410	yaw:	0.940	yaw rate:	4.211	Roll:	1.558	Pitch:	30.000	Yaw:	1.896	Thrust:	100.000
Time:	3.525	Roll Set Point:	-0.118	Pitch Set Point:	-2.247	Yaw Set Point:	-0.017	X_WP:	0.000	Y_WP:	0.000	Y_WP:	0.750	X:	0.049	Y:	1.124	Z:	0.410	yaw:	0.978	yaw rate:	-3.857	Roll:	3.224	Pitch:	30.000	Yaw:	2.917	Thrust:	100.000
Time:	3.545	Roll Set Point:	-0.112	Pitch Set Point:	-2.247	Yaw Set Point:	-0.011	X_WP:	0.000	Y_WP:	0.000	Y_WP:	0.750	X:	0.049	Y:	1.124	Z:	0.409	yaw:	0.658	yaw rate:	32.054	Roll:	-2.974	Pitch:	30.000	Yaw:	-2.059	Thrust:	100.000
Time:	3.563	Roll Set Point:	-0.116	Pitch Set Point:	-2.247	Yaw Set Point:	-0.015	X_WP:	0.000	Y_WP:	0.000	Y_WP:	0.750	X:	0.049	Y:	1.124	Z:	0.410	yaw:	0.873	yaw rate:	-21.489	Roll:	6.335	Pitch:	30.000	Yaw:	5.300	Thrust:	100.000
Time:	3.583	Roll Set Point:	-0.116	Pitch Set Point:	-2.247	Yaw Set Point:	-0.015	X_WP:	0.000	Y_WP:	0.000	Y_WP:	0.750	X:	0.049	Y:	1.124	Z:	0.410	yaw:	0.880	yaw rate:	-0.695	Roll:	2.683	Pitch:	30.000	Yaw:	2.399	Thrust:	100.000
Time:	3.606	Roll Set Point:	-0.115	Pitch Set Point:	-2.247	Yaw Set Point:	-0.015	X_WP:	0.000	Y_WP:	0.000	Y_WP:	0.750	X:	0.049	Y:	1.124	Z:	0.410	yaw:	0.842	yaw rate:	3.786	Roll:	1.923	Pitch:	30.000	Yaw:	1.956	Thrust:	100.000
Time:	3.624	Roll Set Point:	-0.116	Pitch Set Point:	-2.247	Yaw Set Point:	-0.015	X_WP:	0.000	Y_WP:	0.000	Y_WP:	0.750	X:	0.049	Y:	1.124	Z:	0.410	yaw:	0.878	yaw rate:	-3.634	Roll:	3.127	Pitch:	30.000	Yaw:	2.723	Thrust:	100.000
Time:	3.644	Roll Set Point:	-0.117	Pitch Set Point:	-2.247	Yaw Set Point:	-0.016	X_WP:	0.000	Y_WP:	0.000	Y_WP:	0.750	X:	0.049	Y:	1.124	Z:	0.410	yaw:	0.936	yaw rate:	-5.820	Roll:	3.517	Pitch:	30.000	Yaw:	3.160	Thrust:	100.000
Time:	3.663	Roll Set Point:	-0.117	Pitch Set Point:	-2.247	Yaw Set Point:	-0.016	X_WP:	0.000	Y_WP:	0.000	Y_WP:	0.750	X:	0.049	Y:	1.124	Z:	0.410	yaw:	0.908	yaw rate:	2.842	Roll:	2.050	Pitch:	30.000	Yaw:	1.963	Thrust:	100.000
Time:	3.683	Roll Set Point:	-0.117	Pitch Set Point:	-2.247	Yaw Set Point:	-0.016	X_WP:	0.000	Y_WP:	0.000	Y_WP:	0.750	X:	0.049	Y:	1.124	Z:	0.410	yaw:	0.917	yaw rate:	-0.881	Roll:	2.679	Pitch:	30.000	Yaw:	2.505	Thrust:	100.000
Time:	3.704	Roll Set Point:	-0.117	Pitch Set Point:	-2.247	Yaw Set Point:	-0.016	X_WP:	0.000	Y_WP:	0.000	Y_WP:	0.750	X:	0.049	Y:	1.124	Z:	0.410	yaw:	0.911	yaw rate:	0.593	Roll:	2.457	Pitch:	30.000	Yaw:	2.289	Thrust:	100.000
Time:	3.723	Roll Set Point:	-0.116	Pitch Set Point:	-2.247	Yaw Set Point:	-0.015	X_WP:	0.000	Y_WP:	0.000	Y_WP:	0.750	X:	0.049	Y:	1.124	Z:	0.410	yaw:	0.859	yaw rate:	5.214	Roll:	1.715	Pitch:	30.000	Yaw:	1.642	Thrust:	100.000
Time:	3.745	Roll Set Point:	-0.115	Pitch Set Point:	-2.247	Yaw Set Point:	-0.014	X_WP:	0.000	Y_WP:	0.000	Y_WP:	0.750	X:	0.049	Y:	1.124	Z:	0.410	yaw:	0.826	yaw rate:	3.296	Roll:	2.008	Pitch:	30.000	Yaw:	2.009	Thrust:	100.000
Time:	3.763	Roll Set Point:	-0.118	Pitch Set Point:	-2.247	Yaw Set Point:	-0.016	X_WP:	0.000	Y_WP:	0.000	Y_WP:	0.750	X:	0.050	Y:	1.124	Z:	0.410	yaw:	0.931	yaw rate:	-10.556	Roll:	4.774	Pitch:	30.000	Yaw:	3.863	Thrust:	100.000
Time:	3.784	Roll Set Point:	-0.116	Pitch Set Point:	-2.247	Yaw Set Point:	-0.015	X_WP:	0.000	Y_WP:	0.000	Y_WP:	0.750	X:	0.049	Y:	1.124	Z:	0.410	yaw:	0.860	yaw rate:	7.109	Roll:	1.150	Pitch:	30.000	Yaw:	1.471	Thrust:	100.000
Time:	3.804	Roll Set Point:	-0.118	Pitch Set Point:	-2.247	Yaw Set Point:	-0.017	X_WP:	0.000	Y_WP:	0.000	Y_WP:	0.750	X:	0.049	Y:	1.124	Z:	0.410	yaw:	0.968	yaw rate:	-10.750	Roll:	4.353	Pitch:	30.000	Yaw:	3.899	Thrust:	100.000
Time:	3.825	Roll Set Point:	-0.115	Pitch Set Point:	-2.247	Yaw Set Point:	-0.014	X_WP:	0.000	Y_WP:	0.000	Y_WP:	0.750	X:	0.049	Y:	1.124	Z:	0.410	yaw:	0.829	yaw rate:	13.847	Roll:	0.248	Pitch:	30.000	Yaw:	0.521	Thrust:	100.000
Time:	3.844	Roll Set Point:	-0.115	Pitch Set Point:	-2.247	Yaw Set Point:	-0.015	X_WP:	0.000	Y_WP:	0.000	Y_WP:	0.750	X:	0.049	Y:	1.124	Z:	0.410	yaw:	0.833	yaw rate:	-0.411	Roll:	2.607	Pitch:	30.000	Yaw:	2.313	Thrust:	100.000
Time:	3.864	Roll Set Point:	-0.116	Pitch Set Point:	-2.247	Yaw Set Point:	-0.015	X_WP:	0.000	Y_WP:	0.000	Y_WP:	0.750	X:	0.049	Y:	1.124	Z:	0.410	yaw:	0.870	yaw rate:	-3.690	Roll:	3.191	Pitch:	30.000	Yaw:	2.860	Thrust:	100.000
Time:	3.883	Roll Set Point:	-0.114	Pitch Set Point:	-2.247	Yaw Set Point:	-0.014	X_WP:	0.000	Y_WP:	0.000	Y_WP:	0.750	X:	0.049	Y:	1.124	Z:	0.410	yaw:	0.788	yaw rate:	8.171	Roll:	1.086	Pitch:	30.000	Yaw:	1.140	Thrust:	100.000
Time:	3.904	Roll Set Point:	-0.116	Pitch Set Point:	-2.247	Yaw Set Point:	-0.015	X_WP:	0.000	Y_WP:	0.000	Y_WP:	0.750	X:	0.049	Y:	1.124	Z:	0.410	yaw:	0.881	yaw rate:	-9.274	Roll:	4.106	Pitch:	30.000	Yaw:	3.622	Thrust:	100.000
Time:	3.929	Roll Set Point:	-0.118	Pitch Set Point:	-2.247	Yaw Set Point:	-0.017	X_WP:	0.000	Y_WP:	0.000	Y_WP:	0.750	X:	0.049	Y:	1.124	Z:	0.410	yaw:	0.975	yaw rate:	-9.381	Roll:	4.038	Pitch:	30.000	Yaw:	3.851	Thrust:	100.000
Time:	3.943	Roll Set Point:	-0.114	Pitch Set Point:	-2.247	Yaw Set Point:	-0.014	X_WP:	0.000	Y_WP:	0.000	Y_WP:	0.750	X:	0.049	Y:	1.124	Z:	0.410	yaw:	0.792	yaw rate:	18.308	Roll:	-1.935	Pitch:	30.000	Yaw:	-1.474	Thrust:	100.000
Time:	3.963	Roll Set Point:	-0.114	Pitch Set Point:	-2.247	Yaw Set Point:	-0.014	X_WP:	0.000	Y_WP:	0.000	Y_WP:	0.750	X:	0.049	Y:	1.124	Z:	0.410	yaw:	0.796	yaw rate:	-0.447	Roll:	2.619	Pitch:	30.000	Yaw:	2.340	Thrust:	100.000
Time:	3.983	Roll Set Point:	-0.115	Pitch Set Point:	-2.247	Yaw Set Point:	-0.014	X_WP:	0.000	Y_WP:	0.000	Y_WP:	0.750	X:	0.049	Y:	1.124	Z:	0.410	yaw:	0.807	yaw rate:	-1.030	Roll:	2.726	Pitch:	30.000	Yaw:	2.477	Thrust:	100.000
Time:	4.004	Roll Set Point:	-0.114	Pitch Set Point:	-2.247	Yaw Set Point:	-0.014	X_WP:	0.000	Y_WP:	0.000	Y_WP:	0.750	X:	0.049	Y:	1.124	Z:	0.410	yaw:	0.780	yaw rate:	2.676	Roll:	2.066	Pitch:	30.000	Yaw:	1.893	Thrust:	100.000
Time:	4.023	Roll Set Point:	-0.116	Pitch Set Point:	-2.247	Yaw Set Point:	-0.015	X_WP:	0.000	Y_WP:	0.000	Y_WP:	0.750	X:	0.049	Y:	1.124	Z:	0.410	yaw:	0.853	yaw rate:	-7.272	Roll:	3.797	Pitch:	30.000	Yaw:	3.365	Thrust:	100.000
Time:	4.044	Roll Set Point:	-0.115	Pitch Set Point:	-2.247	Yaw Set Point:	-0.014	X_WP:	0.000	Y_WP:	0.000	Y_WP:	0.750	X:	0.049	Y:	1.124	Z:	0.410	yaw:	0.806	yaw rate:	4.636	Roll:	1.793	Pitch:	30.000	Yaw:	1.798	Thrust:	100.000
Time:	4.063	Roll Set Point:	-0.117	Pitch Set Point:	-2.247	Yaw Set Point:	-0.016	X_WP:	0.000	Y_WP:	0.000	Y_WP:	0.750	X:	0.049	Y:	1.124	Z:	0.410	yaw:	0.929	yaw rate:	-12.315	Roll:	4.715	Pitch:	30.000	Yaw:	4.167	Thrust:	100.000
Time:	4.083	Roll Set Point:	-0.115	Pitch Set Point:	-2.247	Yaw Set Point:	-0.014	X_WP:	0.000	Y_WP:	0.000	Y_WP:	0.750	X:	0.049	Y:	1.124	Z:	0.410	yaw:	0.824	yaw rate:	10.585	Roll:	0.919	Pitch:	30.000	Yaw:	1.004	Thrust:	100.000
Time:	4.103	Roll Set Point:	-0.117	Pitch Set Point:	-2.247	Yaw Set Point:	-0.017	X_WP:	0.000	Y_WP:	0.000	Y_WP:	0.750	X:	0.049	Y:	1.124	Z:	0.410	yaw:	0.954	yaw rate:	-13.059	Roll:	4.809	Pitch:	30.000	Yaw:	4.275	Thrust:	100.000
Time:	4.124	Roll Set Point:	-0.115	Pitch Set Point:	-2.247	Yaw Set Point:	-0.015	X_WP:	0.000	Y_WP:	0.000	Y_WP:	0.750	X:	0.049	Y:	1.124	Z:	0.410	yaw:	0.832	yaw rate:	12.166	Roll:	0.567	Pitch:	30.000	Yaw:	0.890	Thrust:	100.000
Time:	4.144	Roll Set Point:	-0.114	Pitch Set Point:	-2.247	Yaw Set Point:	-0.014	X_WP:	0.000	Y_WP:	0.000	Y_WP:	0.750	X:	0.049	Y:	1.124	Z:	0.410	yaw:	0.798	yaw rate:	3.472	Roll:	2.018	Pitch:	30.000	Yaw:	1.967	Thrust:	100.000
Time:	4.163	Roll Set Point:	-0.118	Pitch Set Point:	-2.247	Yaw Set Point:	-0.017	X_WP:	0.000	Y_WP:	0.000	Y_WP:	0.750	X:	0.049	Y:	1.124	Z:	0.410	yaw:	0.972	yaw rate:	-17.462	Roll:	5.601	Pitch:	30.000	Yaw:	4.972	Thrust:	100.000
Time:	4.183	Roll Set Point:	-0.117	Pitch Set Point:	-2.247	Yaw Set Point:	-0.016	X_WP:	0.000	Y_WP:	0.000	Y_WP:	0.750	X:	0.049	Y:	1.124	Z:	0.410	yaw:	0.909	yaw rate:	6.313	Roll:	1.571	Pitch:	30.000	Yaw:	1.702	Thrust:	100.000
Time:	4.203	Roll Set Point:	-0.116	Pitch Set Point:	-2.247	Yaw Set Point:	-0.015	X_WP:	0.000	Y_WP:	0.000	Y_WP:	0.750	X:	0.049	Y:	1.124	Z:	0.410	yaw:	0.857	yaw rate:	5.181	Roll:	1.763	Pitch:	30.000	Yaw:	1.778	Thrust:	100.000
Time:	4.223	Roll Set Point:	-0.115	Pitch Set Point:	-2.247	Yaw Set Point:	-0.015	X_WP:	0.000	Y_WP:	0.000	Y_WP:	0.750	X:	0.049	Y:	1.124	Z:	0.410	yaw:	0.845	yaw rate:	1.193	Roll:	2.437	Pitch:	30.000	Yaw:	2.306	Thrust:	100.000
Time:	4.244	Roll Set Point:	-0.115	Pitch Set Point:	-2.247	Yaw Set Point:	-0.014	X_WP:	0.000	Y_WP:	0.000	Y_WP:	0.750	X:	0.049	Y:	1.124	Z:	0.410	yaw:	0.829	yaw rate:	1.655	Roll:	2.294	Pitch:	30.000	Yaw:	2.277	Thrust:	100.000
Time:	4.264	Roll Set Point:	-0.115	Pitch Set Point:	-2.247	Yaw Set Point:	-0.015	X_WP:	0.000	Y_WP:	0.000	Y_WP:	0.750	X:	0.049	Y:	1.124	Z:	0.410	yaw:	0.841	yaw rate:	-1.240	Roll:	2.818	Pitch:	30.000	Yaw:	2.609	Thrust:	100.000
Time:	4.283	Roll Set Point:	-0.115	Pitch Set Point:	-2.247	Yaw Set Point:	-0.014	X_WP:	0.000	Y_WP:	0.000	Y_WP:	0.750	X:	0.049	Y:	1.124	Z:	0.410	yaw:	0.808	yaw rate:	3.297	Roll:	2.025	Pitch:	30.000	Yaw:	1.889	Thrust:	100.000
Time:	4.303	Roll Set Point:	-0.116	Pitch Set Point:	-2.247	Yaw Set Point:	-0.016	X_WP:	0.000	Y_WP:	0.000	Y_WP:	0.750	X:	0.049	Y:	1.124	Z:	0.410	yaw:	0.889	yaw rate:	-8.018	Roll:	4.005	Pitch:	30.000	Yaw:	3.589	Thrust:	100.000
Time:	4.323	Roll Set Point:	-0.117	Pitch Set Point:	-2.247	Yaw Set Point:	-0.016	X_WP:	0.000	Y_WP:	0.000	Y_WP:	0.750	X:	0.049	Y:	1.124	Z:	0.410	yaw:	0.923	yaw rate:	-3.490	Roll:	3.222	Pitch:	30.000	Yaw:	3.042	Thrust:	100.000
Time:	4.343	Roll Set Point:	-0.115	Pitch Set Point:	-2.247	Yaw Set Point:	-0.014	X_WP:	0.000	Y_WP:	0.000	Y_WP:	0.750	X:	0.049	Y:	1.124	Z:	0.410	yaw:	0.831	yaw rate:	9.290	Roll:	1.177	Pitch:	30.000	Yaw:	1.298	Thrust:	100.000
Time:	4.364	Roll Set Point:	-0.115	Pitch Set Point:	-2.247	Yaw Set Point:	-0.014	X_WP:	0.000	Y_WP:	0.000	Y_WP:	0.750	X:	0.049	Y:	1.124	Z:	0.410	yaw:	0.812	yaw rate:	1.835	Roll:	2.303	Pitch:	30.000	Yaw:	2.227	Thrust:	100.000
Time:	4.383	Roll Set Point:	-0.114	Pitch Set Point:	-2.247	Yaw Set Point:	-0.014	X_WP:	0.000	Y_WP:	0.000	Y_WP:	0.750	X:	0.049	Y:	1.124	Z:	0.410	yaw:	0.801	yaw rate:	1.097	Roll:	2.418	Pitch:	30.000	Yaw:	2.263	Thrust:	100.000
Time:	4.402	Roll Set Point:	-0.115	Pitch Set Point:	-2.247	Yaw Set Point:	-0.014	X_WP:	0.000	Y_WP:	0.000	Y_WP:	0.750	X:	0.049	Y:	1.124	Z:	0.410	yaw:	0.823	yaw rate:	-2.223	Roll:	2.974	Pitch:	30.000	Yaw:	2.729	Thrust:	100.000
Time:	4.423	Roll Set Point:	-0.119	Pitch Set Point:	-2.247	Yaw Set Point:	-0.017	X_WP:	0.000	Y_WP:	0.000	Y_WP:	0.750	X:	0.050	Y:	1.124	Z:	0.410	yaw:	0.989	yaw rate:	-16.587	Roll:	5.640	Pitch:	30.000	Yaw:	4.859	Thrust:	100.000
Time:	4.444	Roll Set Point:	-0.117	Pitch Set Point:	-2.247	Yaw Set Point:	-0.017	X_WP:	0.000	Y_WP:	0.000	Y_WP:	0.750	X:	0.049	Y:	1.124	Z:	0.410	yaw:	0.955	yaw rate:	3.455	Roll:	1.880	Pitch:	30.000	Yaw:	2.285	Thrust:	100.000
Time:	4.463	Roll Set Point:	-0.114	Pitch Set Point:	-2.247	Yaw Set Point:	-0.014	X_WP:	0.000	Y_WP:	0.000	Y_WP:	0.750	X:	0.049	Y:	1.124	Z:	0.410	yaw:	0.789	yaw rate:	16.552	Roll:	-0.187	Pitch:	30.000	Yaw:	0.128	Thrust:	100.000
Time:	4.482	Roll Set Point:	-0.115	Pitch Set Point:	-2.247	Yaw Set Point:	-0.014	X_WP:	0.000	Y_WP:	0.000	Y_WP:	0.750	X:	0.049	Y:	1.124	Z:	0.410	yaw:	0.803	yaw rate:	-1.392	Roll:	2.850	Pitch:	30.000	Yaw:	2.617	Thrust:	100.000
Time:	4.503	Roll Set Point:	-0.115	Pitch Set Point:	-2.247	Yaw Set Point:	-0.015	X_WP:	0.000	Y_WP:	0.000	Y_WP:	0.750	X:	0.049	Y:	1.124	Z:	0.410	yaw:	0.839	yaw rate:	-3.611	Roll:	3.246	Pitch:	30.000	Yaw:	3.007	Thrust:	100.000
Time:	4.523	Roll Set Point:	-0.115	Pitch Set Point:	-2.247	Yaw Set Point:	-0.014	X_WP:	0.000	Y_WP:	0.000	Y_WP:	0.750	X:	0.049	Y:	1.124	Z:	0.410	yaw:	0.830	yaw rate:	0.952	Roll:	2.484	Pitch:	30.000	Yaw:	2.414	Thrust:	100.000
Time:	4.543	Roll Set Point:	-0.115	Pitch Set Point:	-2.247	Yaw Set Point:	-0.014	X_WP:	0.000	Y_WP:	0.000	Y_WP:	0.750	X:	0.049	Y:	1.124	Z:	0.410	yaw:	0.817	yaw rate:	1.247	Roll:	2.412	Pitch:	30.000	Yaw:	2.348	Thrust:	100.000
Time:	4.563	Roll Set Point:	-0.118	Pitch Set Point:	-2.247	Yaw Set Point:	-0.017	X_WP:	0.000	Y_WP:	0.000	Y_WP:	0.750	X:	0.049	Y:	1.124	Z:	0.410	yaw:	0.969	yaw rate:	-15.139	Roll:	5.214	Pitch:	30.000	Yaw:	4.714	Thrust:	100.000
Time:	4.584	Roll Set Point:	-0.117	Pitch Set Point:	-2.247	Yaw Set Point:	-0.016	X_WP:	0.000	Y_WP:	0.000	Y_WP:	0.750	X:	0.049	Y:	1.124	Z:	0.410	yaw:	0.920	yaw rate:	4.849	Roll:	1.957	Pitch:	30.000	Yaw:	2.107	Thrust:	100.000
Time:	4.603	Roll Set Point:	-0.117	Pitch Set Point:	-2.247	Yaw Set Point:	-0.016	X_WP:	0.000	Y_WP:	0.000	Y_WP:	0.750	X:	0.049	Y:	1.124	Z:	0.410	yaw:	0.925	yaw rate:	-0.490	Roll:	2.759	Pitch:	30.000	Yaw:	2.657	Thrust:	100.000
Time:	4.623	Roll Set Point:	-0.115	Pitch Set Point:	-2.247	Yaw Set Point:	-0.014	X_WP:	0.000	Y_WP:	0.000	Y_WP:	0.750	X:	0.049	Y:	1.124	Z:	0.410	yaw:	0.811	yaw rate:	11.436	Roll:	0.812	Pitch:	30.000	Yaw:	1.146	Thrust:	100.000
Time:	4.643	Roll Set Point:	-0.115	Pitch Set Point:	-2.247	Yaw Set Point:	-0.014	X_WP:	0.000	Y_WP:	0.000	Y_WP:	0.750	X:	0.049	Y:	1.124	Z:	0.410	yaw:	0.820	yaw rate:	-0.944	Roll:	2.773	Pitch:	30.000	Yaw:	2.644	Thrust:	100.000
Time:	4.663	Roll Set Point:	-0.115	Pitch Set Point:	-2.247	Yaw Set Point:	-0.015	X_WP:	0.000	Y_WP:	0.000	Y_WP:	0.750	X:	0.049	Y:	1.124	Z:	0.410	yaw:	0.837	yaw rate:	-1.661	Roll:	2.966	Pitch:	30.000	Yaw:	2.793	Thrust:	100.000
Time:	4.683	Roll Set Point:	-0.115	Pitch Set Point:	-2.247	Yaw Set Point:	-0.014	X_WP:	0.000	Y_WP:	0.000	Y_WP:	0.750	X:	0.049	Y:	1.124	Z:	0.410	yaw:	0.825	yaw rate:	1.145	Roll:	2.461	Pitch:	30.000	Yaw:	2.452	Thrust:	100.000
Time:	4.703	Roll Set Point:	-0.115	Pitch Set Point:	-2.247	Yaw Set Point:	-0.014	X_WP:	0.000	Y_WP:	0.000	Y_WP:	0.750	X:	0.049	Y:	1.124	Z:	0.410	yaw:	0.820	yaw rate:	0.554	Roll:	2.516	Pitch:	30.000	Yaw:	2.456	Thrust:	100.000
Time:	4.723	Roll Set Point:	-0.115	Pitch Set Point:	-2.247	Yaw Set Point:	-0.014	X_WP:	0.000	Y_WP:	0.000	Y_WP:	0.750	X:	0.049	Y:	1.124	Z:	0.410	yaw:	0.817	yaw rate:	0.311	Roll:	2.633	Pitch:	30.000	Yaw:	2.533	Thrust:	100.000
Time:	4.743	Roll Set Point:	-0.115	Pitch Set Point:	-2.247	Yaw Set Point:	-0.015	X_WP:	0.000	Y_WP:	0.000	Y_WP:	0.750	X:	0.049	Y:	1.124	Z:	0.410	yaw:	0.849	yaw rate:	-3.232	Roll:	3.188	Pitch:	30.000	Yaw:	3.026	Thrust:	100.000
Time:	4.766	Roll Set Point:	-0.115	Pitch Set Point:	-2.247	Yaw Set Point:	-0.015	X_WP:	0.000	Y_WP:	0.000	Y_WP:	0.750	X:	0.049	Y:	1.124	Z:	0.410	yaw:	0.854	yaw rate:	-0.496	Roll:	2.765	Pitch:	30.000	Yaw:	2.859	Thrust:	100.000
Time:	4.783	Roll Set Point:	-0.114	Pitch Set Point:	-2.247	Yaw Set Point:	-0.014	X_WP:	0.000	Y_WP:	0.000	Y_WP:	0.750	X:	0.049	Y:	1.124	Z:	0.410	yaw:	0.796	yaw rate:	5.792	Roll:	1.667	Pitch:	30.000	Yaw:	1.462	Thrust:	100.000
Time:	4.802	Roll Set Point:	-0.115	Pitch Set Point:	-2.247	Yaw Set Point:	-0.014	X_WP:	0.000	Y_WP:	0.000	Y_WP:	0.750	X:	0.049	Y:	1.124	Z:	0.410	yaw:	0.814	yaw rate:	-1.782	Roll:	2.933	Pitch:	30.000	Yaw:	2.792	Thrust:	100.000
Time:	4.823	Roll Set Point:	-0.114	Pitch Set Point:	-2.247	Yaw Set Point:	-0.014	X_WP:	0.000	Y_WP:	0.000	Y_WP:	0.750	X:	0.049	Y:	1.124	Z:	0.410	yaw:	0.797	yaw rate:	1.661	Roll:	2.372	Pitch:	30.000	Yaw:	2.420	Thrust:	100.000
Time:	4.843	Roll Set Point:	-0.114	Pitch Set Point:	-2.247	Yaw Set Point:	-0.014	X_WP:	0.000	Y_WP:	0.000	Y_WP:	0.750	X:	0.049	Y:	1.124	Z:	0.410	yaw:	0.799	yaw rate:	-0.210	Roll:	2.650	Pitch:	30.000	Yaw:	2.593	Thrust:	100.000
Time:	4.863	Roll Set Point:	-0.115	Pitch Set Point:	-2.247	Yaw Set Point:	-0.015	X_WP:	0.000	Y_WP:	0.000	Y_WP:	0.750	X:	0.049	Y:	1.124	Z:	0.410	yaw:	0.833	yaw rate:	-3.402	Roll:	3.232	Pitch:	30.000	Yaw:	3.057	Thrust:	100.000
Time:	4.883	Roll Set Point:	-0.115	Pitch Set Point:	-2.247	Yaw Set Point:	-0.014	X_WP:	0.000	Y_WP:	0.000	Y_WP:	0.750	X:	0.049	Y:	1.124	Z:	0.410	yaw:	0.820	yaw rate:	1.309	Roll:	2.423	Pitch:	30.000	Yaw:	2.423	Thrust:	100.000
Time:	4.903	Roll Set Point:	-0.116	Pitch Set Point:	-2.247	Yaw Set Point:	-0.015	X_WP:	0.000	Y_WP:	0.000	Y_WP:	0.750	X:	0.049	Y:	1.124	Z:	0.410	yaw:	0.869	yaw rate:	-4.851	Roll:	3.465	Pitch:	30.000	Yaw:	3.341	Thrust:	100.000
Time:	4.923	Roll Set Point:	-0.115	Pitch Set Point:	-2.247	Yaw Set Point:	-0.015	X_WP:	0.000	Y_WP:	0.000	Y_WP:	0.750	X:	0.049	Y:	1.124	Z:	0.410	yaw:	0.839	yaw rate:	2.943	Roll:	2.202	Pitch:	30.000	Yaw:	2.250	Thrust:	100.000
Time:	4.943	Roll Set Point:	-0.117	Pitch Set Point:	-2.247	Yaw Set Point:	-0.017	X_WP:	0.000	Y_WP:	0.000	Y_WP:	0.750	X:	0.049	Y:	1.124	Z:	0.409	yaw:	0.955	yaw rate:	-11.514	Roll:	4.615	Pitch:	30.000	Yaw:	4.323	Thrust:	100.000
Time:	4.963	Roll Set Point:	-0.117	Pitch Set Point:	-2.247	Yaw Set Point:	-0.016	X_WP:	0.000	Y_WP:	0.000	Y_WP:	0.750	X:	0.049	Y:	1.124	Z:	0.410	yaw:	0.923	yaw rate:	3.173	Roll:	2.130	Pitch:	30.000	Yaw:	2.352	Thrust:	100.000
Time:	4.983	Roll Set Point:	-0.115	Pitch Set Point:	-2.247	Yaw Set Point:	-0.014	X_WP:	0.000	Y_WP:	0.000	Y_WP:	0.750	X:	0.049	Y:	1.124	Z:	0.410	yaw:	0.810	yaw rate:	11.292	Roll:	0.852	Pitch:	30.000	Yaw:	1.148	Thrust:	100.000
Time:	5.003	Roll Set Point:	-0.114	Pitch Set Point:	-2.247	Yaw Set Point:	-0.014	X_WP:	0.000	Y_WP:	0.000	Y_WP:	0.750	X:	0.049	Y:	1.124	Z:	0.410	yaw:	0.802	yaw rate:	0.834	Roll:	2.466	Pitch:	30.000	Yaw:	2.520	Thrust:	100.000
Time:	5.023	Roll Set Point:	-0.116	Pitch Set Point:	-2.247	Yaw Set Point:	-0.016	X_WP:	0.000	Y_WP:	0.000	Y_WP:	0.750	X:	0.049	Y:	1.124	Z:	0.410	yaw:	0.903	yaw rate:	-10.156	Roll:	4.322	Pitch:	30.000	Yaw:	4.097	Thrust:	100.000
Time:	5.044	Roll Set Point:	-0.114	Pitch Set Point:	-2.247	Yaw Set Point:	-0.014	X_WP:	0.000	Y_WP:	0.000	Y_WP:	0.750	X:	0.049	Y:	1.124	Z:	0.410	yaw:	0.795	yaw rate:	10.768	Roll:	0.905	Pitch:	30.000	Yaw:	1.406	Thrust:	100.000
Time:	5.063	Roll Set Point:	-0.115	Pitch Set Point:	-2.247	Yaw Set Point:	-0.015	X_WP:	0.000	Y_WP:	0.000	Y_WP:	0.750	X:	0.049	Y:	1.124	Z:	0.410	yaw:	0.843	yaw rate:	-4.764	Roll:	3.465	Pitch:	30.000	Yaw:	3.278	Thrust:	100.000
Time:	5.083	Roll Set Point:	-0.114	Pitch Set Point:	-2.247	Yaw Set Point:	-0.014	X_WP:	0.000	Y_WP:	0.000	Y_WP:	0.750	X:	0.049	Y:	1.124	Z:	0.410	yaw:	0.787	yaw rate:	5.589	Roll:	1.659	Pitch:	30.000	Yaw:	1.841	Thrust:	100.000
Time:	5.103	Roll Set Point:	-0.115	Pitch Set Point:	-2.247	Yaw Set Point:	-0.015	X_WP:	0.000	Y_WP:	0.000	Y_WP:	0.750	X:	0.049	Y:	1.124	Z:	0.410	yaw:	0.845	yaw rate:	-5.821	Roll:	3.628	Pitch:	30.000	Yaw:	3.476	Thrust:	100.000
Time:	5.124	Roll Set Point:	-0.114	Pitch Set Point:	-2.247	Yaw Set Point:	-0.014	X_WP:	0.000	Y_WP:	0.000	Y_WP:	0.750	X:	0.049	Y:	1.124	Z:	0.410	yaw:	0.799	yaw rate:	4.590	Roll:	1.881	Pitch:	30.000	Yaw:	2.074	Thrust:	100.000
Time:	5.143	Roll Set Point:	-0.116	Pitch Set Point:	-2.247	Yaw Set Point:	-0.016	X_WP:	0.000	Y_WP:	0.000	Y_WP:	0.750	X:	0.049	Y:	1.124	Z:	0.410	yaw:	0.892	yaw rate:	-9.278	Roll:	4.240	Pitch:	30.000	Yaw:	4.005	Thrust:	100.000
Time:	5.163	Roll Set Point:	-0.117	Pitch Set Point:	-2.247	Yaw Set Point:	-0.016	X_WP:	0.000	Y_WP:	0.000	Y_WP:	0.750	X:	0.049	Y:	1.124	Z:	0.410	yaw:	0.926	yaw rate:	-3.380	Roll:	3.244	Pitch:	30.000	Yaw:	3.246	Thrust:	100.000
Time:	5.183	Roll Set Point:	-0.117	Pitch Set Point:	-2.247	Yaw Set Point:	-0.017	X_WP:	0.000	Y_WP:	0.000	Y_WP:	0.750	X:	0.049	Y:	1.124	Z:	0.410	yaw:	0.956	yaw rate:	-3.023	Roll:	3.205	Pitch:	30.000	Yaw:	3.313	Thrust:	100.000
Time:	5.204	Roll Set Point:	-0.115	Pitch Set Point:	-2.247	Yaw Set Point:	-0.014	X_WP:	0.000	Y_WP:	0.000	Y_WP:	0.750	X:	0.049	Y:	1.124	Z:	0.410	yaw:	0.821	yaw rate:	13.516	Roll:	0.443	Pitch:	30.000	Yaw:	1.013	Thrust:	100.000
Time:	5.224	Roll Set Point:	-0.114	Pitch Set Point:	-2.247	Yaw Set Point:	-0.013	X_WP:	0.000	Y_WP:	0.000	Y_WP:	0.750	X:	0.049	Y:	1.124	Z:	0.410	yaw:	0.770	yaw rate:	5.083	Roll:	1.831	Pitch:	30.000	Yaw:	1.996	Thrust:	100.000
Time:	5.244	Roll Set Point:	-0.117	Pitch Set Point:	-2.247	Yaw Set Point:	-0.016	X_WP:	0.000	Y_WP:	0.000	Y_WP:	0.750	X:	0.049	Y:	1.124	Z:	0.410	yaw:	0.941	yaw rate:	-17.100	Roll:	5.444	Pitch:	30.000	Yaw:	5.113	Thrust:	100.000
Time:	5.263	Roll Set Point:	-0.115	Pitch Set Point:	-2.247	Yaw Set Point:	-0.014	X_WP:	0.000	Y_WP:	0.000	Y_WP:	0.750	X:	0.049	Y:	1.124	Z:	0.410	yaw:	0.811	yaw rate:	13.063	Roll:	0.343	Pitch:	30.000	Yaw:	0.839	Thrust:	100.000
Time:	5.284	Roll Set Point:	-0.118	Pitch Set Point:	-2.247	Yaw Set Point:	-0.017	X_WP:	0.000	Y_WP:	0.000	Y_WP:	0.750	X:	0.049	Y:	1.124	Z:	0.410	yaw:	0.999	yaw rate:	-18.862	Roll:	5.856	Pitch:	30.000	Yaw:	5.426	Thrust:	100.000
Time:	5.304	Roll Set Point:	-0.115	Pitch Set Point:	-2.247	Yaw Set Point:	-0.015	X_WP:	0.000	Y_WP:	0.000	Y_WP:	0.750	X:	0.049	Y:	1.124	Z:	0.410	yaw:	0.839	yaw rate:	16.027	Roll:	0.004	Pitch:	30.000	Yaw:	0.750	Thrust:	100.000
Time:	5.324	Roll Set Point:	-0.114	Pitch Set Point:	-2.247	Yaw Set Point:	-0.014	X_WP:	0.000	Y_WP:	0.000	Y_WP:	0.750	X:	0.049	Y:	1.124	Z:	0.410	yaw:	0.800	yaw rate:	3.904	Roll:	2.040	Pitch:	30.000	Yaw:	2.148	Thrust:	100.000
Time:	5.346	Roll Set Point:	-0.117	Pitch Set Point:	-2.247	Yaw Set Point:	-0.016	X_WP:	0.000	Y_WP:	0.000	Y_WP:	0.750	X:	0.049	Y:	1.124	Z:	0.410	yaw:	0.942	yaw rate:	-14.212	Roll:	5.009	Pitch:	30.000	Yaw:	4.770	Thrust:	100.000
Time:	5.366	Roll Set Point:	-0.115	Pitch Set Point:	-2.247	Yaw Set Point:	-0.015	X_WP:	0.000	Y_WP:	0.000	Y_WP:	0.750	X:	0.049	Y:	1.124	Z:	0.410	yaw:	0.840	yaw rate:	10.176	Roll:	1.026	Pitch:	30.000	Yaw:	1.423	Thrust:	100.000
