Time:	0.049	Roll Set Point:	-0.020	Pitch Set Point:	-0.000	Yaw Set Point:	0.052	X_WP:	0.000	Y_WP:	0.000	Y_WP:	0.750	X:	0.010	Y:	-0.000	Z:	0.052	yaw:	-3.008	yaw rate:	-5.398	Roll:	0.295	Pitch:	0.008	Yaw:	-4.199	Thrust:	38.365
Time:	0.066	Roll Set Point:	-0.020	Pitch Set Point:	-0.000	Yaw Set Point:	0.053	X_WP:	0.000	Y_WP:	0.000	Y_WP:	0.750	X:	0.010	Y:	-0.000	Z:	0.052	yaw:	-3.016	yaw rate:	0.867	Roll:	0.290	Pitch:	0.023	Yaw:	-4.362	Thrust:	39.805
Time:	0.083	Roll Set Point:	-0.020	Pitch Set Point:	0.000	Yaw Set Point:	0.050	X_WP:	0.000	Y_WP:	0.000	Y_WP:	0.750	X:	0.010	Y:	-0.000	Z:	0.052	yaw:	-2.840	yaw rate:	-17.645	Roll:	0.170	Pitch:	-0.252	Yaw:	-1.293	Thrust:	41.907
Time:	0.106	Roll Set Point:	-0.021	Pitch Set Point:	0.002	Yaw Set Point:	0.084	X_WP:	0.000	Y_WP:	0.000	Y_WP:	0.750	X:	0.010	Y:	-0.001	Z:	0.054	yaw:	-4.810	yaw rate:	197.037	Roll:	0.489	Pitch:	-0.305	Yaw:	-29.623	Thrust:	41.022
Time:	0.124	Roll Set Point:	-0.021	Pitch Set Point:	0.001	Yaw Set Point:	0.093	X_WP:	0.000	Y_WP:	0.000	Y_WP:	0.750	X:	0.011	Y:	-0.001	Z:	0.053	yaw:	-5.329	yaw rate:	51.850	Roll:	0.731	Pitch:	0.219	Yaw:	-15.246	Thrust:	46.061
Time:	0.144	Roll Set Point:	-0.021	Pitch Set Point:	0.001	Yaw Set Point:	0.079	X_WP:	0.000	Y_WP:	0.000	Y_WP:	0.750	X:	0.010	Y:	-0.001	Z:	0.053	yaw:	-4.525	yaw rate:	-80.376	Roll:	0.083	Pitch:	0.085	Yaw:	3.905	Thrust:	47.126
Time:	0.163	Roll Set Point:	-0.020	Pitch Set Point:	0.000	Yaw Set Point:	0.044	X_WP:	0.000	Y_WP:	0.000	Y_WP:	0.750	X:	0.010	Y:	-0.000	Z:	0.052	yaw:	-2.511	yaw rate:	-201.386	Roll:	-0.134	Pitch:	0.139	Yaw:	23.979	Thrust:	50.315
Time:	0.183	Roll Set Point:	-0.021	Pitch Set Point:	-0.000	Yaw Set Point:	0.054	X_WP:	0.000	Y_WP:	0.000	Y_WP:	0.750	X:	0.010	Y:	-0.000	Z:	0.052	yaw:	-3.097	yaw rate:	58.597	Roll:	0.669	Pitch:	0.171	Yaw:	-12.131	Thrust:	49.423
Time:	0.203	Roll Set Point:	-0.021	Pitch Set Point:	0.001	Yaw Set Point:	0.053	X_WP:	0.000	Y_WP:	0.000	Y_WP:	0.750	X:	0.010	Y:	-0.001	Z:	0.053	yaw:	-3.053	yaw rate:	-4.369	Roll:	0.242	Pitch:	-0.283	Yaw:	-3.907	Thrust:	50.994
Time:	0.224	Roll Set Point:	-0.021	Pitch Set Point:	0.002	Yaw Set Point:	0.048	X_WP:	0.000	Y_WP:	0.000	Y_WP:	0.750	X:	0.010	Y:	-0.001	Z:	0.053	yaw:	-2.771	yaw rate:	-28.241	Roll:	0.290	Pitch:	-0.611	Yaw:	-0.556	Thrust:	51.673
Time:	0.243	Roll Set Point:	-0.021	Pitch Set Point:	0.003	Yaw Set Point:	0.064	X_WP:	0.000	Y_WP:	0.000	Y_WP:	0.750	X:	0.010	Y:	-0.002	Z:	0.054	yaw:	-3.685	yaw rate:	91.450	Roll:	0.434	Pitch:	-0.237	Yaw:	-18.061	Thrust:	54.267
Time:	0.264	Roll Set Point:	-0.020	Pitch Set Point:	0.001	Yaw Set Point:	0.034	X_WP:	0.000	Y_WP:	0.000	Y_WP:	0.750	X:	0.010	Y:	-0.001	Z:	0.052	yaw:	-1.964	yaw rate:	-172.162	Roll:	-0.188	Pitch:	0.532	Yaw:	18.329	Thrust:	61.751
Time:	0.284	Roll Set Point:	-0.019	Pitch Set Point:	0.001	Yaw Set Point:	0.032	X_WP:	0.000	Y_WP:	0.000	Y_WP:	0.750	X:	0.010	Y:	-0.001	Z:	0.052	yaw:	-1.847	yaw rate:	-11.637	Roll:	0.138	Pitch:	-0.015	Yaw:	-1.345	Thrust:	58.806
Time:	0.305	Roll Set Point:	-0.019	Pitch Set Point:	0.001	Yaw Set Point:	0.040	X_WP:	0.000	Y_WP:	0.000	Y_WP:	0.750	X:	0.010	Y:	-0.001	Z:	0.052	yaw:	-2.301	yaw rate:	45.411	Roll:	0.329	Pitch:	-0.036	Yaw:	-9.294	Thrust:	60.185
Time:	0.323	Roll Set Point:	-0.021	Pitch Set Point:	0.003	Yaw Set Point:	0.101	X_WP:	0.000	Y_WP:	0.000	Y_WP:	0.750	X:	0.010	Y:	-0.002	Z:	0.054	yaw:	-5.759	yaw rate:	345.784	Roll:	1.083	Pitch:	-0.382	Yaw:	-56.996	Thrust:	55.597
Time:	0.344	Roll Set Point:	-0.021	Pitch Set Point:	0.003	Yaw Set Point:	0.098	X_WP:	0.000	Y_WP:	0.000	Y_WP:	0.750	X:	0.010	Y:	-0.002	Z:	0.054	yaw:	-5.605	yaw rate:	-15.481	Roll:	0.249	Pitch:	-0.127	Yaw:	-6.257	Thrust:	64.368
Time:	0.363	Roll Set Point:	-0.021	Pitch Set Point:	0.003	Yaw Set Point:	0.104	X_WP:	0.000	Y_WP:	0.000	Y_WP:	0.750	X:	0.010	Y:	-0.002	Z:	0.054	yaw:	-5.956	yaw rate:	35.101	Roll:	0.408	Pitch:	-0.109	Yaw:	-13.633	Thrust:	63.649
Time:	0.382	Roll Set Point:	-0.021	Pitch Set Point:	0.002	Yaw Set Point:	0.086	X_WP:	0.000	Y_WP:	0.000	Y_WP:	0.750	X:	0.010	Y:	-0.002	Z:	0.053	yaw:	-4.928	yaw rate:	-102.771	Roll:	0.276	Pitch:	0.162	Yaw:	6.422	Thrust:	67.277
Time:	0.404	Roll Set Point:	-0.021	Pitch Set Point:	0.002	Yaw Set Point:	0.080	X_WP:	0.000	Y_WP:	0.000	Y_WP:	0.750	X:	0.010	Y:	-0.001	Z:	0.053	yaw:	-4.563	yaw rate:	-36.477	Roll:	0.270	Pitch:	0.120	Yaw:	-2.338	Thrust:	69.791
Time:	0.423	Roll Set Point:	-0.021	Pitch Set Point:	0.000	Yaw Set Point:	0.064	X_WP:	0.000	Y_WP:	0.000	Y_WP:	0.750	X:	0.011	Y:	-0.001	Z:	0.052	yaw:	-3.641	yaw rate:	-92.166	Roll:	0.399	Pitch:	0.605	Yaw:	6.776	Thrust:	72.732
Time:	0.444	Roll Set Point:	-0.021	Pitch Set Point:	0.001	Yaw Set Point:	0.062	X_WP:	0.000	Y_WP:	0.000	Y_WP:	0.750	X:	0.011	Y:	-0.001	Z:	0.052	yaw:	-3.555	yaw rate:	-8.632	Roll:	0.320	Pitch:	-0.096	Yaw:	-4.313	Thrust:	70.688
Time:	0.463	Roll Set Point:	-0.020	Pitch Set Point:	0.001	Yaw Set Point:	0.057	X_WP:	0.000	Y_WP:	0.000	Y_WP:	0.750	X:	0.010	Y:	-0.001	Z:	0.052	yaw:	-3.249	yaw rate:	-30.644	Roll:	0.005	Pitch:	-0.336	Yaw:	-1.281	Thrust:	75.842
Time:	0.483	Roll Set Point:	-0.020	Pitch Set Point:	0.001	Yaw Set Point:	0.050	X_WP:	0.000	Y_WP:	0.000	Y_WP:	0.750	X:	0.010	Y:	-0.001	Z:	0.052	yaw:	-2.857	yaw rate:	-39.151	Roll:	0.253	Pitch:	-0.010	Yaw:	0.668	Thrust:	74.869
Time:	0.503	Roll Set Point:	-0.020	Pitch Set Point:	0.001	Yaw Set Point:	0.049	X_WP:	0.000	Y_WP:	0.000	Y_WP:	0.750	X:	0.010	Y:	-0.001	Z:	0.052	yaw:	-2.827	yaw rate:	-3.040	Roll:	0.289	Pitch:	-0.039	Yaw:	-4.144	Thrust:	76.968
Time:	0.524	Roll Set Point:	-0.021	Pitch Set Point:	0.001	Yaw Set Point:	0.058	X_WP:	0.000	Y_WP:	0.000	Y_WP:	0.750	X:	0.010	Y:	-0.001	Z:	0.052	yaw:	-3.295	yaw rate:	46.801	Roll:	0.489	Pitch:	0.255	Yaw:	-11.136	Thrust:	79.801
Time:	0.545	Roll Set Point:	-0.021	Pitch Set Point:	0.001	Yaw Set Point:	0.054	X_WP:	0.000	Y_WP:	0.000	Y_WP:	0.750	X:	0.010	Y:	-0.001	Z:	0.052	yaw:	-3.089	yaw rate:	-20.535	Roll:	0.252	Pitch:	0.008	Yaw:	-2.478	Thrust:	83.191
Time:	0.563	Roll Set Point:	-0.021	Pitch Set Point:	0.000	Yaw Set Point:	0.061	X_WP:	0.000	Y_WP:	0.000	Y_WP:	0.750	X:	0.011	Y:	-0.000	Z:	0.052	yaw:	-3.493	yaw rate:	40.382	Roll:	0.590	Pitch:	0.365	Yaw:	-11.416	Thrust:	76.963
Time:	0.583	Roll Set Point:	-0.021	Pitch Set Point:	0.000	Yaw Set Point:	0.061	X_WP:	0.000	Y_WP:	0.000	Y_WP:	0.750	X:	0.010	Y:	-0.000	Z:	0.052	yaw:	-3.512	yaw rate:	1.839	Roll:	0.238	Pitch:	-0.004	Yaw:	-5.829	Thrust:	83.976
Time:	0.603	Roll Set Point:	-0.021	Pitch Set Point:	0.000	Yaw Set Point:	0.060	X_WP:	0.000	Y_WP:	0.000	Y_WP:	0.750	X:	0.010	Y:	-0.000	Z:	0.052	yaw:	-3.422	yaw rate:	-8.987	Roll:	0.236	Pitch:	0.025	Yaw:	-4.315	Thrust:	85.533
Time:	0.625	Roll Set Point:	-0.021	Pitch Set Point:	0.000	Yaw Set Point:	0.061	X_WP:	0.000	Y_WP:	0.000	Y_WP:	0.750	X:	0.010	Y:	-0.000	Z:	0.052	yaw:	-3.474	yaw rate:	5.180	Roll:	0.370	Pitch:	-0.003	Yaw:	-6.261	Thrust:	88.880
Time:	0.643	Roll Set Point:	-0.021	Pitch Set Point:	0.001	Yaw Set Point:	0.056	X_WP:	0.000	Y_WP:	0.000	Y_WP:	0.750	X:	0.010	Y:	-0.001	Z:	0.052	yaw:	-3.235	yaw rate:	-23.869	Roll:	0.203	Pitch:	-0.327	Yaw:	-1.798	Thrust:	84.734
Time:	0.663	Roll Set Point:	-0.021	Pitch Set Point:	0.000	Yaw Set Point:	0.069	X_WP:	0.000	Y_WP:	0.000	Y_WP:	0.750	X:	0.011	Y:	-0.001	Z:	0.053	yaw:	-3.937	yaw rate:	70.250	Roll:	0.503	Pitch:	0.173	Yaw:	-15.230	Thrust:	89.648
Time:	0.683	Roll Set Point:	-0.020	Pitch Set Point:	0.000	Yaw Set Point:	0.053	X_WP:	0.000	Y_WP:	0.000	Y_WP:	0.750	X:	0.010	Y:	-0.000	Z:	0.051	yaw:	-3.022	yaw rate:	-91.522	Roll:	-0.155	Pitch:	0.049	Yaw:	7.290	Thrust:	93.344
Time:	0.706	Roll Set Point:	-0.021	Pitch Set Point:	0.001	Yaw Set Point:	0.088	X_WP:	0.000	Y_WP:	0.000	Y_WP:	0.750	X:	0.011	Y:	-0.001	Z:	0.052	yaw:	-5.051	yaw rate:	202.860	Roll:	0.745	Pitch:	-0.165	Yaw:	-31.819	Thrust:	98.681
Time:	0.723	Roll Set Point:	-0.021	Pitch Set Point:	0.001	Yaw Set Point:	0.069	X_WP:	0.000	Y_WP:	0.000	Y_WP:	0.750	X:	0.010	Y:	-0.001	Z:	0.052	yaw:	-3.950	yaw rate:	-110.093	Roll:	0.147	Pitch:	-0.279	Yaw:	9.180	Thrust:	91.734
Time:	0.744	Roll Set Point:	-0.020	Pitch Set Point:	0.001	Yaw Set Point:	0.060	X_WP:	0.000	Y_WP:	0.000	Y_WP:	0.750	X:	0.010	Y:	-0.001	Z:	0.053	yaw:	-3.422	yaw rate:	-52.747	Roll:	-0.107	Pitch:	0.077	Yaw:	1.207	Thrust:	94.211
Time:	0.764	Roll Set Point:	-0.020	Pitch Set Point:	-0.000	Yaw Set Point:	0.044	X_WP:	0.000	Y_WP:	0.000	Y_WP:	0.750	X:	0.010	Y:	-0.000	Z:	0.052	yaw:	-2.531	yaw rate:	-89.162	Roll:	0.434	Pitch:	0.456	Yaw:	6.877	Thrust:	100.000
Time:	0.783	Roll Set Point:	-0.021	Pitch Set Point:	0.000	Yaw Set Point:	0.063	X_WP:	0.000	Y_WP:	0.000	Y_WP:	0.750	X:	0.010	Y:	-0.001	Z:	0.053	yaw:	-3.634	yaw rate:	110.340	Roll:	0.535	Pitch:	-0.199	Yaw:	-21.473	Thrust:	95.202
Time:	0.804	Roll Set Point:	-0.021	Pitch Set Point:	0.001	Yaw Set Point:	0.072	X_WP:	0.000	Y_WP:	0.000	Y_WP:	0.750	X:	0.010	Y:	-0.001	Z:	0.053	yaw:	-4.153	yaw rate:	51.929	Roll:	0.413	Pitch:	-0.003	Yaw:	-13.217	Thrust:	100.000
Time:	0.824	Roll Set Point:	-0.020	Pitch Set Point:	-0.000	Yaw Set Point:	0.053	X_WP:	0.000	Y_WP:	0.000	Y_WP:	0.750	X:	0.010	Y:	-0.000	Z:	0.052	yaw:	-3.065	yaw rate:	-108.851	Roll:	0.130	Pitch:	0.245	Yaw:	9.205	Thrust:	100.000
Time:	0.844	Roll Set Point:	-0.020	Pitch Set Point:	-0.000	Yaw Set Point:	0.053	X_WP:	0.000	Y_WP:	0.000	Y_WP:	0.750	X:	0.010	Y:	-0.000	Z:	0.052	yaw:	-3.037	yaw rate:	-2.837	Roll:	0.275	Pitch:	-0.010	Yaw:	-4.863	Thrust:	100.000
Time:	0.863	Roll Set Point:	-0.020	Pitch Set Point:	-0.000	Yaw Set Point:	0.054	X_WP:	0.000	Y_WP:	0.000	Y_WP:	0.750	X:	0.010	Y:	-0.000	Z:	0.052	yaw:	-3.079	yaw rate:	4.199	Roll:	0.312	Pitch:	0.008	Yaw:	-5.869	Thrust:	100.000
Time:	0.883	Roll Set Point:	-0.020	Pitch Set Point:	-0.000	Yaw Set Point:	0.053	X_WP:	0.000	Y_WP:	0.000	Y_WP:	0.750	X:	0.010	Y:	-0.000	Z:	0.052	yaw:	-3.050	yaw rate:	-2.803	Roll:	0.320	Pitch:	0.023	Yaw:	-4.936	Thrust:	100.000
Time:	0.903	Roll Set Point:	-0.020	Pitch Set Point:	-0.000	Yaw Set Point:	0.053	X_WP:	0.000	Y_WP:	0.000	Y_WP:	0.750	X:	0.010	Y:	-0.000	Z:	0.052	yaw:	-3.040	yaw rate:	-1.045	Roll:	0.318	Pitch:	0.000	Yaw:	-5.196	Thrust:	100.000
Time:	0.924	Roll Set Point:	-0.020	Pitch Set Point:	-0.000	Yaw Set Point:	0.054	X_WP:	0.000	Y_WP:	0.000	Y_WP:	0.750	X:	0.010	Y:	-0.000	Z:	0.052	yaw:	-3.111	yaw rate:	7.056	Roll:	0.318	Pitch:	0.012	Yaw:	-6.367	Thrust:	100.000
Time:	0.943	Roll Set Point:	-0.020	Pitch Set Point:	-0.000	Yaw Set Point:	0.053	X_WP:	0.000	Y_WP:	0.000	Y_WP:	0.750	X:	0.010	Y:	-0.000	Z:	0.052	yaw:	-3.043	yaw rate:	-6.747	Roll:	0.316	Pitch:	0.014	Yaw:	-4.351	Thrust:	100.000
Time:	0.964	Roll Set Point:	-0.020	Pitch Set Point:	-0.000	Yaw Set Point:	0.052	X_WP:	0.000	Y_WP:	0.000	Y_WP:	0.750	X:	0.010	Y:	-0.000	Z:	0.052	yaw:	-2.966	yaw rate:	-7.698	Roll:	0.320	Pitch:	0.010	Yaw:	-4.347	Thrust:	100.000
Time:	0.983	Roll Set Point:	-0.020	Pitch Set Point:	-0.000	Yaw Set Point:	0.053	X_WP:	0.000	Y_WP:	0.000	Y_WP:	0.750	X:	0.010	Y:	-0.000	Z:	0.052	yaw:	-3.018	yaw rate:	5.168	Roll:	0.296	Pitch:	0.023	Yaw:	-6.017	Thrust:	100.000
Time:	1.004	Roll Set Point:	-0.020	Pitch Set Point:	-0.000	Yaw Set Point:	0.052	X_WP:	0.000	Y_WP:	0.000	Y_WP:	0.750	X:	0.010	Y:	-0.000	Z:	0.052	yaw:	-3.006	yaw rate:	-1.229	Roll:	0.331	Pitch:	-0.007	Yaw:	-5.280	Thrust:	100.000
Time:	1.025	Roll Set Point:	-0.020	Pitch Set Point:	-0.000	Yaw Set Point:	0.052	X_WP:	0.000	Y_WP:	0.000	Y_WP:	0.750	X:	0.010	Y:	-0.000	Z:	0.052	yaw:	-2.980	yaw rate:	-2.520	Roll:	0.293	Pitch:	0.028	Yaw:	-5.114	Thrust:	100.000
Time:	1.044	Roll Set Point:	-0.020	Pitch Set Point:	-0.000	Yaw Set Point:	0.054	X_WP:	0.000	Y_WP:	0.000	Y_WP:	0.750	X:	0.010	Y:	-0.000	Z:	0.052	yaw:	-3.077	yaw rate:	9.629	Roll:	0.371	Pitch:	-0.019	Yaw:	-6.795	Thrust:	100.000
Time:	1.063	Roll Set Point:	-0.020	Pitch Set Point:	-0.000	Yaw Set Point:	0.054	X_WP:	0.000	Y_WP:	0.000	Y_WP:	0.750	X:	0.010	Y:	-0.000	Z:	0.052	yaw:	-3.070	yaw rate:	-0.631	Roll:	0.276	Pitch:	0.039	Yaw:	-5.463	Thrust:	100.000
Time:	1.084	Roll Set Point:	-0.020	Pitch Set Point:	-0.000	Yaw Set Point:	0.054	X_WP:	0.000	Y_WP:	0.000	Y_WP:	0.750	X:	0.010	Y:	-0.000	Z:	0.052	yaw:	-3.079	yaw rate:	0.832	Roll:	0.371	Pitch:	-0.055	Yaw:	-5.748	Thrust:	100.000
Time:	1.105	Roll Set Point:	-0.020	Pitch Set Point:	-0.000	Yaw Set Point:	0.052	X_WP:	0.000	Y_WP:	0.000	Y_WP:	0.750	X:	0.010	Y:	-0.000	Z:	0.052	yaw:	-2.995	yaw rate:	-8.347	Roll:	0.258	Pitch:	0.080	Yaw:	-4.390	Thrust:	100.000
Time:	1.124	Roll Set Point:	-0.020	Pitch Set Point:	-0.000	Yaw Set Point:	0.054	X_WP:	0.000	Y_WP:	0.000	Y_WP:	0.750	X:	0.010	Y:	-0.000	Z:	0.052	yaw:	-3.116	yaw rate:	12.073	Roll:	0.353	Pitch:	-0.018	Yaw:	-7.238	Thrust:	100.000
Time:	1.148	Roll Set Point:	-0.020	Pitch Set Point:	-0.000	Yaw Set Point:	0.054	X_WP:	0.000	Y_WP:	0.000	Y_WP:	0.750	X:	0.010	Y:	-0.000	Z:	0.052	yaw:	-3.066	yaw rate:	-5.032	Roll:	0.327	Pitch:	0.004	Yaw:	-5.239	Thrust:	100.000
Time:	1.165	Roll Set Point:	-0.020	Pitch Set Point:	-0.000	Yaw Set Point:	0.053	X_WP:	0.000	Y_WP:	0.000	Y_WP:	0.750	X:	0.010	Y:	-0.000	Z:	0.052	yaw:	-3.053	yaw rate:	-1.300	Roll:	0.347	Pitch:	-0.005	Yaw:	-5.215	Thrust:	100.000
Time:	1.185	Roll Set Point:	-0.020	Pitch Set Point:	-0.000	Yaw Set Point:	0.054	X_WP:	0.000	Y_WP:	0.000	Y_WP:	0.750	X:	0.010	Y:	-0.000	Z:	0.052	yaw:	-3.079	yaw rate:	2.678	Roll:	0.309	Pitch:	0.018	Yaw:	-6.018	Thrust:	100.000
Time:	1.205	Roll Set Point:	-0.020	Pitch Set Point:	-0.000	Yaw Set Point:	0.054	X_WP:	0.000	Y_WP:	0.000	Y_WP:	0.750	X:	0.010	Y:	-0.000	Z:	0.052	yaw:	-3.066	yaw rate:	-1.371	Roll:	0.329	Pitch:	0.003	Yaw:	-5.493	Thrust:	100.000
Time:	1.226	Roll Set Point:	-0.020	Pitch Set Point:	-0.000	Yaw Set Point:	0.052	X_WP:	0.000	Y_WP:	0.000	Y_WP:	0.750	X:	0.010	Y:	-0.000	Z:	0.052	yaw:	-2.980	yaw rate:	-8.559	Roll:	0.293	Pitch:	0.024	Yaw:	-4.614	Thrust:	100.000
Time:	1.244	Roll Set Point:	-0.020	Pitch Set Point:	-0.000	Yaw Set Point:	0.054	X_WP:	0.000	Y_WP:	0.000	Y_WP:	0.750	X:	0.010	Y:	-0.000	Z:	0.052	yaw:	-3.077	yaw rate:	9.668	Roll:	0.324	Pitch:	0.004	Yaw:	-6.989	Thrust:	100.000
Time:	1.266	Roll Set Point:	-0.020	Pitch Set Point:	-0.000	Yaw Set Point:	0.053	X_WP:	0.000	Y_WP:	0.000	Y_WP:	0.750	X:	0.010	Y:	-0.000	Z:	0.052	yaw:	-3.026	yaw rate:	-5.056	Roll:	0.323	Pitch:	0.029	Yaw:	-5.224	Thrust:	100.000
Time:	1.284	Roll Set Point:	-0.020	Pitch Set Point:	-0.000	Yaw Set Point:	0.053	X_WP:	0.000	Y_WP:	0.000	Y_WP:	0.750	X:	0.010	Y:	-0.000	Z:	0.052	yaw:	-3.061	yaw rate:	3.530	Roll:	0.340	Pitch:	-0.015	Yaw:	-6.121	Thrust:	100.000
Time:	1.304	Roll Set Point:	-0.020	Pitch Set Point:	-0.000	Yaw Set Point:	0.053	X_WP:	0.000	Y_WP:	0.000	Y_WP:	0.750	X:	0.010	Y:	-0.000	Z:	0.052	yaw:	-3.049	yaw rate:	-1.231	Roll:	0.290	Pitch:	0.022	Yaw:	-5.593	Thrust:	100.000
Time:	1.325	Roll Set Point:	-0.020	Pitch Set Point:	-0.000	Yaw Set Point:	0.053	X_WP:	0.000	Y_WP:	0.000	Y_WP:	0.750	X:	0.010	Y:	-0.000	Z:	0.052	yaw:	-3.058	yaw rate:	0.861	Roll:	0.325	Pitch:	0.010	Yaw:	-5.885	Thrust:	100.000
Time:	1.345	Roll Set Point:	-0.020	Pitch Set Point:	0.002	Yaw Set Point:	0.078	X_WP:	0.000	Y_WP:	0.000	Y_WP:	0.750	X:	0.010	Y:	-0.001	Z:	0.054	yaw:	-4.458	yaw rate:	140.031	Roll:	0.312	Pitch:	-0.766	Yaw:	-26.315	Thrust:	100.000
Time:	1.366	Roll Set Point:	-0.020	Pitch Set Point:	0.003	Yaw Set Point:	0.076	X_WP:	0.000	Y_WP:	0.000	Y_WP:	0.750	X:	0.010	Y:	-0.002	Z:	0.054	yaw:	-4.352	yaw rate:	-10.578	Roll:	0.226	Pitch:	-0.393	Yaw:	-6.559	Thrust:	100.000
Time:	1.386	Roll Set Point:	-0.020	Pitch Set Point:	0.003	Yaw Set Point:	0.076	X_WP:	0.000	Y_WP:	0.000	Y_WP:	0.750	X:	0.010	Y:	-0.002	Z:	0.054	yaw:	-4.350	yaw rate:	-0.279	Roll:	0.300	Pitch:	-0.038	Yaw:	-7.652	Thrust:	100.000
Time:	1.405	Roll Set Point:	-0.019	Pitch Set Point:	0.001	Yaw Set Point:	0.052	X_WP:	0.000	Y_WP:	0.000	Y_WP:	0.750	X:	0.010	Y:	-0.001	Z:	0.052	yaw:	-2.966	yaw rate:	-138.335	Roll:	0.105	Pitch:	0.866	Yaw:	13.130	Thrust:	100.000
Time:	1.426	Roll Set Point:	-0.020	Pitch Set Point:	-0.000	Yaw Set Point:	0.052	X_WP:	0.000	Y_WP:	0.000	Y_WP:	0.750	X:	0.010	Y:	-0.000	Z:	0.052	yaw:	-2.965	yaw rate:	-0.073	Roll:	0.486	Pitch:	0.261	Yaw:	-5.833	Thrust:	100.000
Time:	1.445	Roll Set Point:	-0.019	Pitch Set Point:	0.001	Yaw Set Point:	0.052	X_WP:	0.000	Y_WP:	0.000	Y_WP:	0.750	X:	0.010	Y:	-0.001	Z:	0.052	yaw:	-2.980	yaw rate:	1.419	Roll:	0.114	Pitch:	-0.271	Yaw:	-5.933	Thrust:	100.000
Time:	1.465	Roll Set Point:	-0.019	Pitch Set Point:	0.001	Yaw Set Point:	0.052	X_WP:	0.000	Y_WP:	0.000	Y_WP:	0.750	X:	0.010	Y:	-0.001	Z:	0.052	yaw:	-2.978	yaw rate:	-0.122	Roll:	0.359	Pitch:	-0.041	Yaw:	-5.796	Thrust:	100.000
Time:	1.484	Roll Set Point:	-0.019	Pitch Set Point:	0.001	Yaw Set Point:	0.015	X_WP:	0.000	Y_WP:	0.000	Y_WP:	0.750	X:	0.009	Y:	-0.000	Z:	0.052	yaw:	-0.861	yaw rate:	-211.779	Roll:	0.128	Pitch:	-0.151	Yaw:	24.720	Thrust:	100.000
Time:	1.505	Roll Set Point:	-0.020	Pitch Set Point:	0.000	Yaw Set Point:	0.051	X_WP:	0.000	Y_WP:	0.000	Y_WP:	0.750	X:	0.010	Y:	-0.000	Z:	0.052	yaw:	-2.907	yaw rate:	204.635	Roll:	0.829	Pitch:	0.384	Yaw:	-32.347	Thrust:	100.000
Time:	1.525	Roll Set Point:	-0.020	Pitch Set Point:	0.000	Yaw Set Point:	0.069	X_WP:	0.000	Y_WP:	0.000	Y_WP:	0.750	X:	0.010	Y:	-0.001	Z:	0.053	yaw:	-3.955	yaw rate:	104.757	Roll:	0.432	Pitch:	-0.058	Yaw:	-20.898	Thrust:	100.000
Time:	1.544	Roll Set Point:	-0.020	Pitch Set Point:	0.000	Yaw Set Point:	0.067	X_WP:	0.000	Y_WP:	0.000	Y_WP:	0.750	X:	0.010	Y:	-0.001	Z:	0.053	yaw:	-3.867	yaw rate:	-8.758	Roll:	0.317	Pitch:	-0.062	Yaw:	-5.863	Thrust:	100.000
Time:	1.566	Roll Set Point:	-0.020	Pitch Set Point:	0.001	Yaw Set Point:	0.063	X_WP:	0.000	Y_WP:	0.000	Y_WP:	0.750	X:	0.010	Y:	-0.001	Z:	0.053	yaw:	-3.633	yaw rate:	-23.401	Roll:	0.325	Pitch:	-0.286	Yaw:	-4.196	Thrust:	100.000
Time:	1.584	Roll Set Point:	-0.020	Pitch Set Point:	0.000	Yaw Set Point:	0.056	X_WP:	0.000	Y_WP:	0.000	Y_WP:	0.750	X:	0.010	Y:	-0.000	Z:	0.052	yaw:	-3.214	yaw rate:	-41.869	Roll:	0.205	Pitch:	0.429	Yaw:	-0.229	Thrust:	100.000
Time:	1.606	Roll Set Point:	-0.020	Pitch Set Point:	-0.000	Yaw Set Point:	0.054	X_WP:	0.000	Y_WP:	0.000	Y_WP:	0.750	X:	0.010	Y:	-0.000	Z:	0.052	yaw:	-3.097	yaw rate:	-11.714	Roll:	0.323	Pitch:	0.127	Yaw:	-4.952	Thrust:	100.000
Time:	1.625	Roll Set Point:	-0.020	Pitch Set Point:	-0.000	Yaw Set Point:	0.053	X_WP:	0.000	Y_WP:	0.000	Y_WP:	0.750	X:	0.010	Y:	-0.000	Z:	0.052	yaw:	-3.061	yaw rate:	-3.611	Roll:	0.325	Pitch:	0.017	Yaw:	-5.566	Thrust:	100.000
Time:	1.646	Roll Set Point:	-0.020	Pitch Set Point:	-0.000	Yaw Set Point:	0.053	X_WP:	0.000	Y_WP:	0.000	Y_WP:	0.750	X:	0.010	Y:	-0.000	Z:	0.052	yaw:	-3.041	yaw rate:	-1.977	Roll:	0.317	Pitch:	0.048	Yaw:	-5.933	Thrust:	100.000
Time:	1.665	Roll Set Point:	-0.020	Pitch Set Point:	0.001	Yaw Set Point:	0.067	X_WP:	0.000	Y_WP:	0.000	Y_WP:	0.750	X:	0.010	Y:	-0.001	Z:	0.053	yaw:	-3.835	yaw rate:	79.413	Roll:	0.542	Pitch:	-0.357	Yaw:	-18.324	Thrust:	100.000
Time:	1.684	Roll Set Point:	-0.020	Pitch Set Point:	0.001	Yaw Set Point:	0.065	X_WP:	0.000	Y_WP:	0.000	Y_WP:	0.750	X:	0.010	Y:	-0.001	Z:	0.054	yaw:	-3.736	yaw rate:	-9.895	Roll:	0.205	Pitch:	-0.311	Yaw:	-5.799	Thrust:	100.000
Time:	1.705	Roll Set Point:	-0.020	Pitch Set Point:	0.001	Yaw Set Point:	0.066	X_WP:	0.000	Y_WP:	0.000	Y_WP:	0.750	X:	0.010	Y:	-0.001	Z:	0.053	yaw:	-3.795	yaw rate:	5.874	Roll:	0.271	Pitch:	0.009	Yaw:	-8.084	Thrust:	100.000
Time:	1.725	Roll Set Point:	-0.020	Pitch Set Point:	0.002	Yaw Set Point:	0.064	X_WP:	0.000	Y_WP:	0.000	Y_WP:	0.750	X:	0.010	Y:	-0.001	Z:	0.053	yaw:	-3.646	yaw rate:	-14.924	Roll:	0.337	Pitch:	-0.379	Yaw:	-5.135	Thrust:	100.000
Time:	1.744	Roll Set Point:	-0.020	Pitch Set Point:	0.002	Yaw Set Point:	0.064	X_WP:	0.000	Y_WP:	0.000	Y_WP:	0.750	X:	0.010	Y:	-0.001	Z:	0.054	yaw:	-3.677	yaw rate:	3.108	Roll:	0.190	Pitch:	0.048	Yaw:	-7.488	Thrust:	100.000
Time:	1.764	Roll Set Point:	-0.020	Pitch Set Point:	0.003	Yaw Set Point:	0.075	X_WP:	0.000	Y_WP:	0.000	Y_WP:	0.750	X:	0.010	Y:	-0.002	Z:	0.054	yaw:	-4.325	yaw rate:	64.808	Roll:	0.381	Pitch:	-0.312	Yaw:	-16.600	Thrust:	100.000
Time:	1.787	Roll Set Point:	-0.020	Pitch Set Point:	0.002	Yaw Set Point:	0.065	X_WP:	0.000	Y_WP:	0.000	Y_WP:	0.750	X:	0.010	Y:	-0.001	Z:	0.054	yaw:	-3.699	yaw rate:	-62.650	Roll:	0.309	Pitch:	0.375	Yaw:	-0.149	Thrust:	100.000
Time:	1.808	Roll Set Point:	-0.020	Pitch Set Point:	0.002	Yaw Set Point:	0.066	X_WP:	0.000	Y_WP:	0.000	Y_WP:	0.750	X:	0.010	Y:	-0.001	Z:	0.054	yaw:	-3.776	yaw rate:	7.739	Roll:	0.357	Pitch:	-0.010	Yaw:	-8.464	Thrust:	100.000
Time:	1.825	Roll Set Point:	-0.020	Pitch Set Point:	-0.000	Yaw Set Point:	0.053	X_WP:	0.000	Y_WP:	0.000	Y_WP:	0.750	X:	0.010	Y:	-0.000	Z:	0.052	yaw:	-3.010	yaw rate:	-76.613	Roll:	0.395	Pitch:	0.808	Yaw:	5.989	Thrust:	100.000
Time:	1.843	Roll Set Point:	-0.019	Pitch Set Point:	0.001	Yaw Set Point:	0.054	X_WP:	0.000	Y_WP:	0.000	Y_WP:	0.750	X:	0.010	Y:	-0.001	Z:	0.052	yaw:	-3.104	yaw rate:	9.391	Roll:	0.089	Pitch:	-0.304	Yaw:	-7.614	Thrust:	100.000
Time:	1.865	Roll Set Point:	-0.020	Pitch Set Point:	-0.000	Yaw Set Point:	0.054	X_WP:	0.000	Y_WP:	0.000	Y_WP:	0.750	X:	0.010	Y:	-0.000	Z:	0.052	yaw:	-3.068	yaw rate:	-3.620	Roll:	0.509	Pitch:	0.264	Yaw:	-6.241	Thrust:	100.000
Time:	1.882	Roll Set Point:	-0.020	Pitch Set Point:	0.000	Yaw Set Point:	0.054	X_WP:	0.000	Y_WP:	0.000	Y_WP:	0.750	X:	0.010	Y:	-0.000	Z:	0.052	yaw:	-3.122	yaw rate:	5.469	Roll:	0.326	Pitch:	-0.060	Yaw:	-7.114	Thrust:	100.000
Time:	1.903	Roll Set Point:	-0.019	Pitch Set Point:	-0.001	Yaw Set Point:	0.032	X_WP:	0.000	Y_WP:	0.000	Y_WP:	0.750	X:	0.010	Y:	0.000	Z:	0.052	yaw:	-1.824	yaw rate:	-129.857	Roll:	-0.015	Pitch:	0.172	Yaw:	11.240	Thrust:	100.000
Time:	1.925	Roll Set Point:	-0.020	Pitch Set Point:	0.001	Yaw Set Point:	0.062	X_WP:	0.000	Y_WP:	0.000	Y_WP:	0.750	X:	0.010	Y:	-0.001	Z:	0.053	yaw:	-3.534	yaw rate:	170.989	Roll:	0.867	Pitch:	-0.447	Yaw:	-28.847	Thrust:	100.000
Time:	1.943	Roll Set Point:	-0.020	Pitch Set Point:	0.000	Yaw Set Point:	0.053	X_WP:	0.000	Y_WP:	0.000	Y_WP:	0.750	X:	0.010	Y:	-0.000	Z:	0.052	yaw:	-3.063	yaw rate:	-47.087	Roll:	0.388	Pitch:	0.323	Yaw:	-0.006	Thrust:	100.000
Time:	1.964	Roll Set Point:	-0.020	Pitch Set Point:	-0.000	Yaw Set Point:	0.053	X_WP:	0.000	Y_WP:	0.000	Y_WP:	0.750	X:	0.010	Y:	-0.000	Z:	0.052	yaw:	-3.009	yaw rate:	-5.332	Roll:	0.307	Pitch:	0.075	Yaw:	-5.855	Thrust:	100.000
Time:	1.984	Roll Set Point:	-0.020	Pitch Set Point:	0.001	Yaw Set Point:	0.061	X_WP:	0.000	Y_WP:	0.000	Y_WP:	0.750	X:	0.010	Y:	-0.001	Z:	0.053	yaw:	-3.487	yaw rate:	47.792	Roll:	0.347	Pitch:	-0.351	Yaw:	-13.539	Thrust:	100.000
Time:	2.005	Roll Set Point:	-0.020	Pitch Set Point:	0.001	Yaw Set Point:	0.064	X_WP:	0.000	Y_WP:	0.000	Y_WP:	0.750	X:	0.010	Y:	-0.001	Z:	0.053	yaw:	-3.642	yaw rate:	15.457	Roll:	0.385	Pitch:	-0.152	Yaw:	-9.447	Thrust:	100.000
Time:	2.028	Roll Set Point:	-0.020	Pitch Set Point:	-0.000	Yaw Set Point:	0.051	X_WP:	0.000	Y_WP:	0.000	Y_WP:	0.750	X:	0.010	Y:	-0.000	Z:	0.052	yaw:	-2.913	yaw rate:	-72.873	Roll:	0.291	Pitch:	0.444	Yaw:	1.502	Thrust:	100.000
Time:	2.044	Roll Set Point:	-0.020	Pitch Set Point:	-0.000	Yaw Set Point:	0.053	X_WP:	0.000	Y_WP:	0.000	Y_WP:	0.750	X:	0.010	Y:	-0.000	Z:	0.052	yaw:	-3.056	yaw rate:	14.271	Roll:	0.314	Pitch:	0.041	Yaw:	-8.482	Thrust:	100.000
Time:	2.065	Roll Set Point:	-0.020	Pitch Set Point:	-0.000	Yaw Set Point:	0.053	X_WP:	0.000	Y_WP:	0.000	Y_WP:	0.750	X:	0.010	Y:	-0.000	Z:	0.052	yaw:	-3.023	yaw rate:	-3.261	Roll:	0.339	Pitch:	-0.005	Yaw:	-6.291	Thrust:	100.000
Time:	2.086	Roll Set Point:	-0.020	Pitch Set Point:	-0.000	Yaw Set Point:	0.053	X_WP:	0.000	Y_WP:	0.000	Y_WP:	0.750	X:	0.010	Y:	-0.000	Z:	0.052	yaw:	-3.034	yaw rate:	1.114	Roll:	0.360	Pitch:	0.006	Yaw:	-6.952	Thrust:	100.000
Time:	2.109	Roll Set Point:	-0.020	Pitch Set Point:	-0.000	Yaw Set Point:	0.052	X_WP:	0.000	Y_WP:	0.000	Y_WP:	0.750	X:	0.010	Y:	-0.000	Z:	0.052	yaw:	-2.985	yaw rate:	-4.900	Roll:	0.360	Pitch:	0.021	Yaw:	-6.198	Thrust:	100.000
Time:	2.125	Roll Set Point:	-0.020	Pitch Set Point:	-0.000	Yaw Set Point:	0.054	X_WP:	0.000	Y_WP:	0.000	Y_WP:	0.750	X:	0.010	Y:	-0.000	Z:	0.052	yaw:	-3.067	yaw rate:	8.132	Roll:	0.294	Pitch:	0.016	Yaw:	-7.588	Thrust:	100.000
Time:	2.144	Roll Set Point:	-0.020	Pitch Set Point:	-0.000	Yaw Set Point:	0.053	X_WP:	0.000	Y_WP:	0.000	Y_WP:	0.750	X:	0.010	Y:	-0.000	Z:	0.052	yaw:	-3.042	yaw rate:	-2.450	Roll:	0.361	Pitch:	-0.011	Yaw:	-6.263	Thrust:	100.000
Time:	2.164	Roll Set Point:	-0.020	Pitch Set Point:	-0.000	Yaw Set Point:	0.053	X_WP:	0.000	Y_WP:	0.000	Y_WP:	0.750	X:	0.010	Y:	-0.000	Z:	0.052	yaw:	-3.013	yaw rate:	-2.922	Roll:	0.337	Pitch:	0.040	Yaw:	-6.319	Thrust:	100.000
Time:	2.184	Roll Set Point:	-0.020	Pitch Set Point:	-0.000	Yaw Set Point:	0.053	X_WP:	0.000	Y_WP:	0.000	Y_WP:	0.750	X:	0.010	Y:	-0.000	Z:	0.052	yaw:	-3.060	yaw rate:	4.676	Roll:	0.360	Pitch:	-0.005	Yaw:	-7.405	Thrust:	100.000
Time:	2.204	Roll Set Point:	-0.020	Pitch Set Point:	-0.000	Yaw Set Point:	0.053	X_WP:	0.000	Y_WP:	0.000	Y_WP:	0.750	X:	0.010	Y:	-0.000	Z:	0.052	yaw:	-3.025	yaw rate:	-3.521	Roll:	0.385	Pitch:	-0.028	Yaw:	-6.298	Thrust:	100.000
Time:	2.227	Roll Set Point:	-0.020	Pitch Set Point:	-0.000	Yaw Set Point:	0.051	X_WP:	0.000	Y_WP:	0.000	Y_WP:	0.750	X:	0.010	Y:	-0.000	Z:	0.052	yaw:	-2.917	yaw rate:	-10.803	Roll:	0.307	Pitch:	0.028	Yaw:	-5.577	Thrust:	100.000
Time:	2.245	Roll Set Point:	-0.020	Pitch Set Point:	-0.000	Yaw Set Point:	0.051	X_WP:	0.000	Y_WP:	0.000	Y_WP:	0.750	X:	0.010	Y:	-0.000	Z:	0.052	yaw:	-2.924	yaw rate:	0.754	Roll:	0.362	Pitch:	-0.023	Yaw:	-6.589	Thrust:	100.000
Time:	2.264	Roll Set Point:	-0.020	Pitch Set Point:	-0.000	Yaw Set Point:	0.053	X_WP:	0.000	Y_WP:	0.000	Y_WP:	0.750	X:	0.010	Y:	-0.000	Z:	0.052	yaw:	-3.057	yaw rate:	13.306	Roll:	0.321	Pitch:	0.058	Yaw:	-8.554	Thrust:	100.000
Time:	2.284	Roll Set Point:	-0.020	Pitch Set Point:	-0.000	Yaw Set Point:	0.053	X_WP:	0.000	Y_WP:	0.000	Y_WP:	0.750	X:	0.010	Y:	-0.000	Z:	0.052	yaw:	-3.012	yaw rate:	-4.557	Roll:	0.382	Pitch:	-0.014	Yaw:	-6.230	Thrust:	100.000
Time:	2.304	Roll Set Point:	-0.020	Pitch Set Point:	0.000	Yaw Set Point:	0.053	X_WP:	0.000	Y_WP:	0.000	Y_WP:	0.750	X:	0.010	Y:	-0.000	Z:	0.052	yaw:	-3.045	yaw rate:	3.343	Roll:	0.364	Pitch:	-0.023	Yaw:	-7.294	Thrust:	100.000
Time:	2.327	Roll Set Point:	-0.020	Pitch Set Point:	-0.000	Yaw Set Point:	0.053	X_WP:	0.000	Y_WP:	0.000	Y_WP:	0.750	X:	0.010	Y:	-0.000	Z:	0.052	yaw:	-3.015	yaw rate:	-2.973	Roll:	0.348	Pitch:	0.066	Yaw:	-7.056	Thrust:	100.000
Time:	2.342	Roll Set Point:	-0.020	Pitch Set Point:	-0.000	Yaw Set Point:	0.053	X_WP:	0.000	Y_WP:	0.000	Y_WP:	0.750	X:	0.010	Y:	-0.000	Z:	0.052	yaw:	-3.055	yaw rate:	3.974	Roll:	0.339	Pitch:	-0.037	Yaw:	-6.963	Thrust:	100.000
Time:	2.364	Roll Set Point:	-0.020	Pitch Set Point:	-0.000	Yaw Set Point:	0.051	X_WP:	0.000	Y_WP:	0.000	Y_WP:	0.750	X:	0.010	Y:	-0.000	Z:	0.052	yaw:	-2.910	yaw rate:	-14.502	Roll:	0.422	Pitch:	0.002	Yaw:	-5.132	Thrust:	100.000
Time:	2.383	Roll Set Point:	-0.020	Pitch Set Point:	-0.000	Yaw Set Point:	0.052	X_WP:	0.000	Y_WP:	0.000	Y_WP:	0.750	X:	0.010	Y:	-0.000	Z:	0.052	yaw:	-2.997	yaw rate:	8.744	Roll:	0.354	Pitch:	-0.008	Yaw:	-7.990	Thrust:	100.000
Time:	2.404	Roll Set Point:	-0.020	Pitch Set Point:	-0.000	Yaw Set Point:	0.053	X_WP:	0.000	Y_WP:	0.000	Y_WP:	0.750	X:	0.010	Y:	-0.000	Z:	0.052	yaw:	-3.037	yaw rate:	3.995	Roll:	0.335	Pitch:	0.003	Yaw:	-7.555	Thrust:	100.000
Time:	2.424	Roll Set Point:	-0.020	Pitch Set Point:	0.000	Yaw Set Point:	0.053	X_WP:	0.000	Y_WP:	0.000	Y_WP:	0.750	X:	0.010	Y:	-0.000	Z:	0.052	yaw:	-3.014	yaw rate:	-2.368	Roll:	0.362	Pitch:	-0.008	Yaw:	-6.763	Thrust:	100.000
Time:	2.444	Roll Set Point:	-0.020	Pitch Set Point:	0.000	Yaw Set Point:	0.052	X_WP:	0.000	Y_WP:	0.000	Y_WP:	0.750	X:	0.010	Y:	-0.000	Z:	0.052	yaw:	-2.989	yaw rate:	-2.456	Roll:	0.398	Pitch:	0.003	Yaw:	-6.568	Thrust:	100.000
Time:	2.463	Roll Set Point:	-0.021	Pitch Set Point:	0.000	Yaw Set Point:	0.052	X_WP:	0.000	Y_WP:	0.000	Y_WP:	0.750	X:	0.010	Y:	-0.000	Z:	0.052	yaw:	-3.001	yaw rate:	1.165	Roll:	0.392	Pitch:	-0.016	Yaw:	-7.019	Thrust:	100.000
Time:	2.483	Roll Set Point:	-0.020	Pitch Set Point:	0.000	Yaw Set Point:	0.052	X_WP:	0.000	Y_WP:	0.000	Y_WP:	0.750	X:	0.010	Y:	-0.000	Z:	0.052	yaw:	-2.960	yaw rate:	-4.114	Roll:	0.307	Pitch:	0.009	Yaw:	-6.336	Thrust:	100.000
Time:	2.504	Roll Set Point:	-0.020	Pitch Set Point:	-0.000	Yaw Set Point:	0.051	X_WP:	0.000	Y_WP:	0.000	Y_WP:	0.750	X:	0.010	Y:	-0.000	Z:	0.052	yaw:	-2.937	yaw rate:	-2.252	Roll:	0.358	Pitch:	0.041	Yaw:	-6.833	Thrust:	100.000
Time:	2.523	Roll Set Point:	-0.020	Pitch Set Point:	0.001	Yaw Set Point:	0.062	X_WP:	0.000	Y_WP:	0.000	Y_WP:	0.750	X:	0.010	Y:	-0.001	Z:	0.053	yaw:	-3.542	yaw rate:	60.453	Roll:	0.393	Pitch:	-0.413	Yaw:	-15.880	Thrust:	100.000
Time:	2.543	Roll Set Point:	-0.021	Pitch Set Point:	0.000	Yaw Set Point:	0.053	X_WP:	0.000	Y_WP:	0.000	Y_WP:	0.750	X:	0.010	Y:	-0.000	Z:	0.052	yaw:	-3.021	yaw rate:	-52.067	Roll:	0.365	Pitch:	0.378	Yaw:	0.169	Thrust:	100.000
Time:	2.564	Roll Set Point:	-0.020	Pitch Set Point:	0.000	Yaw Set Point:	0.052	X_WP:	0.000	Y_WP:	0.000	Y_WP:	0.750	X:	0.010	Y:	-0.000	Z:	0.052	yaw:	-2.954	yaw rate:	-6.702	Roll:	0.340	Pitch:	0.049	Yaw:	-6.439	Thrust:	100.000
Time:	2.584	Roll Set Point:	-0.020	Pitch Set Point:	0.000	Yaw Set Point:	0.053	X_WP:	0.000	Y_WP:	0.000	Y_WP:	0.750	X:	0.010	Y:	-0.000	Z:	0.052	yaw:	-3.016	yaw rate:	6.222	Roll:	0.369	Pitch:	-0.014	Yaw:	-7.971	Thrust:	100.000
Time:	2.605	Roll Set Point:	-0.020	Pitch Set Point:	0.000	Yaw Set Point:	0.051	X_WP:	0.000	Y_WP:	0.000	Y_WP:	0.750	X:	0.010	Y:	-0.000	Z:	0.052	yaw:	-2.948	yaw rate:	-6.853	Roll:	0.375	Pitch:	-0.001	Yaw:	-6.308	Thrust:	100.000
Time:	2.625	Roll Set Point:	-0.021	Pitch Set Point:	0.000	Yaw Set Point:	0.052	X_WP:	0.000	Y_WP:	0.000	Y_WP:	0.750	X:	0.010	Y:	-0.000	Z:	0.052	yaw:	-3.007	yaw rate:	5.906	Roll:	0.366	Pitch:	0.016	Yaw:	-7.904	Thrust:	100.000
Time:	2.644	Roll Set Point:	-0.020	Pitch Set Point:	0.000	Yaw Set Point:	0.052	X_WP:	0.000	Y_WP:	0.000	Y_WP:	0.750	X:	0.010	Y:	-0.000	Z:	0.052	yaw:	-3.007	yaw rate:	-0.005	Roll:	0.340	Pitch:	0.014	Yaw:	-7.133	Thrust:	100.000
Time:	2.667	Roll Set Point:	-0.021	Pitch Set Point:	-0.000	Yaw Set Point:	0.060	X_WP:	0.000	Y_WP:	0.000	Y_WP:	0.750	X:	0.010	Y:	-0.000	Z:	0.052	yaw:	-3.464	yaw rate:	45.734	Roll:	0.568	Pitch:	0.094	Yaw:	-13.535	Thrust:	100.000
Time:	2.683	Roll Set Point:	-0.020	Pitch Set Point:	-0.000	Yaw Set Point:	0.051	X_WP:	0.000	Y_WP:	0.000	Y_WP:	0.750	X:	0.010	Y:	-0.000	Z:	0.052	yaw:	-2.897	yaw rate:	-56.696	Roll:	0.071	Pitch:	-0.068	Yaw:	2.653	Thrust:	100.000
Time:	2.703	Roll Set Point:	-0.021	Pitch Set Point:	-0.000	Yaw Set Point:	0.051	X_WP:	0.000	Y_WP:	0.000	Y_WP:	0.750	X:	0.010	Y:	-0.000	Z:	0.052	yaw:	-2.941	yaw rate:	4.441	Roll:	0.466	Pitch:	0.004	Yaw:	-7.777	Thrust:	100.000
Time:	2.726	Roll Set Point:	-0.021	Pitch Set Point:	0.000	Yaw Set Point:	0.052	X_WP:	0.000	Y_WP:	0.000	Y_WP:	0.750	X:	0.010	Y:	-0.000	Z:	0.052	yaw:	-2.994	yaw rate:	5.268	Roll:	0.345	Pitch:	-0.044	Yaw:	-8.331	Thrust:	100.000
Time:	2.743	Roll Set Point:	-0.021	Pitch Set Point:	-0.000	Yaw Set Point:	0.052	X_WP:	0.000	Y_WP:	0.000	Y_WP:	0.750	X:	0.010	Y:	-0.000	Z:	0.052	yaw:	-2.978	yaw rate:	-1.610	Roll:	0.337	Pitch:	0.085	Yaw:	-6.470	Thrust:	100.000
Time:	2.763	Roll Set Point:	-0.020	Pitch Set Point:	-0.000	Yaw Set Point:	0.053	X_WP:	0.000	Y_WP:	0.000	Y_WP:	0.750	X:	0.010	Y:	-0.000	Z:	0.052	yaw:	-3.009	yaw rate:	3.134	Roll:	0.282	Pitch:	0.005	Yaw:	-7.674	Thrust:	100.000
Time:	2.783	Roll Set Point:	-0.020	Pitch Set Point:	0.000	Yaw Set Point:	0.053	X_WP:	0.000	Y_WP:	0.000	Y_WP:	0.750	X:	0.010	Y:	-0.000	Z:	0.052	yaw:	-3.040	yaw rate:	3.083	Roll:	0.391	Pitch:	-0.025	Yaw:	-7.863	Thrust:	100.000
Time:	2.804	Roll Set Point:	-0.020	Pitch Set Point:	0.000	Yaw Set Point:	0.052	X_WP:	0.000	Y_WP:	0.000	Y_WP:	0.750	X:	0.010	Y:	-0.000	Z:	0.052	yaw:	-2.958	yaw rate:	-8.267	Roll:	0.354	Pitch:	0.017	Yaw:	-6.398	Thrust:	100.000
Time:	2.825	Roll Set Point:	-0.020	Pitch Set Point:	-0.000	Yaw Set Point:	0.053	X_WP:	0.000	Y_WP:	0.000	Y_WP:	0.750	X:	0.010	Y:	-0.000	Z:	0.052	yaw:	-3.061	yaw rate:	10.381	Roll:	0.340	Pitch:	0.052	Yaw:	-8.864	Thrust:	100.000
Time:	2.844	Roll Set Point:	-0.020	Pitch Set Point:	-0.000	Yaw Set Point:	0.053	X_WP:	0.000	Y_WP:	0.000	Y_WP:	0.750	X:	0.010	Y:	-0.000	Z:	0.052	yaw:	-3.028	yaw rate:	-3.372	Roll:	0.374	Pitch:	-0.020	Yaw:	-6.773	Thrust:	100.000
Time:	2.869	Roll Set Point:	-0.020	Pitch Set Point:	0.000	Yaw Set Point:	0.052	X_WP:	0.000	Y_WP:	0.000	Y_WP:	0.750	X:	0.010	Y:	-0.000	Z:	0.052	yaw:	-2.979	yaw rate:	-4.900	Roll:	0.399	Pitch:	-0.011	Yaw:	-7.770	Thrust:	100.000
Time:	2.884	Roll Set Point:	-0.020	Pitch Set Point:	-0.000	Yaw Set Point:	0.053	X_WP:	0.000	Y_WP:	0.000	Y_WP:	0.750	X:	0.010	Y:	-0.000	Z:	0.052	yaw:	-3.036	yaw rate:	5.766	Roll:	0.329	Pitch:	0.061	Yaw:	-7.634	Thrust:	100.000
Time:	2.904	Roll Set Point:	-0.020	Pitch Set Point:	-0.000	Yaw Set Point:	0.053	X_WP:	0.000	Y_WP:	0.000	Y_WP:	0.750	X:	0.010	Y:	-0.000	Z:	0.052	yaw:	-3.032	yaw rate:	-0.402	Roll:	0.377	Pitch:	-0.009	Yaw:	-7.477	Thrust:	100.000
Time:	2.925	Roll Set Point:	-0.020	Pitch Set Point:	0.000	Yaw Set Point:	0.053	X_WP:	0.000	Y_WP:	0.000	Y_WP:	0.750	X:	0.010	Y:	-0.000	Z:	0.052	yaw:	-3.017	yaw rate:	-1.520	Roll:	0.378	Pitch:	-0.016	Yaw:	-7.517	Thrust:	100.000
Time:	2.944	Roll Set Point:	-0.020	Pitch Set Point:	-0.000	Yaw Set Point:	0.053	X_WP:	0.000	Y_WP:	0.000	Y_WP:	0.750	X:	0.010	Y:	-0.000	Z:	0.052	yaw:	-3.030	yaw rate:	1.284	Roll:	0.357	Pitch:	0.049	Yaw:	-7.507	Thrust:	100.000
Time:	2.963	Roll Set Point:	-0.020	Pitch Set Point:	-0.000	Yaw Set Point:	0.052	X_WP:	0.000	Y_WP:	0.000	Y_WP:	0.750	X:	0.010	Y:	-0.000	Z:	0.052	yaw:	-3.005	yaw rate:	-2.485	Roll:	0.350	Pitch:	0.015	Yaw:	-7.051	Thrust:	100.000
Time:	2.983	Roll Set Point:	-0.020	Pitch Set Point:	0.000	Yaw Set Point:	0.053	X_WP:	0.000	Y_WP:	0.000	Y_WP:	0.750	X:	0.010	Y:	-0.000	Z:	0.052	yaw:	-3.034	yaw rate:	2.914	Roll:	0.396	Pitch:	-0.029	Yaw:	-7.993	Thrust:	100.000
Time:	3.003	Roll Set Point:	-0.020	Pitch Set Point:	0.000	Yaw Set Point:	0.054	X_WP:	0.000	Y_WP:	0.000	Y_WP:	0.750	X:	0.010	Y:	-0.000	Z:	0.052	yaw:	-3.102	yaw rate:	6.814	Roll:	0.369	Pitch:	0.008	Yaw:	-8.608	Thrust:	100.000
Time:	3.025	Roll Set Point:	-0.020	Pitch Set Point:	-0.000	Yaw Set Point:	0.052	X_WP:	0.000	Y_WP:	0.000	Y_WP:	0.750	X:	0.010	Y:	-0.000	Z:	0.052	yaw:	-3.000	yaw rate:	-10.223	Roll:	0.366	Pitch:	0.050	Yaw:	-6.624	Thrust:	100.000
Time:	3.043	Roll Set Point:	-0.020	Pitch Set Point:	0.000	Yaw Set Point:	0.052	X_WP:	0.000	Y_WP:	0.000	Y_WP:	0.750	X:	0.010	Y:	-0.000	Z:	0.052	yaw:	-2.960	yaw rate:	-3.997	Roll:	0.413	Pitch:	-0.059	Yaw:	-6.676	Thrust:	100.000
Time:	3.064	Roll Set Point:	-0.020	Pitch Set Point:	0.000	Yaw Set Point:	0.051	X_WP:	0.000	Y_WP:	0.000	Y_WP:	0.750	X:	0.010	Y:	-0.000	Z:	0.052	yaw:	-2.933	yaw rate:	-2.745	Roll:	0.381	Pitch:	-0.001	Yaw:	-7.197	Thrust:	100.000
Time:	3.084	Roll Set Point:	-0.020	Pitch Set Point:	0.000	Yaw Set Point:	0.051	X_WP:	0.000	Y_WP:	0.000	Y_WP:	0.750	X:	0.010	Y:	-0.000	Z:	0.052	yaw:	-2.937	yaw rate:	0.443	Roll:	0.374	Pitch:	0.037	Yaw:	-7.619	Thrust:	100.000
Time:	3.105	Roll Set Point:	-0.020	Pitch Set Point:	0.000	Yaw Set Point:	0.051	X_WP:	0.000	Y_WP:	0.000	Y_WP:	0.750	X:	0.010	Y:	-0.000	Z:	0.052	yaw:	-2.936	yaw rate:	-0.106	Roll:	0.354	Pitch:	0.010	Yaw:	-7.743	Thrust:	100.000
Time:	3.124	Roll Set Point:	-0.021	Pitch Set Point:	0.000	Yaw Set Point:	0.053	X_WP:	0.000	Y_WP:	0.000	Y_WP:	0.750	X:	0.010	Y:	-0.000	Z:	0.052	yaw:	-3.050	yaw rate:	11.353	Roll:	0.423	Pitch:	-0.034	Yaw:	-9.183	Thrust:	100.000
Time:	3.145	Roll Set Point:	-0.020	Pitch Set Point:	0.000	Yaw Set Point:	0.052	X_WP:	0.000	Y_WP:	0.000	Y_WP:	0.750	X:	0.010	Y:	-0.000	Z:	0.052	yaw:	-2.989	yaw rate:	-6.083	Roll:	0.342	Pitch:	0.027	Yaw:	-7.055	Thrust:	100.000
Time:	3.166	Roll Set Point:	-0.021	Pitch Set Point:	0.000	Yaw Set Point:	0.053	X_WP:	0.000	Y_WP:	0.000	Y_WP:	0.750	X:	0.010	Y:	-0.000	Z:	0.052	yaw:	-3.022	yaw rate:	3.372	Roll:	0.430	Pitch:	0.001	Yaw:	-8.299	Thrust:	100.000
Time:	3.187	Roll Set Point:	-0.020	Pitch Set Point:	0.000	Yaw Set Point:	0.052	X_WP:	0.000	Y_WP:	0.000	Y_WP:	0.750	X:	0.010	Y:	-0.000	Z:	0.052	yaw:	-2.998	yaw rate:	-2.433	Roll:	0.361	Pitch:	-0.004	Yaw:	-7.654	Thrust:	100.000
Time:	3.203	Roll Set Point:	-0.021	Pitch Set Point:	0.000	Yaw Set Point:	0.051	X_WP:	0.000	Y_WP:	0.000	Y_WP:	0.750	X:	0.010	Y:	-0.000	Z:	0.052	yaw:	-2.936	yaw rate:	-6.245	Roll:	0.372	Pitch:	0.011	Yaw:	-6.069	Thrust:	100.000
Time:	3.225	Roll Set Point:	-0.020	Pitch Set Point:	0.000	Yaw Set Point:	0.053	X_WP:	0.000	Y_WP:	0.000	Y_WP:	0.750	X:	0.010	Y:	-0.000	Z:	0.052	yaw:	-3.026	yaw rate:	9.069	Roll:	0.360	Pitch:	0.031	Yaw:	-9.181	Thrust:	100.000
Time:	3.244	Roll Set Point:	-0.020	Pitch Set Point:	0.000	Yaw Set Point:	0.052	X_WP:	0.000	Y_WP:	0.000	Y_WP:	0.750	X:	0.010	Y:	-0.000	Z:	0.052	yaw:	-2.955	yaw rate:	-7.173	Roll:	0.363	Pitch:	0.007	Yaw:	-6.603	Thrust:	100.000
Time:	3.265	Roll Set Point:	-0.021	Pitch Set Point:	0.000	Yaw Set Point:	0.052	X_WP:	0.000	Y_WP:	0.000	Y_WP:	0.750	X:	0.010	Y:	-0.000	Z:	0.052	yaw:	-3.006	yaw rate:	5.118	Roll:	0.420	Pitch:	-0.011	Yaw:	-8.651	Thrust:	100.000
Time:	3.283	Roll Set Point:	-0.020	Pitch Set Point:	0.000	Yaw Set Point:	0.053	X_WP:	0.000	Y_WP:	0.000	Y_WP:	0.750	X:	0.010	Y:	-0.000	Z:	0.052	yaw:	-3.013	yaw rate:	0.669	Roll:	0.364	Pitch:	0.011	Yaw:	-7.629	Thrust:	100.000
Time:	3.304	Roll Set Point:	-0.020	Pitch Set Point:	0.000	Yaw Set Point:	0.053	X_WP:	0.000	Y_WP:	0.000	Y_WP:	0.750	X:	0.010	Y:	-0.000	Z:	0.052	yaw:	-3.011	yaw rate:	-0.114	Roll:	0.368	Pitch:	0.014	Yaw:	-8.071	Thrust:	100.000
Time:	3.325	Roll Set Point:	-0.020	Pitch Set Point:	0.000	Yaw Set Point:	0.052	X_WP:	0.000	Y_WP:	0.000	Y_WP:	0.750	X:	0.010	Y:	-0.000	Z:	0.052	yaw:	-2.961	yaw rate:	-5.026	Roll:	0.391	Pitch:	0.004	Yaw:	-7.422	Thrust:	100.000
Time:	3.344	Roll Set Point:	-0.021	Pitch Set Point:	0.000	Yaw Set Point:	0.053	X_WP:	0.000	Y_WP:	0.000	Y_WP:	0.750	X:	0.010	Y:	-0.000	Z:	0.052	yaw:	-3.029	yaw rate:	6.817	Roll:	0.394	Pitch:	-0.002	Yaw:	-8.655	Thrust:	100.000
Time:	3.363	Roll Set Point:	-0.020	Pitch Set Point:	0.000	Yaw Set Point:	0.053	X_WP:	0.000	Y_WP:	0.000	Y_WP:	0.750	X:	0.010	Y:	-0.000	Z:	0.052	yaw:	-3.026	yaw rate:	-0.367	Roll:	0.357	Pitch:	0.013	Yaw:	-7.832	Thrust:	100.000
Time:	3.383	Roll Set Point:	-0.020	Pitch Set Point:	0.000	Yaw Set Point:	0.051	X_WP:	0.000	Y_WP:	0.000	Y_WP:	0.750	X:	0.010	Y:	-0.000	Z:	0.052	yaw:	-2.919	yaw rate:	-10.650	Roll:	0.372	Pitch:	0.031	Yaw:	-6.362	Thrust:	100.000
Time:	3.404	Roll Set Point:	-0.021	Pitch Set Point:	0.000	Yaw Set Point:	0.051	X_WP:	0.000	Y_WP:	0.000	Y_WP:	0.750	X:	0.010	Y:	-0.000	Z:	0.052	yaw:	-2.943	yaw rate:	2.426	Roll:	0.417	Pitch:	-0.009	Yaw:	-8.406	Thrust:	100.000
Time:	3.424	Roll Set Point:	-0.020	Pitch Set Point:	0.000	Yaw Set Point:	0.052	X_WP:	0.000	Y_WP:	0.000	Y_WP:	0.750	X:	0.010	Y:	-0.000	Z:	0.052	yaw:	-2.974	yaw rate:	3.100	Roll:	0.350	Pitch:	-0.011	Yaw:	-8.301	Thrust:	100.000
Time:	3.444	Roll Set Point:	-0.020	Pitch Set Point:	0.000	Yaw Set Point:	0.053	X_WP:	0.000	Y_WP:	0.000	Y_WP:	0.750	X:	0.010	Y:	-0.000	Z:	0.052	yaw:	-3.014	yaw rate:	3.969	Roll:	0.382	Pitch:	0.039	Yaw:	-8.550	Thrust:	100.000
Time:	3.463	Roll Set Point:	-0.020	Pitch Set Point:	0.000	Yaw Set Point:	0.052	X_WP:	0.000	Y_WP:	0.000	Y_WP:	0.750	X:	0.010	Y:	-0.000	Z:	0.052	yaw:	-3.005	yaw rate:	-0.863	Roll:	0.378	Pitch:	0.018	Yaw:	-7.792	Thrust:	100.000
Time:	3.484	Roll Set Point:	-0.020	Pitch Set Point:	0.000	Yaw Set Point:	0.052	X_WP:	0.000	Y_WP:	0.000	Y_WP:	0.750	X:	0.010	Y:	-0.000	Z:	0.052	yaw:	-3.004	yaw rate:	-0.151	Roll:	0.402	Pitch:	-0.010	Yaw:	-8.220	Thrust:	100.000
Time:	3.504	Roll Set Point:	-0.020	Pitch Set Point:	0.000	Yaw Set Point:	0.041	X_WP:	0.000	Y_WP:	0.000	Y_WP:	0.750	X:	0.010	Y:	-0.000	Z:	0.052	yaw:	-2.374	yaw rate:	-62.965	Roll:	0.011	Pitch:	-0.185	Yaw:	0.956	Thrust:	100.000
Time:	3.525	Roll Set Point:	-0.020	Pitch Set Point:	0.000	Yaw Set Point:	0.053	X_WP:	0.000	Y_WP:	0.000	Y_WP:	0.750	X:	0.010	Y:	-0.000	Z:	0.052	yaw:	-3.020	yaw rate:	64.546	Roll:	0.762	Pitch:	0.175	Yaw:	-16.444	Thrust:	100.000
Time:	3.544	Roll Set Point:	-0.020	Pitch Set Point:	0.000	Yaw Set Point:	0.051	X_WP:	0.000	Y_WP:	0.000	Y_WP:	0.750	X:	0.010	Y:	-0.000	Z:	0.052	yaw:	-2.945	yaw rate:	-7.453	Roll:	0.360	Pitch:	0.017	Yaw:	-6.694	Thrust:	100.000
Time:	3.565	Roll Set Point:	-0.020	Pitch Set Point:	0.000	Yaw Set Point:	0.053	X_WP:	0.000	Y_WP:	0.000	Y_WP:	0.750	X:	0.010	Y:	-0.000	Z:	0.052	yaw:	-3.025	yaw rate:	7.941	Roll:	0.381	Pitch:	-0.012	Yaw:	-9.428	Thrust:	100.000
Time:	3.583	Roll Set Point:	-0.021	Pitch Set Point:	0.000	Yaw Set Point:	0.053	X_WP:	0.000	Y_WP:	0.000	Y_WP:	0.750	X:	0.010	Y:	-0.000	Z:	0.052	yaw:	-3.009	yaw rate:	-1.582	Roll:	0.451	Pitch:	0.015	Yaw:	-7.581	Thrust:	100.000
Time:	3.609	Roll Set Point:	-0.020	Pitch Set Point:	0.000	Yaw Set Point:	0.053	X_WP:	0.000	Y_WP:	0.000	Y_WP:	0.750	X:	0.010	Y:	-0.000	Z:	0.052	yaw:	-3.027	yaw rate:	1.769	Roll:	0.368	Pitch:	0.026	Yaw:	-9.632	Thrust:	100.000
Time:	3.624	Roll Set Point:	-0.021	Pitch Set Point:	0.000	Yaw Set Point:	0.052	X_WP:	0.000	Y_WP:	0.000	Y_WP:	0.750	X:	0.010	Y:	-0.000	Z:	0.052	yaw:	-2.979	yaw rate:	-4.794	Roll:	0.417	Pitch:	-0.003	Yaw:	-6.207	Thrust:	100.000
Time:	3.644	Roll Set Point:	-0.020	Pitch Set Point:	0.000	Yaw Set Point:	0.054	X_WP:	0.000	Y_WP:	0.000	Y_WP:	0.750	X:	0.010	Y:	-0.000	Z:	0.052	yaw:	-3.069	yaw rate:	9.021	Roll:	0.364	Pitch:	-0.135	Yaw:	-9.461	Thrust:	100.000
Time:	3.663	Roll Set Point:	-0.021	Pitch Set Point:	0.000	Yaw Set Point:	0.052	X_WP:	0.000	Y_WP:	0.000	Y_WP:	0.750	X:	0.010	Y:	-0.000	Z:	0.052	yaw:	-2.988	yaw rate:	-8.065	Roll:	0.395	Pitch:	0.175	Yaw:	-7.004	Thrust:	100.000
Time:	3.683	Roll Set Point:	-0.020	Pitch Set Point:	0.000	Yaw Set Point:	0.052	X_WP:	0.000	Y_WP:	0.000	Y_WP:	0.750	X:	0.010	Y:	-0.000	Z:	0.052	yaw:	-2.973	yaw rate:	-1.545	Roll:	0.348	Pitch:	-0.002	Yaw:	-7.973	Thrust:	100.000
Time:	3.704	Roll Set Point:	-0.020	Pitch Set Point:	0.000	Yaw Set Point:	0.053	X_WP:	0.000	Y_WP:	0.000	Y_WP:	0.750	X:	0.010	Y:	-0.000	Z:	0.052	yaw:	-3.042	yaw rate:	6.959	Roll:	0.403	Pitch:	0.007	Yaw:	-9.265	Thrust:	100.000
Time:	3.724	Roll Set Point:	-0.020	Pitch Set Point:	-0.000	Yaw Set Point:	0.053	X_WP:	0.000	Y_WP:	0.000	Y_WP:	0.750	X:	0.010	Y:	-0.000	Z:	0.052	yaw:	-3.033	yaw rate:	-0.946	Roll:	0.365	Pitch:	0.048	Yaw:	-8.172	Thrust:	100.000
Time:	3.744	Roll Set Point:	-0.020	Pitch Set Point:	0.000	Yaw Set Point:	0.053	X_WP:	0.000	Y_WP:	0.000	Y_WP:	0.750	X:	0.010	Y:	-0.000	Z:	0.052	yaw:	-3.021	yaw rate:	-1.228	Roll:	0.393	Pitch:	-0.024	Yaw:	-7.972	Thrust:	100.000
Time:	3.763	Roll Set Point:	-0.020	Pitch Set Point:	-0.000	Yaw Set Point:	0.053	X_WP:	0.000	Y_WP:	0.000	Y_WP:	0.750	X:	0.010	Y:	-0.000	Z:	0.052	yaw:	-3.014	yaw rate:	-0.631	Roll:	0.363	Pitch:	0.027	Yaw:	-8.044	Thrust:	100.000
Time:	3.783	Roll Set Point:	-0.020	Pitch Set Point:	-0.000	Yaw Set Point:	0.053	X_WP:	0.000	Y_WP:	0.000	Y_WP:	0.750	X:	0.010	Y:	-0.000	Z:	0.052	yaw:	-3.012	yaw rate:	-0.254	Roll:	0.387	Pitch:	0.018	Yaw:	-8.145	Thrust:	100.000
Time:	3.804	Roll Set Point:	-0.020	Pitch Set Point:	-0.000	Yaw Set Point:	0.053	X_WP:	0.000	Y_WP:	0.000	Y_WP:	0.750	X:	0.010	Y:	-0.000	Z:	0.052	yaw:	-3.052	yaw rate:	3.997	Roll:	0.405	Pitch:	-0.002	Yaw:	-8.886	Thrust:	100.000
Time:	3.824	Roll Set Point:	-0.020	Pitch Set Point:	0.000	Yaw Set Point:	0.053	X_WP:	0.000	Y_WP:	0.000	Y_WP:	0.750	X:	0.010	Y:	-0.000	Z:	0.052	yaw:	-3.017	yaw rate:	-3.456	Roll:	0.385	Pitch:	-0.008	Yaw:	-7.803	Thrust:	100.000
Time:	3.843	Roll Set Point:	-0.020	Pitch Set Point:	-0.000	Yaw Set Point:	0.052	X_WP:	0.000	Y_WP:	0.000	Y_WP:	0.750	X:	0.010	Y:	-0.000	Z:	0.052	yaw:	-2.984	yaw rate:	-3.272	Roll:	0.387	Pitch:	0.028	Yaw:	-7.531	Thrust:	100.000
Time:	3.864	Roll Set Point:	-0.020	Pitch Set Point:	-0.000	Yaw Set Point:	0.052	X_WP:	0.000	Y_WP:	0.000	Y_WP:	0.750	X:	0.010	Y:	-0.000	Z:	0.052	yaw:	-2.957	yaw rate:	-2.692	Roll:	0.394	Pitch:	0.018	Yaw:	-8.012	Thrust:	100.000
Time:	3.883	Roll Set Point:	-0.020	Pitch Set Point:	0.000	Yaw Set Point:	0.053	X_WP:	0.000	Y_WP:	0.000	Y_WP:	0.750	X:	0.010	Y:	-0.000	Z:	0.052	yaw:	-3.062	yaw rate:	10.474	Roll:	0.384	Pitch:	-0.002	Yaw:	-9.485	Thrust:	100.000
Time:	3.904	Roll Set Point:	-0.020	Pitch Set Point:	-0.000	Yaw Set Point:	0.052	X_WP:	0.000	Y_WP:	0.000	Y_WP:	0.750	X:	0.010	Y:	-0.000	Z:	0.052	yaw:	-2.959	yaw rate:	-10.269	Roll:	0.393	Pitch:	0.012	Yaw:	-6.968	Thrust:	100.000
Time:	3.923	Roll Set Point:	-0.020	Pitch Set Point:	-0.000	Yaw Set Point:	0.052	X_WP:	0.000	Y_WP:	0.000	Y_WP:	0.750	X:	0.010	Y:	-0.000	Z:	0.052	yaw:	-2.999	yaw rate:	3.934	Roll:	0.405	Pitch:	0.018	Yaw:	-8.644	Thrust:	100.000
Time:	3.943	Roll Set Point:	-0.020	Pitch Set Point:	0.000	Yaw Set Point:	0.053	X_WP:	0.000	Y_WP:	0.000	Y_WP:	0.750	X:	0.010	Y:	-0.000	Z:	0.052	yaw:	-3.059	yaw rate:	6.025	Roll:	0.413	Pitch:	-0.006	Yaw:	-9.061	Thrust:	100.000
Time:	3.963	Roll Set Point:	-0.020	Pitch Set Point:	0.000	Yaw Set Point:	0.055	X_WP:	0.000	Y_WP:	0.000	Y_WP:	0.750	X:	0.010	Y:	-0.000	Z:	0.052	yaw:	-3.161	yaw rate:	10.228	Roll:	0.395	Pitch:	-0.143	Yaw:	-9.772	Thrust:	100.000
Time:	3.985	Roll Set Point:	-0.020	Pitch Set Point:	0.000	Yaw Set Point:	0.053	X_WP:	0.000	Y_WP:	0.000	Y_WP:	0.750	X:	0.010	Y:	-0.000	Z:	0.052	yaw:	-3.051	yaw rate:	-11.061	Roll:	0.383	Pitch:	0.142	Yaw:	-7.359	Thrust:	100.000
Time:	4.004	Roll Set Point:	-0.020	Pitch Set Point:	0.000	Yaw Set Point:	0.053	X_WP:	0.000	Y_WP:	0.000	Y_WP:	0.750	X:	0.010	Y:	-0.000	Z:	0.052	yaw:	-3.046	yaw rate:	-0.474	Roll:	0.417	Pitch:	-0.005	Yaw:	-7.801	Thrust:	100.000
Time:	4.034	Roll Set Point:	-0.020	Pitch Set Point:	-0.000	Yaw Set Point:	0.054	X_WP:	0.000	Y_WP:	0.000	Y_WP:	0.750	X:	0.010	Y:	-0.000	Z:	0.052	yaw:	-3.085	yaw rate:	3.856	Roll:	0.428	Pitch:	0.024	Yaw:	-10.771	Thrust:	100.000
Time:	4.053	Roll Set Point:	-0.020	Pitch Set Point:	-0.000	Yaw Set Point:	0.052	X_WP:	0.000	Y_WP:	0.000	Y_WP:	0.750	X:	0.010	Y:	-0.000	Z:	0.052	yaw:	-2.998	yaw rate:	-8.616	Roll:	0.380	Pitch:	0.004	Yaw:	-6.705	Thrust:	100.000
Time:	4.073	Roll Set Point:	-0.020	Pitch Set Point:	0.000	Yaw Set Point:	0.052	X_WP:	0.000	Y_WP:	0.000	Y_WP:	0.750	X:	0.010	Y:	-0.000	Z:	0.052	yaw:	-3.007	yaw rate:	0.876	Roll:	0.435	Pitch:	0.004	Yaw:	-8.329	Thrust:	100.000
Time:	4.095	Roll Set Point:	-0.020	Pitch Set Point:	-0.000	Yaw Set Point:	0.053	X_WP:	0.000	Y_WP:	0.000	Y_WP:	0.750	X:	0.010	Y:	-0.000	Z:	0.052	yaw:	-3.011	yaw rate:	0.359	Roll:	0.398	Pitch:	0.015	Yaw:	-8.736	Thrust:	100.000
Time:	4.113	Roll Set Point:	-0.020	Pitch Set Point:	0.000	Yaw Set Point:	0.053	X_WP:	0.000	Y_WP:	0.000	Y_WP:	0.750	X:	0.010	Y:	-0.000	Z:	0.052	yaw:	-3.029	yaw rate:	1.805	Roll:	0.390	Pitch:	-0.014	Yaw:	-8.030	Thrust:	100.000
Time:	4.133	Roll Set Point:	-0.020	Pitch Set Point:	-0.000	Yaw Set Point:	0.053	X_WP:	0.000	Y_WP:	0.000	Y_WP:	0.750	X:	0.010	Y:	-0.000	Z:	0.052	yaw:	-3.041	yaw rate:	1.175	Roll:	0.390	Pitch:	0.035	Yaw:	-8.371	Thrust:	100.000
Time:	4.154	Roll Set Point:	-0.020	Pitch Set Point:	0.000	Yaw Set Point:	0.054	X_WP:	0.000	Y_WP:	0.000	Y_WP:	0.750	X:	0.010	Y:	-0.000	Z:	0.052	yaw:	-3.074	yaw rate:	3.382	Roll:	0.425	Pitch:	-0.011	Yaw:	-8.988	Thrust:	100.000
Time:	4.174	Roll Set Point:	-0.020	Pitch Set Point:	0.000	Yaw Set Point:	0.053	X_WP:	0.000	Y_WP:	0.000	Y_WP:	0.750	X:	0.010	Y:	-0.000	Z:	0.052	yaw:	-3.061	yaw rate:	-1.300	Roll:	0.377	Pitch:	0.010	Yaw:	-8.054	Thrust:	100.000
Time:	4.195	Roll Set Point:	-0.020	Pitch Set Point:	-0.000	Yaw Set Point:	0.052	X_WP:	0.000	Y_WP:	0.000	Y_WP:	0.750	X:	0.010	Y:	-0.000	Z:	0.052	yaw:	-3.002	yaw rate:	-5.909	Roll:	0.397	Pitch:	0.031	Yaw:	-7.663	Thrust:	100.000
Time:	4.213	Roll Set Point:	-0.020	Pitch Set Point:	0.000	Yaw Set Point:	0.053	X_WP:	0.000	Y_WP:	0.000	Y_WP:	0.750	X:	0.010	Y:	-0.000	Z:	0.052	yaw:	-3.038	yaw rate:	3.604	Roll:	0.418	Pitch:	-0.014	Yaw:	-8.416	Thrust:	100.000
Time:	4.234	Roll Set Point:	-0.020	Pitch Set Point:	-0.000	Yaw Set Point:	0.053	X_WP:	0.000	Y_WP:	0.000	Y_WP:	0.750	X:	0.010	Y:	-0.000	Z:	0.052	yaw:	-3.056	yaw rate:	1.801	Roll:	0.380	Pitch:	0.022	Yaw:	-8.692	Thrust:	100.000
Time:	4.256	Roll Set Point:	-0.020	Pitch Set Point:	0.000	Yaw Set Point:	0.054	X_WP:	0.000	Y_WP:	0.000	Y_WP:	0.750	X:	0.010	Y:	-0.000	Z:	0.052	yaw:	-3.067	yaw rate:	1.083	Roll:	0.430	Pitch:	-0.010	Yaw:	-8.501	Thrust:	100.000
Time:	4.274	Roll Set Point:	-0.020	Pitch Set Point:	-0.000	Yaw Set Point:	0.052	X_WP:	0.000	Y_WP:	0.000	Y_WP:	0.750	X:	0.010	Y:	-0.000	Z:	0.052	yaw:	-2.954	yaw rate:	-11.298	Roll:	0.376	Pitch:	0.034	Yaw:	-6.534	Thrust:	100.000
Time:	4.296	Roll Set Point:	-0.020	Pitch Set Point:	-0.000	Yaw Set Point:	0.053	X_WP:	0.000	Y_WP:	0.000	Y_WP:	0.750	X:	0.010	Y:	-0.000	Z:	0.052	yaw:	-3.063	yaw rate:	10.829	Roll:	0.435	Pitch:	0.007	Yaw:	-9.928	Thrust:	100.000
Time:	4.315	Roll Set Point:	-0.020	Pitch Set Point:	-0.000	Yaw Set Point:	0.054	X_WP:	0.000	Y_WP:	0.000	Y_WP:	0.750	X:	0.010	Y:	-0.000	Z:	0.052	yaw:	-3.081	yaw rate:	1.800	Roll:	0.369	Pitch:	0.014	Yaw:	-8.273	Thrust:	100.000
Time:	4.335	Roll Set Point:	-0.020	Pitch Set Point:	0.000	Yaw Set Point:	0.054	X_WP:	0.000	Y_WP:	0.000	Y_WP:	0.750	X:	0.010	Y:	-0.000	Z:	0.052	yaw:	-3.079	yaw rate:	-0.144	Roll:	0.424	Pitch:	-0.016	Yaw:	-8.361	Thrust:	100.000
Time:	4.357	Roll Set Point:	-0.020	Pitch Set Point:	0.000	Yaw Set Point:	0.053	X_WP:	0.000	Y_WP:	0.000	Y_WP:	0.750	X:	0.010	Y:	-0.000	Z:	0.052	yaw:	-3.046	yaw rate:	-3.305	Roll:	0.420	Pitch:	0.017	Yaw:	-8.058	Thrust:	100.000
Time:	4.375	Roll Set Point:	-0.020	Pitch Set Point:	-0.000	Yaw Set Point:	0.052	X_WP:	0.000	Y_WP:	0.000	Y_WP:	0.750	X:	0.010	Y:	-0.000	Z:	0.052	yaw:	-2.962	yaw rate:	-8.364	Roll:	0.355	Pitch:	0.052	Yaw:	-6.816	Thrust:	100.000
Time:	4.395	Roll Set Point:	-0.020	Pitch Set Point:	0.000	Yaw Set Point:	0.053	X_WP:	0.000	Y_WP:	0.000	Y_WP:	0.750	X:	0.010	Y:	-0.000	Z:	0.052	yaw:	-3.051	yaw rate:	8.845	Roll:	0.445	Pitch:	-0.039	Yaw:	-9.420	Thrust:	100.000
Time:	4.415	Roll Set Point:	-0.020	Pitch Set Point:	0.000	Yaw Set Point:	0.054	X_WP:	0.000	Y_WP:	0.000	Y_WP:	0.750	X:	0.010	Y:	-0.000	Z:	0.052	yaw:	-3.075	yaw rate:	2.469	Roll:	0.419	Pitch:	-0.040	Yaw:	-8.497	Thrust:	100.000
Time:	4.435	Roll Set Point:	-0.020	Pitch Set Point:	-0.000	Yaw Set Point:	0.053	X_WP:	0.000	Y_WP:	0.000	Y_WP:	0.750	X:	0.010	Y:	-0.000	Z:	0.052	yaw:	-3.033	yaw rate:	-4.203	Roll:	0.396	Pitch:	0.073	Yaw:	-7.709	Thrust:	100.000
Time:	4.456	Roll Set Point:	-0.020	Pitch Set Point:	0.000	Yaw Set Point:	0.053	X_WP:	0.000	Y_WP:	0.000	Y_WP:	0.750	X:	0.010	Y:	-0.000	Z:	0.052	yaw:	-3.034	yaw rate:	0.052	Roll:	0.396	Pitch:	-0.007	Yaw:	-8.184	Thrust:	100.000
Time:	4.475	Roll Set Point:	-0.020	Pitch Set Point:	0.000	Yaw Set Point:	0.054	X_WP:	0.000	Y_WP:	0.000	Y_WP:	0.750	X:	0.010	Y:	-0.000	Z:	0.052	yaw:	-3.113	yaw rate:	7.930	Roll:	0.432	Pitch:	-0.005	Yaw:	-9.416	Thrust:	100.000
Time:	4.495	Roll Set Point:	-0.020	Pitch Set Point:	0.000	Yaw Set Point:	0.053	X_WP:	0.000	Y_WP:	0.000	Y_WP:	0.750	X:	0.010	Y:	-0.000	Z:	0.052	yaw:	-3.062	yaw rate:	-5.131	Roll:	0.386	Pitch:	0.032	Yaw:	-7.597	Thrust:	100.000
Time:	4.515	Roll Set Point:	-0.020	Pitch Set Point:	0.000	Yaw Set Point:	0.053	X_WP:	0.000	Y_WP:	0.000	Y_WP:	0.750	X:	0.010	Y:	-0.000	Z:	0.052	yaw:	-3.058	yaw rate:	-0.434	Roll:	0.420	Pitch:	0.014	Yaw:	-8.226	Thrust:	100.000
Time:	4.534	Roll Set Point:	-0.020	Pitch Set Point:	0.000	Yaw Set Point:	0.053	X_WP:	0.000	Y_WP:	0.000	Y_WP:	0.750	X:	0.010	Y:	-0.000	Z:	0.052	yaw:	-3.041	yaw rate:	-1.631	Roll:	0.403	Pitch:	-0.021	Yaw:	-7.772	Thrust:	100.000
Time:	4.556	Roll Set Point:	-0.020	Pitch Set Point:	-0.000	Yaw Set Point:	0.052	X_WP:	0.000	Y_WP:	0.000	Y_WP:	0.750	X:	0.010	Y:	-0.000	Z:	0.052	yaw:	-2.996	yaw rate:	-4.577	Roll:	0.407	Pitch:	0.041	Yaw:	-8.077	Thrust:	100.000
Time:	4.575	Roll Set Point:	-0.020	Pitch Set Point:	-0.000	Yaw Set Point:	0.053	X_WP:	0.000	Y_WP:	0.000	Y_WP:	0.750	X:	0.010	Y:	-0.000	Z:	0.052	yaw:	-3.026	yaw rate:	3.060	Roll:	0.401	Pitch:	0.012	Yaw:	-8.559	Thrust:	100.000
Time:	4.597	Roll Set Point:	-0.020	Pitch Set Point:	-0.000	Yaw Set Point:	0.053	X_WP:	0.000	Y_WP:	0.000	Y_WP:	0.750	X:	0.010	Y:	-0.000	Z:	0.052	yaw:	-3.041	yaw rate:	1.502	Roll:	0.420	Pitch:	0.005	Yaw:	-8.741	Thrust:	100.000
Time:	4.626	Roll Set Point:	-0.020	Pitch Set Point:	0.000	Yaw Set Point:	0.054	X_WP:	0.000	Y_WP:	0.000	Y_WP:	0.750	X:	0.010	Y:	-0.000	Z:	0.052	yaw:	-3.074	yaw rate:	3.249	Roll:	0.460	Pitch:	-0.005	Yaw:	-10.294	Thrust:	100.000
Time:	4.640	Roll Set Point:	-0.020	Pitch Set Point:	0.000	Yaw Set Point:	0.054	X_WP:	0.000	Y_WP:	0.000	Y_WP:	0.750	X:	0.010	Y:	-0.000	Z:	0.052	yaw:	-3.113	yaw rate:	3.921	Roll:	0.380	Pitch:	0.031	Yaw:	-7.971	Thrust:	100.000
Time:	4.659	Roll Set Point:	-0.020	Pitch Set Point:	0.000	Yaw Set Point:	0.054	X_WP:	0.000	Y_WP:	0.000	Y_WP:	0.750	X:	0.010	Y:	-0.000	Z:	0.052	yaw:	-3.105	yaw rate:	-0.798	Roll:	0.401	Pitch:	0.005	Yaw:	-7.834	Thrust:	100.000
Time:	4.675	Roll Set Point:	-0.020	Pitch Set Point:	-0.000	Yaw Set Point:	0.054	X_WP:	0.000	Y_WP:	0.000	Y_WP:	0.750	X:	0.010	Y:	-0.000	Z:	0.052	yaw:	-3.071	yaw rate:	-3.412	Roll:	0.386	Pitch:	0.020	Yaw:	-7.170	Thrust:	100.000
Time:	4.695	Roll Set Point:	-0.020	Pitch Set Point:	0.000	Yaw Set Point:	0.053	X_WP:	0.000	Y_WP:	0.000	Y_WP:	0.750	X:	0.010	Y:	-0.000	Z:	0.052	yaw:	-3.061	yaw rate:	-1.013	Roll:	0.435	Pitch:	0.006	Yaw:	-8.065	Thrust:	100.000
Time:	4.714	Roll Set Point:	-0.020	Pitch Set Point:	0.000	Yaw Set Point:	0.054	X_WP:	0.000	Y_WP:	0.000	Y_WP:	0.750	X:	0.010	Y:	-0.000	Z:	0.052	yaw:	-3.085	yaw rate:	2.414	Roll:	0.409	Pitch:	-0.001	Yaw:	-8.453	Thrust:	100.000
Time:	4.734	Roll Set Point:	-0.020	Pitch Set Point:	0.000	Yaw Set Point:	0.054	X_WP:	0.000	Y_WP:	0.000	Y_WP:	0.750	X:	0.010	Y:	-0.000	Z:	0.052	yaw:	-3.071	yaw rate:	-1.425	Roll:	0.422	Pitch:	0.010	Yaw:	-8.173	Thrust:	100.000
Time:	4.754	Roll Set Point:	-0.020	Pitch Set Point:	0.000	Yaw Set Point:	0.053	X_WP:	0.000	Y_WP:	0.000	Y_WP:	0.750	X:	0.010	Y:	-0.000	Z:	0.052	yaw:	-3.044	yaw rate:	-2.685	Roll:	0.395	Pitch:	0.017	Yaw:	-7.919	Thrust:	100.000
Time:	4.777	Roll Set Point:	-0.020	Pitch Set Point:	0.000	Yaw Set Point:	0.055	X_WP:	0.000	Y_WP:	0.000	Y_WP:	0.750	X:	0.010	Y:	-0.000	Z:	0.052	yaw:	-3.173	yaw rate:	12.968	Roll:	0.430	Pitch:	-0.133	Yaw:	-10.479	Thrust:	100.000
Time:	4.796	Roll Set Point:	-0.020	Pitch Set Point:	-0.000	Yaw Set Point:	0.053	X_WP:	0.000	Y_WP:	0.000	Y_WP:	0.750	X:	0.010	Y:	-0.000	Z:	0.052	yaw:	-3.021	yaw rate:	-15.286	Roll:	0.414	Pitch:	0.148	Yaw:	-5.927	Thrust:	100.000
Time:	4.814	Roll Set Point:	-0.020	Pitch Set Point:	-0.000	Yaw Set Point:	0.052	X_WP:	0.000	Y_WP:	0.000	Y_WP:	0.750	X:	0.010	Y:	-0.000	Z:	0.052	yaw:	-3.007	yaw rate:	-1.340	Roll:	0.402	Pitch:	0.007	Yaw:	-7.508	Thrust:	100.000
Time:	4.835	Roll Set Point:	-0.020	Pitch Set Point:	-0.000	Yaw Set Point:	0.053	X_WP:	0.000	Y_WP:	0.000	Y_WP:	0.750	X:	0.010	Y:	-0.000	Z:	0.052	yaw:	-3.054	yaw rate:	4.730	Roll:	0.415	Pitch:	0.015	Yaw:	-9.072	Thrust:	100.000
Time:	4.854	Roll Set Point:	-0.020	Pitch Set Point:	0.000	Yaw Set Point:	0.053	X_WP:	0.000	Y_WP:	0.000	Y_WP:	0.750	X:	0.010	Y:	-0.000	Z:	0.052	yaw:	-3.046	yaw rate:	-0.806	Roll:	0.450	Pitch:	-0.019	Yaw:	-7.891	Thrust:	100.000
Time:	4.873	Roll Set Point:	-0.020	Pitch Set Point:	-0.000	Yaw Set Point:	0.052	X_WP:	0.000	Y_WP:	0.000	Y_WP:	0.750	X:	0.010	Y:	-0.000	Z:	0.052	yaw:	-3.005	yaw rate:	-4.174	Roll:	0.399	Pitch:	0.045	Yaw:	-7.548	Thrust:	100.000
Time:	4.896	Roll Set Point:	-0.020	Pitch Set Point:	-0.000	Yaw Set Point:	0.052	X_WP:	0.000	Y_WP:	0.000	Y_WP:	0.750	X:	0.010	Y:	-0.000	Z:	0.052	yaw:	-2.986	yaw rate:	-1.865	Roll:	0.420	Pitch:	-0.009	Yaw:	-8.595	Thrust:	100.000
Time:	4.914	Roll Set Point:	-0.020	Pitch Set Point:	0.000	Yaw Set Point:	0.052	X_WP:	0.000	Y_WP:	0.000	Y_WP:	0.750	X:	0.010	Y:	-0.000	Z:	0.052	yaw:	-2.957	yaw rate:	-2.880	Roll:	0.491	Pitch:	-0.034	Yaw:	-7.349	Thrust:	100.000
Time:	4.934	Roll Set Point:	-0.020	Pitch Set Point:	0.000	Yaw Set Point:	0.052	X_WP:	0.000	Y_WP:	0.000	Y_WP:	0.750	X:	0.010	Y:	-0.000	Z:	0.052	yaw:	-2.951	yaw rate:	-0.612	Roll:	0.384	Pitch:	0.029	Yaw:	-7.904	Thrust:	100.000
Time:	4.955	Roll Set Point:	-0.020	Pitch Set Point:	0.000	Yaw Set Point:	0.052	X_WP:	0.000	Y_WP:	0.000	Y_WP:	0.750	X:	0.010	Y:	-0.000	Z:	0.052	yaw:	-2.966	yaw rate:	1.457	Roll:	0.426	Pitch:	0.009	Yaw:	-8.509	Thrust:	100.000
Time:	4.974	Roll Set Point:	-0.020	Pitch Set Point:	0.000	Yaw Set Point:	0.051	X_WP:	0.000	Y_WP:	0.000	Y_WP:	0.750	X:	0.010	Y:	-0.000	Z:	0.052	yaw:	-2.948	yaw rate:	-1.774	Roll:	0.420	Pitch:	0.011	Yaw:	-7.758	Thrust:	100.000
Time:	4.996	Roll Set Point:	-0.020	Pitch Set Point:	0.000	Yaw Set Point:	0.052	X_WP:	0.000	Y_WP:	0.000	Y_WP:	0.750	X:	0.010	Y:	-0.000	Z:	0.052	yaw:	-2.973	yaw rate:	2.466	Roll:	0.446	Pitch:	0.000	Yaw:	-8.724	Thrust:	100.000
Time:	5.014	Roll Set Point:	-0.020	Pitch Set Point:	0.000	Yaw Set Point:	0.052	X_WP:	0.000	Y_WP:	0.000	Y_WP:	0.750	X:	0.010	Y:	-0.000	Z:	0.052	yaw:	-2.985	yaw rate:	1.295	Roll:	0.388	Pitch:	0.027	Yaw:	-8.065	Thrust:	100.000
Time:	5.034	Roll Set Point:	-0.020	Pitch Set Point:	0.001	Yaw Set Point:	0.061	X_WP:	0.000	Y_WP:	0.000	Y_WP:	0.750	X:	0.010	Y:	-0.001	Z:	0.053	yaw:	-3.515	yaw rate:	52.956	Roll:	0.431	Pitch:	-0.414	Yaw:	-15.902	Thrust:	100.000
Time:	5.056	Roll Set Point:	-0.020	Pitch Set Point:	0.000	Yaw Set Point:	0.053	X_WP:	0.000	Y_WP:	0.000	Y_WP:	0.750	X:	0.010	Y:	-0.000	Z:	0.052	yaw:	-3.022	yaw rate:	-49.312	Roll:	0.446	Pitch:	0.362	Yaw:	-2.812	Thrust:	100.000
Time:	5.075	Roll Set Point:	-0.020	Pitch Set Point:	0.000	Yaw Set Point:	0.052	X_WP:	0.000	Y_WP:	0.000	Y_WP:	0.750	X:	0.010	Y:	-0.000	Z:	0.052	yaw:	-2.968	yaw rate:	-5.399	Roll:	0.388	Pitch:	0.042	Yaw:	-7.229	Thrust:	100.000
Time:	5.094	Roll Set Point:	-0.020	Pitch Set Point:	0.000	Yaw Set Point:	0.052	X_WP:	0.000	Y_WP:	0.000	Y_WP:	0.750	X:	0.010	Y:	-0.000	Z:	0.052	yaw:	-2.999	yaw rate:	3.153	Roll:	0.440	Pitch:	-0.017	Yaw:	-8.433	Thrust:	100.000
Time:	5.114	Roll Set Point:	-0.020	Pitch Set Point:	0.000	Yaw Set Point:	0.052	X_WP:	0.000	Y_WP:	0.000	Y_WP:	0.750	X:	0.010	Y:	-0.000	Z:	0.052	yaw:	-2.993	yaw rate:	-0.642	Roll:	0.449	Pitch:	-0.028	Yaw:	-8.033	Thrust:	100.000
Time:	5.135	Roll Set Point:	-0.020	Pitch Set Point:	0.000	Yaw Set Point:	0.042	X_WP:	0.000	Y_WP:	0.000	Y_WP:	0.750	X:	0.010	Y:	-0.000	Z:	0.052	yaw:	-2.389	yaw rate:	-60.380	Roll:	-0.007	Pitch:	-0.180	Yaw:	0.193	Thrust:	100.000
Time:	5.154	Roll Set Point:	-0.020	Pitch Set Point:	0.000	Yaw Set Point:	0.053	X_WP:	0.000	Y_WP:	0.000	Y_WP:	0.750	X:	0.010	Y:	-0.000	Z:	0.052	yaw:	-3.029	yaw rate:	64.005	Roll:	0.855	Pitch:	0.236	Yaw:	-16.837	Thrust:	100.000
Time:	5.174	Roll Set Point:	-0.020	Pitch Set Point:	0.000	Yaw Set Point:	0.053	X_WP:	0.000	Y_WP:	0.000	Y_WP:	0.750	X:	0.010	Y:	-0.000	Z:	0.052	yaw:	-3.019	yaw rate:	-1.013	Roll:	0.411	Pitch:	-0.023	Yaw:	-8.189	Thrust:	100.000
Time:	5.197	Roll Set Point:	-0.020	Pitch Set Point:	0.000	Yaw Set Point:	0.052	X_WP:	0.000	Y_WP:	0.000	Y_WP:	0.750	X:	0.010	Y:	-0.000	Z:	0.052	yaw:	-2.994	yaw rate:	-2.527	Roll:	0.433	Pitch:	0.024	Yaw:	-8.411	Thrust:	100.000
Time:	5.214	Roll Set Point:	-0.020	Pitch Set Point:	-0.000	Yaw Set Point:	0.052	X_WP:	0.000	Y_WP:	0.000	Y_WP:	0.750	X:	0.010	Y:	-0.000	Z:	0.052	yaw:	-3.002	yaw rate:	0.848	Roll:	0.398	Pitch:	0.068	Yaw:	-7.888	Thrust:	100.000
Time:	5.235	Roll Set Point:	-0.020	Pitch Set Point:	0.000	Yaw Set Point:	0.052	X_WP:	0.000	Y_WP:	0.000	Y_WP:	0.750	X:	0.010	Y:	-0.000	Z:	0.052	yaw:	-2.977	yaw rate:	-2.572	Roll:	0.447	Pitch:	-0.047	Yaw:	-7.868	Thrust:	100.000
Time:	5.255	Roll Set Point:	-0.020	Pitch Set Point:	0.000	Yaw Set Point:	0.052	X_WP:	0.000	Y_WP:	0.000	Y_WP:	0.750	X:	0.010	Y:	-0.000	Z:	0.052	yaw:	-2.953	yaw rate:	-2.408	Roll:	0.419	Pitch:	0.011	Yaw:	-7.622	Thrust:	100.000
Time:	5.275	Roll Set Point:	-0.021	Pitch Set Point:	0.000	Yaw Set Point:	0.053	X_WP:	0.000	Y_WP:	0.000	Y_WP:	0.750	X:	0.010	Y:	-0.000	Z:	0.052	yaw:	-3.059	yaw rate:	10.654	Roll:	0.471	Pitch:	0.013	Yaw:	-9.788	Thrust:	100.000
Time:	5.295	Roll Set Point:	-0.020	Pitch Set Point:	0.001	Yaw Set Point:	0.061	X_WP:	0.000	Y_WP:	0.000	Y_WP:	0.750	X:	0.010	Y:	-0.001	Z:	0.053	yaw:	-3.513	yaw rate:	45.351	Roll:	0.375	Pitch:	-0.315	Yaw:	-14.776	Thrust:	100.000
Time:	5.315	Roll Set Point:	-0.020	Pitch Set Point:	0.000	Yaw Set Point:	0.052	X_WP:	0.000	Y_WP:	0.000	Y_WP:	0.750	X:	0.010	Y:	-0.000	Z:	0.052	yaw:	-2.957	yaw rate:	-55.538	Roll:	0.470	Pitch:	0.326	Yaw:	0.255	Thrust:	100.000
Time:	5.333	Roll Set Point:	-0.020	Pitch Set Point:	0.000	Yaw Set Point:	0.052	X_WP:	0.000	Y_WP:	0.000	Y_WP:	0.750	X:	0.010	Y:	-0.000	Z:	0.052	yaw:	-2.991	yaw rate:	3.332	Roll:	0.423	Pitch:	0.036	Yaw:	-8.582	Thrust:	100.000
