Time:	0.046	Roll Set Point:	-0.132	Pitch Set Point:	1.815	Yaw Set Point:	-0.027	X_WP:	0.000	Y_WP:	0.000	Y_WP:	0.750	X:	0.078	Y:	-0.907	Z:	0.403	yaw:	1.531	yaw rate:	-0.489	Roll:	1.559	Pitch:	-26.349	Yaw:	2.138	Thrust:	19.103
Time:	0.066	Roll Set Point:	-0.133	Pitch Set Point:	1.815	Yaw Set Point:	-0.025	X_WP:	0.000	Y_WP:	0.000	Y_WP:	0.750	X:	0.078	Y:	-0.907	Z:	0.403	yaw:	1.444	yaw rate:	8.720	Roll:	2.725	Pitch:	-26.281	Yaw:	0.865	Thrust:	20.061
Time:	0.087	Roll Set Point:	-0.132	Pitch Set Point:	1.815	Yaw Set Point:	-0.027	X_WP:	0.000	Y_WP:	0.000	Y_WP:	0.750	X:	0.078	Y:	-0.907	Z:	0.403	yaw:	1.521	yaw rate:	-7.745	Roll:	0.531	Pitch:	-26.511	Yaw:	3.123	Thrust:	20.770
Time:	0.106	Roll Set Point:	-0.132	Pitch Set Point:	1.815	Yaw Set Point:	-0.026	X_WP:	0.000	Y_WP:	0.000	Y_WP:	0.750	X:	0.078	Y:	-0.907	Z:	0.403	yaw:	1.502	yaw rate:	1.967	Roll:	1.879	Pitch:	-26.494	Yaw:	1.865	Thrust:	21.438
Time:	0.127	Roll Set Point:	-0.132	Pitch Set Point:	1.815	Yaw Set Point:	-0.027	X_WP:	0.000	Y_WP:	0.000	Y_WP:	0.750	X:	0.078	Y:	-0.907	Z:	0.403	yaw:	1.535	yaw rate:	-3.312	Roll:	1.094	Pitch:	-26.532	Yaw:	2.615	Thrust:	22.565
Time:	0.146	Roll Set Point:	-0.132	Pitch Set Point:	1.815	Yaw Set Point:	-0.027	X_WP:	0.000	Y_WP:	0.000	Y_WP:	0.750	X:	0.078	Y:	-0.907	Z:	0.403	yaw:	1.531	yaw rate:	0.354	Roll:	1.629	Pitch:	-26.570	Yaw:	2.143	Thrust:	23.259
Time:	0.167	Roll Set Point:	-0.132	Pitch Set Point:	1.815	Yaw Set Point:	-0.026	X_WP:	0.000	Y_WP:	0.000	Y_WP:	0.750	X:	0.078	Y:	-0.907	Z:	0.403	yaw:	1.510	yaw rate:	2.104	Roll:	1.873	Pitch:	-26.602	Yaw:	1.892	Thrust:	24.082
Time:	0.188	Roll Set Point:	-0.133	Pitch Set Point:	1.815	Yaw Set Point:	-0.025	X_WP:	0.000	Y_WP:	0.000	Y_WP:	0.750	X:	0.078	Y:	-0.907	Z:	0.403	yaw:	1.459	yaw rate:	5.120	Roll:	2.277	Pitch:	-26.642	Yaw:	1.501	Thrust:	25.328
Time:	0.209	Roll Set Point:	-0.133	Pitch Set Point:	1.815	Yaw Set Point:	-0.025	X_WP:	0.000	Y_WP:	0.000	Y_WP:	0.750	X:	0.078	Y:	-0.907	Z:	0.403	yaw:	1.438	yaw rate:	2.081	Roll:	1.896	Pitch:	-26.703	Yaw:	1.837	Thrust:	26.250
Time:	0.229	Roll Set Point:	-0.132	Pitch Set Point:	1.815	Yaw Set Point:	-0.026	X_WP:	0.000	Y_WP:	0.000	Y_WP:	0.750	X:	0.078	Y:	-0.907	Z:	0.403	yaw:	1.518	yaw rate:	-7.987	Roll:	0.534	Pitch:	-26.838	Yaw:	3.231	Thrust:	26.641
Time:	0.247	Roll Set Point:	-0.132	Pitch Set Point:	1.815	Yaw Set Point:	-0.026	X_WP:	0.000	Y_WP:	0.000	Y_WP:	0.750	X:	0.078	Y:	-0.907	Z:	0.403	yaw:	1.502	yaw rate:	1.597	Roll:	1.857	Pitch:	-26.738	Yaw:	1.950	Thrust:	26.571
Time:	0.267	Roll Set Point:	-0.132	Pitch Set Point:	1.815	Yaw Set Point:	-0.027	X_WP:	0.000	Y_WP:	0.000	Y_WP:	0.750	X:	0.078	Y:	-0.907	Z:	0.403	yaw:	1.534	yaw rate:	-3.186	Roll:	1.141	Pitch:	-26.860	Yaw:	2.671	Thrust:	28.386
Time:	0.290	Roll Set Point:	-0.133	Pitch Set Point:	1.815	Yaw Set Point:	-0.025	X_WP:	0.000	Y_WP:	0.000	Y_WP:	0.750	X:	0.078	Y:	-0.907	Z:	0.403	yaw:	1.461	yaw rate:	7.331	Roll:	2.570	Pitch:	-26.880	Yaw:	1.301	Thrust:	29.587
Time:	0.307	Roll Set Point:	-0.132	Pitch Set Point:	1.815	Yaw Set Point:	-0.026	X_WP:	0.000	Y_WP:	0.000	Y_WP:	0.750	X:	0.078	Y:	-0.907	Z:	0.403	yaw:	1.505	yaw rate:	-4.443	Roll:	0.933	Pitch:	-26.942	Yaw:	2.892	Thrust:	29.010
Time:	0.327	Roll Set Point:	-0.132	Pitch Set Point:	1.815	Yaw Set Point:	-0.026	X_WP:	0.000	Y_WP:	0.000	Y_WP:	0.750	X:	0.078	Y:	-0.907	Z:	0.403	yaw:	1.502	yaw rate:	0.335	Roll:	1.654	Pitch:	-26.989	Yaw:	2.201	Thrust:	30.815
Time:	0.347	Roll Set Point:	-0.130	Pitch Set Point:	1.815	Yaw Set Point:	-0.028	X_WP:	0.000	Y_WP:	0.000	Y_WP:	0.750	X:	0.078	Y:	-0.907	Z:	0.402	yaw:	1.590	yaw rate:	-8.807	Roll:	0.186	Pitch:	-27.011	Yaw:	3.500	Thrust:	32.466
Time:	0.367	Roll Set Point:	-0.133	Pitch Set Point:	1.815	Yaw Set Point:	-0.026	X_WP:	0.000	Y_WP:	0.000	Y_WP:	0.750	X:	0.078	Y:	-0.907	Z:	0.403	yaw:	1.461	yaw rate:	12.827	Roll:	3.584	Pitch:	-27.062	Yaw:	0.503	Thrust:	31.833
Time:	0.387	Roll Set Point:	-0.132	Pitch Set Point:	1.815	Yaw Set Point:	-0.027	X_WP:	0.000	Y_WP:	0.000	Y_WP:	0.750	X:	0.078	Y:	-0.907	Z:	0.403	yaw:	1.526	yaw rate:	-6.481	Roll:	0.705	Pitch:	-27.125	Yaw:	3.164	Thrust:	32.746
Time:	0.410	Roll Set Point:	-0.133	Pitch Set Point:	1.815	Yaw Set Point:	-0.025	X_WP:	0.000	Y_WP:	0.000	Y_WP:	0.750	X:	0.078	Y:	-0.907	Z:	0.403	yaw:	1.447	yaw rate:	7.892	Roll:	2.629	Pitch:	-27.136	Yaw:	1.322	Thrust:	36.505
Time:	0.430	Roll Set Point:	-0.132	Pitch Set Point:	1.815	Yaw Set Point:	-0.026	X_WP:	0.000	Y_WP:	0.000	Y_WP:	0.750	X:	0.078	Y:	-0.907	Z:	0.402	yaw:	1.487	yaw rate:	-3.960	Roll:	0.850	Pitch:	-27.062	Yaw:	2.793	Thrust:	35.632
Time:	0.449	Roll Set Point:	-0.131	Pitch Set Point:	1.815	Yaw Set Point:	-0.027	X_WP:	0.000	Y_WP:	0.000	Y_WP:	0.750	X:	0.078	Y:	-0.907	Z:	0.402	yaw:	1.558	yaw rate:	-7.116	Roll:	0.693	Pitch:	-27.131	Yaw:	3.350	Thrust:	34.705
Time:	0.467	Roll Set Point:	-0.130	Pitch Set Point:	1.815	Yaw Set Point:	-0.028	X_WP:	0.000	Y_WP:	0.000	Y_WP:	0.750	X:	0.078	Y:	-0.907	Z:	0.402	yaw:	1.620	yaw rate:	-6.173	Roll:	0.639	Pitch:	-27.089	Yaw:	3.345	Thrust:	35.183
Time:	0.492	Roll Set Point:	-0.132	Pitch Set Point:	1.815	Yaw Set Point:	-0.027	X_WP:	0.000	Y_WP:	0.000	Y_WP:	0.750	X:	0.078	Y:	-0.907	Z:	0.403	yaw:	1.523	yaw rate:	9.636	Roll:	2.909	Pitch:	-27.253	Yaw:	1.395	Thrust:	41.047
Time:	0.508	Roll Set Point:	-0.132	Pitch Set Point:	1.815	Yaw Set Point:	-0.027	X_WP:	0.000	Y_WP:	0.000	Y_WP:	0.750	X:	0.078	Y:	-0.907	Z:	0.403	yaw:	1.531	yaw rate:	-0.710	Roll:	1.521	Pitch:	-26.982	Yaw:	2.446	Thrust:	34.721
Time:	0.527	Roll Set Point:	-0.132	Pitch Set Point:	1.815	Yaw Set Point:	-0.027	X_WP:	0.000	Y_WP:	0.000	Y_WP:	0.750	X:	0.078	Y:	-0.907	Z:	0.403	yaw:	1.537	yaw rate:	-0.629	Roll:	1.506	Pitch:	-27.043	Yaw:	2.478	Thrust:	38.767
Time:	0.548	Roll Set Point:	-0.132	Pitch Set Point:	1.815	Yaw Set Point:	-0.026	X_WP:	0.000	Y_WP:	0.000	Y_WP:	0.750	X:	0.078	Y:	-0.907	Z:	0.403	yaw:	1.496	yaw rate:	4.092	Roll:	2.217	Pitch:	-27.113	Yaw:	1.849	Thrust:	40.820
Time:	0.568	Roll Set Point:	-0.133	Pitch Set Point:	1.815	Yaw Set Point:	-0.026	X_WP:	0.000	Y_WP:	0.000	Y_WP:	0.750	X:	0.078	Y:	-0.907	Z:	0.403	yaw:	1.470	yaw rate:	2.614	Roll:	2.007	Pitch:	-27.079	Yaw:	1.968	Thrust:	40.220
Time:	0.587	Roll Set Point:	-0.132	Pitch Set Point:	1.815	Yaw Set Point:	-0.026	X_WP:	0.000	Y_WP:	0.000	Y_WP:	0.750	X:	0.078	Y:	-0.907	Z:	0.403	yaw:	1.508	yaw rate:	-3.775	Roll:	1.136	Pitch:	-27.103	Yaw:	2.888	Thrust:	41.085
Time:	0.607	Roll Set Point:	-0.131	Pitch Set Point:	1.815	Yaw Set Point:	-0.027	X_WP:	0.000	Y_WP:	0.000	Y_WP:	0.750	X:	0.078	Y:	-0.907	Z:	0.402	yaw:	1.531	yaw rate:	-2.309	Roll:	1.127	Pitch:	-26.996	Yaw:	2.734	Thrust:	43.123
Time:	0.627	Roll Set Point:	-0.132	Pitch Set Point:	1.815	Yaw Set Point:	-0.026	X_WP:	0.000	Y_WP:	0.000	Y_WP:	0.750	X:	0.078	Y:	-0.907	Z:	0.403	yaw:	1.511	yaw rate:	1.975	Roll:	2.103	Pitch:	-27.222	Yaw:	2.155	Thrust:	42.713
Time:	0.651	Roll Set Point:	-0.132	Pitch Set Point:	1.815	Yaw Set Point:	-0.026	X_WP:	0.000	Y_WP:	0.000	Y_WP:	0.750	X:	0.078	Y:	-0.907	Z:	0.402	yaw:	1.512	yaw rate:	-0.144	Roll:	1.516	Pitch:	-27.178	Yaw:	2.516	Thrust:	50.199
Time:	0.667	Roll Set Point:	-0.131	Pitch Set Point:	1.815	Yaw Set Point:	-0.027	X_WP:	0.000	Y_WP:	0.000	Y_WP:	0.750	X:	0.078	Y:	-0.907	Z:	0.403	yaw:	1.548	yaw rate:	-3.566	Roll:	1.170	Pitch:	-27.078	Yaw:	3.025	Thrust:	38.089
Time:	0.688	Roll Set Point:	-0.133	Pitch Set Point:	1.815	Yaw Set Point:	-0.026	X_WP:	0.000	Y_WP:	0.000	Y_WP:	0.750	X:	0.078	Y:	-0.907	Z:	0.403	yaw:	1.462	yaw rate:	8.602	Roll:	2.782	Pitch:	-27.028	Yaw:	1.299	Thrust:	46.704
Time:	0.706	Roll Set Point:	-0.133	Pitch Set Point:	1.815	Yaw Set Point:	-0.025	X_WP:	0.000	Y_WP:	0.000	Y_WP:	0.750	X:	0.078	Y:	-0.907	Z:	0.403	yaw:	1.456	yaw rate:	0.549	Roll:	1.748	Pitch:	-27.033	Yaw:	2.284	Thrust:	45.028
Time:	0.727	Roll Set Point:	-0.132	Pitch Set Point:	1.815	Yaw Set Point:	-0.026	X_WP:	0.000	Y_WP:	0.000	Y_WP:	0.750	X:	0.078	Y:	-0.907	Z:	0.403	yaw:	1.496	yaw rate:	-4.002	Roll:	1.137	Pitch:	-27.156	Yaw:	2.971	Thrust:	47.426
Time:	0.747	Roll Set Point:	-0.133	Pitch Set Point:	1.815	Yaw Set Point:	-0.025	X_WP:	0.000	Y_WP:	0.000	Y_WP:	0.750	X:	0.078	Y:	-0.907	Z:	0.403	yaw:	1.441	yaw rate:	5.572	Roll:	2.450	Pitch:	-27.061	Yaw:	1.670	Thrust:	48.826
Time:	0.767	Roll Set Point:	-0.132	Pitch Set Point:	1.815	Yaw Set Point:	-0.026	X_WP:	0.000	Y_WP:	0.000	Y_WP:	0.750	X:	0.078	Y:	-0.907	Z:	0.403	yaw:	1.508	yaw rate:	-6.710	Roll:	0.713	Pitch:	-27.139	Yaw:	3.384	Thrust:	47.928
Time:	0.786	Roll Set Point:	-0.133	Pitch Set Point:	1.815	Yaw Set Point:	-0.026	X_WP:	0.000	Y_WP:	0.000	Y_WP:	0.750	X:	0.078	Y:	-0.907	Z:	0.403	yaw:	1.465	yaw rate:	4.296	Roll:	2.264	Pitch:	-27.056	Yaw:	1.893	Thrust:	50.662
Time:	0.807	Roll Set Point:	-0.132	Pitch Set Point:	1.815	Yaw Set Point:	-0.026	X_WP:	0.000	Y_WP:	0.000	Y_WP:	0.750	X:	0.078	Y:	-0.907	Z:	0.403	yaw:	1.509	yaw rate:	-4.456	Roll:	1.088	Pitch:	-27.165	Yaw:	3.081	Thrust:	52.761
Time:	0.827	Roll Set Point:	-0.132	Pitch Set Point:	1.815	Yaw Set Point:	-0.027	X_WP:	0.000	Y_WP:	0.000	Y_WP:	0.750	X:	0.078	Y:	-0.907	Z:	0.403	yaw:	1.523	yaw rate:	-1.400	Roll:	1.497	Pitch:	-27.114	Yaw:	2.711	Thrust:	50.205
Time:	0.846	Roll Set Point:	-0.133	Pitch Set Point:	1.815	Yaw Set Point:	-0.026	X_WP:	0.000	Y_WP:	0.000	Y_WP:	0.750	X:	0.078	Y:	-0.907	Z:	0.403	yaw:	1.477	yaw rate:	4.639	Roll:	2.349	Pitch:	-26.989	Yaw:	1.810	Thrust:	50.499
Time:	0.866	Roll Set Point:	-0.132	Pitch Set Point:	1.815	Yaw Set Point:	-0.026	X_WP:	0.000	Y_WP:	0.000	Y_WP:	0.750	X:	0.078	Y:	-0.907	Z:	0.403	yaw:	1.509	yaw rate:	-3.193	Roll:	1.229	Pitch:	-27.169	Yaw:	2.956	Thrust:	54.332
Time:	0.888	Roll Set Point:	-0.132	Pitch Set Point:	1.815	Yaw Set Point:	-0.026	X_WP:	0.000	Y_WP:	0.000	Y_WP:	0.750	X:	0.078	Y:	-0.907	Z:	0.403	yaw:	1.518	yaw rate:	-0.881	Roll:	1.577	Pitch:	-27.120	Yaw:	2.696	Thrust:	55.453
Time:	0.906	Roll Set Point:	-0.132	Pitch Set Point:	1.815	Yaw Set Point:	-0.026	X_WP:	0.000	Y_WP:	0.000	Y_WP:	0.750	X:	0.078	Y:	-0.907	Z:	0.403	yaw:	1.504	yaw rate:	1.349	Roll:	1.867	Pitch:	-27.085	Yaw:	2.351	Thrust:	54.486
Time:	0.926	Roll Set Point:	-0.133	Pitch Set Point:	1.815	Yaw Set Point:	-0.025	X_WP:	0.000	Y_WP:	0.000	Y_WP:	0.750	X:	0.078	Y:	-0.907	Z:	0.403	yaw:	1.455	yaw rate:	4.929	Roll:	2.405	Pitch:	-27.048	Yaw:	1.838	Thrust:	55.420
Time:	0.945	Roll Set Point:	-0.132	Pitch Set Point:	1.815	Yaw Set Point:	-0.027	X_WP:	0.000	Y_WP:	0.000	Y_WP:	0.750	X:	0.078	Y:	-0.907	Z:	0.403	yaw:	1.531	yaw rate:	-7.578	Roll:	0.613	Pitch:	-27.119	Yaw:	3.625	Thrust:	55.084
Time:	0.966	Roll Set Point:	-0.134	Pitch Set Point:	1.815	Yaw Set Point:	-0.024	X_WP:	0.000	Y_WP:	0.000	Y_WP:	0.750	X:	0.078	Y:	-0.907	Z:	0.402	yaw:	1.372	yaw rate:	15.853	Roll:	3.654	Pitch:	-26.917	Yaw:	0.367	Thrust:	58.791
Time:	0.986	Roll Set Point:	-0.132	Pitch Set Point:	1.815	Yaw Set Point:	-0.026	X_WP:	0.000	Y_WP:	0.000	Y_WP:	0.750	X:	0.078	Y:	-0.907	Z:	0.403	yaw:	1.494	yaw rate:	-12.174	Roll:	0.290	Pitch:	-27.297	Yaw:	4.137	Thrust:	58.936
Time:	1.007	Roll Set Point:	0.377	Pitch Set Point:	2.979	Yaw Set Point:	-0.025	X_WP:	0.480	Y_WP:	1.176	Y_WP:	0.750	X:	0.078	Y:	-0.907	Z:	0.403	yaw:	1.457	yaw rate:	3.683	Roll:	-30.000	Pitch:	-30.000	Yaw:	2.089	Thrust:	60.527
Time:	1.026	Roll Set Point:	0.379	Pitch Set Point:	2.978	Yaw Set Point:	-0.027	X_WP:	0.480	Y_WP:	1.176	Y_WP:	0.750	X:	0.078	Y:	-0.907	Z:	0.403	yaw:	1.521	yaw rate:	-6.354	Roll:	-15.243	Pitch:	-30.000	Yaw:	3.488	Thrust:	57.725
Time:	1.046	Roll Set Point:	0.378	Pitch Set Point:	2.979	Yaw Set Point:	-0.026	X_WP:	0.480	Y_WP:	1.176	Y_WP:	0.750	X:	0.078	Y:	-0.907	Z:	0.402	yaw:	1.490	yaw rate:	3.071	Roll:	-12.305	Pitch:	-30.000	Yaw:	2.220	Thrust:	62.036
Time:	1.066	Roll Set Point:	0.377	Pitch Set Point:	2.979	Yaw Set Point:	-0.025	X_WP:	0.480	Y_WP:	1.176	Y_WP:	0.750	X:	0.078	Y:	-0.907	Z:	0.402	yaw:	1.449	yaw rate:	4.113	Roll:	-12.001	Pitch:	-30.000	Yaw:	2.000	Thrust:	61.105
Time:	1.089	Roll Set Point:	0.379	Pitch Set Point:	2.979	Yaw Set Point:	-0.026	X_WP:	0.480	Y_WP:	1.176	Y_WP:	0.750	X:	0.078	Y:	-0.907	Z:	0.403	yaw:	1.504	yaw rate:	-5.487	Roll:	-14.581	Pitch:	-30.000	Yaw:	3.353	Thrust:	65.327
Time:	1.107	Roll Set Point:	0.377	Pitch Set Point:	2.979	Yaw Set Point:	-0.025	X_WP:	0.480	Y_WP:	1.176	Y_WP:	0.750	X:	0.078	Y:	-0.907	Z:	0.403	yaw:	1.460	yaw rate:	4.348	Roll:	-11.770	Pitch:	-30.000	Yaw:	1.929	Thrust:	59.688
Time:	1.127	Roll Set Point:	0.382	Pitch Set Point:	2.978	Yaw Set Point:	-0.028	X_WP:	0.480	Y_WP:	1.176	Y_WP:	0.750	X:	0.078	Y:	-0.907	Z:	0.402	yaw:	1.579	yaw rate:	-11.888	Roll:	-17.101	Pitch:	-30.000	Yaw:	4.296	Thrust:	65.973
Time:	1.147	Roll Set Point:	0.378	Pitch Set Point:	2.979	Yaw Set Point:	-0.026	X_WP:	0.480	Y_WP:	1.176	Y_WP:	0.750	X:	0.078	Y:	-0.907	Z:	0.402	yaw:	1.490	yaw rate:	8.939	Roll:	-10.412	Pitch:	-30.000	Yaw:	1.380	Thrust:	62.347
Time:	1.167	Roll Set Point:	0.382	Pitch Set Point:	2.978	Yaw Set Point:	-0.028	X_WP:	0.480	Y_WP:	1.176	Y_WP:	0.750	X:	0.078	Y:	-0.907	Z:	0.402	yaw:	1.581	yaw rate:	-9.101	Roll:	-16.142	Pitch:	-30.000	Yaw:	3.970	Thrust:	67.053
Time:	1.187	Roll Set Point:	0.380	Pitch Set Point:	2.978	Yaw Set Point:	-0.027	X_WP:	0.480	Y_WP:	1.176	Y_WP:	0.750	X:	0.078	Y:	-0.907	Z:	0.403	yaw:	1.543	yaw rate:	3.799	Roll:	-12.013	Pitch:	-30.000	Yaw:	2.287	Thrust:	67.561
Time:	1.207	Roll Set Point:	0.378	Pitch Set Point:	2.979	Yaw Set Point:	-0.026	X_WP:	0.480	Y_WP:	1.176	Y_WP:	0.750	X:	0.078	Y:	-0.907	Z:	0.403	yaw:	1.501	yaw rate:	4.176	Roll:	-12.110	Pitch:	-30.000	Yaw:	2.201	Thrust:	69.381
Time:	1.227	Roll Set Point:	0.376	Pitch Set Point:	2.979	Yaw Set Point:	-0.025	X_WP:	0.480	Y_WP:	1.176	Y_WP:	0.750	X:	0.078	Y:	-0.907	Z:	0.403	yaw:	1.433	yaw rate:	6.794	Roll:	-11.173	Pitch:	-30.000	Yaw:	1.670	Thrust:	66.371
Time:	1.246	Roll Set Point:	0.382	Pitch Set Point:	2.978	Yaw Set Point:	-0.028	X_WP:	0.480	Y_WP:	1.176	Y_WP:	0.750	X:	0.078	Y:	-0.907	Z:	0.403	yaw:	1.590	yaw rate:	-15.651	Roll:	-18.740	Pitch:	-30.000	Yaw:	4.922	Thrust:	68.580
Time:	1.266	Roll Set Point:	0.382	Pitch Set Point:	2.978	Yaw Set Point:	-0.028	X_WP:	0.480	Y_WP:	1.176	Y_WP:	0.750	X:	0.078	Y:	-0.907	Z:	0.402	yaw:	1.595	yaw rate:	-0.541	Roll:	-13.687	Pitch:	-30.000	Yaw:	2.906	Thrust:	67.121
Time:	1.287	Roll Set Point:	0.381	Pitch Set Point:	2.978	Yaw Set Point:	-0.027	X_WP:	0.480	Y_WP:	1.176	Y_WP:	0.750	X:	0.078	Y:	-0.907	Z:	0.402	yaw:	1.567	yaw rate:	2.763	Roll:	-12.703	Pitch:	-30.000	Yaw:	2.556	Thrust:	74.880
Time:	1.307	Roll Set Point:	0.381	Pitch Set Point:	2.978	Yaw Set Point:	-0.027	X_WP:	0.480	Y_WP:	1.176	Y_WP:	0.750	X:	0.078	Y:	-0.907	Z:	0.402	yaw:	1.573	yaw rate:	-0.567	Roll:	-13.729	Pitch:	-30.000	Yaw:	2.946	Thrust:	71.558
Time:	1.327	Roll Set Point:	0.379	Pitch Set Point:	2.978	Yaw Set Point:	-0.027	X_WP:	0.480	Y_WP:	1.176	Y_WP:	0.750	X:	0.078	Y:	-0.907	Z:	0.403	yaw:	1.520	yaw rate:	5.282	Roll:	-11.614	Pitch:	-30.000	Yaw:	2.020	Thrust:	70.223
Time:	1.346	Roll Set Point:	0.378	Pitch Set Point:	2.979	Yaw Set Point:	-0.026	X_WP:	0.480	Y_WP:	1.176	Y_WP:	0.750	X:	0.078	Y:	-0.907	Z:	0.403	yaw:	1.494	yaw rate:	2.643	Roll:	-12.623	Pitch:	-30.000	Yaw:	2.409	Thrust:	72.532
Time:	1.367	Roll Set Point:	0.379	Pitch Set Point:	2.979	Yaw Set Point:	-0.026	X_WP:	0.480	Y_WP:	1.176	Y_WP:	0.750	X:	0.078	Y:	-0.907	Z:	0.403	yaw:	1.506	yaw rate:	-1.266	Roll:	-13.910	Pitch:	-30.000	Yaw:	2.967	Thrust:	74.588
Time:	1.387	Roll Set Point:	0.378	Pitch Set Point:	2.978	Yaw Set Point:	-0.026	X_WP:	0.480	Y_WP:	1.176	Y_WP:	0.750	X:	0.078	Y:	-0.907	Z:	0.402	yaw:	1.492	yaw rate:	1.404	Roll:	-13.226	Pitch:	-30.000	Yaw:	2.635	Thrust:	77.224
Time:	1.408	Roll Set Point:	0.379	Pitch Set Point:	2.978	Yaw Set Point:	-0.026	X_WP:	0.480	Y_WP:	1.176	Y_WP:	0.750	X:	0.078	Y:	-0.907	Z:	0.402	yaw:	1.511	yaw rate:	-1.823	Roll:	-14.246	Pitch:	-30.000	Yaw:	3.087	Thrust:	77.536
Time:	1.427	Roll Set Point:	0.378	Pitch Set Point:	2.979	Yaw Set Point:	-0.026	X_WP:	0.480	Y_WP:	1.176	Y_WP:	0.750	X:	0.078	Y:	-0.907	Z:	0.403	yaw:	1.501	yaw rate:	0.961	Roll:	-13.003	Pitch:	-30.000	Yaw:	2.631	Thrust:	73.019
Time:	1.446	Roll Set Point:	0.379	Pitch Set Point:	2.978	Yaw Set Point:	-0.027	X_WP:	0.480	Y_WP:	1.176	Y_WP:	0.750	X:	0.078	Y:	-0.907	Z:	0.403	yaw:	1.530	yaw rate:	-2.875	Roll:	-14.531	Pitch:	-30.000	Yaw:	3.251	Thrust:	77.836
Time:	1.467	Roll Set Point:	0.377	Pitch Set Point:	2.979	Yaw Set Point:	-0.025	X_WP:	0.480	Y_WP:	1.176	Y_WP:	0.750	X:	0.078	Y:	-0.907	Z:	0.403	yaw:	1.449	yaw rate:	8.126	Roll:	-10.984	Pitch:	-30.000	Yaw:	1.662	Thrust:	76.964
Time:	1.488	Roll Set Point:	0.379	Pitch Set Point:	2.978	Yaw Set Point:	-0.027	X_WP:	0.480	Y_WP:	1.176	Y_WP:	0.750	X:	0.078	Y:	-0.907	Z:	0.403	yaw:	1.521	yaw rate:	-7.251	Roll:	-15.848	Pitch:	-30.000	Yaw:	3.820	Thrust:	82.013
Time:	1.507	Roll Set Point:	0.379	Pitch Set Point:	2.979	Yaw Set Point:	-0.026	X_WP:	0.480	Y_WP:	1.176	Y_WP:	0.750	X:	0.078	Y:	-0.907	Z:	0.403	yaw:	1.510	yaw rate:	1.058	Roll:	-13.319	Pitch:	-30.000	Yaw:	2.705	Thrust:	77.600
Time:	1.526	Roll Set Point:	0.370	Pitch Set Point:	2.980	Yaw Set Point:	-0.022	X_WP:	0.480	Y_WP:	1.176	Y_WP:	0.750	X:	0.078	Y:	-0.907	Z:	0.402	yaw:	1.264	yaw rate:	24.672	Roll:	-5.950	Pitch:	-30.000	Yaw:	-0.703	Thrust:	82.688
Time:	1.547	Roll Set Point:	0.380	Pitch Set Point:	2.978	Yaw Set Point:	-0.027	X_WP:	0.480	Y_WP:	1.176	Y_WP:	0.750	X:	0.078	Y:	-0.907	Z:	0.403	yaw:	1.532	yaw rate:	-26.830	Roll:	-22.131	Pitch:	-30.000	Yaw:	6.547	Thrust:	79.114
Time:	1.566	Roll Set Point:	0.383	Pitch Set Point:	2.977	Yaw Set Point:	-0.028	X_WP:	0.480	Y_WP:	1.176	Y_WP:	0.750	X:	0.078	Y:	-0.907	Z:	0.402	yaw:	1.612	yaw rate:	-8.013	Roll:	-16.341	Pitch:	-30.000	Yaw:	4.092	Thrust:	84.175
Time:	1.587	Roll Set Point:	0.378	Pitch Set Point:	2.979	Yaw Set Point:	-0.026	X_WP:	0.480	Y_WP:	1.176	Y_WP:	0.750	X:	0.078	Y:	-0.907	Z:	0.403	yaw:	1.500	yaw rate:	11.214	Roll:	-10.133	Pitch:	-30.000	Yaw:	1.482	Thrust:	84.246
Time:	1.607	Roll Set Point:	0.381	Pitch Set Point:	2.978	Yaw Set Point:	-0.027	X_WP:	0.480	Y_WP:	1.176	Y_WP:	0.750	X:	0.078	Y:	-0.907	Z:	0.402	yaw:	1.553	yaw rate:	-5.322	Roll:	-15.638	Pitch:	-30.000	Yaw:	3.682	Thrust:	83.036
Time:	1.627	Roll Set Point:	0.378	Pitch Set Point:	2.979	Yaw Set Point:	-0.026	X_WP:	0.480	Y_WP:	1.176	Y_WP:	0.750	X:	0.078	Y:	-0.907	Z:	0.402	yaw:	1.470	yaw rate:	8.287	Roll:	-11.198	Pitch:	-30.000	Yaw:	1.837	Thrust:	86.289
Time:	1.647	Roll Set Point:	0.382	Pitch Set Point:	2.978	Yaw Set Point:	-0.028	X_WP:	0.480	Y_WP:	1.176	Y_WP:	0.750	X:	0.078	Y:	-0.907	Z:	0.402	yaw:	1.580	yaw rate:	-10.947	Roll:	-17.303	Pitch:	-30.000	Yaw:	4.501	Thrust:	83.591
Time:	1.666	Roll Set Point:	0.382	Pitch Set Point:	2.978	Yaw Set Point:	-0.028	X_WP:	0.480	Y_WP:	1.176	Y_WP:	0.750	X:	0.078	Y:	-0.907	Z:	0.403	yaw:	1.594	yaw rate:	-1.459	Roll:	-14.425	Pitch:	-30.000	Yaw:	3.286	Thrust:	88.353
Time:	1.687	Roll Set Point:	0.373	Pitch Set Point:	2.980	Yaw Set Point:	-0.023	X_WP:	0.480	Y_WP:	1.176	Y_WP:	0.750	X:	0.078	Y:	-0.907	Z:	0.402	yaw:	1.343	yaw rate:	25.111	Roll:	-6.409	Pitch:	-30.000	Yaw:	-0.382	Thrust:	88.939
Time:	1.706	Roll Set Point:	0.378	Pitch Set Point:	2.979	Yaw Set Point:	-0.026	X_WP:	0.480	Y_WP:	1.176	Y_WP:	0.750	X:	0.078	Y:	-0.907	Z:	0.403	yaw:	1.496	yaw rate:	-15.270	Roll:	-18.457	Pitch:	-30.000	Yaw:	5.006	Thrust:	86.694
Time:	1.726	Roll Set Point:	0.379	Pitch Set Point:	2.979	Yaw Set Point:	-0.026	X_WP:	0.480	Y_WP:	1.176	Y_WP:	0.750	X:	0.078	Y:	-0.907	Z:	0.403	yaw:	1.510	yaw rate:	-1.434	Roll:	-14.368	Pitch:	-30.000	Yaw:	3.180	Thrust:	87.516
Time:	1.745	Roll Set Point:	0.380	Pitch Set Point:	2.978	Yaw Set Point:	-0.027	X_WP:	0.480	Y_WP:	1.176	Y_WP:	0.750	X:	0.078	Y:	-0.907	Z:	0.403	yaw:	1.533	yaw rate:	-2.285	Roll:	-14.714	Pitch:	-30.000	Yaw:	3.298	Thrust:	87.468
Time:	1.766	Roll Set Point:	0.381	Pitch Set Point:	2.978	Yaw Set Point:	-0.027	X_WP:	0.480	Y_WP:	1.176	Y_WP:	0.750	X:	0.078	Y:	-0.907	Z:	0.402	yaw:	1.571	yaw rate:	-3.729	Roll:	-15.374	Pitch:	-30.000	Yaw:	3.580	Thrust:	90.465
Time:	1.786	Roll Set Point:	0.375	Pitch Set Point:	2.979	Yaw Set Point:	-0.025	X_WP:	0.480	Y_WP:	1.176	Y_WP:	0.750	X:	0.078	Y:	-0.907	Z:	0.403	yaw:	1.420	yaw rate:	15.079	Roll:	-9.234	Pitch:	-30.000	Yaw:	1.078	Thrust:	93.488
Time:	1.806	Roll Set Point:	0.377	Pitch Set Point:	2.979	Yaw Set Point:	-0.025	X_WP:	0.480	Y_WP:	1.176	Y_WP:	0.750	X:	0.078	Y:	-0.907	Z:	0.403	yaw:	1.453	yaw rate:	-3.290	Roll:	-14.974	Pitch:	-30.000	Yaw:	3.381	Thrust:	93.916
Time:	1.827	Roll Set Point:	0.382	Pitch Set Point:	2.978	Yaw Set Point:	-0.028	X_WP:	0.480	Y_WP:	1.176	Y_WP:	0.750	X:	0.078	Y:	-0.907	Z:	0.403	yaw:	1.577	yaw rate:	-12.445	Roll:	-17.847	Pitch:	-30.000	Yaw:	4.745	Thrust:	96.011
Time:	1.845	Roll Set Point:	0.378	Pitch Set Point:	2.979	Yaw Set Point:	-0.026	X_WP:	0.480	Y_WP:	1.176	Y_WP:	0.750	X:	0.078	Y:	-0.907	Z:	0.403	yaw:	1.493	yaw rate:	8.453	Roll:	-11.002	Pitch:	-30.000	Yaw:	1.784	Thrust:	88.886
Time:	1.866	Roll Set Point:	0.382	Pitch Set Point:	2.978	Yaw Set Point:	-0.028	X_WP:	0.480	Y_WP:	1.176	Y_WP:	0.750	X:	0.078	Y:	-0.907	Z:	0.402	yaw:	1.599	yaw rate:	-10.638	Roll:	-17.507	Pitch:	-30.000	Yaw:	4.578	Thrust:	95.838
Time:	1.887	Roll Set Point:	0.378	Pitch Set Point:	2.979	Yaw Set Point:	-0.026	X_WP:	0.480	Y_WP:	1.176	Y_WP:	0.750	X:	0.078	Y:	-0.907	Z:	0.402	yaw:	1.479	yaw rate:	11.956	Roll:	-10.425	Pitch:	-30.000	Yaw:	1.617	Thrust:	100.000
Time:	1.906	Roll Set Point:	0.376	Pitch Set Point:	2.979	Yaw Set Point:	-0.025	X_WP:	0.480	Y_WP:	1.176	Y_WP:	0.750	X:	0.078	Y:	-0.907	Z:	0.403	yaw:	1.442	yaw rate:	3.771	Roll:	-12.604	Pitch:	-30.000	Yaw:	2.476	Thrust:	95.186
Time:	1.926	Roll Set Point:	0.379	Pitch Set Point:	2.978	Yaw Set Point:	-0.027	X_WP:	0.480	Y_WP:	1.176	Y_WP:	0.750	X:	0.078	Y:	-0.907	Z:	0.403	yaw:	1.529	yaw rate:	-8.687	Roll:	-16.705	Pitch:	-30.000	Yaw:	4.266	Thrust:	94.531
Time:	1.946	Roll Set Point:	0.381	Pitch Set Point:	2.978	Yaw Set Point:	-0.027	X_WP:	0.480	Y_WP:	1.176	Y_WP:	0.750	X:	0.078	Y:	-0.907	Z:	0.402	yaw:	1.575	yaw rate:	-4.671	Roll:	-15.686	Pitch:	-30.000	Yaw:	3.823	Thrust:	100.000
Time:	1.966	Roll Set Point:	0.379	Pitch Set Point:	2.978	Yaw Set Point:	-0.026	X_WP:	0.480	Y_WP:	1.176	Y_WP:	0.750	X:	0.078	Y:	-0.907	Z:	0.403	yaw:	1.515	yaw rate:	6.020	Roll:	-12.061	Pitch:	-30.000	Yaw:	2.303	Thrust:	97.275
Time:	1.986	Roll Set Point:	0.380	Pitch Set Point:	2.978	Yaw Set Point:	-0.027	X_WP:	0.480	Y_WP:	1.176	Y_WP:	0.750	X:	0.078	Y:	-0.907	Z:	0.403	yaw:	1.535	yaw rate:	-2.016	Roll:	-14.759	Pitch:	-30.000	Yaw:	3.424	Thrust:	99.978
Time:	2.006	Roll Set Point:	0.379	Pitch Set Point:	2.978	Yaw Set Point:	-0.027	X_WP:	0.480	Y_WP:	1.176	Y_WP:	0.750	X:	0.078	Y:	-0.907	Z:	0.403	yaw:	1.521	yaw rate:	1.462	Roll:	-13.433	Pitch:	-30.000	Yaw:	2.993	Thrust:	100.000
Time:	2.028	Roll Set Point:	0.380	Pitch Set Point:	2.978	Yaw Set Point:	-0.027	X_WP:	0.480	Y_WP:	1.176	Y_WP:	0.750	X:	0.078	Y:	-0.907	Z:	0.403	yaw:	1.528	yaw rate:	-0.776	Roll:	-14.422	Pitch:	-30.000	Yaw:	3.329	Thrust:	100.000
Time:	2.048	Roll Set Point:	0.378	Pitch Set Point:	2.979	Yaw Set Point:	-0.026	X_WP:	0.480	Y_WP:	1.176	Y_WP:	0.750	X:	0.078	Y:	-0.907	Z:	0.403	yaw:	1.497	yaw rate:	3.099	Roll:	-12.867	Pitch:	-30.000	Yaw:	2.676	Thrust:	98.716
Time:	2.068	Roll Set Point:	0.377	Pitch Set Point:	2.979	Yaw Set Point:	-0.025	X_WP:	0.480	Y_WP:	1.176	Y_WP:	0.750	X:	0.078	Y:	-0.907	Z:	0.403	yaw:	1.455	yaw rate:	4.236	Roll:	-12.637	Pitch:	-30.000	Yaw:	2.626	Thrust:	100.000
Time:	2.090	Roll Set Point:	0.382	Pitch Set Point:	2.978	Yaw Set Point:	-0.028	X_WP:	0.480	Y_WP:	1.176	Y_WP:	0.750	X:	0.078	Y:	-0.907	Z:	0.402	yaw:	1.593	yaw rate:	-13.820	Roll:	-18.442	Pitch:	-30.000	Yaw:	5.075	Thrust:	100.000
Time:	2.107	Roll Set Point:	0.380	Pitch Set Point:	2.978	Yaw Set Point:	-0.027	X_WP:	0.480	Y_WP:	1.176	Y_WP:	0.750	X:	0.078	Y:	-0.907	Z:	0.403	yaw:	1.532	yaw rate:	6.114	Roll:	-11.922	Pitch:	-30.000	Yaw:	2.295	Thrust:	98.786
Time:	2.128	Roll Set Point:	0.380	Pitch Set Point:	2.978	Yaw Set Point:	-0.027	X_WP:	0.480	Y_WP:	1.176	Y_WP:	0.750	X:	0.078	Y:	-0.907	Z:	0.403	yaw:	1.535	yaw rate:	-0.266	Roll:	-14.092	Pitch:	-30.000	Yaw:	3.256	Thrust:	100.000
Time:	2.147	Roll Set Point:	0.379	Pitch Set Point:	2.978	Yaw Set Point:	-0.027	X_WP:	0.480	Y_WP:	1.176	Y_WP:	0.750	X:	0.078	Y:	-0.907	Z:	0.403	yaw:	1.519	yaw rate:	1.601	Roll:	-13.454	Pitch:	-30.000	Yaw:	2.989	Thrust:	100.000
Time:	2.167	Roll Set Point:	0.379	Pitch Set Point:	2.979	Yaw Set Point:	-0.026	X_WP:	0.480	Y_WP:	1.176	Y_WP:	0.750	X:	0.078	Y:	-0.907	Z:	0.403	yaw:	1.516	yaw rate:	0.219	Roll:	-13.955	Pitch:	-30.000	Yaw:	3.224	Thrust:	100.000
Time:	2.188	Roll Set Point:	0.380	Pitch Set Point:	2.978	Yaw Set Point:	-0.027	X_WP:	0.480	Y_WP:	1.176	Y_WP:	0.750	X:	0.078	Y:	-0.907	Z:	0.403	yaw:	1.555	yaw rate:	-3.853	Roll:	-15.198	Pitch:	-30.000	Yaw:	3.818	Thrust:	100.000
Time:	2.209	Roll Set Point:	0.379	Pitch Set Point:	2.979	Yaw Set Point:	-0.026	X_WP:	0.480	Y_WP:	1.176	Y_WP:	0.750	X:	0.078	Y:	-0.907	Z:	0.403	yaw:	1.507	yaw rate:	4.836	Roll:	-12.512	Pitch:	-30.000	Yaw:	2.683	Thrust:	100.000
Time:	2.229	Roll Set Point:	0.379	Pitch Set Point:	2.979	Yaw Set Point:	-0.026	X_WP:	0.480	Y_WP:	1.176	Y_WP:	0.750	X:	0.078	Y:	-0.907	Z:	0.403	yaw:	1.513	yaw rate:	-0.626	Roll:	-14.215	Pitch:	-30.000	Yaw:	3.329	Thrust:	100.000
Time:	2.247	Roll Set Point:	0.384	Pitch Set Point:	2.977	Yaw Set Point:	-0.029	X_WP:	0.480	Y_WP:	1.176	Y_WP:	0.750	X:	0.078	Y:	-0.907	Z:	0.402	yaw:	1.648	yaw rate:	-13.539	Roll:	-18.729	Pitch:	-30.000	Yaw:	5.308	Thrust:	100.000
Time:	2.267	Roll Set Point:	0.379	Pitch Set Point:	2.978	Yaw Set Point:	-0.027	X_WP:	0.480	Y_WP:	1.176	Y_WP:	0.750	X:	0.078	Y:	-0.907	Z:	0.402	yaw:	1.521	yaw rate:	12.728	Roll:	-10.109	Pitch:	-30.000	Yaw:	1.781	Thrust:	100.000
Time:	2.292	Roll Set Point:	0.380	Pitch Set Point:	2.978	Yaw Set Point:	-0.027	X_WP:	0.480	Y_WP:	1.176	Y_WP:	0.750	X:	0.078	Y:	-0.907	Z:	0.403	yaw:	1.535	yaw rate:	-1.392	Roll:	-14.389	Pitch:	-30.000	Yaw:	3.665	Thrust:	100.000
Time:	2.312	Roll Set Point:	0.382	Pitch Set Point:	2.978	Yaw Set Point:	-0.028	X_WP:	0.480	Y_WP:	1.176	Y_WP:	0.750	X:	0.078	Y:	-0.907	Z:	0.402	yaw:	1.589	yaw rate:	-5.382	Roll:	-15.741	Pitch:	-30.000	Yaw:	4.148	Thrust:	100.000
Time:	2.328	Roll Set Point:	0.378	Pitch Set Point:	2.978	Yaw Set Point:	-0.026	X_WP:	0.480	Y_WP:	1.176	Y_WP:	0.750	X:	0.078	Y:	-0.907	Z:	0.402	yaw:	1.486	yaw rate:	10.305	Roll:	-9.811	Pitch:	-30.000	Yaw:	1.245	Thrust:	92.490
Time:	2.347	Roll Set Point:	0.377	Pitch Set Point:	2.979	Yaw Set Point:	-0.026	X_WP:	0.480	Y_WP:	1.176	Y_WP:	0.750	X:	0.078	Y:	-0.907	Z:	0.403	yaw:	1.475	yaw rate:	1.088	Roll:	-13.352	Pitch:	-30.000	Yaw:	3.070	Thrust:	100.000
Time:	2.368	Roll Set Point:	0.381	Pitch Set Point:	2.978	Yaw Set Point:	-0.027	X_WP:	0.480	Y_WP:	1.176	Y_WP:	0.750	X:	0.078	Y:	-0.907	Z:	0.402	yaw:	1.573	yaw rate:	-9.859	Roll:	-17.199	Pitch:	-30.000	Yaw:	4.709	Thrust:	100.000
Time:	2.387	Roll Set Point:	0.381	Pitch Set Point:	2.978	Yaw Set Point:	-0.027	X_WP:	0.480	Y_WP:	1.176	Y_WP:	0.750	X:	0.078	Y:	-0.907	Z:	0.402	yaw:	1.551	yaw rate:	2.234	Roll:	-13.294	Pitch:	-30.000	Yaw:	3.121	Thrust:	100.000
Time:	2.409	Roll Set Point:	0.376	Pitch Set Point:	2.979	Yaw Set Point:	-0.025	X_WP:	0.480	Y_WP:	1.176	Y_WP:	0.750	X:	0.078	Y:	-0.907	Z:	0.403	yaw:	1.445	yaw rate:	10.600	Roll:	-10.806	Pitch:	-30.000	Yaw:	2.039	Thrust:	100.000
Time:	2.427	Roll Set Point:	0.378	Pitch Set Point:	2.979	Yaw Set Point:	-0.026	X_WP:	0.480	Y_WP:	1.176	Y_WP:	0.750	X:	0.078	Y:	-0.907	Z:	0.402	yaw:	1.474	yaw rate:	-2.931	Roll:	-14.959	Pitch:	-30.000	Yaw:	3.657	Thrust:	100.000
Time:	2.446	Roll Set Point:	0.380	Pitch Set Point:	2.978	Yaw Set Point:	-0.027	X_WP:	0.480	Y_WP:	1.176	Y_WP:	0.750	X:	0.078	Y:	-0.907	Z:	0.402	yaw:	1.521	yaw rate:	-4.710	Roll:	-15.649	Pitch:	-30.000	Yaw:	3.962	Thrust:	100.000
Time:	2.466	Roll Set Point:	0.377	Pitch Set Point:	2.979	Yaw Set Point:	-0.025	X_WP:	0.480	Y_WP:	1.176	Y_WP:	0.750	X:	0.078	Y:	-0.907	Z:	0.403	yaw:	1.447	yaw rate:	7.483	Roll:	-11.331	Pitch:	-30.000	Yaw:	2.379	Thrust:	100.000
Time:	2.490	Roll Set Point:	0.379	Pitch Set Point:	2.978	Yaw Set Point:	-0.027	X_WP:	0.480	Y_WP:	1.176	Y_WP:	0.750	X:	0.078	Y:	-0.907	Z:	0.403	yaw:	1.525	yaw rate:	-7.824	Roll:	-16.284	Pitch:	-30.000	Yaw:	4.494	Thrust:	100.000
Time:	2.507	Roll Set Point:	0.381	Pitch Set Point:	2.978	Yaw Set Point:	-0.027	X_WP:	0.480	Y_WP:	1.176	Y_WP:	0.750	X:	0.078	Y:	-0.907	Z:	0.402	yaw:	1.573	yaw rate:	-4.788	Roll:	-15.755	Pitch:	-30.000	Yaw:	4.041	Thrust:	100.000
Time:	2.527	Roll Set Point:	0.379	Pitch Set Point:	2.978	Yaw Set Point:	-0.027	X_WP:	0.480	Y_WP:	1.176	Y_WP:	0.750	X:	0.078	Y:	-0.907	Z:	0.403	yaw:	1.522	yaw rate:	5.090	Roll:	-12.300	Pitch:	-30.000	Yaw:	2.765	Thrust:	100.000
Time:	2.546	Roll Set Point:	0.380	Pitch Set Point:	2.978	Yaw Set Point:	-0.027	X_WP:	0.480	Y_WP:	1.176	Y_WP:	0.750	X:	0.078	Y:	-0.907	Z:	0.402	yaw:	1.524	yaw rate:	-0.200	Roll:	-14.278	Pitch:	-30.000	Yaw:	3.414	Thrust:	100.000
Time:	2.567	Roll Set Point:	0.379	Pitch Set Point:	2.978	Yaw Set Point:	-0.026	X_WP:	0.480	Y_WP:	1.176	Y_WP:	0.750	X:	0.078	Y:	-0.907	Z:	0.403	yaw:	1.509	yaw rate:	1.449	Roll:	-13.366	Pitch:	-30.000	Yaw:	3.349	Thrust:	100.000
Time:	2.589	Roll Set Point:	0.379	Pitch Set Point:	2.979	Yaw Set Point:	-0.026	X_WP:	0.480	Y_WP:	1.176	Y_WP:	0.750	X:	0.078	Y:	-0.907	Z:	0.403	yaw:	1.507	yaw rate:	0.271	Roll:	-13.917	Pitch:	-30.000	Yaw:	3.485	Thrust:	100.000
Time:	2.609	Roll Set Point:	0.379	Pitch Set Point:	2.978	Yaw Set Point:	-0.026	X_WP:	0.480	Y_WP:	1.176	Y_WP:	0.750	X:	0.078	Y:	-0.907	Z:	0.403	yaw:	1.507	yaw rate:	-0.059	Roll:	-14.068	Pitch:	-30.000	Yaw:	3.505	Thrust:	100.000
Time:	2.629	Roll Set Point:	0.378	Pitch Set Point:	2.979	Yaw Set Point:	-0.026	X_WP:	0.480	Y_WP:	1.176	Y_WP:	0.750	X:	0.078	Y:	-0.907	Z:	0.403	yaw:	1.500	yaw rate:	0.769	Roll:	-13.698	Pitch:	-30.000	Yaw:	3.297	Thrust:	100.000
Time:	2.649	Roll Set Point:	0.378	Pitch Set Point:	2.979	Yaw Set Point:	-0.026	X_WP:	0.480	Y_WP:	1.176	Y_WP:	0.750	X:	0.078	Y:	-0.907	Z:	0.403	yaw:	1.481	yaw rate:	1.808	Roll:	-13.421	Pitch:	-30.000	Yaw:	3.249	Thrust:	100.000
Time:	2.668	Roll Set Point:	0.378	Pitch Set Point:	2.979	Yaw Set Point:	-0.026	X_WP:	0.480	Y_WP:	1.176	Y_WP:	0.750	X:	0.078	Y:	-0.907	Z:	0.403	yaw:	1.500	yaw rate:	-1.823	Roll:	-14.533	Pitch:	-30.000	Yaw:	3.689	Thrust:	100.000
Time:	2.694	Roll Set Point:	0.376	Pitch Set Point:	2.979	Yaw Set Point:	-0.025	X_WP:	0.480	Y_WP:	1.176	Y_WP:	0.750	X:	0.078	Y:	-0.907	Z:	0.403	yaw:	1.442	yaw rate:	5.767	Roll:	-12.494	Pitch:	-30.000	Yaw:	3.104	Thrust:	100.000
Time:	2.707	Roll Set Point:	0.376	Pitch Set Point:	2.979	Yaw Set Point:	-0.025	X_WP:	0.480	Y_WP:	1.176	Y_WP:	0.750	X:	0.078	Y:	-0.907	Z:	0.403	yaw:	1.443	yaw rate:	-0.074	Roll:	-13.809	Pitch:	-30.000	Yaw:	3.001	Thrust:	98.936
Time:	2.727	Roll Set Point:	0.378	Pitch Set Point:	2.979	Yaw Set Point:	-0.026	X_WP:	0.480	Y_WP:	1.176	Y_WP:	0.750	X:	0.078	Y:	-0.907	Z:	0.403	yaw:	1.479	yaw rate:	-3.596	Roll:	-15.071	Pitch:	-30.000	Yaw:	3.947	Thrust:	100.000
Time:	2.747	Roll Set Point:	0.377	Pitch Set Point:	2.979	Yaw Set Point:	-0.025	X_WP:	0.480	Y_WP:	1.176	Y_WP:	0.750	X:	0.078	Y:	-0.907	Z:	0.403	yaw:	1.456	yaw rate:	2.230	Roll:	-13.255	Pitch:	-30.000	Yaw:	3.185	Thrust:	100.000
Time:	2.767	Roll Set Point:	0.377	Pitch Set Point:	2.979	Yaw Set Point:	-0.026	X_WP:	0.480	Y_WP:	1.176	Y_WP:	0.750	X:	0.078	Y:	-0.907	Z:	0.403	yaw:	1.470	yaw rate:	-1.380	Roll:	-14.354	Pitch:	-30.000	Yaw:	3.675	Thrust:	100.000
Time:	2.787	Roll Set Point:	0.377	Pitch Set Point:	2.979	Yaw Set Point:	-0.026	X_WP:	0.480	Y_WP:	1.176	Y_WP:	0.750	X:	0.078	Y:	-0.907	Z:	0.403	yaw:	1.471	yaw rate:	-0.109	Roll:	-13.998	Pitch:	-30.000	Yaw:	3.490	Thrust:	100.000
Time:	2.808	Roll Set Point:	0.379	Pitch Set Point:	2.979	Yaw Set Point:	-0.026	X_WP:	0.480	Y_WP:	1.176	Y_WP:	0.750	X:	0.078	Y:	-0.907	Z:	0.403	yaw:	1.504	yaw rate:	-3.288	Roll:	-14.998	Pitch:	-30.000	Yaw:	4.043	Thrust:	100.000
Time:	2.829	Roll Set Point:	0.381	Pitch Set Point:	2.978	Yaw Set Point:	-0.027	X_WP:	0.480	Y_WP:	1.176	Y_WP:	0.750	X:	0.078	Y:	-0.907	Z:	0.403	yaw:	1.555	yaw rate:	-5.084	Roll:	-15.734	Pitch:	-30.000	Yaw:	4.316	Thrust:	100.000
Time:	2.849	Roll Set Point:	0.379	Pitch Set Point:	2.978	Yaw Set Point:	-0.027	X_WP:	0.480	Y_WP:	1.176	Y_WP:	0.750	X:	0.078	Y:	-0.907	Z:	0.403	yaw:	1.525	yaw rate:	3.011	Roll:	-12.913	Pitch:	-30.000	Yaw:	3.164	Thrust:	100.000
Time:	2.868	Roll Set Point:	0.377	Pitch Set Point:	2.979	Yaw Set Point:	-0.025	X_WP:	0.480	Y_WP:	1.176	Y_WP:	0.750	X:	0.078	Y:	-0.907	Z:	0.403	yaw:	1.459	yaw rate:	6.627	Roll:	-11.842	Pitch:	-30.000	Yaw:	2.620	Thrust:	100.000
Time:	2.892	Roll Set Point:	0.375	Pitch Set Point:	2.979	Yaw Set Point:	-0.024	X_WP:	0.480	Y_WP:	1.176	Y_WP:	0.750	X:	0.078	Y:	-0.907	Z:	0.402	yaw:	1.399	yaw rate:	5.986	Roll:	-12.455	Pitch:	-30.000	Yaw:	3.106	Thrust:	100.000
Time:	2.909	Roll Set Point:	0.383	Pitch Set Point:	2.977	Yaw Set Point:	-0.028	X_WP:	0.480	Y_WP:	1.176	Y_WP:	0.750	X:	0.078	Y:	-0.907	Z:	0.402	yaw:	1.628	yaw rate:	-22.872	Roll:	-21.327	Pitch:	-30.000	Yaw:	7.090	Thrust:	100.000
Time:	2.928	Roll Set Point:	0.379	Pitch Set Point:	2.978	Yaw Set Point:	-0.026	X_WP:	0.480	Y_WP:	1.176	Y_WP:	0.750	X:	0.078	Y:	-0.907	Z:	0.403	yaw:	1.515	yaw rate:	11.241	Roll:	-10.163	Pitch:	-30.000	Yaw:	1.960	Thrust:	100.000
Time:	2.948	Roll Set Point:	0.379	Pitch Set Point:	2.978	Yaw Set Point:	-0.027	X_WP:	0.480	Y_WP:	1.176	Y_WP:	0.750	X:	0.078	Y:	-0.907	Z:	0.403	yaw:	1.525	yaw rate:	-1.028	Roll:	-14.332	Pitch:	-30.000	Yaw:	3.753	Thrust:	100.000
Time:	2.968	Roll Set Point:	0.379	Pitch Set Point:	2.978	Yaw Set Point:	-0.026	X_WP:	0.480	Y_WP:	1.176	Y_WP:	0.750	X:	0.078	Y:	-0.907	Z:	0.403	yaw:	1.517	yaw rate:	0.860	Roll:	-13.737	Pitch:	-30.000	Yaw:	3.617	Thrust:	100.000
Time:	2.988	Roll Set Point:	0.379	Pitch Set Point:	2.978	Yaw Set Point:	-0.027	X_WP:	0.480	Y_WP:	1.176	Y_WP:	0.750	X:	0.078	Y:	-0.907	Z:	0.403	yaw:	1.520	yaw rate:	-0.329	Roll:	-14.241	Pitch:	-30.000	Yaw:	3.692	Thrust:	100.000
Time:	3.008	Roll Set Point:	0.377	Pitch Set Point:	2.979	Yaw Set Point:	-0.025	X_WP:	0.480	Y_WP:	1.176	Y_WP:	0.750	X:	0.078	Y:	-0.907	Z:	0.402	yaw:	1.435	yaw rate:	8.548	Roll:	-11.506	Pitch:	-30.000	Yaw:	2.540	Thrust:	100.000
Time:	3.028	Roll Set Point:	0.378	Pitch Set Point:	2.979	Yaw Set Point:	-0.026	X_WP:	0.480	Y_WP:	1.176	Y_WP:	0.750	X:	0.078	Y:	-0.907	Z:	0.403	yaw:	1.497	yaw rate:	-6.211	Roll:	-15.726	Pitch:	-30.000	Yaw:	4.437	Thrust:	100.000
Time:	3.048	Roll Set Point:	0.377	Pitch Set Point:	2.979	Yaw Set Point:	-0.025	X_WP:	0.480	Y_WP:	1.176	Y_WP:	0.750	X:	0.078	Y:	-0.907	Z:	0.403	yaw:	1.451	yaw rate:	4.564	Roll:	-12.478	Pitch:	-30.000	Yaw:	3.014	Thrust:	100.000
Time:	3.067	Roll Set Point:	0.381	Pitch Set Point:	2.978	Yaw Set Point:	-0.027	X_WP:	0.480	Y_WP:	1.176	Y_WP:	0.750	X:	0.078	Y:	-0.907	Z:	0.402	yaw:	1.561	yaw rate:	-10.989	Roll:	-17.544	Pitch:	-30.000	Yaw:	5.203	Thrust:	100.000
