Time:	0.041	Roll Set Point:	-0.040	Pitch Set Point:	1.811	Yaw Set Point:	0.017	X_WP:	0.000	Y_WP:	0.000	Y_WP:	0.750	X:	0.012	Y:	-0.906	Z:	0.403	yaw:	-0.954	yaw rate:	0.773	Roll:	0.795	Pitch:	-26.255	Yaw:	-1.332	Thrust:	19.100
Time:	0.061	Roll Set Point:	-0.040	Pitch Set Point:	1.811	Yaw Set Point:	0.017	X_WP:	0.000	Y_WP:	0.000	Y_WP:	0.750	X:	0.012	Y:	-0.906	Z:	0.403	yaw:	-0.958	yaw rate:	0.405	Roll:	0.856	Pitch:	-26.323	Yaw:	-1.399	Thrust:	19.896
Time:	0.082	Roll Set Point:	-0.040	Pitch Set Point:	1.811	Yaw Set Point:	0.017	X_WP:	0.000	Y_WP:	0.000	Y_WP:	0.750	X:	0.012	Y:	-0.906	Z:	0.403	yaw:	-0.952	yaw rate:	-0.649	Roll:	0.715	Pitch:	-26.356	Yaw:	-1.264	Thrust:	20.929
Time:	0.101	Roll Set Point:	-0.040	Pitch Set Point:	1.811	Yaw Set Point:	0.017	X_WP:	0.000	Y_WP:	0.000	Y_WP:	0.750	X:	0.012	Y:	-0.906	Z:	0.403	yaw:	-0.971	yaw rate:	1.925	Roll:	1.082	Pitch:	-26.371	Yaw:	-1.641	Thrust:	21.464
Time:	0.121	Roll Set Point:	-0.040	Pitch Set Point:	1.811	Yaw Set Point:	0.017	X_WP:	0.000	Y_WP:	0.000	Y_WP:	0.750	X:	0.012	Y:	-0.906	Z:	0.403	yaw:	-0.969	yaw rate:	-0.175	Roll:	0.762	Pitch:	-26.423	Yaw:	-1.359	Thrust:	22.519
Time:	0.144	Roll Set Point:	-0.040	Pitch Set Point:	1.811	Yaw Set Point:	0.017	X_WP:	0.000	Y_WP:	0.000	Y_WP:	0.750	X:	0.012	Y:	-0.906	Z:	0.403	yaw:	-0.963	yaw rate:	-0.675	Roll:	0.725	Pitch:	-26.501	Yaw:	-1.293	Thrust:	23.414
Time:	0.161	Roll Set Point:	-0.041	Pitch Set Point:	1.811	Yaw Set Point:	0.018	X_WP:	0.000	Y_WP:	0.000	Y_WP:	0.750	X:	0.012	Y:	-0.906	Z:	0.403	yaw:	-1.009	yaw rate:	4.626	Roll:	1.479	Pitch:	-26.522	Yaw:	-2.078	Thrust:	23.918
Time:	0.183	Roll Set Point:	-0.040	Pitch Set Point:	1.811	Yaw Set Point:	0.017	X_WP:	0.000	Y_WP:	0.000	Y_WP:	0.750	X:	0.012	Y:	-0.906	Z:	0.403	yaw:	-0.987	yaw rate:	-2.203	Roll:	0.533	Pitch:	-26.601	Yaw:	-1.164	Thrust:	25.244
Time:	0.201	Roll Set Point:	-0.040	Pitch Set Point:	1.811	Yaw Set Point:	0.017	X_WP:	0.000	Y_WP:	0.000	Y_WP:	0.750	X:	0.012	Y:	-0.906	Z:	0.403	yaw:	-0.956	yaw rate:	-3.092	Roll:	0.341	Pitch:	-26.566	Yaw:	-0.936	Thrust:	24.982
Time:	0.221	Roll Set Point:	-0.040	Pitch Set Point:	1.811	Yaw Set Point:	0.017	X_WP:	0.000	Y_WP:	0.000	Y_WP:	0.750	X:	0.012	Y:	-0.906	Z:	0.403	yaw:	-0.971	yaw rate:	1.566	Roll:	1.008	Pitch:	-26.690	Yaw:	-1.621	Thrust:	27.108
Time:	0.242	Roll Set Point:	-0.040	Pitch Set Point:	1.811	Yaw Set Point:	0.017	X_WP:	0.000	Y_WP:	0.000	Y_WP:	0.750	X:	0.012	Y:	-0.906	Z:	0.403	yaw:	-0.967	yaw rate:	-0.416	Roll:	0.778	Pitch:	-26.710	Yaw:	-1.367	Thrust:	27.217
Time:	0.262	Roll Set Point:	-0.040	Pitch Set Point:	1.811	Yaw Set Point:	0.017	X_WP:	0.000	Y_WP:	0.000	Y_WP:	0.750	X:	0.012	Y:	-0.906	Z:	0.403	yaw:	-0.978	yaw rate:	1.057	Roll:	0.936	Pitch:	-26.742	Yaw:	-1.580	Thrust:	28.464
Time:	0.282	Roll Set Point:	-0.040	Pitch Set Point:	1.811	Yaw Set Point:	0.016	X_WP:	0.000	Y_WP:	0.000	Y_WP:	0.750	X:	0.012	Y:	-0.906	Z:	0.403	yaw:	-0.944	yaw rate:	-3.339	Roll:	0.369	Pitch:	-26.803	Yaw:	-0.979	Thrust:	29.409
Time:	0.301	Roll Set Point:	-0.040	Pitch Set Point:	1.811	Yaw Set Point:	0.017	X_WP:	0.000	Y_WP:	0.000	Y_WP:	0.750	X:	0.012	Y:	-0.906	Z:	0.403	yaw:	-0.973	yaw rate:	2.865	Roll:	1.217	Pitch:	-26.847	Yaw:	-1.834	Thrust:	29.484
Time:	0.322	Roll Set Point:	-0.040	Pitch Set Point:	1.811	Yaw Set Point:	0.017	X_WP:	0.000	Y_WP:	0.000	Y_WP:	0.750	X:	0.012	Y:	-0.906	Z:	0.403	yaw:	-0.979	yaw rate:	0.560	Roll:	0.905	Pitch:	-26.925	Yaw:	-1.536	Thrust:	31.504
Time:	0.341	Roll Set Point:	-0.040	Pitch Set Point:	1.811	Yaw Set Point:	0.017	X_WP:	0.000	Y_WP:	0.000	Y_WP:	0.750	X:	0.012	Y:	-0.906	Z:	0.403	yaw:	-0.961	yaw rate:	-1.823	Roll:	0.534	Pitch:	-26.876	Yaw:	-1.180	Thrust:	30.737
Time:	0.362	Roll Set Point:	-0.040	Pitch Set Point:	1.811	Yaw Set Point:	0.017	X_WP:	0.000	Y_WP:	0.000	Y_WP:	0.750	X:	0.012	Y:	-0.906	Z:	0.403	yaw:	-0.976	yaw rate:	1.548	Roll:	1.048	Pitch:	-26.999	Yaw:	-1.670	Thrust:	32.599
Time:	0.381	Roll Set Point:	-0.040	Pitch Set Point:	1.811	Yaw Set Point:	0.017	X_WP:	0.000	Y_WP:	0.000	Y_WP:	0.750	X:	0.012	Y:	-0.906	Z:	0.403	yaw:	-0.996	yaw rate:	1.981	Roll:	1.097	Pitch:	-26.991	Yaw:	-1.770	Thrust:	33.130
Time:	0.402	Roll Set Point:	-0.040	Pitch Set Point:	1.811	Yaw Set Point:	0.017	X_WP:	0.000	Y_WP:	0.000	Y_WP:	0.750	X:	0.012	Y:	-0.906	Z:	0.403	yaw:	-0.959	yaw rate:	-3.679	Roll:	0.332	Pitch:	-27.014	Yaw:	-0.979	Thrust:	34.019
Time:	0.421	Roll Set Point:	-0.040	Pitch Set Point:	1.811	Yaw Set Point:	0.017	X_WP:	0.000	Y_WP:	0.000	Y_WP:	0.750	X:	0.012	Y:	-0.906	Z:	0.403	yaw:	-0.947	yaw rate:	-1.165	Roll:	0.661	Pitch:	-27.023	Yaw:	-1.306	Thrust:	35.418
Time:	0.441	Roll Set Point:	-0.040	Pitch Set Point:	1.811	Yaw Set Point:	0.017	X_WP:	0.000	Y_WP:	0.000	Y_WP:	0.750	X:	0.012	Y:	-0.906	Z:	0.403	yaw:	-0.967	yaw rate:	1.953	Roll:	1.099	Pitch:	-26.997	Yaw:	-1.743	Thrust:	35.527
Time:	0.462	Roll Set Point:	-0.039	Pitch Set Point:	1.811	Yaw Set Point:	0.016	X_WP:	0.000	Y_WP:	0.000	Y_WP:	0.750	X:	0.012	Y:	-0.906	Z:	0.403	yaw:	-0.919	yaw rate:	-4.751	Roll:	0.177	Pitch:	-27.025	Yaw:	-0.836	Thrust:	36.924
Time:	0.481	Roll Set Point:	-0.039	Pitch Set Point:	1.811	Yaw Set Point:	0.016	X_WP:	0.000	Y_WP:	0.000	Y_WP:	0.750	X:	0.012	Y:	-0.906	Z:	0.403	yaw:	-0.938	yaw rate:	1.901	Roll:	1.084	Pitch:	-26.996	Yaw:	-1.710	Thrust:	37.505
Time:	0.502	Roll Set Point:	-0.040	Pitch Set Point:	1.811	Yaw Set Point:	0.017	X_WP:	0.000	Y_WP:	0.000	Y_WP:	0.750	X:	0.012	Y:	-0.906	Z:	0.403	yaw:	-0.991	yaw rate:	5.213	Roll:	1.558	Pitch:	-26.961	Yaw:	-2.217	Thrust:	37.368
Time:	0.524	Roll Set Point:	-0.040	Pitch Set Point:	1.811	Yaw Set Point:	0.017	X_WP:	0.000	Y_WP:	0.000	Y_WP:	0.750	X:	0.012	Y:	-0.906	Z:	0.403	yaw:	-0.971	yaw rate:	-1.979	Roll:	0.593	Pitch:	-27.097	Yaw:	-1.300	Thrust:	41.743
Time:	0.550	Roll Set Point:	-0.040	Pitch Set Point:	1.811	Yaw Set Point:	0.017	X_WP:	0.000	Y_WP:	0.000	Y_WP:	0.750	X:	0.012	Y:	-0.906	Z:	0.403	yaw:	-0.980	yaw rate:	0.897	Roll:	0.949	Pitch:	-27.228	Yaw:	-1.677	Thrust:	46.191
Time:	0.562	Roll Set Point:	-0.040	Pitch Set Point:	1.811	Yaw Set Point:	0.017	X_WP:	0.000	Y_WP:	0.000	Y_WP:	0.750	X:	0.012	Y:	-0.906	Z:	0.403	yaw:	-0.955	yaw rate:	-2.472	Roll:	0.402	Pitch:	-26.765	Yaw:	-0.929	Thrust:	33.292
Time:	0.583	Roll Set Point:	-0.040	Pitch Set Point:	1.811	Yaw Set Point:	0.017	X_WP:	0.000	Y_WP:	0.000	Y_WP:	0.750	X:	0.012	Y:	-0.906	Z:	0.403	yaw:	-0.975	yaw rate:	2.009	Roll:	1.124	Pitch:	-26.991	Yaw:	-1.804	Thrust:	41.683
Time:	0.602	Roll Set Point:	-0.040	Pitch Set Point:	1.811	Yaw Set Point:	0.017	X_WP:	0.000	Y_WP:	0.000	Y_WP:	0.750	X:	0.012	Y:	-0.906	Z:	0.403	yaw:	-0.985	yaw rate:	1.019	Roll:	0.999	Pitch:	-26.952	Yaw:	-1.695	Thrust:	41.466
Time:	0.621	Roll Set Point:	-0.040	Pitch Set Point:	1.811	Yaw Set Point:	0.017	X_WP:	0.000	Y_WP:	0.000	Y_WP:	0.750	X:	0.012	Y:	-0.906	Z:	0.403	yaw:	-0.950	yaw rate:	-3.549	Roll:	0.359	Pitch:	-27.025	Yaw:	-1.054	Thrust:	43.187
Time:	0.642	Roll Set Point:	-0.040	Pitch Set Point:	1.811	Yaw Set Point:	0.017	X_WP:	0.000	Y_WP:	0.000	Y_WP:	0.750	X:	0.012	Y:	-0.906	Z:	0.403	yaw:	-0.952	yaw rate:	0.245	Roll:	0.871	Pitch:	-27.013	Yaw:	-1.561	Thrust:	43.637
Time:	0.662	Roll Set Point:	-0.040	Pitch Set Point:	1.811	Yaw Set Point:	0.017	X_WP:	0.000	Y_WP:	0.000	Y_WP:	0.750	X:	0.012	Y:	-0.906	Z:	0.403	yaw:	-0.963	yaw rate:	1.124	Roll:	1.007	Pitch:	-27.007	Yaw:	-1.703	Thrust:	45.632
Time:	0.682	Roll Set Point:	-0.040	Pitch Set Point:	1.811	Yaw Set Point:	0.017	X_WP:	0.000	Y_WP:	0.000	Y_WP:	0.750	X:	0.012	Y:	-0.906	Z:	0.403	yaw:	-0.977	yaw rate:	1.362	Roll:	1.020	Pitch:	-27.001	Yaw:	-1.758	Thrust:	45.626
Time:	0.702	Roll Set Point:	-0.040	Pitch Set Point:	1.811	Yaw Set Point:	0.017	X_WP:	0.000	Y_WP:	0.000	Y_WP:	0.750	X:	0.012	Y:	-0.906	Z:	0.403	yaw:	-0.974	yaw rate:	-0.267	Roll:	0.816	Pitch:	-27.012	Yaw:	-1.548	Thrust:	46.634
Time:	0.721	Roll Set Point:	-0.040	Pitch Set Point:	1.811	Yaw Set Point:	0.017	X_WP:	0.000	Y_WP:	0.000	Y_WP:	0.750	X:	0.012	Y:	-0.906	Z:	0.403	yaw:	-0.948	yaw rate:	-2.670	Roll:	0.477	Pitch:	-27.003	Yaw:	-1.194	Thrust:	46.932
Time:	0.742	Roll Set Point:	-0.040	Pitch Set Point:	1.811	Yaw Set Point:	0.017	X_WP:	0.000	Y_WP:	0.000	Y_WP:	0.750	X:	0.012	Y:	-0.906	Z:	0.403	yaw:	-0.956	yaw rate:	0.799	Roll:	0.966	Pitch:	-27.005	Yaw:	-1.673	Thrust:	47.840
Time:	0.762	Roll Set Point:	-0.040	Pitch Set Point:	1.811	Yaw Set Point:	0.017	X_WP:	0.000	Y_WP:	0.000	Y_WP:	0.750	X:	0.012	Y:	-0.906	Z:	0.403	yaw:	-0.966	yaw rate:	1.011	Roll:	0.964	Pitch:	-27.014	Yaw:	-1.727	Thrust:	50.076
Time:	0.783	Roll Set Point:	-0.040	Pitch Set Point:	1.811	Yaw Set Point:	0.017	X_WP:	0.000	Y_WP:	0.000	Y_WP:	0.750	X:	0.012	Y:	-0.906	Z:	0.403	yaw:	-0.946	yaw rate:	-1.972	Roll:	0.589	Pitch:	-27.025	Yaw:	-1.331	Thrust:	51.029
Time:	0.801	Roll Set Point:	-0.040	Pitch Set Point:	1.811	Yaw Set Point:	0.017	X_WP:	0.000	Y_WP:	0.000	Y_WP:	0.750	X:	0.012	Y:	-0.906	Z:	0.403	yaw:	-0.984	yaw rate:	3.820	Roll:	1.416	Pitch:	-26.949	Yaw:	-2.156	Thrust:	48.010
Time:	0.821	Roll Set Point:	-0.040	Pitch Set Point:	1.811	Yaw Set Point:	0.017	X_WP:	0.000	Y_WP:	0.000	Y_WP:	0.750	X:	0.012	Y:	-0.906	Z:	0.403	yaw:	-0.961	yaw rate:	-2.352	Roll:	0.558	Pitch:	-27.033	Yaw:	-1.317	Thrust:	52.809
Time:	0.841	Roll Set Point:	-0.040	Pitch Set Point:	1.811	Yaw Set Point:	0.017	X_WP:	0.000	Y_WP:	0.000	Y_WP:	0.750	X:	0.012	Y:	-0.906	Z:	0.403	yaw:	-0.967	yaw rate:	0.626	Roll:	0.907	Pitch:	-26.984	Yaw:	-1.698	Thrust:	51.813
Time:	0.861	Roll Set Point:	-0.040	Pitch Set Point:	1.811	Yaw Set Point:	0.017	X_WP:	0.000	Y_WP:	0.000	Y_WP:	0.750	X:	0.012	Y:	-0.906	Z:	0.403	yaw:	-0.971	yaw rate:	0.442	Roll:	0.930	Pitch:	-27.004	Yaw:	-1.687	Thrust:	52.718
Time:	0.881	Roll Set Point:	-0.040	Pitch Set Point:	1.811	Yaw Set Point:	0.017	X_WP:	0.000	Y_WP:	0.000	Y_WP:	0.750	X:	0.012	Y:	-0.906	Z:	0.403	yaw:	-0.965	yaw rate:	-0.638	Roll:	0.776	Pitch:	-27.021	Yaw:	-1.553	Thrust:	54.690
Time:	0.901	Roll Set Point:	-0.040	Pitch Set Point:	1.811	Yaw Set Point:	0.017	X_WP:	0.000	Y_WP:	0.000	Y_WP:	0.750	X:	0.012	Y:	-0.906	Z:	0.403	yaw:	-0.972	yaw rate:	0.734	Roll:	0.971	Pitch:	-26.967	Yaw:	-1.743	Thrust:	53.044
Time:	0.920	Roll Set Point:	-0.040	Pitch Set Point:	1.811	Yaw Set Point:	0.017	X_WP:	0.000	Y_WP:	0.000	Y_WP:	0.750	X:	0.012	Y:	-0.906	Z:	0.403	yaw:	-0.971	yaw rate:	-0.137	Roll:	0.822	Pitch:	-27.007	Yaw:	-1.628	Thrust:	56.872
Time:	0.941	Roll Set Point:	-0.040	Pitch Set Point:	1.811	Yaw Set Point:	0.017	X_WP:	0.000	Y_WP:	0.000	Y_WP:	0.750	X:	0.012	Y:	-0.906	Z:	0.403	yaw:	-0.984	yaw rate:	1.290	Roll:	1.059	Pitch:	-26.998	Yaw:	-1.843	Thrust:	55.712
Time:	0.961	Roll Set Point:	-0.040	Pitch Set Point:	1.811	Yaw Set Point:	0.017	X_WP:	0.000	Y_WP:	0.000	Y_WP:	0.750	X:	0.012	Y:	-0.906	Z:	0.403	yaw:	-0.986	yaw rate:	0.168	Roll:	0.903	Pitch:	-27.019	Yaw:	-1.720	Thrust:	58.019
Time:	0.981	Roll Set Point:	-0.040	Pitch Set Point:	1.811	Yaw Set Point:	0.017	X_WP:	0.000	Y_WP:	0.000	Y_WP:	0.750	X:	0.012	Y:	-0.906	Z:	0.403	yaw:	-0.952	yaw rate:	-3.389	Roll:	0.423	Pitch:	-27.021	Yaw:	-1.221	Thrust:	59.211
Time:	1.000	Roll Set Point:	-0.040	Pitch Set Point:	1.811	Yaw Set Point:	0.017	X_WP:	0.000	Y_WP:	0.000	Y_WP:	0.750	X:	0.012	Y:	-0.906	Z:	0.403	yaw:	-0.988	yaw rate:	3.609	Roll:	1.395	Pitch:	-26.974	Yaw:	-2.187	Thrust:	57.575
Time:	1.021	Roll Set Point:	-0.040	Pitch Set Point:	1.811	Yaw Set Point:	0.017	X_WP:	0.000	Y_WP:	0.000	Y_WP:	0.750	X:	0.012	Y:	-0.906	Z:	0.403	yaw:	-0.954	yaw rate:	-3.401	Roll:	0.410	Pitch:	-27.029	Yaw:	-1.260	Thrust:	61.268
Time:	1.040	Roll Set Point:	-0.040	Pitch Set Point:	1.811	Yaw Set Point:	0.017	X_WP:	0.000	Y_WP:	0.000	Y_WP:	0.750	X:	0.012	Y:	-0.906	Z:	0.403	yaw:	-0.974	yaw rate:	2.066	Roll:	1.171	Pitch:	-27.009	Yaw:	-1.966	Thrust:	60.233
Time:	1.061	Roll Set Point:	-0.040	Pitch Set Point:	1.811	Yaw Set Point:	0.017	X_WP:	0.000	Y_WP:	0.000	Y_WP:	0.750	X:	0.012	Y:	-0.906	Z:	0.403	yaw:	-0.990	yaw rate:	1.546	Roll:	1.083	Pitch:	-26.996	Yaw:	-1.931	Thrust:	62.419
Time:	1.082	Roll Set Point:	-0.040	Pitch Set Point:	1.811	Yaw Set Point:	0.017	X_WP:	0.000	Y_WP:	0.000	Y_WP:	0.750	X:	0.012	Y:	-0.906	Z:	0.403	yaw:	-0.957	yaw rate:	-3.341	Roll:	0.439	Pitch:	-27.048	Yaw:	-1.269	Thrust:	63.499
Time:	1.101	Roll Set Point:	-0.040	Pitch Set Point:	1.811	Yaw Set Point:	0.017	X_WP:	0.000	Y_WP:	0.000	Y_WP:	0.750	X:	0.012	Y:	-0.906	Z:	0.403	yaw:	-0.975	yaw rate:	1.808	Roll:	1.111	Pitch:	-26.976	Yaw:	-1.953	Thrust:	62.305
Time:	1.121	Roll Set Point:	-0.040	Pitch Set Point:	1.811	Yaw Set Point:	0.017	X_WP:	0.000	Y_WP:	0.000	Y_WP:	0.750	X:	0.012	Y:	-0.906	Z:	0.403	yaw:	-0.967	yaw rate:	-0.724	Roll:	0.787	Pitch:	-27.018	Yaw:	-1.627	Thrust:	64.736
Time:	1.142	Roll Set Point:	-0.040	Pitch Set Point:	1.811	Yaw Set Point:	0.017	X_WP:	0.000	Y_WP:	0.000	Y_WP:	0.750	X:	0.012	Y:	-0.906	Z:	0.403	yaw:	-0.978	yaw rate:	1.059	Roll:	1.033	Pitch:	-26.986	Yaw:	-1.880	Thrust:	65.811
Time:	1.162	Roll Set Point:	-0.040	Pitch Set Point:	1.811	Yaw Set Point:	0.017	X_WP:	0.000	Y_WP:	0.000	Y_WP:	0.750	X:	0.012	Y:	-0.906	Z:	0.403	yaw:	-0.955	yaw rate:	-2.287	Roll:	0.557	Pitch:	-27.033	Yaw:	-1.412	Thrust:	65.843
Time:	1.181	Roll Set Point:	-0.040	Pitch Set Point:	1.811	Yaw Set Point:	0.017	X_WP:	0.000	Y_WP:	0.000	Y_WP:	0.750	X:	0.012	Y:	-0.906	Z:	0.403	yaw:	-0.971	yaw rate:	1.640	Roll:	1.118	Pitch:	-27.007	Yaw:	-1.952	Thrust:	65.292
Time:	1.202	Roll Set Point:	-0.040	Pitch Set Point:	1.811	Yaw Set Point:	0.017	X_WP:	0.000	Y_WP:	0.000	Y_WP:	0.750	X:	0.012	Y:	-0.906	Z:	0.403	yaw:	-0.957	yaw rate:	-1.497	Roll:	0.641	Pitch:	-26.970	Yaw:	-1.550	Thrust:	66.641
Time:	1.222	Roll Set Point:	-0.040	Pitch Set Point:	1.811	Yaw Set Point:	0.017	X_WP:	0.000	Y_WP:	0.000	Y_WP:	0.750	X:	0.012	Y:	-0.906	Z:	0.403	yaw:	-0.982	yaw rate:	2.561	Roll:	1.254	Pitch:	-27.021	Yaw:	-2.104	Thrust:	69.575
Time:	1.241	Roll Set Point:	-0.040	Pitch Set Point:	1.811	Yaw Set Point:	0.017	X_WP:	0.000	Y_WP:	0.000	Y_WP:	0.750	X:	0.012	Y:	-0.906	Z:	0.403	yaw:	-0.956	yaw rate:	-2.623	Roll:	0.511	Pitch:	-27.025	Yaw:	-1.403	Thrust:	69.617
Time:	1.263	Roll Set Point:	-0.040	Pitch Set Point:	1.811	Yaw Set Point:	0.017	X_WP:	0.000	Y_WP:	0.000	Y_WP:	0.750	X:	0.012	Y:	-0.906	Z:	0.403	yaw:	-0.958	yaw rate:	0.208	Roll:	0.922	Pitch:	-27.048	Yaw:	-1.794	Thrust:	72.241
Time:	1.282	Roll Set Point:	-0.039	Pitch Set Point:	1.811	Yaw Set Point:	0.016	X_WP:	0.000	Y_WP:	0.000	Y_WP:	0.750	X:	0.012	Y:	-0.906	Z:	0.403	yaw:	-0.938	yaw rate:	-2.027	Roll:	0.579	Pitch:	-26.983	Yaw:	-1.452	Thrust:	69.961
Time:	1.301	Roll Set Point:	-0.040	Pitch Set Point:	1.811	Yaw Set Point:	0.017	X_WP:	0.000	Y_WP:	0.000	Y_WP:	0.750	X:	0.012	Y:	-0.906	Z:	0.403	yaw:	-0.959	yaw rate:	2.145	Roll:	1.175	Pitch:	-26.961	Yaw:	-2.038	Thrust:	68.635
Time:	1.321	Roll Set Point:	-0.040	Pitch Set Point:	1.811	Yaw Set Point:	0.017	X_WP:	0.000	Y_WP:	0.000	Y_WP:	0.750	X:	0.012	Y:	-0.906	Z:	0.403	yaw:	-0.963	yaw rate:	0.425	Roll:	0.958	Pitch:	-27.033	Yaw:	-1.841	Thrust:	73.630
Time:	1.341	Roll Set Point:	-0.040	Pitch Set Point:	1.811	Yaw Set Point:	0.017	X_WP:	0.000	Y_WP:	0.000	Y_WP:	0.750	X:	0.012	Y:	-0.906	Z:	0.403	yaw:	-0.977	yaw rate:	1.366	Roll:	1.089	Pitch:	-26.986	Yaw:	-1.978	Thrust:	72.459
Time:	1.362	Roll Set Point:	-0.040	Pitch Set Point:	1.811	Yaw Set Point:	0.017	X_WP:	0.000	Y_WP:	0.000	Y_WP:	0.750	X:	0.012	Y:	-0.906	Z:	0.403	yaw:	-0.981	yaw rate:	0.378	Roll:	0.932	Pitch:	-27.002	Yaw:	-1.882	Thrust:	75.033
Time:	1.383	Roll Set Point:	-0.040	Pitch Set Point:	1.811	Yaw Set Point:	0.017	X_WP:	0.000	Y_WP:	0.000	Y_WP:	0.750	X:	0.012	Y:	-0.906	Z:	0.403	yaw:	-0.957	yaw rate:	-2.351	Roll:	0.588	Pitch:	-27.068	Yaw:	-1.510	Thrust:	78.516
Time:	1.401	Roll Set Point:	-0.040	Pitch Set Point:	1.811	Yaw Set Point:	0.017	X_WP:	0.000	Y_WP:	0.000	Y_WP:	0.750	X:	0.012	Y:	-0.906	Z:	0.403	yaw:	-0.962	yaw rate:	0.501	Roll:	0.973	Pitch:	-26.948	Yaw:	-1.833	Thrust:	70.721
Time:	1.421	Roll Set Point:	-0.040	Pitch Set Point:	1.811	Yaw Set Point:	0.017	X_WP:	0.000	Y_WP:	0.000	Y_WP:	0.750	X:	0.012	Y:	-0.906	Z:	0.403	yaw:	-0.970	yaw rate:	0.789	Roll:	0.991	Pitch:	-27.002	Yaw:	-1.927	Thrust:	77.058
Time:	1.442	Roll Set Point:	-0.040	Pitch Set Point:	1.811	Yaw Set Point:	0.017	X_WP:	0.000	Y_WP:	0.000	Y_WP:	0.750	X:	0.012	Y:	-0.906	Z:	0.403	yaw:	-0.974	yaw rate:	0.412	Roll:	0.954	Pitch:	-27.006	Yaw:	-1.891	Thrust:	78.065
Time:	1.463	Roll Set Point:	-0.040	Pitch Set Point:	1.811	Yaw Set Point:	0.017	X_WP:	0.000	Y_WP:	0.000	Y_WP:	0.750	X:	0.012	Y:	-0.906	Z:	0.403	yaw:	-0.980	yaw rate:	0.610	Roll:	1.003	Pitch:	-27.060	Yaw:	-1.957	Thrust:	81.054
Time:	1.481	Roll Set Point:	-0.040	Pitch Set Point:	1.811	Yaw Set Point:	0.017	X_WP:	0.000	Y_WP:	0.000	Y_WP:	0.750	X:	0.012	Y:	-0.906	Z:	0.403	yaw:	-0.971	yaw rate:	-0.961	Roll:	0.766	Pitch:	-26.961	Yaw:	-1.673	Thrust:	76.425
Time:	1.501	Roll Set Point:	-0.040	Pitch Set Point:	1.811	Yaw Set Point:	0.017	X_WP:	0.000	Y_WP:	0.000	Y_WP:	0.750	X:	0.012	Y:	-0.906	Z:	0.403	yaw:	-0.965	yaw rate:	-0.578	Roll:	0.799	Pitch:	-26.967	Yaw:	-1.758	Thrust:	79.247
Time:	1.521	Roll Set Point:	-0.040	Pitch Set Point:	1.811	Yaw Set Point:	0.017	X_WP:	0.000	Y_WP:	0.000	Y_WP:	0.750	X:	0.012	Y:	-0.906	Z:	0.403	yaw:	-0.974	yaw rate:	0.903	Roll:	1.059	Pitch:	-27.042	Yaw:	-1.974	Thrust:	80.205
Time:	1.541	Roll Set Point:	-0.040	Pitch Set Point:	1.811	Yaw Set Point:	0.017	X_WP:	0.000	Y_WP:	0.000	Y_WP:	0.750	X:	0.012	Y:	-0.906	Z:	0.403	yaw:	-0.985	yaw rate:	1.134	Roll:	1.047	Pitch:	-27.003	Yaw:	-2.036	Thrust:	82.620
Time:	1.562	Roll Set Point:	-0.040	Pitch Set Point:	1.811	Yaw Set Point:	0.016	X_WP:	0.000	Y_WP:	0.000	Y_WP:	0.750	X:	0.012	Y:	-0.906	Z:	0.403	yaw:	-0.940	yaw rate:	-4.517	Roll:	0.293	Pitch:	-27.006	Yaw:	-1.245	Thrust:	82.992
Time:	1.582	Roll Set Point:	-0.040	Pitch Set Point:	1.811	Yaw Set Point:	0.016	X_WP:	0.000	Y_WP:	0.000	Y_WP:	0.750	X:	0.012	Y:	-0.906	Z:	0.403	yaw:	-0.943	yaw rate:	0.304	Roll:	0.934	Pitch:	-27.032	Yaw:	-1.897	Thrust:	84.305
Time:	1.601	Roll Set Point:	-0.040	Pitch Set Point:	1.811	Yaw Set Point:	0.016	X_WP:	0.000	Y_WP:	0.000	Y_WP:	0.750	X:	0.012	Y:	-0.906	Z:	0.403	yaw:	-0.942	yaw rate:	-0.157	Roll:	0.888	Pitch:	-26.985	Yaw:	-1.787	Thrust:	81.702
Time:	1.621	Roll Set Point:	-0.040	Pitch Set Point:	1.811	Yaw Set Point:	0.017	X_WP:	0.000	Y_WP:	0.000	Y_WP:	0.750	X:	0.012	Y:	-0.906	Z:	0.403	yaw:	-0.954	yaw rate:	1.225	Roll:	1.056	Pitch:	-26.972	Yaw:	-2.030	Thrust:	84.093
Time:	1.641	Roll Set Point:	-0.040	Pitch Set Point:	1.811	Yaw Set Point:	0.017	X_WP:	0.000	Y_WP:	0.000	Y_WP:	0.750	X:	0.012	Y:	-0.906	Z:	0.403	yaw:	-0.970	yaw rate:	1.559	Roll:	1.148	Pitch:	-27.029	Yaw:	-2.091	Thrust:	85.998
Time:	1.662	Roll Set Point:	-0.040	Pitch Set Point:	1.811	Yaw Set Point:	0.017	X_WP:	0.000	Y_WP:	0.000	Y_WP:	0.750	X:	0.012	Y:	-0.906	Z:	0.403	yaw:	-0.960	yaw rate:	-1.007	Roll:	0.739	Pitch:	-26.988	Yaw:	-1.776	Thrust:	88.808
Time:	1.681	Roll Set Point:	-0.039	Pitch Set Point:	1.811	Yaw Set Point:	0.016	X_WP:	0.000	Y_WP:	0.000	Y_WP:	0.750	X:	0.012	Y:	-0.906	Z:	0.403	yaw:	-0.921	yaw rate:	-3.837	Roll:	0.395	Pitch:	-27.029	Yaw:	-1.331	Thrust:	87.063
Time:	1.701	Roll Set Point:	-0.040	Pitch Set Point:	1.811	Yaw Set Point:	0.017	X_WP:	0.000	Y_WP:	0.000	Y_WP:	0.750	X:	0.012	Y:	-0.906	Z:	0.403	yaw:	-0.986	yaw rate:	6.513	Roll:	1.823	Pitch:	-26.987	Yaw:	-2.788	Thrust:	85.188
Time:	1.721	Roll Set Point:	-0.040	Pitch Set Point:	1.811	Yaw Set Point:	0.017	X_WP:	0.000	Y_WP:	0.000	Y_WP:	0.750	X:	0.012	Y:	-0.906	Z:	0.403	yaw:	-0.968	yaw rate:	-1.835	Roll:	0.665	Pitch:	-26.999	Yaw:	-1.660	Thrust:	89.311
Time:	1.741	Roll Set Point:	-0.040	Pitch Set Point:	1.811	Yaw Set Point:	0.017	X_WP:	0.000	Y_WP:	0.000	Y_WP:	0.750	X:	0.012	Y:	-0.906	Z:	0.403	yaw:	-0.956	yaw rate:	-1.230	Roll:	0.745	Pitch:	-27.016	Yaw:	-1.746	Thrust:	91.673
Time:	1.761	Roll Set Point:	-0.040	Pitch Set Point:	1.811	Yaw Set Point:	0.017	X_WP:	0.000	Y_WP:	0.000	Y_WP:	0.750	X:	0.012	Y:	-0.906	Z:	0.403	yaw:	-0.968	yaw rate:	1.283	Roll:	1.093	Pitch:	-27.021	Yaw:	-2.105	Thrust:	91.742
Time:	1.782	Roll Set Point:	-0.040	Pitch Set Point:	1.811	Yaw Set Point:	0.017	X_WP:	0.000	Y_WP:	0.000	Y_WP:	0.750	X:	0.012	Y:	-0.906	Z:	0.403	yaw:	-0.949	yaw rate:	-1.902	Roll:	0.685	Pitch:	-27.023	Yaw:	-1.687	Thrust:	93.686
Time:	1.801	Roll Set Point:	-0.040	Pitch Set Point:	1.811	Yaw Set Point:	0.017	X_WP:	0.000	Y_WP:	0.000	Y_WP:	0.750	X:	0.012	Y:	-0.906	Z:	0.403	yaw:	-0.956	yaw rate:	0.643	Roll:	0.984	Pitch:	-26.951	Yaw:	-1.981	Thrust:	87.902
Time:	1.822	Roll Set Point:	-0.040	Pitch Set Point:	1.811	Yaw Set Point:	0.017	X_WP:	0.000	Y_WP:	0.000	Y_WP:	0.750	X:	0.012	Y:	-0.906	Z:	0.403	yaw:	-0.965	yaw rate:	0.961	Roll:	1.063	Pitch:	-27.056	Yaw:	-2.099	Thrust:	97.140
Time:	1.841	Roll Set Point:	-0.040	Pitch Set Point:	1.811	Yaw Set Point:	0.017	X_WP:	0.000	Y_WP:	0.000	Y_WP:	0.750	X:	0.012	Y:	-0.906	Z:	0.403	yaw:	-0.987	yaw rate:	2.181	Roll:	1.237	Pitch:	-26.948	Yaw:	-2.265	Thrust:	92.678
Time:	1.861	Roll Set Point:	-0.040	Pitch Set Point:	1.811	Yaw Set Point:	0.017	X_WP:	0.000	Y_WP:	0.000	Y_WP:	0.750	X:	0.012	Y:	-0.906	Z:	0.403	yaw:	-0.953	yaw rate:	-3.474	Roll:	0.462	Pitch:	-27.019	Yaw:	-1.458	Thrust:	92.841
Time:	1.883	Roll Set Point:	-0.040	Pitch Set Point:	1.811	Yaw Set Point:	0.017	X_WP:	0.000	Y_WP:	0.000	Y_WP:	0.750	X:	0.012	Y:	-0.906	Z:	0.403	yaw:	-0.987	yaw rate:	3.435	Roll:	1.355	Pitch:	-27.051	Yaw:	-2.462	Thrust:	100.000
Time:	1.901	Roll Set Point:	-0.040	Pitch Set Point:	1.811	Yaw Set Point:	0.017	X_WP:	0.000	Y_WP:	0.000	Y_WP:	0.750	X:	0.012	Y:	-0.906	Z:	0.403	yaw:	-0.977	yaw rate:	-1.021	Roll:	0.795	Pitch:	-26.961	Yaw:	-1.809	Thrust:	91.791
Time:	1.921	Roll Set Point:	-0.040	Pitch Set Point:	1.811	Yaw Set Point:	0.017	X_WP:	0.000	Y_WP:	0.000	Y_WP:	0.750	X:	0.012	Y:	-0.906	Z:	0.403	yaw:	-0.969	yaw rate:	-0.804	Roll:	0.831	Pitch:	-27.037	Yaw:	-1.907	Thrust:	100.000
Time:	1.941	Roll Set Point:	-0.040	Pitch Set Point:	1.811	Yaw Set Point:	0.017	X_WP:	0.000	Y_WP:	0.000	Y_WP:	0.750	X:	0.012	Y:	-0.906	Z:	0.403	yaw:	-0.954	yaw rate:	-1.459	Roll:	0.719	Pitch:	-26.978	Yaw:	-1.758	Thrust:	96.023
Time:	1.962	Roll Set Point:	-0.040	Pitch Set Point:	1.811	Yaw Set Point:	0.017	X_WP:	0.000	Y_WP:	0.000	Y_WP:	0.750	X:	0.012	Y:	-0.906	Z:	0.403	yaw:	-0.964	yaw rate:	0.993	Roll:	1.049	Pitch:	-26.988	Yaw:	-2.138	Thrust:	100.000
Time:	1.982	Roll Set Point:	-0.040	Pitch Set Point:	1.811	Yaw Set Point:	0.017	X_WP:	0.000	Y_WP:	0.000	Y_WP:	0.750	X:	0.012	Y:	-0.906	Z:	0.403	yaw:	-0.967	yaw rate:	0.332	Roll:	1.019	Pitch:	-27.081	Yaw:	-2.065	Thrust:	100.000
Time:	2.001	Roll Set Point:	-0.040	Pitch Set Point:	1.811	Yaw Set Point:	0.017	X_WP:	0.000	Y_WP:	0.000	Y_WP:	0.750	X:	0.012	Y:	-0.906	Z:	0.403	yaw:	-0.979	yaw rate:	1.122	Roll:	1.064	Pitch:	-26.929	Yaw:	-2.143	Thrust:	95.891
Time:	2.021	Roll Set Point:	-0.040	Pitch Set Point:	1.811	Yaw Set Point:	0.017	X_WP:	0.000	Y_WP:	0.000	Y_WP:	0.750	X:	0.012	Y:	-0.906	Z:	0.403	yaw:	-0.963	yaw rate:	-1.521	Roll:	0.731	Pitch:	-27.028	Yaw:	-1.825	Thrust:	100.000
Time:	2.042	Roll Set Point:	-0.040	Pitch Set Point:	1.811	Yaw Set Point:	0.017	X_WP:	0.000	Y_WP:	0.000	Y_WP:	0.750	X:	0.012	Y:	-0.906	Z:	0.403	yaw:	-0.965	yaw rate:	0.197	Roll:	0.975	Pitch:	-27.026	Yaw:	-2.084	Thrust:	100.000
Time:	2.061	Roll Set Point:	-0.040	Pitch Set Point:	1.811	Yaw Set Point:	0.016	X_WP:	0.000	Y_WP:	0.000	Y_WP:	0.750	X:	0.012	Y:	-0.906	Z:	0.403	yaw:	-0.943	yaw rate:	-2.216	Roll:	0.600	Pitch:	-26.996	Yaw:	-1.667	Thrust:	99.799
Time:	2.083	Roll Set Point:	-0.040	Pitch Set Point:	1.811	Yaw Set Point:	0.017	X_WP:	0.000	Y_WP:	0.000	Y_WP:	0.750	X:	0.012	Y:	-0.906	Z:	0.403	yaw:	-0.947	yaw rate:	0.404	Roll:	0.998	Pitch:	-27.054	Yaw:	-2.110	Thrust:	100.000
Time:	2.101	Roll Set Point:	-0.040	Pitch Set Point:	1.811	Yaw Set Point:	0.017	X_WP:	0.000	Y_WP:	0.000	Y_WP:	0.750	X:	0.012	Y:	-0.906	Z:	0.403	yaw:	-0.950	yaw rate:	0.272	Roll:	0.972	Pitch:	-26.966	Yaw:	-2.009	Thrust:	98.718
Time:	2.121	Roll Set Point:	-0.040	Pitch Set Point:	1.811	Yaw Set Point:	0.017	X_WP:	0.000	Y_WP:	0.000	Y_WP:	0.750	X:	0.012	Y:	-0.906	Z:	0.403	yaw:	-0.953	yaw rate:	0.315	Roll:	0.973	Pitch:	-26.978	Yaw:	-2.075	Thrust:	100.000
Time:	2.142	Roll Set Point:	-0.039	Pitch Set Point:	1.811	Yaw Set Point:	0.016	X_WP:	0.000	Y_WP:	0.000	Y_WP:	0.750	X:	0.012	Y:	-0.906	Z:	0.403	yaw:	-0.941	yaw rate:	-1.217	Roll:	0.759	Pitch:	-26.993	Yaw:	-1.866	Thrust:	100.000
Time:	2.161	Roll Set Point:	-0.040	Pitch Set Point:	1.811	Yaw Set Point:	0.017	X_WP:	0.000	Y_WP:	0.000	Y_WP:	0.750	X:	0.012	Y:	-0.906	Z:	0.403	yaw:	-0.984	yaw rate:	4.324	Roll:	1.554	Pitch:	-26.997	Yaw:	-2.654	Thrust:	100.000
Time:	2.181	Roll Set Point:	-0.040	Pitch Set Point:	1.811	Yaw Set Point:	0.017	X_WP:	0.000	Y_WP:	0.000	Y_WP:	0.750	X:	0.012	Y:	-0.906	Z:	0.403	yaw:	-0.967	yaw rate:	-1.697	Roll:	0.719	Pitch:	-27.032	Yaw:	-1.849	Thrust:	100.000
Time:	2.201	Roll Set Point:	-0.040	Pitch Set Point:	1.811	Yaw Set Point:	0.017	X_WP:	0.000	Y_WP:	0.000	Y_WP:	0.750	X:	0.012	Y:	-0.906	Z:	0.403	yaw:	-0.974	yaw rate:	0.656	Roll:	1.037	Pitch:	-26.993	Yaw:	-2.153	Thrust:	100.000
Time:	2.222	Roll Set Point:	-0.040	Pitch Set Point:	1.811	Yaw Set Point:	0.017	X_WP:	0.000	Y_WP:	0.000	Y_WP:	0.750	X:	0.012	Y:	-0.906	Z:	0.403	yaw:	-0.952	yaw rate:	-2.137	Roll:	0.691	Pitch:	-27.041	Yaw:	-1.841	Thrust:	100.000
Time:	2.241	Roll Set Point:	-0.040	Pitch Set Point:	1.811	Yaw Set Point:	0.017	X_WP:	0.000	Y_WP:	0.000	Y_WP:	0.750	X:	0.012	Y:	-0.906	Z:	0.403	yaw:	-0.964	yaw rate:	1.178	Roll:	1.092	Pitch:	-26.989	Yaw:	-2.218	Thrust:	100.000
Time:	2.262	Roll Set Point:	-0.040	Pitch Set Point:	1.811	Yaw Set Point:	0.017	X_WP:	0.000	Y_WP:	0.000	Y_WP:	0.750	X:	0.012	Y:	-0.906	Z:	0.403	yaw:	-0.978	yaw rate:	1.352	Roll:	1.150	Pitch:	-26.981	Yaw:	-2.304	Thrust:	100.000
Time:	2.283	Roll Set Point:	-0.040	Pitch Set Point:	1.811	Yaw Set Point:	0.017	X_WP:	0.000	Y_WP:	0.000	Y_WP:	0.750	X:	0.012	Y:	-0.906	Z:	0.403	yaw:	-0.975	yaw rate:	-0.302	Roll:	0.928	Pitch:	-27.070	Yaw:	-2.114	Thrust:	100.000
Time:	2.308	Roll Set Point:	-0.040	Pitch Set Point:	1.811	Yaw Set Point:	0.017	X_WP:	0.000	Y_WP:	0.000	Y_WP:	0.750	X:	0.012	Y:	-0.906	Z:	0.403	yaw:	-0.948	yaw rate:	-2.672	Roll:	0.697	Pitch:	-27.179	Yaw:	-2.017	Thrust:	100.000
Time:	2.321	Roll Set Point:	-0.040	Pitch Set Point:	1.811	Yaw Set Point:	0.017	X_WP:	0.000	Y_WP:	0.000	Y_WP:	0.750	X:	0.012	Y:	-0.906	Z:	0.403	yaw:	-0.950	yaw rate:	0.163	Roll:	0.929	Pitch:	-26.786	Yaw:	-1.856	Thrust:	80.557
Time:	2.341	Roll Set Point:	-0.040	Pitch Set Point:	1.811	Yaw Set Point:	0.017	X_WP:	0.000	Y_WP:	0.000	Y_WP:	0.750	X:	0.012	Y:	-0.906	Z:	0.403	yaw:	-0.959	yaw rate:	0.914	Roll:	1.094	Pitch:	-27.028	Yaw:	-2.241	Thrust:	100.000
Time:	2.363	Roll Set Point:	-0.040	Pitch Set Point:	1.811	Yaw Set Point:	0.017	X_WP:	0.000	Y_WP:	0.000	Y_WP:	0.750	X:	0.012	Y:	-0.906	Z:	0.403	yaw:	-0.992	yaw rate:	3.292	Roll:	1.415	Pitch:	-27.019	Yaw:	-2.616	Thrust:	100.000
Time:	2.381	Roll Set Point:	-0.040	Pitch Set Point:	1.811	Yaw Set Point:	0.017	X_WP:	0.000	Y_WP:	0.000	Y_WP:	0.750	X:	0.012	Y:	-0.906	Z:	0.403	yaw:	-0.961	yaw rate:	-3.008	Roll:	0.538	Pitch:	-26.960	Yaw:	-1.655	Thrust:	100.000
Time:	2.401	Roll Set Point:	-0.040	Pitch Set Point:	1.811	Yaw Set Point:	0.017	X_WP:	0.000	Y_WP:	0.000	Y_WP:	0.750	X:	0.012	Y:	-0.906	Z:	0.403	yaw:	-0.988	yaw rate:	2.616	Roll:	1.354	Pitch:	-26.996	Yaw:	-2.508	Thrust:	100.000
Time:	2.421	Roll Set Point:	-0.040	Pitch Set Point:	1.811	Yaw Set Point:	0.017	X_WP:	0.000	Y_WP:	0.000	Y_WP:	0.750	X:	0.012	Y:	-0.906	Z:	0.403	yaw:	-0.973	yaw rate:	-1.456	Roll:	0.779	Pitch:	-27.051	Yaw:	-2.012	Thrust:	100.000
Time:	2.441	Roll Set Point:	-0.039	Pitch Set Point:	1.811	Yaw Set Point:	0.016	X_WP:	0.000	Y_WP:	0.000	Y_WP:	0.750	X:	0.012	Y:	-0.906	Z:	0.403	yaw:	-0.938	yaw rate:	-3.480	Roll:	0.460	Pitch:	-26.981	Yaw:	-1.647	Thrust:	100.000
Time:	2.461	Roll Set Point:	-0.040	Pitch Set Point:	1.811	Yaw Set Point:	0.017	X_WP:	0.000	Y_WP:	0.000	Y_WP:	0.750	X:	0.012	Y:	-0.906	Z:	0.403	yaw:	-0.978	yaw rate:	3.925	Roll:	1.550	Pitch:	-26.990	Yaw:	-2.698	Thrust:	100.000
Time:	2.483	Roll Set Point:	-0.040	Pitch Set Point:	1.811	Yaw Set Point:	0.017	X_WP:	0.000	Y_WP:	0.000	Y_WP:	0.750	X:	0.012	Y:	-0.906	Z:	0.403	yaw:	-0.962	yaw rate:	-1.604	Roll:	0.761	Pitch:	-27.054	Yaw:	-2.000	Thrust:	100.000
Time:	2.501	Roll Set Point:	-0.040	Pitch Set Point:	1.811	Yaw Set Point:	0.017	X_WP:	0.000	Y_WP:	0.000	Y_WP:	0.750	X:	0.012	Y:	-0.906	Z:	0.403	yaw:	-0.950	yaw rate:	-1.136	Roll:	0.802	Pitch:	-26.985	Yaw:	-1.950	Thrust:	100.000
Time:	2.521	Roll Set Point:	-0.040	Pitch Set Point:	1.811	Yaw Set Point:	0.017	X_WP:	0.000	Y_WP:	0.000	Y_WP:	0.750	X:	0.012	Y:	-0.906	Z:	0.403	yaw:	-0.976	yaw rate:	2.620	Roll:	1.338	Pitch:	-26.972	Yaw:	-2.543	Thrust:	100.000
Time:	2.541	Roll Set Point:	-0.040	Pitch Set Point:	1.811	Yaw Set Point:	0.017	X_WP:	0.000	Y_WP:	0.000	Y_WP:	0.750	X:	0.012	Y:	-0.906	Z:	0.403	yaw:	-0.946	yaw rate:	-3.070	Roll:	0.530	Pitch:	-27.033	Yaw:	-1.744	Thrust:	100.000
Time:	2.561	Roll Set Point:	-0.040	Pitch Set Point:	1.811	Yaw Set Point:	0.017	X_WP:	0.000	Y_WP:	0.000	Y_WP:	0.750	X:	0.012	Y:	-0.906	Z:	0.403	yaw:	-0.983	yaw rate:	3.782	Roll:	1.476	Pitch:	-26.986	Yaw:	-2.713	Thrust:	100.000
Time:	2.581	Roll Set Point:	-0.040	Pitch Set Point:	1.811	Yaw Set Point:	0.016	X_WP:	0.000	Y_WP:	0.000	Y_WP:	0.750	X:	0.012	Y:	-0.906	Z:	0.403	yaw:	-0.942	yaw rate:	-4.104	Roll:	0.411	Pitch:	-27.009	Yaw:	-1.685	Thrust:	100.000
Time:	2.601	Roll Set Point:	-0.040	Pitch Set Point:	1.811	Yaw Set Point:	0.017	X_WP:	0.000	Y_WP:	0.000	Y_WP:	0.750	X:	0.012	Y:	-0.906	Z:	0.403	yaw:	-0.983	yaw rate:	4.033	Roll:	1.548	Pitch:	-26.998	Yaw:	-2.748	Thrust:	100.000
Time:	2.622	Roll Set Point:	-0.040	Pitch Set Point:	1.811	Yaw Set Point:	0.017	X_WP:	0.000	Y_WP:	0.000	Y_WP:	0.750	X:	0.012	Y:	-0.906	Z:	0.403	yaw:	-0.955	yaw rate:	-2.754	Roll:	0.604	Pitch:	-27.048	Yaw:	-1.911	Thrust:	100.000
Time:	2.641	Roll Set Point:	-0.040	Pitch Set Point:	1.811	Yaw Set Point:	0.017	X_WP:	0.000	Y_WP:	0.000	Y_WP:	0.750	X:	0.012	Y:	-0.906	Z:	0.403	yaw:	-0.988	yaw rate:	3.244	Roll:	1.451	Pitch:	-26.952	Yaw:	-2.670	Thrust:	100.000
Time:	2.661	Roll Set Point:	-0.040	Pitch Set Point:	1.811	Yaw Set Point:	0.016	X_WP:	0.000	Y_WP:	0.000	Y_WP:	0.750	X:	0.012	Y:	-0.906	Z:	0.403	yaw:	-0.942	yaw rate:	-4.542	Roll:	0.343	Pitch:	-26.994	Yaw:	-1.569	Thrust:	100.000
Time:	2.682	Roll Set Point:	-0.040	Pitch Set Point:	1.811	Yaw Set Point:	0.017	X_WP:	0.000	Y_WP:	0.000	Y_WP:	0.750	X:	0.012	Y:	-0.906	Z:	0.403	yaw:	-0.955	yaw rate:	1.282	Roll:	1.149	Pitch:	-27.083	Yaw:	-2.453	Thrust:	100.000
Time:	2.701	Roll Set Point:	-0.040	Pitch Set Point:	1.811	Yaw Set Point:	0.017	X_WP:	0.000	Y_WP:	0.000	Y_WP:	0.750	X:	0.012	Y:	-0.906	Z:	0.403	yaw:	-0.962	yaw rate:	0.650	Roll:	1.060	Pitch:	-26.957	Yaw:	-2.253	Thrust:	100.000
Time:	2.721	Roll Set Point:	-0.040	Pitch Set Point:	1.811	Yaw Set Point:	0.017	X_WP:	0.000	Y_WP:	0.000	Y_WP:	0.750	X:	0.012	Y:	-0.906	Z:	0.403	yaw:	-0.969	yaw rate:	0.696	Roll:	1.084	Pitch:	-27.028	Yaw:	-2.371	Thrust:	100.000
Time:	2.741	Roll Set Point:	-0.040	Pitch Set Point:	1.811	Yaw Set Point:	0.017	X_WP:	0.000	Y_WP:	0.000	Y_WP:	0.750	X:	0.012	Y:	-0.906	Z:	0.403	yaw:	-0.955	yaw rate:	-1.354	Roll:	0.790	Pitch:	-26.985	Yaw:	-2.044	Thrust:	100.000
Time:	2.761	Roll Set Point:	-0.039	Pitch Set Point:	1.811	Yaw Set Point:	0.016	X_WP:	0.000	Y_WP:	0.000	Y_WP:	0.750	X:	0.012	Y:	-0.906	Z:	0.403	yaw:	-0.938	yaw rate:	-1.727	Roll:	0.742	Pitch:	-27.001	Yaw:	-1.993	Thrust:	100.000
Time:	2.782	Roll Set Point:	-0.040	Pitch Set Point:	1.811	Yaw Set Point:	0.017	X_WP:	0.000	Y_WP:	0.000	Y_WP:	0.750	X:	0.012	Y:	-0.906	Z:	0.403	yaw:	-0.963	yaw rate:	2.534	Roll:	1.335	Pitch:	-27.057	Yaw:	-2.632	Thrust:	100.000
Time:	2.803	Roll Set Point:	-0.040	Pitch Set Point:	1.811	Yaw Set Point:	0.017	X_WP:	0.000	Y_WP:	0.000	Y_WP:	0.750	X:	0.012	Y:	-0.906	Z:	0.403	yaw:	-0.946	yaw rate:	-1.662	Roll:	0.733	Pitch:	-26.989	Yaw:	-2.021	Thrust:	100.000
Time:	2.822	Roll Set Point:	-0.040	Pitch Set Point:	1.811	Yaw Set Point:	0.017	X_WP:	0.000	Y_WP:	0.000	Y_WP:	0.750	X:	0.012	Y:	-0.906	Z:	0.403	yaw:	-0.997	yaw rate:	5.085	Roll:	1.719	Pitch:	-26.984	Yaw:	-2.997	Thrust:	100.000
Time:	2.842	Roll Set Point:	-0.040	Pitch Set Point:	1.811	Yaw Set Point:	0.017	X_WP:	0.000	Y_WP:	0.000	Y_WP:	0.750	X:	0.012	Y:	-0.906	Z:	0.403	yaw:	-0.957	yaw rate:	-4.072	Roll:	0.436	Pitch:	-27.021	Yaw:	-1.789	Thrust:	100.000
Time:	2.863	Roll Set Point:	-0.040	Pitch Set Point:	1.811	Yaw Set Point:	0.017	X_WP:	0.000	Y_WP:	0.000	Y_WP:	0.750	X:	0.012	Y:	-0.906	Z:	0.403	yaw:	-0.967	yaw rate:	1.039	Roll:	1.134	Pitch:	-27.038	Yaw:	-2.442	Thrust:	100.000
Time:	2.883	Roll Set Point:	-0.040	Pitch Set Point:	1.811	Yaw Set Point:	0.017	X_WP:	0.000	Y_WP:	0.000	Y_WP:	0.750	X:	0.012	Y:	-0.906	Z:	0.403	yaw:	-0.972	yaw rate:	0.550	Roll:	1.067	Pitch:	-26.996	Yaw:	-2.393	Thrust:	100.000
Time:	2.902	Roll Set Point:	-0.040	Pitch Set Point:	1.811	Yaw Set Point:	0.017	X_WP:	0.000	Y_WP:	0.000	Y_WP:	0.750	X:	0.012	Y:	-0.906	Z:	0.403	yaw:	-0.957	yaw rate:	-1.513	Roll:	0.764	Pitch:	-26.944	Yaw:	-2.056	Thrust:	100.000
Time:	2.922	Roll Set Point:	-0.040	Pitch Set Point:	1.811	Yaw Set Point:	0.017	X_WP:	0.000	Y_WP:	0.000	Y_WP:	0.750	X:	0.012	Y:	-0.906	Z:	0.403	yaw:	-0.954	yaw rate:	-0.287	Roll:	0.974	Pitch:	-27.047	Yaw:	-2.252	Thrust:	100.000
Time:	2.943	Roll Set Point:	-0.039	Pitch Set Point:	1.811	Yaw Set Point:	0.016	X_WP:	0.000	Y_WP:	0.000	Y_WP:	0.750	X:	0.012	Y:	-0.906	Z:	0.403	yaw:	-0.938	yaw rate:	-1.676	Roll:	0.772	Pitch:	-27.022	Yaw:	-2.130	Thrust:	100.000
Time:	2.962	Roll Set Point:	-0.040	Pitch Set Point:	1.811	Yaw Set Point:	0.017	X_WP:	0.000	Y_WP:	0.000	Y_WP:	0.750	X:	0.012	Y:	-0.906	Z:	0.403	yaw:	-0.950	yaw rate:	1.200	Roll:	1.150	Pitch:	-26.994	Yaw:	-2.430	Thrust:	100.000
Time:	2.983	Roll Set Point:	-0.040	Pitch Set Point:	1.811	Yaw Set Point:	0.017	X_WP:	0.000	Y_WP:	0.000	Y_WP:	0.750	X:	0.012	Y:	-0.906	Z:	0.403	yaw:	-0.955	yaw rate:	0.489	Roll:	1.074	Pitch:	-27.042	Yaw:	-2.442	Thrust:	100.000
Time:	3.002	Roll Set Point:	-0.040	Pitch Set Point:	1.811	Yaw Set Point:	0.017	X_WP:	0.000	Y_WP:	0.000	Y_WP:	0.750	X:	0.012	Y:	-0.906	Z:	0.403	yaw:	-0.971	yaw rate:	1.601	Roll:	1.221	Pitch:	-26.949	Yaw:	-2.524	Thrust:	100.000
Time:	3.022	Roll Set Point:	-0.040	Pitch Set Point:	1.811	Yaw Set Point:	0.017	X_WP:	0.000	Y_WP:	0.000	Y_WP:	0.750	X:	0.012	Y:	-0.906	Z:	0.403	yaw:	-0.978	yaw rate:	0.746	Roll:	1.104	Pitch:	-26.998	Yaw:	-2.456	Thrust:	100.000
Time:	3.042	Roll Set Point:	-0.040	Pitch Set Point:	1.811	Yaw Set Point:	0.017	X_WP:	0.000	Y_WP:	0.000	Y_WP:	0.750	X:	0.012	Y:	-0.906	Z:	0.403	yaw:	-0.958	yaw rate:	-1.986	Roll:	0.741	Pitch:	-27.004	Yaw:	-2.048	Thrust:	100.000
Time:	3.062	Roll Set Point:	-0.040	Pitch Set Point:	1.811	Yaw Set Point:	0.017	X_WP:	0.000	Y_WP:	0.000	Y_WP:	0.750	X:	0.012	Y:	-0.906	Z:	0.403	yaw:	-0.964	yaw rate:	0.564	Roll:	1.091	Pitch:	-27.045	Yaw:	-2.469	Thrust:	100.000
Time:	3.083	Roll Set Point:	-0.040	Pitch Set Point:	1.811	Yaw Set Point:	0.017	X_WP:	0.000	Y_WP:	0.000	Y_WP:	0.750	X:	0.012	Y:	-0.906	Z:	0.403	yaw:	-0.982	yaw rate:	1.772	Roll:	1.256	Pitch:	-26.999	Yaw:	-2.632	Thrust:	100.000
Time:	3.103	Roll Set Point:	-0.040	Pitch Set Point:	1.811	Yaw Set Point:	0.017	X_WP:	0.000	Y_WP:	0.000	Y_WP:	0.750	X:	0.012	Y:	-0.906	Z:	0.403	yaw:	-0.968	yaw rate:	-1.339	Roll:	0.831	Pitch:	-26.987	Yaw:	-2.231	Thrust:	100.000
Time:	3.123	Roll Set Point:	-0.040	Pitch Set Point:	1.811	Yaw Set Point:	0.017	X_WP:	0.000	Y_WP:	0.000	Y_WP:	0.750	X:	0.012	Y:	-0.906	Z:	0.403	yaw:	-0.990	yaw rate:	2.188	Roll:	1.317	Pitch:	-27.022	Yaw:	-2.708	Thrust:	100.000
Time:	3.143	Roll Set Point:	-0.040	Pitch Set Point:	1.811	Yaw Set Point:	0.017	X_WP:	0.000	Y_WP:	0.000	Y_WP:	0.750	X:	0.012	Y:	-0.906	Z:	0.403	yaw:	-0.946	yaw rate:	-4.367	Roll:	0.363	Pitch:	-26.988	Yaw:	-1.717	Thrust:	100.000
Time:	3.163	Roll Set Point:	-0.040	Pitch Set Point:	1.811	Yaw Set Point:	0.017	X_WP:	0.000	Y_WP:	0.000	Y_WP:	0.750	X:	0.012	Y:	-0.906	Z:	0.403	yaw:	-0.969	yaw rate:	2.230	Roll:	1.326	Pitch:	-27.050	Yaw:	-2.723	Thrust:	100.000
Time:	3.184	Roll Set Point:	-0.040	Pitch Set Point:	1.811	Yaw Set Point:	0.017	X_WP:	0.000	Y_WP:	0.000	Y_WP:	0.750	X:	0.012	Y:	-0.906	Z:	0.403	yaw:	-0.955	yaw rate:	-1.387	Roll:	0.819	Pitch:	-26.994	Yaw:	-2.289	Thrust:	100.000
Time:	3.202	Roll Set Point:	-0.040	Pitch Set Point:	1.811	Yaw Set Point:	0.017	X_WP:	0.000	Y_WP:	0.000	Y_WP:	0.750	X:	0.012	Y:	-0.906	Z:	0.403	yaw:	-0.965	yaw rate:	1.036	Roll:	1.167	Pitch:	-26.959	Yaw:	-2.483	Thrust:	100.000
Time:	3.223	Roll Set Point:	-0.040	Pitch Set Point:	1.811	Yaw Set Point:	0.017	X_WP:	0.000	Y_WP:	0.000	Y_WP:	0.750	X:	0.012	Y:	-0.906	Z:	0.403	yaw:	-0.970	yaw rate:	0.489	Roll:	1.093	Pitch:	-27.038	Yaw:	-2.502	Thrust:	100.000
Time:	3.243	Roll Set Point:	-0.040	Pitch Set Point:	1.811	Yaw Set Point:	0.017	X_WP:	0.000	Y_WP:	0.000	Y_WP:	0.750	X:	0.012	Y:	-0.906	Z:	0.403	yaw:	-0.952	yaw rate:	-1.808	Roll:	0.765	Pitch:	-26.970	Yaw:	-2.151	Thrust:	100.000
Time:	3.263	Roll Set Point:	-0.039	Pitch Set Point:	1.811	Yaw Set Point:	0.016	X_WP:	0.000	Y_WP:	0.000	Y_WP:	0.750	X:	0.012	Y:	-0.906	Z:	0.403	yaw:	-0.935	yaw rate:	-1.658	Roll:	0.779	Pitch:	-27.034	Yaw:	-2.176	Thrust:	100.000
Time:	3.283	Roll Set Point:	-0.040	Pitch Set Point:	1.811	Yaw Set Point:	0.017	X_WP:	0.000	Y_WP:	0.000	Y_WP:	0.750	X:	0.012	Y:	-0.906	Z:	0.403	yaw:	-0.973	yaw rate:	3.739	Roll:	1.544	Pitch:	-27.004	Yaw:	-2.946	Thrust:	100.000
Time:	3.302	Roll Set Point:	-0.039	Pitch Set Point:	1.811	Yaw Set Point:	0.016	X_WP:	0.000	Y_WP:	0.000	Y_WP:	0.750	X:	0.012	Y:	-0.906	Z:	0.403	yaw:	-0.938	yaw rate:	-3.488	Roll:	0.492	Pitch:	-27.010	Yaw:	-1.893	Thrust:	100.000
Time:	3.322	Roll Set Point:	-0.040	Pitch Set Point:	1.811	Yaw Set Point:	0.017	X_WP:	0.000	Y_WP:	0.000	Y_WP:	0.750	X:	0.012	Y:	-0.906	Z:	0.403	yaw:	-0.959	yaw rate:	2.133	Roll:	1.308	Pitch:	-27.016	Yaw:	-2.743	Thrust:	100.000
Time:	3.345	Roll Set Point:	-0.039	Pitch Set Point:	1.811	Yaw Set Point:	0.016	X_WP:	0.000	Y_WP:	0.000	Y_WP:	0.750	X:	0.012	Y:	-0.906	Z:	0.403	yaw:	-0.933	yaw rate:	-2.614	Roll:	0.643	Pitch:	-27.014	Yaw:	-2.257	Thrust:	100.000
Time:	3.364	Roll Set Point:	-0.040	Pitch Set Point:	1.811	Yaw Set Point:	0.017	X_WP:	0.000	Y_WP:	0.000	Y_WP:	0.750	X:	0.012	Y:	-0.906	Z:	0.403	yaw:	-0.969	yaw rate:	3.544	Roll:	1.502	Pitch:	-27.042	Yaw:	-2.890	Thrust:	100.000
Time:	3.382	Roll Set Point:	-0.040	Pitch Set Point:	1.811	Yaw Set Point:	0.017	X_WP:	0.000	Y_WP:	0.000	Y_WP:	0.750	X:	0.012	Y:	-0.906	Z:	0.403	yaw:	-0.953	yaw rate:	-1.530	Roll:	0.777	Pitch:	-26.917	Yaw:	-2.098	Thrust:	100.000
Time:	3.402	Roll Set Point:	-0.039	Pitch Set Point:	1.811	Yaw Set Point:	0.016	X_WP:	0.000	Y_WP:	0.000	Y_WP:	0.750	X:	0.012	Y:	-0.906	Z:	0.403	yaw:	-0.938	yaw rate:	-1.568	Roll:	0.778	Pitch:	-26.988	Yaw:	-2.288	Thrust:	100.000
Time:	3.422	Roll Set Point:	-0.040	Pitch Set Point:	1.811	Yaw Set Point:	0.017	X_WP:	0.000	Y_WP:	0.000	Y_WP:	0.750	X:	0.012	Y:	-0.906	Z:	0.403	yaw:	-0.973	yaw rate:	3.557	Roll:	1.531	Pitch:	-27.042	Yaw:	-2.967	Thrust:	100.000
Time:	3.444	Roll Set Point:	-0.040	Pitch Set Point:	1.811	Yaw Set Point:	0.017	X_WP:	0.000	Y_WP:	0.000	Y_WP:	0.750	X:	0.012	Y:	-0.906	Z:	0.403	yaw:	-0.952	yaw rate:	-2.133	Roll:	0.749	Pitch:	-27.023	Yaw:	-2.307	Thrust:	100.000
Time:	3.462	Roll Set Point:	-0.039	Pitch Set Point:	1.811	Yaw Set Point:	0.016	X_WP:	0.000	Y_WP:	0.000	Y_WP:	0.750	X:	0.012	Y:	-0.906	Z:	0.403	yaw:	-0.941	yaw rate:	-1.089	Roll:	0.831	Pitch:	-26.959	Yaw:	-2.166	Thrust:	100.000
Time:	3.482	Roll Set Point:	-0.040	Pitch Set Point:	1.811	Yaw Set Point:	0.016	X_WP:	0.000	Y_WP:	0.000	Y_WP:	0.750	X:	0.012	Y:	-0.906	Z:	0.403	yaw:	-0.943	yaw rate:	0.167	Roll:	1.067	Pitch:	-27.046	Yaw:	-2.531	Thrust:	100.000
Time:	3.503	Roll Set Point:	-0.040	Pitch Set Point:	1.811	Yaw Set Point:	0.017	X_WP:	0.000	Y_WP:	0.000	Y_WP:	0.750	X:	0.012	Y:	-0.906	Z:	0.403	yaw:	-0.995	yaw rate:	5.234	Roll:	1.786	Pitch:	-26.992	Yaw:	-3.234	Thrust:	100.000
Time:	3.522	Roll Set Point:	-0.040	Pitch Set Point:	1.811	Yaw Set Point:	0.017	X_WP:	0.000	Y_WP:	0.000	Y_WP:	0.750	X:	0.012	Y:	-0.906	Z:	0.403	yaw:	-0.960	yaw rate:	-3.465	Roll:	0.592	Pitch:	-27.008	Yaw:	-2.069	Thrust:	100.000
Time:	3.542	Roll Set Point:	-0.040	Pitch Set Point:	1.811	Yaw Set Point:	0.017	X_WP:	0.000	Y_WP:	0.000	Y_WP:	0.750	X:	0.012	Y:	-0.906	Z:	0.403	yaw:	-0.966	yaw rate:	0.559	Roll:	1.105	Pitch:	-27.016	Yaw:	-2.623	Thrust:	100.000
Time:	3.563	Roll Set Point:	-0.040	Pitch Set Point:	1.811	Yaw Set Point:	0.017	X_WP:	0.000	Y_WP:	0.000	Y_WP:	0.750	X:	0.012	Y:	-0.906	Z:	0.403	yaw:	-0.965	yaw rate:	-0.109	Roll:	1.059	Pitch:	-27.008	Yaw:	-2.527	Thrust:	100.000
Time:	3.583	Roll Set Point:	-0.040	Pitch Set Point:	1.811	Yaw Set Point:	0.017	X_WP:	0.000	Y_WP:	0.000	Y_WP:	0.750	X:	0.012	Y:	-0.906	Z:	0.403	yaw:	-0.971	yaw rate:	0.591	Roll:	1.113	Pitch:	-27.035	Yaw:	-2.633	Thrust:	100.000
Time:	3.602	Roll Set Point:	-0.040	Pitch Set Point:	1.811	Yaw Set Point:	0.017	X_WP:	0.000	Y_WP:	0.000	Y_WP:	0.750	X:	0.012	Y:	-0.906	Z:	0.403	yaw:	-0.973	yaw rate:	0.217	Roll:	1.086	Pitch:	-26.946	Yaw:	-2.557	Thrust:	100.000
Time:	3.622	Roll Set Point:	-0.040	Pitch Set Point:	1.811	Yaw Set Point:	0.017	X_WP:	0.000	Y_WP:	0.000	Y_WP:	0.750	X:	0.012	Y:	-0.906	Z:	0.403	yaw:	-0.949	yaw rate:	-2.342	Roll:	0.698	Pitch:	-27.014	Yaw:	-2.206	Thrust:	100.000
Time:	3.643	Roll Set Point:	-0.040	Pitch Set Point:	1.811	Yaw Set Point:	0.017	X_WP:	0.000	Y_WP:	0.000	Y_WP:	0.750	X:	0.012	Y:	-0.906	Z:	0.403	yaw:	-0.984	yaw rate:	3.419	Roll:	1.532	Pitch:	-27.022	Yaw:	-3.040	Thrust:	100.000
Time:	3.662	Roll Set Point:	-0.040	Pitch Set Point:	1.811	Yaw Set Point:	0.017	X_WP:	0.000	Y_WP:	0.000	Y_WP:	0.750	X:	0.012	Y:	-0.906	Z:	0.403	yaw:	-0.948	yaw rate:	-3.512	Roll:	0.544	Pitch:	-26.955	Yaw:	-2.036	Thrust:	100.000
Time:	3.683	Roll Set Point:	-0.040	Pitch Set Point:	1.811	Yaw Set Point:	0.017	X_WP:	0.000	Y_WP:	0.000	Y_WP:	0.750	X:	0.012	Y:	-0.906	Z:	0.403	yaw:	-0.978	yaw rate:	2.949	Roll:	1.453	Pitch:	-27.055	Yaw:	-3.024	Thrust:	100.000
Time:	3.702	Roll Set Point:	-0.040	Pitch Set Point:	1.811	Yaw Set Point:	0.017	X_WP:	0.000	Y_WP:	0.000	Y_WP:	0.750	X:	0.012	Y:	-0.906	Z:	0.403	yaw:	-0.951	yaw rate:	-2.671	Roll:	0.647	Pitch:	-27.007	Yaw:	-2.126	Thrust:	100.000
Time:	3.722	Roll Set Point:	-0.040	Pitch Set Point:	1.811	Yaw Set Point:	0.017	X_WP:	0.000	Y_WP:	0.000	Y_WP:	0.750	X:	0.012	Y:	-0.906	Z:	0.403	yaw:	-0.977	yaw rate:	2.543	Roll:	1.400	Pitch:	-26.984	Yaw:	-2.945	Thrust:	100.000
Time:	3.743	Roll Set Point:	-0.040	Pitch Set Point:	1.811	Yaw Set Point:	0.017	X_WP:	0.000	Y_WP:	0.000	Y_WP:	0.750	X:	0.012	Y:	-0.906	Z:	0.403	yaw:	-0.967	yaw rate:	-0.998	Roll:	0.948	Pitch:	-27.029	Yaw:	-2.529	Thrust:	100.000
Time:	3.762	Roll Set Point:	-0.039	Pitch Set Point:	1.811	Yaw Set Point:	0.016	X_WP:	0.000	Y_WP:	0.000	Y_WP:	0.750	X:	0.012	Y:	-0.906	Z:	0.403	yaw:	-0.941	yaw rate:	-2.544	Roll:	0.653	Pitch:	-26.968	Yaw:	-2.155	Thrust:	100.000
Time:	3.783	Roll Set Point:	-0.040	Pitch Set Point:	1.811	Yaw Set Point:	0.017	X_WP:	0.000	Y_WP:	0.000	Y_WP:	0.750	X:	0.012	Y:	-0.906	Z:	0.403	yaw:	-0.967	yaw rate:	2.563	Roll:	1.422	Pitch:	-27.037	Yaw:	-2.975	Thrust:	100.000
Time:	3.802	Roll Set Point:	-0.040	Pitch Set Point:	1.811	Yaw Set Point:	0.017	X_WP:	0.000	Y_WP:	0.000	Y_WP:	0.750	X:	0.012	Y:	-0.906	Z:	0.403	yaw:	-0.980	yaw rate:	1.331	Roll:	1.244	Pitch:	-26.997	Yaw:	-2.764	Thrust:	100.000
Time:	3.823	Roll Set Point:	-0.040	Pitch Set Point:	1.811	Yaw Set Point:	0.017	X_WP:	0.000	Y_WP:	0.000	Y_WP:	0.750	X:	0.012	Y:	-0.906	Z:	0.403	yaw:	-0.949	yaw rate:	-3.124	Roll:	0.675	Pitch:	-27.035	Yaw:	-2.288	Thrust:	100.000
Time:	3.844	Roll Set Point:	-0.040	Pitch Set Point:	1.811	Yaw Set Point:	0.017	X_WP:	0.000	Y_WP:	0.000	Y_WP:	0.750	X:	0.012	Y:	-0.906	Z:	0.403	yaw:	-0.951	yaw rate:	0.170	Roll:	1.032	Pitch:	-26.960	Yaw:	-2.605	Thrust:	100.000
Time:	3.862	Roll Set Point:	-0.040	Pitch Set Point:	1.811	Yaw Set Point:	0.017	X_WP:	0.000	Y_WP:	0.000	Y_WP:	0.750	X:	0.012	Y:	-0.906	Z:	0.403	yaw:	-0.965	yaw rate:	1.479	Roll:	1.289	Pitch:	-27.020	Yaw:	-2.804	Thrust:	100.000
Time:	3.883	Roll Set Point:	-0.040	Pitch Set Point:	1.811	Yaw Set Point:	0.017	X_WP:	0.000	Y_WP:	0.000	Y_WP:	0.750	X:	0.012	Y:	-0.906	Z:	0.403	yaw:	-0.972	yaw rate:	0.653	Roll:	1.137	Pitch:	-27.010	Yaw:	-2.755	Thrust:	100.000
Time:	3.902	Roll Set Point:	-0.040	Pitch Set Point:	1.811	Yaw Set Point:	0.016	X_WP:	0.000	Y_WP:	0.000	Y_WP:	0.750	X:	0.012	Y:	-0.906	Z:	0.403	yaw:	-0.944	yaw rate:	-2.782	Roll:	0.691	Pitch:	-26.997	Yaw:	-2.169	Thrust:	100.000
Time:	3.922	Roll Set Point:	-0.040	Pitch Set Point:	1.811	Yaw Set Point:	0.017	X_WP:	0.000	Y_WP:	0.000	Y_WP:	0.750	X:	0.012	Y:	-0.906	Z:	0.403	yaw:	-0.979	yaw rate:	3.483	Roll:	1.547	Pitch:	-26.992	Yaw:	-3.135	Thrust:	100.000
Time:	3.943	Roll Set Point:	-0.040	Pitch Set Point:	1.811	Yaw Set Point:	0.017	X_WP:	0.000	Y_WP:	0.000	Y_WP:	0.750	X:	0.012	Y:	-0.906	Z:	0.403	yaw:	-0.959	yaw rate:	-2.048	Roll:	0.798	Pitch:	-27.033	Yaw:	-2.473	Thrust:	100.000
Time:	3.963	Roll Set Point:	-0.039	Pitch Set Point:	1.811	Yaw Set Point:	0.016	X_WP:	0.000	Y_WP:	0.000	Y_WP:	0.750	X:	0.012	Y:	-0.906	Z:	0.403	yaw:	-0.934	yaw rate:	-2.490	Roll:	0.746	Pitch:	-27.035	Yaw:	-2.314	Thrust:	100.000
Time:	3.983	Roll Set Point:	-0.040	Pitch Set Point:	1.811	Yaw Set Point:	0.017	X_WP:	0.000	Y_WP:	0.000	Y_WP:	0.750	X:	0.012	Y:	-0.906	Z:	0.403	yaw:	-0.959	yaw rate:	2.506	Roll:	1.418	Pitch:	-26.996	Yaw:	-2.989	Thrust:	100.000
Time:	4.002	Roll Set Point:	-0.040	Pitch Set Point:	1.811	Yaw Set Point:	0.017	X_WP:	0.000	Y_WP:	0.000	Y_WP:	0.750	X:	0.012	Y:	-0.906	Z:	0.403	yaw:	-0.981	yaw rate:	2.240	Roll:	1.385	Pitch:	-26.949	Yaw:	-2.945	Thrust:	100.000
Time:	4.023	Roll Set Point:	-0.040	Pitch Set Point:	1.811	Yaw Set Point:	0.017	X_WP:	0.000	Y_WP:	0.000	Y_WP:	0.750	X:	0.012	Y:	-0.906	Z:	0.403	yaw:	-0.955	yaw rate:	-2.585	Roll:	0.734	Pitch:	-27.050	Yaw:	-2.372	Thrust:	100.000
Time:	4.045	Roll Set Point:	-0.040	Pitch Set Point:	1.811	Yaw Set Point:	0.017	X_WP:	0.000	Y_WP:	0.000	Y_WP:	0.750	X:	0.012	Y:	-0.906	Z:	0.403	yaw:	-0.972	yaw rate:	1.653	Roll:	1.309	Pitch:	-27.015	Yaw:	-2.964	Thrust:	100.000
Time:	4.063	Roll Set Point:	-0.039	Pitch Set Point:	1.811	Yaw Set Point:	0.016	X_WP:	0.000	Y_WP:	0.000	Y_WP:	0.750	X:	0.012	Y:	-0.906	Z:	0.403	yaw:	-0.937	yaw rate:	-3.445	Roll:	0.608	Pitch:	-26.998	Yaw:	-2.116	Thrust:	100.000
Time:	4.083	Roll Set Point:	-0.039	Pitch Set Point:	1.811	Yaw Set Point:	0.016	X_WP:	0.000	Y_WP:	0.000	Y_WP:	0.750	X:	0.012	Y:	-0.906	Z:	0.403	yaw:	-0.929	yaw rate:	-0.852	Roll:	0.929	Pitch:	-26.982	Yaw:	-2.560	Thrust:	100.000
Time:	4.102	Roll Set Point:	-0.040	Pitch Set Point:	1.811	Yaw Set Point:	0.017	X_WP:	0.000	Y_WP:	0.000	Y_WP:	0.750	X:	0.012	Y:	-0.906	Z:	0.403	yaw:	-0.984	yaw rate:	5.499	Roll:	1.873	Pitch:	-27.003	Yaw:	-3.452	Thrust:	100.000
Time:	4.122	Roll Set Point:	-0.040	Pitch Set Point:	1.811	Yaw Set Point:	0.017	X_WP:	0.000	Y_WP:	0.000	Y_WP:	0.750	X:	0.012	Y:	-0.906	Z:	0.403	yaw:	-0.949	yaw rate:	-3.495	Roll:	0.603	Pitch:	-27.022	Yaw:	-2.241	Thrust:	100.000
Time:	4.144	Roll Set Point:	-0.040	Pitch Set Point:	1.811	Yaw Set Point:	0.017	X_WP:	0.000	Y_WP:	0.000	Y_WP:	0.750	X:	0.012	Y:	-0.906	Z:	0.403	yaw:	-0.983	yaw rate:	3.381	Roll:	1.543	Pitch:	-26.992	Yaw:	-3.228	Thrust:	100.000
Time:	4.162	Roll Set Point:	-0.040	Pitch Set Point:	1.811	Yaw Set Point:	0.017	X_WP:	0.000	Y_WP:	0.000	Y_WP:	0.750	X:	0.012	Y:	-0.906	Z:	0.403	yaw:	-0.966	yaw rate:	-1.699	Roll:	0.873	Pitch:	-27.008	Yaw:	-2.394	Thrust:	100.000
Time:	4.182	Roll Set Point:	-0.040	Pitch Set Point:	1.811	Yaw Set Point:	0.017	X_WP:	0.000	Y_WP:	0.000	Y_WP:	0.750	X:	0.012	Y:	-0.906	Z:	0.403	yaw:	-0.956	yaw rate:	-0.932	Roll:	0.961	Pitch:	-27.013	Yaw:	-2.662	Thrust:	100.000
Time:	4.202	Roll Set Point:	-0.040	Pitch Set Point:	1.811	Yaw Set Point:	0.017	X_WP:	0.000	Y_WP:	0.000	Y_WP:	0.750	X:	0.012	Y:	-0.906	Z:	0.403	yaw:	-0.952	yaw rate:	-0.474	Roll:	0.994	Pitch:	-26.972	Yaw:	-2.612	Thrust:	100.000
Time:	4.222	Roll Set Point:	-0.040	Pitch Set Point:	1.811	Yaw Set Point:	0.017	X_WP:	0.000	Y_WP:	0.000	Y_WP:	0.750	X:	0.012	Y:	-0.906	Z:	0.403	yaw:	-0.983	yaw rate:	3.133	Roll:	1.547	Pitch:	-27.036	Yaw:	-3.197	Thrust:	100.000
Time:	4.245	Roll Set Point:	-0.039	Pitch Set Point:	1.811	Yaw Set Point:	0.016	X_WP:	0.000	Y_WP:	0.000	Y_WP:	0.750	X:	0.012	Y:	-0.906	Z:	0.403	yaw:	-0.935	yaw rate:	-4.789	Roll:	0.420	Pitch:	-27.041	Yaw:	-2.247	Thrust:	100.000
Time:	4.263	Roll Set Point:	-0.040	Pitch Set Point:	1.811	Yaw Set Point:	0.016	X_WP:	0.000	Y_WP:	0.000	Y_WP:	0.750	X:	0.012	Y:	-0.906	Z:	0.403	yaw:	-0.942	yaw rate:	0.728	Roll:	1.182	Pitch:	-26.973	Yaw:	-2.753	Thrust:	100.000
Time:	4.282	Roll Set Point:	-0.040	Pitch Set Point:	1.811	Yaw Set Point:	0.017	X_WP:	0.000	Y_WP:	0.000	Y_WP:	0.750	X:	0.012	Y:	-0.906	Z:	0.403	yaw:	-0.949	yaw rate:	0.655	Roll:	1.173	Pitch:	-27.023	Yaw:	-2.750	Thrust:	100.000
Time:	4.302	Roll Set Point:	-0.040	Pitch Set Point:	1.811	Yaw Set Point:	0.017	X_WP:	0.000	Y_WP:	0.000	Y_WP:	0.750	X:	0.012	Y:	-0.906	Z:	0.403	yaw:	-0.958	yaw rate:	0.886	Roll:	1.204	Pitch:	-26.988	Yaw:	-2.873	Thrust:	100.000
Time:	4.323	Roll Set Point:	-0.040	Pitch Set Point:	1.811	Yaw Set Point:	0.017	X_WP:	0.000	Y_WP:	0.000	Y_WP:	0.750	X:	0.012	Y:	-0.906	Z:	0.403	yaw:	-0.969	yaw rate:	1.112	Roll:	1.266	Pitch:	-26.995	Yaw:	-2.959	Thrust:	100.000
Time:	4.343	Roll Set Point:	-0.040	Pitch Set Point:	1.811	Yaw Set Point:	0.017	X_WP:	0.000	Y_WP:	0.000	Y_WP:	0.750	X:	0.012	Y:	-0.906	Z:	0.403	yaw:	-0.958	yaw rate:	-1.125	Roll:	0.909	Pitch:	-27.008	Yaw:	-2.713	Thrust:	100.000
Time:	4.362	Roll Set Point:	-0.040	Pitch Set Point:	1.811	Yaw Set Point:	0.017	X_WP:	0.000	Y_WP:	0.000	Y_WP:	0.750	X:	0.012	Y:	-0.906	Z:	0.403	yaw:	-0.983	yaw rate:	2.565	Roll:	1.460	Pitch:	-26.987	Yaw:	-3.106	Thrust:	100.000
Time:	4.383	Roll Set Point:	-0.040	Pitch Set Point:	1.811	Yaw Set Point:	0.017	X_WP:	0.000	Y_WP:	0.000	Y_WP:	0.750	X:	0.012	Y:	-0.906	Z:	0.403	yaw:	-0.952	yaw rate:	-3.078	Roll:	0.716	Pitch:	-27.052	Yaw:	-2.468	Thrust:	100.000
Time:	4.402	Roll Set Point:	-0.039	Pitch Set Point:	1.811	Yaw Set Point:	0.016	X_WP:	0.000	Y_WP:	0.000	Y_WP:	0.750	X:	0.012	Y:	-0.906	Z:	0.403	yaw:	-0.934	yaw rate:	-1.812	Roll:	0.776	Pitch:	-26.927	Yaw:	-2.436	Thrust:	100.000
Time:	4.422	Roll Set Point:	-0.040	Pitch Set Point:	1.811	Yaw Set Point:	0.017	X_WP:	0.000	Y_WP:	0.000	Y_WP:	0.750	X:	0.012	Y:	-0.906	Z:	0.403	yaw:	-0.962	yaw rate:	2.811	Roll:	1.497	Pitch:	-27.043	Yaw:	-3.188	Thrust:	100.000
Time:	4.443	Roll Set Point:	-0.040	Pitch Set Point:	1.811	Yaw Set Point:	0.017	X_WP:	0.000	Y_WP:	0.000	Y_WP:	0.750	X:	0.012	Y:	-0.906	Z:	0.403	yaw:	-0.968	yaw rate:	0.538	Roll:	1.206	Pitch:	-27.041	Yaw:	-2.917	Thrust:	100.000
Time:	4.462	Roll Set Point:	-0.040	Pitch Set Point:	1.811	Yaw Set Point:	0.016	X_WP:	0.000	Y_WP:	0.000	Y_WP:	0.750	X:	0.012	Y:	-0.906	Z:	0.403	yaw:	-0.945	yaw rate:	-2.258	Roll:	0.714	Pitch:	-26.969	Yaw:	-2.464	Thrust:	100.000
Time:	4.482	Roll Set Point:	-0.039	Pitch Set Point:	1.811	Yaw Set Point:	0.016	X_WP:	0.000	Y_WP:	0.000	Y_WP:	0.750	X:	0.012	Y:	-0.906	Z:	0.403	yaw:	-0.934	yaw rate:	-1.108	Roll:	0.972	Pitch:	-27.026	Yaw:	-2.728	Thrust:	100.000
Time:	4.502	Roll Set Point:	-0.040	Pitch Set Point:	1.811	Yaw Set Point:	0.017	X_WP:	0.000	Y_WP:	0.000	Y_WP:	0.750	X:	0.012	Y:	-0.906	Z:	0.403	yaw:	-0.961	yaw rate:	2.730	Roll:	1.488	Pitch:	-27.003	Yaw:	-3.155	Thrust:	100.000
Time:	4.522	Roll Set Point:	-0.040	Pitch Set Point:	1.811	Yaw Set Point:	0.017	X_WP:	0.000	Y_WP:	0.000	Y_WP:	0.750	X:	0.012	Y:	-0.906	Z:	0.403	yaw:	-0.961	yaw rate:	-0.049	Roll:	1.096	Pitch:	-26.982	Yaw:	-2.841	Thrust:	100.000
Time:	4.544	Roll Set Point:	-0.039	Pitch Set Point:	1.811	Yaw Set Point:	0.016	X_WP:	0.000	Y_WP:	0.000	Y_WP:	0.750	X:	0.012	Y:	-0.906	Z:	0.403	yaw:	-0.927	yaw rate:	-3.373	Roll:	0.644	Pitch:	-27.031	Yaw:	-2.490	Thrust:	100.000
Time:	4.562	Roll Set Point:	-0.040	Pitch Set Point:	1.811	Yaw Set Point:	0.017	X_WP:	0.000	Y_WP:	0.000	Y_WP:	0.750	X:	0.012	Y:	-0.906	Z:	0.403	yaw:	-0.964	yaw rate:	3.662	Roll:	1.611	Pitch:	-26.972	Yaw:	-3.286	Thrust:	100.000
Time:	4.583	Roll Set Point:	-0.040	Pitch Set Point:	1.811	Yaw Set Point:	0.017	X_WP:	0.000	Y_WP:	0.000	Y_WP:	0.750	X:	0.012	Y:	-0.906	Z:	0.403	yaw:	-0.947	yaw rate:	-1.671	Roll:	0.891	Pitch:	-27.049	Yaw:	-2.668	Thrust:	100.000
Time:	4.602	Roll Set Point:	-0.040	Pitch Set Point:	1.811	Yaw Set Point:	0.017	X_WP:	0.000	Y_WP:	0.000	Y_WP:	0.750	X:	0.012	Y:	-0.906	Z:	0.403	yaw:	-0.974	yaw rate:	2.672	Roll:	1.488	Pitch:	-26.954	Yaw:	-3.226	Thrust:	100.000
Time:	4.625	Roll Set Point:	-0.040	Pitch Set Point:	1.811	Yaw Set Point:	0.017	X_WP:	0.000	Y_WP:	0.000	Y_WP:	0.750	X:	0.012	Y:	-0.906	Z:	0.403	yaw:	-0.962	yaw rate:	-1.144	Roll:	1.033	Pitch:	-27.138	Yaw:	-2.905	Thrust:	100.000
Time:	4.645	Roll Set Point:	-0.040	Pitch Set Point:	1.811	Yaw Set Point:	0.017	X_WP:	0.000	Y_WP:	0.000	Y_WP:	0.750	X:	0.012	Y:	-0.906	Z:	0.403	yaw:	-0.960	yaw rate:	-0.221	Roll:	1.032	Pitch:	-26.915	Yaw:	-2.910	Thrust:	100.000
Time:	4.661	Roll Set Point:	-0.040	Pitch Set Point:	1.811	Yaw Set Point:	0.017	X_WP:	0.000	Y_WP:	0.000	Y_WP:	0.750	X:	0.012	Y:	-0.906	Z:	0.403	yaw:	-0.962	yaw rate:	0.185	Roll:	1.143	Pitch:	-26.980	Yaw:	-2.660	Thrust:	100.000
Time:	4.684	Roll Set Point:	-0.040	Pitch Set Point:	1.811	Yaw Set Point:	0.017	X_WP:	0.000	Y_WP:	0.000	Y_WP:	0.750	X:	0.012	Y:	-0.906	Z:	0.403	yaw:	-0.956	yaw rate:	-0.579	Roll:	1.059	Pitch:	-27.071	Yaw:	-2.990	Thrust:	100.000
Time:	4.703	Roll Set Point:	-0.040	Pitch Set Point:	1.811	Yaw Set Point:	0.017	X_WP:	0.000	Y_WP:	0.000	Y_WP:	0.750	X:	0.012	Y:	-0.906	Z:	0.403	yaw:	-0.959	yaw rate:	0.314	Roll:	1.136	Pitch:	-26.960	Yaw:	-2.920	Thrust:	100.000
Time:	4.722	Roll Set Point:	-0.040	Pitch Set Point:	1.811	Yaw Set Point:	0.017	X_WP:	0.000	Y_WP:	0.000	Y_WP:	0.750	X:	0.012	Y:	-0.906	Z:	0.403	yaw:	-0.946	yaw rate:	-1.295	Roll:	0.936	Pitch:	-26.976	Yaw:	-2.618	Thrust:	100.000
Time:	4.741	Roll Set Point:	-0.040	Pitch Set Point:	1.811	Yaw Set Point:	0.017	X_WP:	0.000	Y_WP:	0.000	Y_WP:	0.750	X:	0.012	Y:	-0.906	Z:	0.403	yaw:	-0.981	yaw rate:	3.469	Roll:	1.626	Pitch:	-27.015	Yaw:	-3.371	Thrust:	100.000
Time:	4.767	Roll Set Point:	-0.040	Pitch Set Point:	1.811	Yaw Set Point:	0.017	X_WP:	0.000	Y_WP:	0.000	Y_WP:	0.750	X:	0.012	Y:	-0.906	Z:	0.403	yaw:	-0.972	yaw rate:	-0.876	Roll:	1.011	Pitch:	-27.018	Yaw:	-3.233	Thrust:	100.000
Time:	4.786	Roll Set Point:	-0.040	Pitch Set Point:	1.811	Yaw Set Point:	0.017	X_WP:	0.000	Y_WP:	0.000	Y_WP:	0.750	X:	0.012	Y:	-0.906	Z:	0.403	yaw:	-0.954	yaw rate:	-1.859	Roll:	0.908	Pitch:	-27.087	Yaw:	-2.596	Thrust:	100.000
Time:	4.804	Roll Set Point:	-0.040	Pitch Set Point:	1.811	Yaw Set Point:	0.017	X_WP:	0.000	Y_WP:	0.000	Y_WP:	0.750	X:	0.012	Y:	-0.906	Z:	0.403	yaw:	-0.978	yaw rate:	2.406	Roll:	1.482	Pitch:	-26.975	Yaw:	-3.194	Thrust:	100.000
Time:	4.826	Roll Set Point:	-0.040	Pitch Set Point:	1.811	Yaw Set Point:	0.017	X_WP:	0.000	Y_WP:	0.000	Y_WP:	0.750	X:	0.012	Y:	-0.906	Z:	0.403	yaw:	-0.963	yaw rate:	-1.527	Roll:	0.926	Pitch:	-27.053	Yaw:	-2.939	Thrust:	100.000
Time:	4.844	Roll Set Point:	-0.040	Pitch Set Point:	1.811	Yaw Set Point:	0.017	X_WP:	0.000	Y_WP:	0.000	Y_WP:	0.750	X:	0.012	Y:	-0.906	Z:	0.403	yaw:	-0.951	yaw rate:	-1.165	Roll:	0.927	Pitch:	-26.953	Yaw:	-2.526	Thrust:	100.000
Time:	4.865	Roll Set Point:	-0.040	Pitch Set Point:	1.811	Yaw Set Point:	0.017	X_WP:	0.000	Y_WP:	0.000	Y_WP:	0.750	X:	0.012	Y:	-0.906	Z:	0.403	yaw:	-0.960	yaw rate:	0.868	Roll:	1.257	Pitch:	-27.025	Yaw:	-3.158	Thrust:	100.000
Time:	4.882	Roll Set Point:	-0.039	Pitch Set Point:	1.811	Yaw Set Point:	0.016	X_WP:	0.000	Y_WP:	0.000	Y_WP:	0.750	X:	0.012	Y:	-0.906	Z:	0.403	yaw:	-0.937	yaw rate:	-2.230	Roll:	0.779	Pitch:	-26.949	Yaw:	-2.467	Thrust:	100.000
Time:	4.901	Roll Set Point:	-0.040	Pitch Set Point:	1.811	Yaw Set Point:	0.017	X_WP:	0.000	Y_WP:	0.000	Y_WP:	0.750	X:	0.012	Y:	-0.906	Z:	0.403	yaw:	-0.961	yaw rate:	2.371	Roll:	1.450	Pitch:	-26.952	Yaw:	-3.207	Thrust:	100.000
Time:	4.922	Roll Set Point:	-0.039	Pitch Set Point:	1.811	Yaw Set Point:	0.016	X_WP:	0.000	Y_WP:	0.000	Y_WP:	0.750	X:	0.012	Y:	-0.906	Z:	0.403	yaw:	-0.937	yaw rate:	-2.410	Roll:	0.803	Pitch:	-27.029	Yaw:	-2.699	Thrust:	100.000
Time:	4.943	Roll Set Point:	-0.040	Pitch Set Point:	1.811	Yaw Set Point:	0.017	X_WP:	0.000	Y_WP:	0.000	Y_WP:	0.750	X:	0.012	Y:	-0.906	Z:	0.403	yaw:	-0.971	yaw rate:	3.441	Roll:	1.625	Pitch:	-27.009	Yaw:	-3.465	Thrust:	100.000
Time:	4.961	Roll Set Point:	-0.040	Pitch Set Point:	1.811	Yaw Set Point:	0.017	X_WP:	0.000	Y_WP:	0.000	Y_WP:	0.750	X:	0.012	Y:	-0.906	Z:	0.403	yaw:	-0.961	yaw rate:	-1.014	Roll:	0.997	Pitch:	-27.015	Yaw:	-2.794	Thrust:	100.000
Time:	4.982	Roll Set Point:	-0.040	Pitch Set Point:	1.811	Yaw Set Point:	0.017	X_WP:	0.000	Y_WP:	0.000	Y_WP:	0.750	X:	0.012	Y:	-0.906	Z:	0.403	yaw:	-0.980	yaw rate:	1.832	Roll:	1.402	Pitch:	-27.011	Yaw:	-3.331	Thrust:	100.000
Time:	5.001	Roll Set Point:	-0.039	Pitch Set Point:	1.811	Yaw Set Point:	0.016	X_WP:	0.000	Y_WP:	0.000	Y_WP:	0.750	X:	0.012	Y:	-0.906	Z:	0.403	yaw:	-0.940	yaw rate:	-3.961	Roll:	0.555	Pitch:	-26.985	Yaw:	-2.335	Thrust:	100.000
Time:	5.022	Roll Set Point:	-0.039	Pitch Set Point:	1.811	Yaw Set Point:	0.016	X_WP:	0.000	Y_WP:	0.000	Y_WP:	0.750	X:	0.012	Y:	-0.906	Z:	0.403	yaw:	-0.939	yaw rate:	-0.066	Roll:	1.130	Pitch:	-27.041	Yaw:	-3.019	Thrust:	100.000
Time:	5.047	Roll Set Point:	-0.040	Pitch Set Point:	1.811	Yaw Set Point:	0.016	X_WP:	0.000	Y_WP:	0.000	Y_WP:	0.750	X:	0.012	Y:	-0.906	Z:	0.403	yaw:	-0.942	yaw rate:	0.248	Roll:	1.171	Pitch:	-27.018	Yaw:	-3.397	Thrust:	100.000
Time:	5.062	Roll Set Point:	-0.040	Pitch Set Point:	1.811	Yaw Set Point:	0.016	X_WP:	0.000	Y_WP:	0.000	Y_WP:	0.750	X:	0.012	Y:	-0.906	Z:	0.403	yaw:	-0.941	yaw rate:	-0.040	Roll:	1.111	Pitch:	-26.971	Yaw:	-2.684	Thrust:	100.000
Time:	5.085	Roll Set Point:	-0.040	Pitch Set Point:	1.811	Yaw Set Point:	0.017	X_WP:	0.000	Y_WP:	0.000	Y_WP:	0.750	X:	0.012	Y:	-0.906	Z:	0.403	yaw:	-0.947	yaw rate:	0.580	Roll:	1.241	Pitch:	-27.077	Yaw:	-3.239	Thrust:	100.000
Time:	5.102	Roll Set Point:	-0.040	Pitch Set Point:	1.811	Yaw Set Point:	0.017	X_WP:	0.000	Y_WP:	0.000	Y_WP:	0.750	X:	0.012	Y:	-0.906	Z:	0.403	yaw:	-1.000	yaw rate:	5.238	Roll:	1.887	Pitch:	-26.960	Yaw:	-3.691	Thrust:	100.000
Time:	5.122	Roll Set Point:	-0.040	Pitch Set Point:	1.811	Yaw Set Point:	0.017	X_WP:	0.000	Y_WP:	0.000	Y_WP:	0.750	X:	0.012	Y:	-0.906	Z:	0.403	yaw:	-0.962	yaw rate:	-3.776	Roll:	0.625	Pitch:	-26.980	Yaw:	-2.561	Thrust:	100.000
Time:	5.147	Roll Set Point:	-0.039	Pitch Set Point:	1.811	Yaw Set Point:	0.016	X_WP:	0.000	Y_WP:	0.000	Y_WP:	0.750	X:	0.012	Y:	-0.906	Z:	0.403	yaw:	-0.936	yaw rate:	-2.558	Roll:	0.802	Pitch:	-27.123	Yaw:	-3.103	Thrust:	100.000
Time:	5.162	Roll Set Point:	-0.040	Pitch Set Point:	1.811	Yaw Set Point:	0.017	X_WP:	0.000	Y_WP:	0.000	Y_WP:	0.750	X:	0.012	Y:	-0.906	Z:	0.403	yaw:	-0.961	yaw rate:	2.531	Roll:	1.491	Pitch:	-26.872	Yaw:	-3.121	Thrust:	100.000
Time:	5.183	Roll Set Point:	-0.040	Pitch Set Point:	1.811	Yaw Set Point:	0.017	X_WP:	0.000	Y_WP:	0.000	Y_WP:	0.750	X:	0.012	Y:	-0.906	Z:	0.403	yaw:	-0.957	yaw rate:	-0.460	Roll:	1.103	Pitch:	-27.046	Yaw:	-3.044	Thrust:	100.000
Time:	5.203	Roll Set Point:	-0.039	Pitch Set Point:	1.811	Yaw Set Point:	0.016	X_WP:	0.000	Y_WP:	0.000	Y_WP:	0.750	X:	0.012	Y:	-0.906	Z:	0.403	yaw:	-0.935	yaw rate:	-2.140	Roll:	0.824	Pitch:	-26.992	Yaw:	-2.671	Thrust:	100.000
Time:	5.223	Roll Set Point:	-0.040	Pitch Set Point:	1.811	Yaw Set Point:	0.017	X_WP:	0.000	Y_WP:	0.000	Y_WP:	0.750	X:	0.012	Y:	-0.906	Z:	0.403	yaw:	-0.992	yaw rate:	5.635	Roll:	1.917	Pitch:	-26.991	Yaw:	-3.889	Thrust:	100.000
Time:	5.245	Roll Set Point:	-0.040	Pitch Set Point:	1.811	Yaw Set Point:	0.017	X_WP:	0.000	Y_WP:	0.000	Y_WP:	0.750	X:	0.012	Y:	-0.906	Z:	0.403	yaw:	-0.966	yaw rate:	-2.606	Roll:	0.817	Pitch:	-27.038	Yaw:	-2.973	Thrust:	100.000
Time:	5.265	Roll Set Point:	-0.040	Pitch Set Point:	1.811	Yaw Set Point:	0.017	X_WP:	0.000	Y_WP:	0.000	Y_WP:	0.750	X:	0.012	Y:	-0.906	Z:	0.403	yaw:	-0.970	yaw rate:	0.417	Roll:	1.223	Pitch:	-27.063	Yaw:	-3.124	Thrust:	100.000
Time:	5.285	Roll Set Point:	-0.040	Pitch Set Point:	1.811	Yaw Set Point:	0.017	X_WP:	0.000	Y_WP:	0.000	Y_WP:	0.750	X:	0.012	Y:	-0.906	Z:	0.403	yaw:	-0.955	yaw rate:	-1.487	Roll:	0.973	Pitch:	-27.001	Yaw:	-2.953	Thrust:	100.000
Time:	5.302	Roll Set Point:	-0.039	Pitch Set Point:	1.811	Yaw Set Point:	0.016	X_WP:	0.000	Y_WP:	0.000	Y_WP:	0.750	X:	0.012	Y:	-0.906	Z:	0.403	yaw:	-0.937	yaw rate:	-1.835	Roll:	0.804	Pitch:	-26.925	Yaw:	-2.592	Thrust:	100.000
Time:	5.323	Roll Set Point:	-0.040	Pitch Set Point:	1.811	Yaw Set Point:	0.017	X_WP:	0.000	Y_WP:	0.000	Y_WP:	0.750	X:	0.012	Y:	-0.906	Z:	0.403	yaw:	-0.999	yaw rate:	6.246	Roll:	2.021	Pitch:	-27.011	Yaw:	-4.008	Thrust:	100.000
