Time:	0.032	Roll Set Point:	-0.593	Pitch Set Point:	-0.334	Yaw Set Point:	0.606	X_WP:	0.000	Y_WP:	0.000	Y_WP:	0.500	X:	0.349	Y:	0.074	Z:	0.057	yaw:	-34.735	yaw rate:	0.765	Roll:	9.778	Pitch:	10.386	Yaw:	-48.500	Thrust:	24.382
Time:	0.042	Roll Set Point:	-0.593	Pitch Set Point:	-0.334	Yaw Set Point:	0.606	X_WP:	0.000	Y_WP:	0.000	Y_WP:	0.500	X:	0.349	Y:	0.074	Z:	0.057	yaw:	-34.739	yaw rate:	0.366	Roll:	9.783	Pitch:	10.525	Yaw:	-48.722	Thrust:	25.041
Time:	0.053	Roll Set Point:	-0.593	Pitch Set Point:	-0.334	Yaw Set Point:	0.606	X_WP:	0.000	Y_WP:	0.000	Y_WP:	0.500	X:	0.349	Y:	0.074	Z:	0.057	yaw:	-34.732	yaw rate:	-0.728	Roll:	10.048	Pitch:	10.452	Yaw:	-48.589	Thrust:	25.482
Time:	0.070	Roll Set Point:	-0.593	Pitch Set Point:	-0.334	Yaw Set Point:	0.606	X_WP:	0.000	Y_WP:	0.000	Y_WP:	0.500	X:	0.349	Y:	0.074	Z:	0.057	yaw:	-34.730	yaw rate:	-0.130	Roll:	10.120	Pitch:	10.718	Yaw:	-49.074	Thrust:	26.992
Time:	0.082	Roll Set Point:	-0.593	Pitch Set Point:	-0.334	Yaw Set Point:	0.608	X_WP:	0.000	Y_WP:	0.000	Y_WP:	0.500	X:	0.349	Y:	0.074	Z:	0.057	yaw:	-34.841	yaw rate:	1.511	Roll:	9.382	Pitch:	11.760	Yaw:	-51.717	Thrust:	26.439
Time:	0.092	Roll Set Point:	-0.593	Pitch Set Point:	-0.334	Yaw Set Point:	0.608	X_WP:	0.000	Y_WP:	0.000	Y_WP:	0.500	X:	0.349	Y:	0.074	Z:	0.057	yaw:	-34.837	yaw rate:	-0.448	Roll:	10.186	Pitch:	10.779	Yaw:	-49.246	Thrust:	27.444
Time:	0.103	Roll Set Point:	-0.594	Pitch Set Point:	-0.333	Yaw Set Point:	0.603	X_WP:	0.000	Y_WP:	0.000	Y_WP:	0.500	X:	0.349	Y:	0.074	Z:	0.057	yaw:	-34.559	yaw rate:	-27.761	Roll:	13.802	Pitch:	7.481	Yaw:	-42.433	Thrust:	28.480
Time:	0.115	Roll Set Point:	-0.593	Pitch Set Point:	-0.334	Yaw Set Point:	0.607	X_WP:	0.000	Y_WP:	0.000	Y_WP:	0.500	X:	0.349	Y:	0.074	Z:	0.057	yaw:	-34.768	yaw rate:	20.939	Roll:	7.949	Pitch:	13.551	Yaw:	-54.097	Thrust:	28.522
Time:	0.128	Roll Set Point:	-0.593	Pitch Set Point:	-0.334	Yaw Set Point:	0.609	X_WP:	0.000	Y_WP:	0.000	Y_WP:	0.500	X:	0.349	Y:	0.074	Z:	0.057	yaw:	-34.911	yaw rate:	14.223	Roll:	8.933	Pitch:	12.459	Yaw:	-52.930	Thrust:	29.723
Time:	0.145	Roll Set Point:	-0.595	Pitch Set Point:	-0.333	Yaw Set Point:	0.603	X_WP:	0.000	Y_WP:	0.000	Y_WP:	0.500	X:	0.349	Y:	0.074	Z:	0.057	yaw:	-34.526	yaw rate:	-38.513	Roll:	14.292	Pitch:	8.990	Yaw:	-44.045	Thrust:	32.914
Time:	0.156	Roll Set Point:	-0.593	Pitch Set Point:	-0.334	Yaw Set Point:	0.608	X_WP:	0.000	Y_WP:	0.000	Y_WP:	0.500	X:	0.349	Y:	0.074	Z:	0.057	yaw:	-34.833	yaw rate:	-17.376	Roll:	6.217	Pitch:	14.420	Yaw:	-57.228	Thrust:	29.573
Time:	0.167	Roll Set Point:	-0.593	Pitch Set Point:	-0.334	Yaw Set Point:	0.607	X_WP:	0.000	Y_WP:	0.000	Y_WP:	0.500	X:	0.349	Y:	0.074	Z:	0.057	yaw:	-34.771	yaw rate:	-6.162	Roll:	11.521	Pitch:	10.611	Yaw:	-48.713	Thrust:	31.151
Time:	0.178	Roll Set Point:	-0.594	Pitch Set Point:	-0.333	Yaw Set Point:	0.604	X_WP:	0.000	Y_WP:	0.000	Y_WP:	0.500	X:	0.349	Y:	0.074	Z:	0.057	yaw:	-34.589	yaw rate:	-18.203	Roll:	13.474	Pitch:	9.050	Yaw:	-45.010	Thrust:	30.664
Time:	0.191	Roll Set Point:	-0.594	Pitch Set Point:	-0.333	Yaw Set Point:	0.605	X_WP:	0.000	Y_WP:	0.000	Y_WP:	0.500	X:	0.349	Y:	0.074	Z:	0.057	yaw:	-34.678	yaw rate:	8.863	Roll:	10.192	Pitch:	12.650	Yaw:	-52.254	Thrust:	33.432
Time:	0.209	Roll Set Point:	-0.594	Pitch Set Point:	-0.333	Yaw Set Point:	0.604	X_WP:	0.000	Y_WP:	0.000	Y_WP:	0.500	X:	0.349	Y:	0.074	Z:	0.057	yaw:	-34.600	yaw rate:	-7.736	Roll:	12.213	Pitch:	11.678	Yaw:	-50.150	Thrust:	37.243
Time:	0.220	Roll Set Point:	-0.593	Pitch Set Point:	-0.334	Yaw Set Point:	0.607	X_WP:	0.000	Y_WP:	0.000	Y_WP:	0.500	X:	0.349	Y:	0.074	Z:	0.057	yaw:	-34.794	yaw rate:	-10.092	Roll:	8.254	Pitch:	13.834	Yaw:	-54.978	Thrust:	34.452
Time:	0.232	Roll Set Point:	-0.593	Pitch Set Point:	-0.334	Yaw Set Point:	0.608	X_WP:	0.000	Y_WP:	0.000	Y_WP:	0.500	X:	0.349	Y:	0.074	Z:	0.057	yaw:	-34.814	yaw rate:	2.041	Roll:	10.965	Pitch:	12.051	Yaw:	-51.363	Thrust:	33.821
Time:	0.243	Roll Set Point:	-0.594	Pitch Set Point:	-0.333	Yaw Set Point:	0.605	X_WP:	0.000	Y_WP:	0.000	Y_WP:	0.500	X:	0.349	Y:	0.074	Z:	0.057	yaw:	-34.643	yaw rate:	-17.151	Roll:	13.733	Pitch:	9.945	Yaw:	-46.223	Thrust:	34.146
Time:	0.254	Roll Set Point:	-0.594	Pitch Set Point:	-0.333	Yaw Set Point:	0.604	X_WP:	0.000	Y_WP:	0.000	Y_WP:	0.500	X:	0.349	Y:	0.074	Z:	0.057	yaw:	-34.595	yaw rate:	-4.759	Roll:	11.699	Pitch:	11.135	Yaw:	-49.381	Thrust:	34.027
Time:	0.274	Roll Set Point:	-0.593	Pitch Set Point:	-0.334	Yaw Set Point:	0.607	X_WP:	0.000	Y_WP:	0.000	Y_WP:	0.500	X:	0.349	Y:	0.074	Z:	0.057	yaw:	-34.807	yaw rate:	21.199	Roll:	10.490	Pitch:	14.625	Yaw:	-55.379	Thrust:	44.736
Time:	0.284	Roll Set Point:	-0.594	Pitch Set Point:	-0.333	Yaw Set Point:	0.604	X_WP:	0.000	Y_WP:	0.000	Y_WP:	0.500	X:	0.349	Y:	0.074	Z:	0.057	yaw:	-34.611	yaw rate:	-19.566	Roll:	14.100	Pitch:	10.111	Yaw:	-45.223	Thrust:	35.812
Time:	0.294	Roll Set Point:	-0.593	Pitch Set Point:	-0.334	Yaw Set Point:	0.608	X_WP:	0.000	Y_WP:	0.000	Y_WP:	0.500	X:	0.349	Y:	0.074	Z:	0.057	yaw:	-34.815	yaw rate:	20.336	Roll:	8.165	Pitch:	14.394	Yaw:	-55.727	Thrust:	36.569
Time:	0.305	Roll Set Point:	-0.594	Pitch Set Point:	-0.333	Yaw Set Point:	0.604	X_WP:	0.000	Y_WP:	0.000	Y_WP:	0.500	X:	0.349	Y:	0.074	Z:	0.057	yaw:	-34.626	yaw rate:	-18.839	Roll:	14.221	Pitch:	9.714	Yaw:	-45.535	Thrust:	35.961
Time:	0.316	Roll Set Point:	-0.594	Pitch Set Point:	-0.333	Yaw Set Point:	0.605	X_WP:	0.000	Y_WP:	0.000	Y_WP:	0.500	X:	0.349	Y:	0.074	Z:	0.057	yaw:	-34.686	yaw rate:	-6.957	Roll:	10.164	Pitch:	12.800	Yaw:	-52.064	Thrust:	38.517
Time:	0.328	Roll Set Point:	-0.594	Pitch Set Point:	-0.333	Yaw Set Point:	0.604	X_WP:	0.000	Y_WP:	0.000	Y_WP:	0.500	X:	0.349	Y:	0.074	Z:	0.057	yaw:	-34.597	yaw rate:	-8.924	Roll:	13.154	Pitch:	11.043	Yaw:	-48.788	Thrust:	39.351
Time:	0.345	Roll Set Point:	-0.594	Pitch Set Point:	-0.333	Yaw Set Point:	0.604	X_WP:	0.000	Y_WP:	0.000	Y_WP:	0.500	X:	0.349	Y:	0.074	Z:	0.057	yaw:	-34.607	yaw rate:	1.045	Roll:	12.427	Pitch:	12.878	Yaw:	-51.977	Thrust:	47.475
Time:	0.357	Roll Set Point:	-0.595	Pitch Set Point:	-0.332	Yaw Set Point:	0.602	X_WP:	0.000	Y_WP:	0.000	Y_WP:	0.500	X:	0.349	Y:	0.074	Z:	0.057	yaw:	-34.471	yaw rate:	-13.665	Roll:	13.018	Pitch:	10.362	Yaw:	-47.207	Thrust:	39.988
Time:	0.368	Roll Set Point:	-0.594	Pitch Set Point:	-0.333	Yaw Set Point:	0.605	X_WP:	0.000	Y_WP:	0.000	Y_WP:	0.500	X:	0.349	Y:	0.074	Z:	0.057	yaw:	-34.650	yaw rate:	17.926	Roll:	8.876	Pitch:	13.925	Yaw:	-54.840	Thrust:	40.097
Time:	0.378	Roll Set Point:	-0.595	Pitch Set Point:	-0.332	Yaw Set Point:	0.602	X_WP:	0.000	Y_WP:	0.000	Y_WP:	0.500	X:	0.349	Y:	0.074	Z:	0.057	yaw:	-34.490	yaw rate:	-16.051	Roll:	13.880	Pitch:	10.048	Yaw:	-46.297	Thrust:	39.808
Time:	0.393	Roll Set Point:	-0.594	Pitch Set Point:	-0.333	Yaw Set Point:	0.605	X_WP:	0.000	Y_WP:	0.000	Y_WP:	0.500	X:	0.349	Y:	0.074	Z:	0.057	yaw:	-34.654	yaw rate:	16.448	Roll:	9.901	Pitch:	13.732	Yaw:	-54.256	Thrust:	46.127
Time:	0.408	Roll Set Point:	-0.594	Pitch Set Point:	-0.332	Yaw Set Point:	0.604	X_WP:	0.000	Y_WP:	0.000	Y_WP:	0.500	X:	0.349	Y:	0.074	Z:	0.057	yaw:	-34.578	yaw rate:	-7.597	Roll:	12.906	Pitch:	11.983	Yaw:	-50.108	Thrust:	49.903
Time:	0.420	Roll Set Point:	-0.596	Pitch Set Point:	-0.331	Yaw Set Point:	0.598	X_WP:	0.000	Y_WP:	0.000	Y_WP:	0.500	X:	0.349	Y:	0.073	Z:	0.057	yaw:	-34.265	yaw rate:	-31.328	Roll:	15.683	Pitch:	8.492	Yaw:	-43.434	Thrust:	43.799
Time:	0.431	Roll Set Point:	-0.598	Pitch Set Point:	-0.326	Yaw Set Point:	0.586	X_WP:	0.000	Y_WP:	0.000	Y_WP:	0.500	X:	0.348	Y:	0.073	Z:	0.058	yaw:	-33.595	yaw rate:	-53.002	Roll:	19.876	Pitch:	1.422	Yaw:	-32.557	Thrust:	40.926
Time:	0.442	Roll Set Point:	-0.599	Pitch Set Point:	-0.324	Yaw Set Point:	0.581	X_WP:	0.000	Y_WP:	0.000	Y_WP:	0.500	X:	0.348	Y:	0.073	Z:	0.058	yaw:	-33.273	yaw rate:	-32.196	Roll:	15.611	Pitch:	6.894	Yaw:	-40.918	Thrust:	43.203
Time:	0.456	Roll Set Point:	-0.600	Pitch Set Point:	-0.323	Yaw Set Point:	0.578	X_WP:	0.000	Y_WP:	0.000	Y_WP:	0.500	X:	0.348	Y:	0.072	Z:	0.058	yaw:	-33.101	yaw rate:	-17.246	Roll:	13.624	Pitch:	9.880	Yaw:	-45.811	Thrust:	49.406
Time:	0.474	Roll Set Point:	-0.600	Pitch Set Point:	-0.322	Yaw Set Point:	0.576	X_WP:	0.000	Y_WP:	0.000	Y_WP:	0.500	X:	0.348	Y:	0.072	Z:	0.058	yaw:	-33.004	yaw rate:	-9.689	Roll:	13.223	Pitch:	11.357	Yaw:	-48.289	Thrust:	55.649
Time:	0.485	Roll Set Point:	-0.600	Pitch Set Point:	-0.321	Yaw Set Point:	0.574	X_WP:	0.000	Y_WP:	0.000	Y_WP:	0.500	X:	0.347	Y:	0.072	Z:	0.058	yaw:	-32.870	yaw rate:	-4.146	Roll:	13.004	Pitch:	9.166	Yaw:	-44.910	Thrust:	45.243
Time:	0.496	Roll Set Point:	-0.600	Pitch Set Point:	-0.320	Yaw Set Point:	0.572	X_WP:	0.000	Y_WP:	0.000	Y_WP:	0.500	X:	0.347	Y:	0.072	Z:	0.059	yaw:	-32.758	yaw rate:	-11.195	Roll:	12.639	Pitch:	9.437	Yaw:	-45.423	Thrust:	45.270
Time:	0.508	Roll Set Point:	-0.599	Pitch Set Point:	-0.319	Yaw Set Point:	0.572	X_WP:	0.000	Y_WP:	0.000	Y_WP:	0.500	X:	0.347	Y:	0.072	Z:	0.059	yaw:	-32.784	yaw rate:	2.608	Roll:	10.746	Pitch:	11.056	Yaw:	-48.602	Thrust:	45.534
Time:	0.521	Roll Set Point:	-0.599	Pitch Set Point:	-0.319	Yaw Set Point:	0.571	X_WP:	0.000	Y_WP:	0.000	Y_WP:	0.500	X:	0.346	Y:	0.071	Z:	0.059	yaw:	-32.689	yaw rate:	-9.478	Roll:	12.512	Pitch:	10.167	Yaw:	-46.517	Thrust:	50.009
Time:	0.543	Roll Set Point:	-0.599	Pitch Set Point:	-0.318	Yaw Set Point:	0.570	X_WP:	0.000	Y_WP:	0.000	Y_WP:	0.500	X:	0.346	Y:	0.071	Z:	0.060	yaw:	-32.655	yaw rate:	-3.371	Roll:	13.179	Pitch:	12.262	Yaw:	-49.514	Thrust:	69.360
Time:	0.554	Roll Set Point:	-0.598	Pitch Set Point:	-0.315	Yaw Set Point:	0.567	X_WP:	0.000	Y_WP:	0.000	Y_WP:	0.500	X:	0.345	Y:	0.071	Z:	0.061	yaw:	-32.469	yaw rate:	-9.286	Roll:	12.593	Pitch:	6.753	Yaw:	-43.151	Thrust:	43.740
Time:	0.565	Roll Set Point:	-0.596	Pitch Set Point:	-0.315	Yaw Set Point:	0.569	X_WP:	0.000	Y_WP:	0.000	Y_WP:	0.500	X:	0.344	Y:	0.070	Z:	0.062	yaw:	-32.595	yaw rate:	12.629	Roll:	8.485	Pitch:	11.296	Yaw:	-50.719	Thrust:	46.843
Time:	0.575	Roll Set Point:	-0.596	Pitch Set Point:	-0.314	Yaw Set Point:	0.567	X_WP:	0.000	Y_WP:	0.000	Y_WP:	0.500	X:	0.343	Y:	0.070	Z:	0.062	yaw:	-32.460	yaw rate:	-13.481	Roll:	12.613	Pitch:	8.284	Yaw:	-44.165	Thrust:	45.842
Time:	0.586	Roll Set Point:	-0.594	Pitch Set Point:	-0.313	Yaw Set Point:	0.569	X_WP:	0.000	Y_WP:	0.000	Y_WP:	0.500	X:	0.343	Y:	0.070	Z:	0.063	yaw:	-32.599	yaw rate:	13.870	Roll:	8.909	Pitch:	11.571	Yaw:	-51.021	Thrust:	46.950
Time:	0.601	Roll Set Point:	-0.592	Pitch Set Point:	-0.313	Yaw Set Point:	0.572	X_WP:	0.000	Y_WP:	0.000	Y_WP:	0.500	X:	0.342	Y:	0.070	Z:	0.063	yaw:	-32.785	yaw rate:	18.577	Roll:	8.189	Pitch:	11.701	Yaw:	-52.047	Thrust:	53.531
Time:	0.615	Roll Set Point:	-0.589	Pitch Set Point:	-0.313	Yaw Set Point:	0.575	X_WP:	0.000	Y_WP:	0.000	Y_WP:	0.500	X:	0.341	Y:	0.069	Z:	0.064	yaw:	-32.937	yaw rate:	15.223	Roll:	10.104	Pitch:	11.937	Yaw:	-51.638	Thrust:	60.261
Time:	0.625	Roll Set Point:	-0.588	Pitch Set Point:	-0.311	Yaw Set Point:	0.573	X_WP:	0.000	Y_WP:	0.000	Y_WP:	0.500	X:	0.340	Y:	0.069	Z:	0.065	yaw:	-32.858	yaw rate:	-7.895	Roll:	10.941	Pitch:	7.655	Yaw:	-46.019	Thrust:	46.802
Time:	0.637	Roll Set Point:	-0.586	Pitch Set Point:	-0.310	Yaw Set Point:	0.576	X_WP:	0.000	Y_WP:	0.000	Y_WP:	0.500	X:	0.339	Y:	0.068	Z:	0.065	yaw:	-33.010	yaw rate:	15.182	Roll:	8.033	Pitch:	10.933	Yaw:	-51.850	Thrust:	50.731
Time:	0.647	Roll Set Point:	-0.584	Pitch Set Point:	-0.310	Yaw Set Point:	0.578	X_WP:	0.000	Y_WP:	0.000	Y_WP:	0.500	X:	0.338	Y:	0.068	Z:	0.066	yaw:	-33.142	yaw rate:	13.198	Roll:	8.091	Pitch:	10.035	Yaw:	-51.680	Thrust:	47.922
Time:	0.661	Roll Set Point:	-0.581	Pitch Set Point:	-0.309	Yaw Set Point:	0.580	X_WP:	0.000	Y_WP:	0.000	Y_WP:	0.500	X:	0.337	Y:	0.068	Z:	0.067	yaw:	-33.250	yaw rate:	10.828	Roll:	8.694	Pitch:	10.480	Yaw:	-51.228	Thrust:	56.877
Time:	0.674	Roll Set Point:	-0.578	Pitch Set Point:	-0.308	Yaw Set Point:	0.583	X_WP:	0.000	Y_WP:	0.000	Y_WP:	0.500	X:	0.335	Y:	0.067	Z:	0.068	yaw:	-33.428	yaw rate:	17.815	Roll:	8.118	Pitch:	10.946	Yaw:	-52.827	Thrust:	57.705
Time:	0.689	Roll Set Point:	-0.572	Pitch Set Point:	-0.307	Yaw Set Point:	0.590	X_WP:	0.000	Y_WP:	0.000	Y_WP:	0.500	X:	0.333	Y:	0.066	Z:	0.069	yaw:	-33.810	yaw rate:	38.165	Roll:	4.863	Pitch:	10.582	Yaw:	-56.986	Thrust:	60.037
Time:	0.700	Roll Set Point:	-0.566	Pitch Set Point:	-0.302	Yaw Set Point:	0.591	X_WP:	0.000	Y_WP:	0.000	Y_WP:	0.500	X:	0.329	Y:	0.065	Z:	0.070	yaw:	-33.867	yaw rate:	-1.363	Roll:	4.303	Pitch:	3.461	Yaw:	-50.841	Thrust:	49.289
Time:	0.711	Roll Set Point:	-0.562	Pitch Set Point:	-0.299	Yaw Set Point:	0.589	X_WP:	0.000	Y_WP:	0.000	Y_WP:	0.500	X:	0.326	Y:	0.064	Z:	0.070	yaw:	-33.764	yaw rate:	-10.274	Roll:	8.659	Pitch:	4.410	Yaw:	-47.165	Thrust:	55.814
Time:	0.722	Roll Set Point:	-0.558	Pitch Set Point:	-0.294	Yaw Set Point:	0.586	X_WP:	0.000	Y_WP:	0.000	Y_WP:	0.500	X:	0.324	Y:	0.063	Z:	0.071	yaw:	-33.584	yaw rate:	-17.972	Roll:	7.837	Pitch:	1.412	Yaw:	-44.531	Thrust:	52.825
Time:	0.743	Roll Set Point:	-0.554	Pitch Set Point:	-0.289	Yaw Set Point:	0.581	X_WP:	0.000	Y_WP:	0.000	Y_WP:	0.500	X:	0.320	Y:	0.062	Z:	0.071	yaw:	-33.306	yaw rate:	-27.869	Roll:	10.638	Pitch:	5.642	Yaw:	-46.910	Thrust:	79.721
Time:	0.754	Roll Set Point:	-0.541	Pitch Set Point:	-0.265	Yaw Set Point:	0.553	X_WP:	0.000	Y_WP:	0.000	Y_WP:	0.500	X:	0.308	Y:	0.056	Z:	0.071	yaw:	-31.665	yaw rate:	-73.620	Roll:	8.818	Pitch:	-30.000	Yaw:	-9.250	Thrust:	61.732
Time:	0.764	Roll Set Point:	-0.534	Pitch Set Point:	-0.257	Yaw Set Point:	0.544	X_WP:	0.000	Y_WP:	0.000	Y_WP:	0.500	X:	0.303	Y:	0.054	Z:	0.071	yaw:	-31.173	yaw rate:	-49.180	Roll:	6.569	Pitch:	-8.001	Yaw:	-33.681	Thrust:	57.656
Time:	0.775	Roll Set Point:	-0.529	Pitch Set Point:	-0.246	Yaw Set Point:	0.530	X_WP:	0.000	Y_WP:	0.000	Y_WP:	0.500	X:	0.298	Y:	0.051	Z:	0.070	yaw:	-30.348	yaw rate:	-82.540	Roll:	10.155	Pitch:	-13.472	Yaw:	-24.236	Thrust:	58.307
Time:	0.791	Roll Set Point:	-0.522	Pitch Set Point:	-0.236	Yaw Set Point:	0.518	X_WP:	0.000	Y_WP:	0.000	Y_WP:	0.500	X:	0.292	Y:	0.049	Z:	0.070	yaw:	-29.700	yaw rate:	-64.813	Roll:	6.985	Pitch:	-7.802	Yaw:	-33.206	Thrust:	71.393
Time:	0.808	Roll Set Point:	-0.514	Pitch Set Point:	-0.226	Yaw Set Point:	0.509	X_WP:	0.000	Y_WP:	0.000	Y_WP:	0.500	X:	0.286	Y:	0.046	Z:	0.069	yaw:	-29.139	yaw rate:	-56.088	Roll:	9.020	Pitch:	-2.197	Yaw:	-35.019	Thrust:	79.856
Time:	0.819	Roll Set Point:	-0.497	Pitch Set Point:	-0.204	Yaw Set Point:	0.484	X_WP:	0.000	Y_WP:	0.000	Y_WP:	0.500	X:	0.274	Y:	0.041	Z:	0.068	yaw:	-27.731	yaw rate:	-71.902	Roll:	1.247	Pitch:	-30.000	Yaw:	-10.571	Thrust:	68.427
Time:	0.830	Roll Set Point:	-0.488	Pitch Set Point:	-0.193	Yaw Set Point:	0.473	X_WP:	0.000	Y_WP:	0.000	Y_WP:	0.500	X:	0.267	Y:	0.038	Z:	0.067	yaw:	-27.102	yaw rate:	-62.909	Roll:	2.586	Pitch:	-15.138	Yaw:	-25.172	Thrust:	64.403
Time:	0.842	Roll Set Point:	-0.479	Pitch Set Point:	-0.182	Yaw Set Point:	0.459	X_WP:	0.000	Y_WP:	0.000	Y_WP:	0.500	X:	0.261	Y:	0.035	Z:	0.066	yaw:	-26.320	yaw rate:	-78.203	Roll:	4.103	Pitch:	-14.673	Yaw:	-20.624	Thrust:	64.921
Time:	0.853	Roll Set Point:	-0.469	Pitch Set Point:	-0.170	Yaw Set Point:	0.445	X_WP:	0.000	Y_WP:	0.000	Y_WP:	0.500	X:	0.254	Y:	0.032	Z:	0.065	yaw:	-25.468	yaw rate:	-85.141	Roll:	2.827	Pitch:	-16.937	Yaw:	-19.437	Thrust:	68.657
Time:	0.873	Roll Set Point:	-0.460	Pitch Set Point:	-0.158	Yaw Set Point:	0.429	X_WP:	0.000	Y_WP:	0.000	Y_WP:	0.500	X:	0.247	Y:	0.029	Z:	0.064	yaw:	-24.587	yaw rate:	-88.111	Roll:	7.004	Pitch:	-5.758	Yaw:	-26.467	Thrust:	94.276
Time:	0.883	Roll Set Point:	-0.427	Pitch Set Point:	-0.124	Yaw Set Point:	0.388	X_WP:	0.000	Y_WP:	0.000	Y_WP:	0.500	X:	0.226	Y:	0.020	Z:	0.061	yaw:	-22.234	yaw rate:	-84.267	Roll:	-18.108	Pitch:	-30.000	Yaw:	22.653	Thrust:	73.881
Time:	0.894	Roll Set Point:	-0.414	Pitch Set Point:	-0.121	Yaw Set Point:	0.407	X_WP:	0.000	Y_WP:	0.000	Y_WP:	0.500	X:	0.219	Y:	0.018	Z:	0.061	yaw:	-23.346	yaw rate:	111.215	Roll:	-12.107	Pitch:	3.729	Yaw:	-62.352	Thrust:	64.825
Time:	0.905	Roll Set Point:	-0.398	Pitch Set Point:	-0.124	Yaw Set Point:	0.455	X_WP:	0.000	Y_WP:	0.000	Y_WP:	0.500	X:	0.214	Y:	0.016	Z:	0.062	yaw:	-26.056	yaw rate:	270.971	Roll:	-16.710	Pitch:	20.472	Yaw:	-105.662	Thrust:	56.056
Time:	0.916	Roll Set Point:	-0.384	Pitch Set Point:	-0.126	Yaw Set Point:	0.498	X_WP:	0.000	Y_WP:	0.000	Y_WP:	0.500	X:	0.208	Y:	0.014	Z:	0.064	yaw:	-28.524	yaw rate:	246.849	Roll:	-18.385	Pitch:	16.965	Yaw:	-100.623	Thrust:	52.461
Time:	0.932	Roll Set Point:	-0.369	Pitch Set Point:	-0.127	Yaw Set Point:	0.538	X_WP:	0.000	Y_WP:	0.000	Y_WP:	0.500	X:	0.202	Y:	0.013	Z:	0.066	yaw:	-30.822	yaw rate:	229.785	Roll:	-7.877	Pitch:	11.778	Yaw:	-83.728	Thrust:	82.403
Time:	0.945	Roll Set Point:	-0.341	Pitch Set Point:	-0.127	Yaw Set Point:	0.614	X_WP:	0.000	Y_WP:	0.000	Y_WP:	0.500	X:	0.190	Y:	0.009	Z:	0.070	yaw:	-35.163	yaw rate:	434.139	Roll:	-25.136	Pitch:	12.987	Yaw:	-135.744	Thrust:	61.580
Time:	0.956	Roll Set Point:	-0.328	Pitch Set Point:	-0.124	Yaw Set Point:	0.643	X_WP:	0.000	Y_WP:	0.000	Y_WP:	0.500	X:	0.185	Y:	0.008	Z:	0.072	yaw:	-36.818	yaw rate:	165.496	Roll:	-13.280	Pitch:	4.627	Yaw:	-94.649	Thrust:	54.867
Time:	0.966	Roll Set Point:	-0.316	Pitch Set Point:	-0.122	Yaw Set Point:	0.671	X_WP:	0.000	Y_WP:	0.000	Y_WP:	0.500	X:	0.179	Y:	0.006	Z:	0.074	yaw:	-38.434	yaw rate:	161.557	Roll:	-11.746	Pitch:	3.461	Yaw:	-95.945	Thrust:	55.233
Time:	0.977	Roll Set Point:	-0.304	Pitch Set Point:	-0.118	Yaw Set Point:	0.698	X_WP:	0.000	Y_WP:	0.000	Y_WP:	0.500	X:	0.173	Y:	0.004	Z:	0.077	yaw:	-40.002	yaw rate:	156.830	Roll:	-9.225	Pitch:	1.951	Yaw:	-95.187	Thrust:	58.314
Time:	0.990	Roll Set Point:	-0.293	Pitch Set Point:	-0.114	Yaw Set Point:	0.723	X_WP:	0.000	Y_WP:	0.000	Y_WP:	0.500	X:	0.168	Y:	0.001	Z:	0.079	yaw:	-41.398	yaw rate:	139.597	Roll:	-7.075	Pitch:	1.291	Yaw:	-89.434	Thrust:	66.091
Time:	1.010	Roll Set Point:	-0.282	Pitch Set Point:	-0.109	Yaw Set Point:	0.748	X_WP:	0.000	Y_WP:	0.000	Y_WP:	0.500	X:	0.162	Y:	-0.001	Z:	0.081	yaw:	-42.843	yaw rate:	144.487	Roll:	-0.690	Pitch:	3.543	Yaw:	-83.473	Thrust:	95.561
Time:	1.026	Roll Set Point:	-0.272	Pitch Set Point:	-0.103	Yaw Set Point:	0.770	X_WP:	0.000	Y_WP:	0.000	Y_WP:	0.500	X:	0.157	Y:	-0.003	Z:	0.083	yaw:	-44.105	yaw rate:	126.196	Roll:	-2.568	Pitch:	0.642	Yaw:	-85.343	Thrust:	81.067
Time:	1.038	Roll Set Point:	-0.246	Pitch Set Point:	-0.082	Yaw Set Point:	0.821	X_WP:	0.000	Y_WP:	0.000	Y_WP:	0.500	X:	0.141	Y:	-0.013	Z:	0.088	yaw:	-47.041	yaw rate:	85.829	Roll:	-13.642	Pitch:	-21.425	Yaw:	-127.764	Thrust:	61.254
Time:	1.048	Roll Set Point:	-0.239	Pitch Set Point:	-0.073	Yaw Set Point:	0.831	X_WP:	0.000	Y_WP:	0.000	Y_WP:	0.500	X:	0.136	Y:	-0.016	Z:	0.089	yaw:	-47.635	yaw rate:	59.391	Roll:	0.503	Pitch:	-10.772	Yaw:	-84.025	Thrust:	58.362
Time:	1.060	Roll Set Point:	-0.233	Pitch Set Point:	-0.063	Yaw Set Point:	0.844	X_WP:	0.000	Y_WP:	0.000	Y_WP:	0.500	X:	0.131	Y:	-0.021	Z:	0.090	yaw:	-48.366	yaw rate:	73.122	Roll:	2.013	Pitch:	-7.860	Yaw:	-85.818	Thrust:	68.827
Time:	1.075	Roll Set Point:	-0.226	Pitch Set Point:	-0.054	Yaw Set Point:	0.857	X_WP:	0.000	Y_WP:	0.000	Y_WP:	0.500	X:	0.125	Y:	-0.025	Z:	0.091	yaw:	-49.121	yaw rate:	75.558	Roll:	3.252	Pitch:	-5.838	Yaw:	-85.088	Thrust:	81.999
Time:	1.086	Roll Set Point:	-0.216	Pitch Set Point:	-0.031	Yaw Set Point:	0.867	X_WP:	0.000	Y_WP:	0.000	Y_WP:	0.500	X:	0.115	Y:	-0.034	Z:	0.093	yaw:	-49.682	yaw rate:	56.041	Roll:	5.121	Pitch:	-30.000	Yaw:	-86.013	Thrust:	59.334
Time:	1.096	Roll Set Point:	-0.211	Pitch Set Point:	-0.018	Yaw Set Point:	0.868	X_WP:	0.000	Y_WP:	0.000	Y_WP:	0.500	X:	0.110	Y:	-0.040	Z:	0.093	yaw:	-49.749	yaw rate:	6.677	Roll:	7.365	Pitch:	-15.184	Yaw:	-73.285	Thrust:	71.099
Time:	1.107	Roll Set Point:	-0.206	Pitch Set Point:	-0.004	Yaw Set Point:	0.868	X_WP:	0.000	Y_WP:	0.000	Y_WP:	0.500	X:	0.104	Y:	-0.046	Z:	0.094	yaw:	-49.710	yaw rate:	-3.850	Roll:	8.348	Pitch:	-18.729	Yaw:	-70.574	Thrust:	68.017
Time:	1.120	Roll Set Point:	-0.202	Pitch Set Point:	0.010	Yaw Set Point:	0.869	X_WP:	0.000	Y_WP:	0.000	Y_WP:	0.500	X:	0.099	Y:	-0.052	Z:	0.094	yaw:	-49.787	yaw rate:	7.696	Roll:	8.567	Pitch:	-14.672	Yaw:	-73.670	Thrust:	79.829
Time:	1.139	Roll Set Point:	-0.198	Pitch Set Point:	0.025	Yaw Set Point:	0.863	X_WP:	0.000	Y_WP:	0.000	Y_WP:	0.500	X:	0.093	Y:	-0.058	Z:	0.094	yaw:	-49.421	yaw rate:	-36.578	Roll:	9.453	Pitch:	-9.590	Yaw:	-68.024	Thrust:	100.000
Time:	1.150	Roll Set Point:	-0.194	Pitch Set Point:	0.041	Yaw Set Point:	0.854	X_WP:	0.000	Y_WP:	0.000	Y_WP:	0.500	X:	0.088	Y:	-0.065	Z:	0.094	yaw:	-48.931	yaw rate:	-49.079	Roll:	10.296	Pitch:	-23.361	Yaw:	-58.873	Thrust:	73.677
Time:	1.161	Roll Set Point:	-0.186	Pitch Set Point:	0.076	Yaw Set Point:	0.832	X_WP:	0.000	Y_WP:	0.000	Y_WP:	0.500	X:	0.076	Y:	-0.079	Z:	0.093	yaw:	-47.653	yaw rate:	-127.801	Roll:	15.297	Pitch:	-30.000	Yaw:	-38.420	Thrust:	73.976
Time:	1.172	Roll Set Point:	-0.181	Pitch Set Point:	0.095	Yaw Set Point:	0.816	X_WP:	0.000	Y_WP:	0.000	Y_WP:	0.500	X:	0.070	Y:	-0.087	Z:	0.093	yaw:	-46.760	yaw rate:	-89.244	Roll:	10.212	Pitch:	-29.170	Yaw:	-45.258	Thrust:	76.759
Time:	1.182	Roll Set Point:	-0.177	Pitch Set Point:	0.115	Yaw Set Point:	0.800	X_WP:	0.000	Y_WP:	0.000	Y_WP:	0.500	X:	0.064	Y:	-0.095	Z:	0.092	yaw:	-45.845	yaw rate:	-91.490	Roll:	9.718	Pitch:	-30.000	Yaw:	-42.125	Thrust:	72.140
Time:	1.201	Roll Set Point:	-0.172	Pitch Set Point:	0.136	Yaw Set Point:	0.775	X_WP:	0.000	Y_WP:	0.000	Y_WP:	0.500	X:	0.058	Y:	-0.103	Z:	0.091	yaw:	-44.415	yaw rate:	-143.014	Roll:	8.939	Pitch:	-22.779	Yaw:	-44.899	Thrust:	100.000
Time:	1.213	Roll Set Point:	-0.160	Pitch Set Point:	0.179	Yaw Set Point:	0.732	X_WP:	0.000	Y_WP:	0.000	Y_WP:	0.500	X:	0.046	Y:	-0.120	Z:	0.090	yaw:	-41.950	yaw rate:	-123.241	Roll:	7.862	Pitch:	-30.000	Yaw:	-11.708	Thrust:	93.901
Time:	1.224	Roll Set Point:	-0.153	Pitch Set Point:	0.201	Yaw Set Point:	0.705	X_WP:	0.000	Y_WP:	0.000	Y_WP:	0.500	X:	0.039	Y:	-0.129	Z:	0.089	yaw:	-40.365	yaw rate:	-158.449	Roll:	3.822	Pitch:	-30.000	Yaw:	-19.080	Thrust:	78.048
Time:	1.234	Roll Set Point:	-0.145	Pitch Set Point:	0.224	Yaw Set Point:	0.680	X_WP:	0.000	Y_WP:	0.000	Y_WP:	0.500	X:	0.033	Y:	-0.138	Z:	0.088	yaw:	-38.933	yaw rate:	-143.258	Roll:	2.861	Pitch:	-30.000	Yaw:	-21.258	Thrust:	79.518
Time:	1.245	Roll Set Point:	-0.137	Pitch Set Point:	0.247	Yaw Set Point:	0.652	X_WP:	0.000	Y_WP:	0.000	Y_WP:	0.500	X:	0.027	Y:	-0.147	Z:	0.087	yaw:	-37.383	yaw rate:	-154.947	Roll:	1.139	Pitch:	-30.000	Yaw:	-16.878	Thrust:	81.077
Time:	1.256	Roll Set Point:	-0.128	Pitch Set Point:	0.270	Yaw Set Point:	0.628	X_WP:	0.000	Y_WP:	0.000	Y_WP:	0.500	X:	0.020	Y:	-0.156	Z:	0.085	yaw:	-35.957	yaw rate:	-142.599	Roll:	-0.821	Pitch:	-30.000	Yaw:	-18.589	Thrust:	83.195
Time:	1.276	Roll Set Point:	-0.118	Pitch Set Point:	0.294	Yaw Set Point:	0.593	X_WP:	0.000	Y_WP:	0.000	Y_WP:	0.500	X:	0.014	Y:	-0.165	Z:	0.084	yaw:	-33.988	yaw rate:	-196.903	Roll:	1.306	Pitch:	-24.252	Yaw:	-25.274	Thrust:	100.000
Time:	1.286	Roll Set Point:	-0.084	Pitch Set Point:	0.363	Yaw Set Point:	0.493	X_WP:	0.000	Y_WP:	0.000	Y_WP:	0.500	X:	-0.004	Y:	-0.192	Z:	0.081	yaw:	-28.273	yaw rate:	-194.570	Roll:	-30.000	Pitch:	-30.000	Yaw:	105.878	Thrust:	89.924
Time:	1.297	Roll Set Point:	-0.070	Pitch Set Point:	0.386	Yaw Set Point:	0.454	X_WP:	0.000	Y_WP:	0.000	Y_WP:	0.500	X:	-0.009	Y:	-0.201	Z:	0.080	yaw:	-26.018	yaw rate:	-225.544	Roll:	-18.144	Pitch:	-30.000	Yaw:	15.435	Thrust:	84.202
Time:	1.307	Roll Set Point:	-0.057	Pitch Set Point:	0.408	Yaw Set Point:	0.420	X_WP:	0.000	Y_WP:	0.000	Y_WP:	0.500	X:	-0.015	Y:	-0.210	Z:	0.079	yaw:	-24.063	yaw rate:	-195.493	Roll:	-17.067	Pitch:	-30.000	Yaw:	12.694	Thrust:	82.414
Time:	1.320	Roll Set Point:	-0.041	Pitch Set Point:	0.429	Yaw Set Point:	0.379	X_WP:	0.000	Y_WP:	0.000	Y_WP:	0.500	X:	-0.021	Y:	-0.218	Z:	0.078	yaw:	-21.696	yaw rate:	-236.717	Roll:	-22.293	Pitch:	-30.000	Yaw:	18.771	Thrust:	90.374
Time:	1.342	Roll Set Point:	-0.026	Pitch Set Point:	0.448	Yaw Set Point:	0.344	X_WP:	0.000	Y_WP:	0.000	Y_WP:	0.500	X:	-0.026	Y:	-0.226	Z:	0.077	yaw:	-19.735	yaw rate:	-196.073	Roll:	-6.795	Pitch:	-20.956	Yaw:	-9.346	Thrust:	100.000
Time:	1.353	Roll Set Point:	0.026	Pitch Set Point:	0.499	Yaw Set Point:	0.217	X_WP:	0.000	Y_WP:	0.000	Y_WP:	0.500	X:	-0.040	Y:	-0.248	Z:	0.075	yaw:	-12.460	yaw rate:	-498.898	Roll:	-30.000	Pitch:	-30.000	Yaw:	152.978	Thrust:	91.380
Time:	1.365	Roll Set Point:	0.045	Pitch Set Point:	0.512	Yaw Set Point:	0.172	X_WP:	0.000	Y_WP:	0.000	Y_WP:	0.500	X:	-0.045	Y:	-0.254	Z:	0.075	yaw:	-9.842	yaw rate:	-261.756	Roll:	-30.000	Pitch:	-28.629	Yaw:	43.480	Thrust:	85.050
Time:	1.375	Roll Set Point:	0.062	Pitch Set Point:	0.524	Yaw Set Point:	0.136	X_WP:	0.000	Y_WP:	0.000	Y_WP:	0.500	X:	-0.049	Y:	-0.260	Z:	0.075	yaw:	-7.803	yaw rate:	-203.966	Roll:	-30.000	Pitch:	-25.336	Yaw:	36.585	Thrust:	85.322
Time:	1.387	Roll Set Point:	0.077	Pitch Set Point:	0.533	Yaw Set Point:	0.106	X_WP:	0.000	Y_WP:	0.000	Y_WP:	0.500	X:	-0.053	Y:	-0.265	Z:	0.075	yaw:	-6.101	yaw rate:	-170.113	Roll:	-30.000	Pitch:	-22.768	Yaw:	29.681	Thrust:	83.870
Time:	1.407	Roll Set Point:	0.092	Pitch Set Point:	0.542	Yaw Set Point:	0.081	X_WP:	0.000	Y_WP:	0.000	Y_WP:	0.500	X:	-0.057	Y:	-0.269	Z:	0.075	yaw:	-4.630	yaw rate:	-147.155	Roll:	-21.293	Pitch:	-16.319	Yaw:	9.308	Thrust:	100.000
Time:	1.418	Roll Set Point:	0.109	Pitch Set Point:	0.549	Yaw Set Point:	0.049	X_WP:	0.000	Y_WP:	0.000	Y_WP:	0.500	X:	-0.061	Y:	-0.273	Z:	0.076	yaw:	-2.830	yaw rate:	-179.949	Roll:	-22.891	Pitch:	-17.850	Yaw:	36.532	Thrust:	82.890
Time:	1.428	Roll Set Point:	0.126	Pitch Set Point:	0.556	Yaw Set Point:	0.021	X_WP:	0.000	Y_WP:	0.000	Y_WP:	0.500	X:	-0.066	Y:	-0.277	Z:	0.077	yaw:	-1.208	yaw rate:	-162.262	Roll:	-30.000	Pitch:	-17.750	Yaw:	34.619	Thrust:	82.194
Time:	1.438	Roll Set Point:	0.141	Pitch Set Point:	0.561	Yaw Set Point:	-0.002	X_WP:	0.000	Y_WP:	0.000	Y_WP:	0.500	X:	-0.070	Y:	-0.281	Z:	0.078	yaw:	0.130	yaw rate:	-133.816	Roll:	-30.000	Pitch:	-16.552	Yaw:	32.721	Thrust:	75.407
Time:	1.448	Roll Set Point:	0.156	Pitch Set Point:	0.566	Yaw Set Point:	-0.026	X_WP:	0.000	Y_WP:	0.000	Y_WP:	0.500	X:	-0.074	Y:	-0.284	Z:	0.080	yaw:	1.509	yaw rate:	-137.890	Roll:	-30.000	Pitch:	-15.651	Yaw:	36.105	Thrust:	73.819
Time:	1.461	Roll Set Point:	0.174	Pitch Set Point:	0.570	Yaw Set Point:	-0.055	X_WP:	0.000	Y_WP:	0.000	Y_WP:	0.500	X:	-0.079	Y:	-0.287	Z:	0.082	yaw:	3.145	yaw rate:	-163.581	Roll:	-30.000	Pitch:	-12.301	Yaw:	38.023	Thrust:	84.733
Time:	1.474	Roll Set Point:	0.190	Pitch Set Point:	0.574	Yaw Set Point:	-0.078	X_WP:	0.000	Y_WP:	0.000	Y_WP:	0.500	X:	-0.084	Y:	-0.290	Z:	0.084	yaw:	4.459	yaw rate:	-131.405	Roll:	-27.975	Pitch:	-12.155	Yaw:	27.881	Thrust:	97.748
Time:	1.484	Roll Set Point:	0.237	Pitch Set Point:	0.581	Yaw Set Point:	-0.146	X_WP:	0.000	Y_WP:	0.000	Y_WP:	0.500	X:	-0.097	Y:	-0.299	Z:	0.094	yaw:	8.388	yaw rate:	-110.489	Roll:	-30.000	Pitch:	-7.040	Yaw:	112.419	Thrust:	39.587
Time:	1.495	Roll Set Point:	0.253	Pitch Set Point:	0.581	Yaw Set Point:	-0.172	X_WP:	0.000	Y_WP:	0.000	Y_WP:	0.500	X:	-0.102	Y:	-0.301	Z:	0.097	yaw:	9.880	yaw rate:	-149.228	Roll:	-30.000	Pitch:	-5.131	Yaw:	48.853	Thrust:	65.600
Time:	1.505	Roll Set Point:	0.266	Pitch Set Point:	0.581	Yaw Set Point:	-0.191	X_WP:	0.000	Y_WP:	0.000	Y_WP:	0.500	X:	-0.105	Y:	-0.303	Z:	0.101	yaw:	10.943	yaw rate:	-106.262	Roll:	-29.739	Pitch:	-6.758	Yaw:	39.537	Thrust:	73.142
Time:	1.516	Roll Set Point:	0.281	Pitch Set Point:	0.580	Yaw Set Point:	-0.217	X_WP:	0.000	Y_WP:	0.000	Y_WP:	0.500	X:	-0.109	Y:	-0.305	Z:	0.105	yaw:	12.417	yaw rate:	-147.420	Roll:	-30.000	Pitch:	-2.610	Yaw:	50.275	Thrust:	73.046
Time:	1.539	Roll Set Point:	0.295	Pitch Set Point:	0.578	Yaw Set Point:	-0.242	X_WP:	0.000	Y_WP:	0.000	Y_WP:	0.500	X:	-0.112	Y:	-0.307	Z:	0.109	yaw:	13.857	yaw rate:	-144.021	Roll:	-19.179	Pitch:	-5.988	Yaw:	31.808	Thrust:	100.000
Time:	1.551	Roll Set Point:	0.305	Pitch Set Point:	0.576	Yaw Set Point:	-0.260	X_WP:	0.000	Y_WP:	0.000	Y_WP:	0.500	X:	-0.115	Y:	-0.308	Z:	0.113	yaw:	14.907	yaw rate:	-104.937	Roll:	-25.142	Pitch:	-3.125	Yaw:	44.998	Thrust:	77.115
Time:	1.561	Roll Set Point:	0.334	Pitch Set Point:	0.562	Yaw Set Point:	-0.324	X_WP:	0.000	Y_WP:	0.000	Y_WP:	0.500	X:	-0.121	Y:	-0.308	Z:	0.124	yaw:	18.592	yaw rate:	-105.311	Roll:	-30.000	Pitch:	26.898	Yaw:	105.895	Thrust:	53.060
Time:	1.572	Roll Set Point:	0.339	Pitch Set Point:	0.557	Yaw Set Point:	-0.338	X_WP:	0.000	Y_WP:	0.000	Y_WP:	0.500	X:	-0.122	Y:	-0.308	Z:	0.127	yaw:	19.386	yaw rate:	-79.446	Roll:	-19.682	Pitch:	0.744	Yaw:	45.502	Thrust:	72.137
Time:	1.582	Roll Set Point:	0.343	Pitch Set Point:	0.553	Yaw Set Point:	-0.350	X_WP:	0.000	Y_WP:	0.000	Y_WP:	0.500	X:	-0.123	Y:	-0.307	Z:	0.130	yaw:	20.030	yaw rate:	-64.377	Roll:	-17.319	Pitch:	0.485	Yaw:	43.182	Thrust:	69.998
Time:	1.595	Roll Set Point:	0.346	Pitch Set Point:	0.547	Yaw Set Point:	-0.362	X_WP:	0.000	Y_WP:	0.000	Y_WP:	0.500	X:	-0.123	Y:	-0.305	Z:	0.132	yaw:	20.736	yaw rate:	-70.584	Roll:	-14.355	Pitch:	-0.065	Yaw:	40.572	Thrust:	94.698
Time:	1.611	Roll Set Point:	0.349	Pitch Set Point:	0.540	Yaw Set Point:	-0.374	X_WP:	0.000	Y_WP:	0.000	Y_WP:	0.500	X:	-0.123	Y:	-0.303	Z:	0.135	yaw:	21.427	yaw rate:	-69.138	Roll:	-11.954	Pitch:	-1.872	Yaw:	39.300	Thrust:	100.000
Time:	1.622	Roll Set Point:	0.347	Pitch Set Point:	0.528	Yaw Set Point:	-0.384	X_WP:	0.000	Y_WP:	0.000	Y_WP:	0.500	X:	-0.122	Y:	-0.298	Z:	0.139	yaw:	22.024	yaw rate:	-59.718	Roll:	-7.298	Pitch:	6.869	Yaw:	42.644	Thrust:	77.803
Time:	1.633	Roll Set Point:	0.345	Pitch Set Point:	0.522	Yaw Set Point:	-0.388	X_WP:	0.000	Y_WP:	0.000	Y_WP:	0.500	X:	-0.121	Y:	-0.295	Z:	0.141	yaw:	22.206	yaw rate:	-18.151	Roll:	-3.763	Pitch:	-0.249	Yaw:	33.950	Thrust:	78.839
Time:	1.644	Roll Set Point:	0.342	Pitch Set Point:	0.514	Yaw Set Point:	-0.394	X_WP:	0.000	Y_WP:	0.000	Y_WP:	0.500	X:	-0.120	Y:	-0.291	Z:	0.143	yaw:	22.596	yaw rate:	-39.040	Roll:	-4.842	Pitch:	1.497	Yaw:	40.155	Thrust:	83.045
Time:	1.656	Roll Set Point:	0.337	Pitch Set Point:	0.506	Yaw Set Point:	-0.398	X_WP:	0.000	Y_WP:	0.000	Y_WP:	0.500	X:	-0.118	Y:	-0.287	Z:	0.145	yaw:	22.793	yaw rate:	-19.708	Roll:	-1.411	Pitch:	-0.671	Yaw:	34.747	Thrust:	91.730
Time:	1.673	Roll Set Point:	0.332	Pitch Set Point:	0.498	Yaw Set Point:	-0.402	X_WP:	0.000	Y_WP:	0.000	Y_WP:	0.500	X:	-0.115	Y:	-0.283	Z:	0.147	yaw:	23.027	yaw rate:	-23.352	Roll:	-2.713	Pitch:	-3.826	Yaw:	33.770	Thrust:	100.000
Time:	1.684	Roll Set Point:	0.324	Pitch Set Point:	0.490	Yaw Set Point:	-0.404	X_WP:	0.000	Y_WP:	0.000	Y_WP:	0.500	X:	-0.112	Y:	-0.278	Z:	0.149	yaw:	23.131	yaw rate:	-10.453	Roll:	3.165	Pitch:	-0.331	Yaw:	33.698	Thrust:	84.130
Time:	1.696	Roll Set Point:	0.317	Pitch Set Point:	0.481	Yaw Set Point:	-0.408	X_WP:	0.000	Y_WP:	0.000	Y_WP:	0.500	X:	-0.109	Y:	-0.274	Z:	0.151	yaw:	23.400	yaw rate:	-26.928	Roll:	2.674	Pitch:	1.555	Yaw:	37.781	Thrust:	84.850
Time:	1.706	Roll Set Point:	0.309	Pitch Set Point:	0.473	Yaw Set Point:	-0.411	X_WP:	0.000	Y_WP:	0.000	Y_WP:	0.500	X:	-0.105	Y:	-0.268	Z:	0.153	yaw:	23.565	yaw rate:	-16.413	Roll:	5.520	Pitch:	0.714	Yaw:	36.095	Thrust:	83.839
Time:	1.720	Roll Set Point:	0.299	Pitch Set Point:	0.463	Yaw Set Point:	-0.415	X_WP:	0.000	Y_WP:	0.000	Y_WP:	0.500	X:	-0.101	Y:	-0.263	Z:	0.156	yaw:	23.762	yaw rate:	-19.719	Roll:	4.427	Pitch:	-1.260	Yaw:	35.994	Thrust:	100.000
Time:	1.742	Roll Set Point:	0.277	Pitch Set Point:	0.444	Yaw Set Point:	-0.422	X_WP:	0.000	Y_WP:	0.000	Y_WP:	0.500	X:	-0.091	Y:	-0.252	Z:	0.162	yaw:	24.177	yaw rate:	-12.625	Roll:	19.160	Pitch:	6.393	Yaw:	37.615	Thrust:	100.000
Time:	1.753	Roll Set Point:	0.266	Pitch Set Point:	0.435	Yaw Set Point:	-0.425	X_WP:	0.000	Y_WP:	0.000	Y_WP:	0.500	X:	-0.086	Y:	-0.246	Z:	0.165	yaw:	24.368	yaw rate:	-19.166	Roll:	2.673	Pitch:	-3.809	Yaw:	37.479	Thrust:	100.000
Time:	1.763	Roll Set Point:	0.240	Pitch Set Point:	0.415	Yaw Set Point:	-0.428	X_WP:	0.000	Y_WP:	0.000	Y_WP:	0.500	X:	-0.075	Y:	-0.234	Z:	0.172	yaw:	24.510	yaw rate:	-14.131	Roll:	30.000	Pitch:	12.705	Yaw:	37.234	Thrust:	56.037
Time:	1.775	Roll Set Point:	0.226	Pitch Set Point:	0.405	Yaw Set Point:	-0.428	X_WP:	0.000	Y_WP:	0.000	Y_WP:	0.500	X:	-0.069	Y:	-0.227	Z:	0.176	yaw:	24.523	yaw rate:	-1.370	Roll:	15.006	Pitch:	0.316	Yaw:	34.082	Thrust:	80.246
Time:	1.791	Roll Set Point:	0.197	Pitch Set Point:	0.385	Yaw Set Point:	-0.425	X_WP:	0.000	Y_WP:	0.000	Y_WP:	0.500	X:	-0.057	Y:	-0.214	Z:	0.184	yaw:	24.364	yaw rate:	6.862	Roll:	30.000	Pitch:	5.278	Yaw:	30.701	Thrust:	97.246
Time:	1.808	Roll Set Point:	0.182	Pitch Set Point:	0.375	Yaw Set Point:	-0.424	X_WP:	0.000	Y_WP:	0.000	Y_WP:	0.500	X:	-0.051	Y:	-0.207	Z:	0.189	yaw:	24.269	yaw rate:	9.483	Roll:	8.467	Pitch:	-4.322	Yaw:	32.116	Thrust:	100.000
Time:	1.821	Roll Set Point:	0.134	Pitch Set Point:	0.344	Yaw Set Point:	-0.411	X_WP:	0.000	Y_WP:	0.000	Y_WP:	0.500	X:	-0.031	Y:	-0.186	Z:	0.204	yaw:	23.545	yaw rate:	23.491	Roll:	30.000	Pitch:	13.958	Yaw:	18.189	Thrust:	56.982
Time:	1.832	Roll Set Point:	0.118	Pitch Set Point:	0.333	Yaw Set Point:	-0.407	X_WP:	0.000	Y_WP:	0.000	Y_WP:	0.500	X:	-0.025	Y:	-0.179	Z:	0.209	yaw:	23.331	yaw rate:	21.388	Roll:	23.159	Pitch:	2.050	Yaw:	27.196	Thrust:	67.171
Time:	1.843	Roll Set Point:	0.102	Pitch Set Point:	0.322	Yaw Set Point:	-0.403	X_WP:	0.000	Y_WP:	0.000	Y_WP:	0.500	X:	-0.018	Y:	-0.171	Z:	0.215	yaw:	23.109	yaw rate:	22.195	Roll:	21.411	Pitch:	2.219	Yaw:	27.088	Thrust:	72.078
Time:	1.855	Roll Set Point:	0.086	Pitch Set Point:	0.311	Yaw Set Point:	-0.398	X_WP:	0.000	Y_WP:	0.000	Y_WP:	0.500	X:	-0.012	Y:	-0.164	Z:	0.221	yaw:	22.801	yaw rate:	30.819	Roll:	22.543	Pitch:	2.124	Yaw:	25.255	Thrust:	70.329
Time:	1.872	Roll Set Point:	0.069	Pitch Set Point:	0.300	Yaw Set Point:	-0.392	X_WP:	0.000	Y_WP:	0.000	Y_WP:	0.500	X:	-0.005	Y:	-0.157	Z:	0.227	yaw:	22.475	yaw rate:	32.570	Roll:	14.188	Pitch:	-2.667	Yaw:	26.701	Thrust:	100.000
Time:	1.882	Roll Set Point:	0.053	Pitch Set Point:	0.288	Yaw Set Point:	-0.386	X_WP:	0.000	Y_WP:	0.000	Y_WP:	0.500	X:	0.002	Y:	-0.149	Z:	0.234	yaw:	22.112	yaw rate:	36.274	Roll:	23.479	Pitch:	4.303	Yaw:	21.665	Thrust:	58.241
Time:	1.894	Roll Set Point:	0.022	Pitch Set Point:	0.266	Yaw Set Point:	-0.373	X_WP:	0.000	Y_WP:	0.000	Y_WP:	0.500	X:	0.014	Y:	-0.135	Z:	0.247	yaw:	21.344	yaw rate:	47.461	Roll:	30.000	Pitch:	13.899	Yaw:	13.059	Thrust:	42.839
Time:	1.904	Roll Set Point:	0.007	Pitch Set Point:	0.255	Yaw Set Point:	-0.367	X_WP:	0.000	Y_WP:	0.000	Y_WP:	0.500	X:	0.020	Y:	-0.128	Z:	0.254	yaw:	21.016	yaw rate:	32.830	Roll:	23.028	Pitch:	4.212	Yaw:	21.626	Thrust:	66.687
Time:	1.915	Roll Set Point:	-0.008	Pitch Set Point:	0.244	Yaw Set Point:	-0.359	X_WP:	0.000	Y_WP:	0.000	Y_WP:	0.500	X:	0.026	Y:	-0.121	Z:	0.261	yaw:	20.592	yaw rate:	42.415	Roll:	23.125	Pitch:	4.389	Yaw:	19.222	Thrust:	64.617
Time:	1.932	Roll Set Point:	-0.023	Pitch Set Point:	0.232	Yaw Set Point:	-0.353	X_WP:	0.000	Y_WP:	0.000	Y_WP:	0.500	X:	0.032	Y:	-0.114	Z:	0.268	yaw:	20.202	yaw rate:	39.001	Roll:	17.562	Pitch:	0.562	Yaw:	22.747	Thrust:	100.000
Time:	1.944	Roll Set Point:	-0.037	Pitch Set Point:	0.221	Yaw Set Point:	-0.347	X_WP:	0.000	Y_WP:	0.000	Y_WP:	0.500	X:	0.038	Y:	-0.107	Z:	0.275	yaw:	19.854	yaw rate:	34.739	Roll:	17.290	Pitch:	3.413	Yaw:	20.919	Thrust:	79.584
Time:	1.955	Roll Set Point:	-0.063	Pitch Set Point:	0.199	Yaw Set Point:	-0.322	X_WP:	0.000	Y_WP:	0.000	Y_WP:	0.500	X:	0.048	Y:	-0.094	Z:	0.290	yaw:	18.462	yaw rate:	139.184	Roll:	30.000	Pitch:	17.174	Yaw:	-3.656	Thrust:	39.544
Time:	1.966	Roll Set Point:	-0.076	Pitch Set Point:	0.188	Yaw Set Point:	-0.318	X_WP:	0.000	Y_WP:	0.000	Y_WP:	0.500	X:	0.053	Y:	-0.088	Z:	0.297	yaw:	18.214	yaw rate:	24.829	Roll:	20.527	Pitch:	7.031	Yaw:	20.061	Thrust:	63.412
Time:	1.976	Roll Set Point:	-0.088	Pitch Set Point:	0.177	Yaw Set Point:	-0.312	X_WP:	0.000	Y_WP:	0.000	Y_WP:	0.500	X:	0.058	Y:	-0.081	Z:	0.304	yaw:	17.856	yaw rate:	35.800	Roll:	20.239	Pitch:	6.679	Yaw:	16.914	Thrust:	57.803
Time:	1.986	Roll Set Point:	-0.099	Pitch Set Point:	0.165	Yaw Set Point:	-0.303	X_WP:	0.000	Y_WP:	0.000	Y_WP:	0.500	X:	0.062	Y:	-0.075	Z:	0.312	yaw:	17.383	yaw rate:	47.331	Roll:	21.722	Pitch:	8.882	Yaw:	12.806	Thrust:	51.966
Time:	2.009	Roll Set Point:	-0.110	Pitch Set Point:	0.155	Yaw Set Point:	-0.299	X_WP:	0.000	Y_WP:	0.000	Y_WP:	0.500	X:	0.067	Y:	-0.069	Z:	0.319	yaw:	17.139	yaw rate:	24.381	Roll:	10.931	Pitch:	-1.129	Yaw:	23.145	Thrust:	100.000
Time:	2.020	Roll Set Point:	-0.130	Pitch Set Point:	0.133	Yaw Set Point:	-0.287	X_WP:	0.000	Y_WP:	0.000	Y_WP:	0.500	X:	0.074	Y:	-0.057	Z:	0.334	yaw:	16.421	yaw rate:	28.760	Roll:	28.221	Pitch:	17.614	Yaw:	7.785	Thrust:	37.483
Time:	2.031	Roll Set Point:	-0.139	Pitch Set Point:	0.122	Yaw Set Point:	-0.280	X_WP:	0.000	Y_WP:	0.000	Y_WP:	0.500	X:	0.078	Y:	-0.051	Z:	0.342	yaw:	16.049	yaw rate:	37.231	Roll:	17.797	Pitch:	8.368	Yaw:	14.445	Thrust:	64.178
Time:	2.041	Roll Set Point:	-0.147	Pitch Set Point:	0.112	Yaw Set Point:	-0.281	X_WP:	0.000	Y_WP:	0.000	Y_WP:	0.500	X:	0.082	Y:	-0.046	Z:	0.349	yaw:	16.078	yaw rate:	-2.981	Roll:	16.288	Pitch:	7.879	Yaw:	24.231	Thrust:	52.062
Time:	2.052	Roll Set Point:	-0.155	Pitch Set Point:	0.101	Yaw Set Point:	-0.268	X_WP:	0.000	Y_WP:	0.000	Y_WP:	0.500	X:	0.084	Y:	-0.040	Z:	0.356	yaw:	15.345	yaw rate:	73.311	Roll:	17.861	Pitch:	10.677	Yaw:	5.128	Thrust:	61.360
Time:	2.065	Roll Set Point:	-0.163	Pitch Set Point:	0.091	Yaw Set Point:	-0.263	X_WP:	0.000	Y_WP:	0.000	Y_WP:	0.500	X:	0.087	Y:	-0.035	Z:	0.363	yaw:	15.066	yaw rate:	27.922	Roll:	14.643	Pitch:	6.752	Yaw:	16.468	Thrust:	67.562
Time:	2.078	Roll Set Point:	-0.176	Pitch Set Point:	0.072	Yaw Set Point:	-0.252	X_WP:	0.000	Y_WP:	0.000	Y_WP:	0.500	X:	0.093	Y:	-0.025	Z:	0.377	yaw:	14.429	yaw rate:	63.692	Roll:	19.442	Pitch:	14.265	Yaw:	8.649	Thrust:	64.075
Time:	2.088	Roll Set Point:	-0.182	Pitch Set Point:	0.062	Yaw Set Point:	-0.246	X_WP:	0.000	Y_WP:	0.000	Y_WP:	0.500	X:	0.095	Y:	-0.020	Z:	0.384	yaw:	14.087	yaw rate:	34.212	Roll:	14.162	Pitch:	9.849	Yaw:	11.740	Thrust:	52.962
Time:	2.099	Roll Set Point:	-0.188	Pitch Set Point:	0.053	Yaw Set Point:	-0.243	X_WP:	0.000	Y_WP:	0.000	Y_WP:	0.500	X:	0.097	Y:	-0.015	Z:	0.390	yaw:	13.917	yaw rate:	16.999	Roll:	13.235	Pitch:	8.230	Yaw:	16.503	Thrust:	58.704
Time:	2.109	Roll Set Point:	-0.193	Pitch Set Point:	0.044	Yaw Set Point:	-0.235	X_WP:	0.000	Y_WP:	0.000	Y_WP:	0.500	X:	0.099	Y:	-0.011	Z:	0.397	yaw:	13.473	yaw rate:	44.443	Roll:	12.201	Pitch:	9.332	Yaw:	8.390	Thrust:	60.613
Time:	2.120	Roll Set Point:	-0.197	Pitch Set Point:	0.035	Yaw Set Point:	-0.231	X_WP:	0.000	Y_WP:	0.000	Y_WP:	0.500	X:	0.101	Y:	-0.006	Z:	0.403	yaw:	13.245	yaw rate:	22.791	Roll:	11.362	Pitch:	7.640	Yaw:	14.473	Thrust:	64.163
Time:	2.140	Roll Set Point:	-0.201	Pitch Set Point:	0.027	Yaw Set Point:	-0.226	X_WP:	0.000	Y_WP:	0.000	Y_WP:	0.500	X:	0.102	Y:	-0.002	Z:	0.409	yaw:	12.959	yaw rate:	28.568	Roll:	7.540	Pitch:	0.188	Yaw:	16.367	Thrust:	100.000
Time:	2.150	Roll Set Point:	-0.204	Pitch Set Point:	0.019	Yaw Set Point:	-0.219	X_WP:	0.000	Y_WP:	0.000	Y_WP:	0.500	X:	0.103	Y:	0.002	Z:	0.415	yaw:	12.559	yaw rate:	40.020	Roll:	9.884	Pitch:	9.594	Yaw:	8.123	Thrust:	54.317
Time:	2.162	Roll Set Point:	-0.211	Pitch Set Point:	-0.003	Yaw Set Point:	-0.208	X_WP:	0.000	Y_WP:	0.000	Y_WP:	0.500	X:	0.106	Y:	0.012	Z:	0.433	yaw:	11.943	yaw rate:	9.662	Roll:	16.687	Pitch:	24.031	Yaw:	4.454	Thrust:	30.345
Time:	2.173	Roll Set Point:	-0.213	Pitch Set Point:	-0.010	Yaw Set Point:	-0.202	X_WP:	0.000	Y_WP:	0.000	Y_WP:	0.500	X:	0.106	Y:	0.016	Z:	0.439	yaw:	11.584	yaw rate:	35.928	Roll:	7.158	Pitch:	7.627	Yaw:	8.478	Thrust:	62.398
Time:	2.185	Roll Set Point:	-0.214	Pitch Set Point:	-0.016	Yaw Set Point:	-0.197	X_WP:	0.000	Y_WP:	0.000	Y_WP:	0.500	X:	0.106	Y:	0.019	Z:	0.444	yaw:	11.313	yaw rate:	27.130	Roll:	6.617	Pitch:	6.399	Yaw:	11.064	Thrust:	74.200
Time:	2.208	Roll Set Point:	-0.215	Pitch Set Point:	-0.021	Yaw Set Point:	-0.197	X_WP:	0.000	Y_WP:	0.000	Y_WP:	0.500	X:	0.106	Y:	0.021	Z:	0.450	yaw:	11.289	yaw rate:	2.411	Roll:	5.684	Pitch:	-0.910	Yaw:	17.798	Thrust:	100.000
Time:	2.219	Roll Set Point:	-0.215	Pitch Set Point:	-0.032	Yaw Set Point:	-0.188	X_WP:	0.000	Y_WP:	0.000	Y_WP:	0.500	X:	0.106	Y:	0.026	Z:	0.461	yaw:	10.763	yaw rate:	19.355	Roll:	5.715	Pitch:	9.040	Yaw:	3.096	Thrust:	48.480
Time:	2.230	Roll Set Point:	-0.215	Pitch Set Point:	-0.037	Yaw Set Point:	-0.184	X_WP:	0.000	Y_WP:	0.000	Y_WP:	0.500	X:	0.106	Y:	0.029	Z:	0.466	yaw:	10.531	yaw rate:	23.203	Roll:	4.714	Pitch:	4.626	Yaw:	10.588	Thrust:	70.704
Time:	2.241	Roll Set Point:	-0.214	Pitch Set Point:	-0.042	Yaw Set Point:	-0.180	X_WP:	0.000	Y_WP:	0.000	Y_WP:	0.500	X:	0.105	Y:	0.031	Z:	0.471	yaw:	10.311	yaw rate:	21.942	Roll:	4.192	Pitch:	5.076	Yaw:	10.039	Thrust:	61.971
Time:	2.253	Roll Set Point:	-0.213	Pitch Set Point:	-0.046	Yaw Set Point:	-0.176	X_WP:	0.000	Y_WP:	0.000	Y_WP:	0.500	X:	0.105	Y:	0.033	Z:	0.476	yaw:	10.111	yaw rate:	19.971	Roll:	3.776	Pitch:	4.500	Yaw:	10.456	Thrust:	65.136
Time:	2.263	Roll Set Point:	-0.212	Pitch Set Point:	-0.050	Yaw Set Point:	-0.174	X_WP:	0.000	Y_WP:	0.000	Y_WP:	0.500	X:	0.104	Y:	0.034	Z:	0.481	yaw:	9.949	yaw rate:	16.254	Roll:	3.727	Pitch:	3.343	Yaw:	11.356	Thrust:	70.980
Time:	2.277	Roll Set Point:	-0.209	Pitch Set Point:	-0.057	Yaw Set Point:	-0.166	X_WP:	0.000	Y_WP:	0.000	Y_WP:	0.500	X:	0.102	Y:	0.037	Z:	0.492	yaw:	9.485	yaw rate:	46.409	Roll:	1.585	Pitch:	6.932	Yaw:	5.881	Thrust:	74.247
Time:	2.288	Roll Set Point:	-0.207	Pitch Set Point:	-0.060	Yaw Set Point:	-0.163	X_WP:	0.000	Y_WP:	0.000	Y_WP:	0.500	X:	0.101	Y:	0.038	Z:	0.497	yaw:	9.365	yaw rate:	11.993	Roll:	2.602	Pitch:	2.229	Yaw:	11.354	Thrust:	61.157
Time:	2.300	Roll Set Point:	-0.205	Pitch Set Point:	-0.063	Yaw Set Point:	-0.157	X_WP:	0.000	Y_WP:	0.000	Y_WP:	0.500	X:	0.100	Y:	0.040	Z:	0.502	yaw:	8.996	yaw rate:	36.893	Roll:	1.253	Pitch:	3.668	Yaw:	5.338	Thrust:	68.892
Time:	2.311	Roll Set Point:	-0.203	Pitch Set Point:	-0.065	Yaw Set Point:	-0.158	X_WP:	0.000	Y_WP:	0.000	Y_WP:	0.500	X:	0.099	Y:	0.040	Z:	0.507	yaw:	9.043	yaw rate:	-4.674	Roll:	2.437	Pitch:	0.516	Yaw:	14.840	Thrust:	65.246
Time:	2.322	Roll Set Point:	-0.200	Pitch Set Point:	-0.068	Yaw Set Point:	-0.152	X_WP:	0.000	Y_WP:	0.000	Y_WP:	0.500	X:	0.097	Y:	0.041	Z:	0.512	yaw:	8.693	yaw rate:	34.915	Roll:	0.496	Pitch:	3.143	Yaw:	5.366	Thrust:	68.074
Time:	2.341	Roll Set Point:	-0.198	Pitch Set Point:	-0.069	Yaw Set Point:	-0.150	X_WP:	0.000	Y_WP:	0.000	Y_WP:	0.500	X:	0.096	Y:	0.042	Z:	0.518	yaw:	8.580	yaw rate:	11.362	Roll:	3.031	Pitch:	-1.768	Yaw:	12.139	Thrust:	100.000
Time:	2.353	Roll Set Point:	-0.189	Pitch Set Point:	-0.072	Yaw Set Point:	-0.139	X_WP:	0.000	Y_WP:	0.000	Y_WP:	0.500	X:	0.092	Y:	0.043	Z:	0.534	yaw:	7.977	yaw rate:	51.668	Roll:	-6.888	Pitch:	4.616	Yaw:	-0.779	Thrust:	29.779
Time:	2.365	Roll Set Point:	-0.186	Pitch Set Point:	-0.073	Yaw Set Point:	-0.136	X_WP:	0.000	Y_WP:	0.000	Y_WP:	0.500	X:	0.090	Y:	0.043	Z:	0.540	yaw:	7.801	yaw rate:	17.616	Roll:	0.659	Pitch:	-0.313	Yaw:	8.472	Thrust:	75.348
Time:	2.376	Roll Set Point:	-0.183	Pitch Set Point:	-0.073	Yaw Set Point:	-0.135	X_WP:	0.000	Y_WP:	0.000	Y_WP:	0.500	X:	0.089	Y:	0.043	Z:	0.545	yaw:	7.727	yaw rate:	7.443	Roll:	0.633	Pitch:	-0.749	Yaw:	10.263	Thrust:	65.625
Time:	2.393	Roll Set Point:	-0.180	Pitch Set Point:	-0.074	Yaw Set Point:	-0.133	X_WP:	0.000	Y_WP:	0.000	Y_WP:	0.500	X:	0.087	Y:	0.043	Z:	0.551	yaw:	7.632	yaw rate:	9.447	Roll:	1.043	Pitch:	-1.786	Yaw:	10.819	Thrust:	100.000
Time:	2.410	Roll Set Point:	-0.176	Pitch Set Point:	-0.073	Yaw Set Point:	-0.132	X_WP:	0.000	Y_WP:	0.000	Y_WP:	0.500	X:	0.086	Y:	0.043	Z:	0.556	yaw:	7.551	yaw rate:	8.093	Roll:	2.550	Pitch:	-2.933	Yaw:	11.041	Thrust:	100.000
Time:	2.421	Roll Set Point:	-0.170	Pitch Set Point:	-0.073	Yaw Set Point:	-0.128	X_WP:	0.000	Y_WP:	0.000	Y_WP:	0.500	X:	0.083	Y:	0.042	Z:	0.568	yaw:	7.343	yaw rate:	13.098	Roll:	-4.645	Pitch:	-1.011	Yaw:	6.522	Thrust:	37.830
Time:	2.432	Roll Set Point:	-0.164	Pitch Set Point:	-0.071	Yaw Set Point:	-0.126	X_WP:	0.000	Y_WP:	0.000	Y_WP:	0.500	X:	0.080	Y:	0.041	Z:	0.579	yaw:	7.192	yaw rate:	15.105	Roll:	-4.373	Pitch:	-2.499	Yaw:	7.572	Thrust:	34.756
Time:	2.443	Roll Set Point:	-0.161	Pitch Set Point:	-0.071	Yaw Set Point:	-0.123	X_WP:	0.000	Y_WP:	0.000	Y_WP:	0.500	X:	0.078	Y:	0.040	Z:	0.585	yaw:	7.075	yaw rate:	11.656	Roll:	-0.136	Pitch:	-1.946	Yaw:	8.081	Thrust:	52.590
Time:	2.456	Roll Set Point:	-0.158	Pitch Set Point:	-0.070	Yaw Set Point:	-0.121	X_WP:	0.000	Y_WP:	0.000	Y_WP:	0.500	X:	0.077	Y:	0.040	Z:	0.591	yaw:	6.936	yaw rate:	13.928	Roll:	0.479	Pitch:	-2.266	Yaw:	8.193	Thrust:	74.459
Time:	2.476	Roll Set Point:	-0.155	Pitch Set Point:	-0.069	Yaw Set Point:	-0.118	X_WP:	0.000	Y_WP:	0.000	Y_WP:	0.500	X:	0.076	Y:	0.039	Z:	0.597	yaw:	6.774	yaw rate:	16.180	Roll:	2.063	Pitch:	-3.737	Yaw:	9.247	Thrust:	100.000
Time:	2.486	Roll Set Point:	-0.150	Pitch Set Point:	-0.066	Yaw Set Point:	-0.116	X_WP:	0.000	Y_WP:	0.000	Y_WP:	0.500	X:	0.073	Y:	0.037	Z:	0.609	yaw:	6.626	yaw rate:	8.533	Roll:	-3.702	Pitch:	-4.193	Yaw:	6.385	Thrust:	16.852
Time:	2.497	Roll Set Point:	-0.147	Pitch Set Point:	-0.065	Yaw Set Point:	-0.115	X_WP:	0.000	Y_WP:	0.000	Y_WP:	0.500	X:	0.072	Y:	0.037	Z:	0.615	yaw:	6.597	yaw rate:	2.938	Roll:	-0.159	Pitch:	-2.961	Yaw:	9.582	Thrust:	51.992
Time:	2.507	Roll Set Point:	-0.145	Pitch Set Point:	-0.064	Yaw Set Point:	-0.113	X_WP:	0.000	Y_WP:	0.000	Y_WP:	0.500	X:	0.071	Y:	0.036	Z:	0.621	yaw:	6.482	yaw rate:	11.537	Roll:	0.132	Pitch:	-2.749	Yaw:	7.040	Thrust:	43.798
Time:	2.520	Roll Set Point:	-0.142	Pitch Set Point:	-0.062	Yaw Set Point:	-0.112	X_WP:	0.000	Y_WP:	0.000	Y_WP:	0.500	X:	0.069	Y:	0.035	Z:	0.627	yaw:	6.405	yaw rate:	7.674	Roll:	0.880	Pitch:	-3.247	Yaw:	8.706	Thrust:	72.163
Time:	2.538	Roll Set Point:	-0.140	Pitch Set Point:	-0.061	Yaw Set Point:	-0.110	X_WP:	0.000	Y_WP:	0.000	Y_WP:	0.500	X:	0.068	Y:	0.034	Z:	0.632	yaw:	6.330	yaw rate:	7.444	Roll:	2.354	Pitch:	-3.849	Yaw:	9.568	Thrust:	100.000
Time:	2.548	Roll Set Point:	-0.138	Pitch Set Point:	-0.059	Yaw Set Point:	-0.110	X_WP:	0.000	Y_WP:	0.000	Y_WP:	0.500	X:	0.067	Y:	0.033	Z:	0.638	yaw:	6.284	yaw rate:	4.659	Roll:	0.796	Pitch:	-3.313	Yaw:	8.556	Thrust:	43.443
Time:	2.560	Roll Set Point:	-0.136	Pitch Set Point:	-0.057	Yaw Set Point:	-0.110	X_WP:	0.000	Y_WP:	0.000	Y_WP:	0.500	X:	0.066	Y:	0.032	Z:	0.643	yaw:	6.282	yaw rate:	0.179	Roll:	1.164	Pitch:	-3.467	Yaw:	9.990	Thrust:	67.652
Time:	2.572	Roll Set Point:	-0.130	Pitch Set Point:	-0.053	Yaw Set Point:	-0.110	X_WP:	0.000	Y_WP:	0.000	Y_WP:	0.500	X:	0.064	Y:	0.030	Z:	0.659	yaw:	6.324	yaw rate:	-16.830	Roll:	-3.699	Pitch:	-7.432	Yaw:	10.927	Thrust:	14.982
Time:	2.582	Roll Set Point:	-0.129	Pitch Set Point:	-0.051	Yaw Set Point:	-0.113	X_WP:	0.000	Y_WP:	0.000	Y_WP:	0.500	X:	0.063	Y:	0.029	Z:	0.663	yaw:	6.461	yaw rate:	-13.751	Roll:	0.789	Pitch:	-3.898	Yaw:	13.601	Thrust:	45.715
Time:	2.596	Roll Set Point:	-0.127	Pitch Set Point:	-0.050	Yaw Set Point:	-0.112	X_WP:	0.000	Y_WP:	0.000	Y_WP:	0.500	X:	0.062	Y:	0.028	Z:	0.668	yaw:	6.398	yaw rate:	6.296	Roll:	2.286	Pitch:	-3.512	Yaw:	9.246	Thrust:	85.443
Time:	2.612	Roll Set Point:	-0.126	Pitch Set Point:	-0.049	Yaw Set Point:	-0.109	X_WP:	0.000	Y_WP:	0.000	Y_WP:	0.500	X:	0.062	Y:	0.028	Z:	0.673	yaw:	6.233	yaw rate:	16.541	Roll:	2.737	Pitch:	-3.505	Yaw:	7.522	Thrust:	95.987
Time:	2.623	Roll Set Point:	-0.125	Pitch Set Point:	-0.047	Yaw Set Point:	-0.107	X_WP:	0.000	Y_WP:	0.000	Y_WP:	0.500	X:	0.061	Y:	0.027	Z:	0.677	yaw:	6.135	yaw rate:	9.815	Roll:	2.073	Pitch:	-3.087	Yaw:	7.339	Thrust:	55.899
Time:	2.634	Roll Set Point:	-0.123	Pitch Set Point:	-0.046	Yaw Set Point:	-0.109	X_WP:	0.000	Y_WP:	0.000	Y_WP:	0.500	X:	0.060	Y:	0.026	Z:	0.681	yaw:	6.268	yaw rate:	-13.361	Roll:	1.750	Pitch:	-3.802	Yaw:	13.127	Thrust:	51.774
Time:	2.644	Roll Set Point:	-0.122	Pitch Set Point:	-0.045	Yaw Set Point:	-0.108	X_WP:	0.000	Y_WP:	0.000	Y_WP:	0.500	X:	0.060	Y:	0.026	Z:	0.684	yaw:	6.193	yaw rate:	7.521	Roll:	2.052	Pitch:	-2.976	Yaw:	7.870	Thrust:	53.326
Time:	2.657	Roll Set Point:	-0.121	Pitch Set Point:	-0.043	Yaw Set Point:	-0.106	X_WP:	0.000	Y_WP:	0.000	Y_WP:	0.500	X:	0.059	Y:	0.024	Z:	0.692	yaw:	6.080	yaw rate:	11.346	Roll:	1.691	Pitch:	-4.247	Yaw:	7.520	Thrust:	61.782
Time:	2.677	Roll Set Point:	-0.120	Pitch Set Point:	-0.042	Yaw Set Point:	-0.105	X_WP:	0.000	Y_WP:	0.000	Y_WP:	0.500	X:	0.059	Y:	0.024	Z:	0.695	yaw:	6.017	yaw rate:	6.269	Roll:	3.971	Pitch:	-4.269	Yaw:	9.529	Thrust:	100.000
Time:	2.689	Roll Set Point:	-0.119	Pitch Set Point:	-0.041	Yaw Set Point:	-0.098	X_WP:	0.000	Y_WP:	0.000	Y_WP:	0.500	X:	0.059	Y:	0.023	Z:	0.702	yaw:	5.630	yaw rate:	6.153	Roll:	2.391	Pitch:	-2.660	Yaw:	0.504	Thrust:	51.448
Time:	2.700	Roll Set Point:	-0.119	Pitch Set Point:	-0.039	Yaw Set Point:	-0.103	X_WP:	0.000	Y_WP:	0.000	Y_WP:	0.500	X:	0.058	Y:	0.023	Z:	0.705	yaw:	5.878	yaw rate:	-24.803	Roll:	3.091	Pitch:	-3.533	Yaw:	15.199	Thrust:	57.433
Time:	2.711	Roll Set Point:	-0.119	Pitch Set Point:	-0.039	Yaw Set Point:	-0.101	X_WP:	0.000	Y_WP:	0.000	Y_WP:	0.500	X:	0.058	Y:	0.022	Z:	0.707	yaw:	5.787	yaw rate:	9.026	Roll:	3.213	Pitch:	-2.211	Yaw:	6.719	Thrust:	48.682
Time:	2.723	Roll Set Point:	-0.119	Pitch Set Point:	-0.038	Yaw Set Point:	-0.101	X_WP:	0.000	Y_WP:	0.000	Y_WP:	0.500	X:	0.058	Y:	0.022	Z:	0.710	yaw:	5.767	yaw rate:	2.067	Roll:	3.777	Pitch:	-2.867	Yaw:	9.007	Thrust:	74.134
Time:	2.741	Roll Set Point:	-0.119	Pitch Set Point:	-0.038	Yaw Set Point:	-0.098	X_WP:	0.000	Y_WP:	0.000	Y_WP:	0.500	X:	0.058	Y:	0.022	Z:	0.713	yaw:	5.605	yaw rate:	16.196	Roll:	4.418	Pitch:	-3.361	Yaw:	7.335	Thrust:	100.000
Time:	2.752	Roll Set Point:	-0.119	Pitch Set Point:	-0.038	Yaw Set Point:	-0.094	X_WP:	0.000	Y_WP:	0.000	Y_WP:	0.500	X:	0.059	Y:	0.022	Z:	0.721	yaw:	5.381	yaw rate:	14.883	Roll:	4.527	Pitch:	-1.861	Yaw:	2.662	Thrust:	24.605
Time:	2.766	Roll Set Point:	-0.120	Pitch Set Point:	-0.038	Yaw Set Point:	-0.088	X_WP:	0.000	Y_WP:	0.000	Y_WP:	0.500	X:	0.059	Y:	0.022	Z:	0.724	yaw:	5.047	yaw rate:	33.323	Roll:	4.570	Pitch:	-1.540	Yaw:	2.272	Thrust:	81.501
Time:	2.776	Roll Set Point:	-0.120	Pitch Set Point:	-0.038	Yaw Set Point:	-0.092	X_WP:	0.000	Y_WP:	0.000	Y_WP:	0.500	X:	0.059	Y:	0.022	Z:	0.726	yaw:	5.260	yaw rate:	-21.229	Roll:	4.480	Pitch:	-2.516	Yaw:	13.663	Thrust:	53.559
Time:	2.788	Roll Set Point:	-0.121	Pitch Set Point:	-0.038	Yaw Set Point:	-0.090	X_WP:	0.000	Y_WP:	0.000	Y_WP:	0.500	X:	0.060	Y:	0.022	Z:	0.728	yaw:	5.157	yaw rate:	10.303	Roll:	4.678	Pitch:	-1.241	Yaw:	5.855	Thrust:	56.717
Time:	2.808	Roll Set Point:	-0.122	Pitch Set Point:	-0.038	Yaw Set Point:	-0.089	X_WP:	0.000	Y_WP:	0.000	Y_WP:	0.500	X:	0.060	Y:	0.022	Z:	0.731	yaw:	5.071	yaw rate:	8.550	Roll:	5.393	Pitch:	-3.241	Yaw:	8.068	Thrust:	100.000
Time:	2.819	Roll Set Point:	-0.123	Pitch Set Point:	-0.039	Yaw Set Point:	-0.086	X_WP:	0.000	Y_WP:	0.000	Y_WP:	0.500	X:	0.061	Y:	0.022	Z:	0.735	yaw:	4.946	yaw rate:	9.438	Roll:	6.227	Pitch:	-0.658	Yaw:	5.053	Thrust:	49.484
Time:	2.830	Roll Set Point:	-0.124	Pitch Set Point:	-0.040	Yaw Set Point:	-0.084	X_WP:	0.000	Y_WP:	0.000	Y_WP:	0.500	X:	0.061	Y:	0.023	Z:	0.737	yaw:	4.820	yaw rate:	12.576	Roll:	4.983	Pitch:	-0.320	Yaw:	4.848	Thrust:	53.200
Time:	2.841	Roll Set Point:	-0.126	Pitch Set Point:	-0.041	Yaw Set Point:	-0.080	X_WP:	0.000	Y_WP:	0.000	Y_WP:	0.500	X:	0.062	Y:	0.023	Z:	0.740	yaw:	4.612	yaw rate:	20.833	Roll:	6.672	Pitch:	0.547	Yaw:	2.399	Thrust:	52.350
Time:	2.853	Roll Set Point:	-0.127	Pitch Set Point:	-0.042	Yaw Set Point:	-0.081	X_WP:	0.000	Y_WP:	0.000	Y_WP:	0.500	X:	0.063	Y:	0.024	Z:	0.741	yaw:	4.616	yaw rate:	-0.344	Roll:	5.650	Pitch:	-1.143	Yaw:	7.723	Thrust:	65.815
Time:	2.875	Roll Set Point:	-0.128	Pitch Set Point:	-0.043	Yaw Set Point:	-0.078	X_WP:	0.000	Y_WP:	0.000	Y_WP:	0.500	X:	0.063	Y:	0.024	Z:	0.743	yaw:	4.464	yaw rate:	15.188	Roll:	6.092	Pitch:	-2.474	Yaw:	6.639	Thrust:	100.000
Time:	2.885	Roll Set Point:	-0.130	Pitch Set Point:	-0.044	Yaw Set Point:	-0.076	X_WP:	0.000	Y_WP:	0.000	Y_WP:	0.500	X:	0.064	Y:	0.025	Z:	0.744	yaw:	4.381	yaw rate:	8.304	Roll:	5.769	Pitch:	-0.374	Yaw:	4.948	Thrust:	57.822
Time:	2.895	Roll Set Point:	-0.131	Pitch Set Point:	-0.045	Yaw Set Point:	-0.076	X_WP:	0.000	Y_WP:	0.000	Y_WP:	0.500	X:	0.065	Y:	0.025	Z:	0.746	yaw:	4.356	yaw rate:	2.443	Roll:	6.023	Pitch:	-0.237	Yaw:	6.534	Thrust:	54.797
Time:	2.905	Roll Set Point:	-0.132	Pitch Set Point:	-0.046	Yaw Set Point:	-0.076	X_WP:	0.000	Y_WP:	0.000	Y_WP:	0.500	X:	0.065	Y:	0.025	Z:	0.747	yaw:	4.336	yaw rate:	1.990	Roll:	6.017	Pitch:	0.196	Yaw:	6.551	Thrust:	51.460
Time:	2.915	Roll Set Point:	-0.133	Pitch Set Point:	-0.047	Yaw Set Point:	-0.074	X_WP:	0.000	Y_WP:	0.000	Y_WP:	0.500	X:	0.066	Y:	0.026	Z:	0.748	yaw:	4.226	yaw rate:	11.037	Roll:	6.025	Pitch:	0.645	Yaw:	4.021	Thrust:	50.725
Time:	2.929	Roll Set Point:	-0.136	Pitch Set Point:	-0.050	Yaw Set Point:	-0.071	X_WP:	0.000	Y_WP:	0.000	Y_WP:	0.500	X:	0.067	Y:	0.027	Z:	0.750	yaw:	4.041	yaw rate:	6.204	Roll:	7.496	Pitch:	1.301	Yaw:	3.229	Thrust:	69.240
Time:	2.942	Roll Set Point:	-0.139	Pitch Set Point:	-0.052	Yaw Set Point:	-0.069	X_WP:	0.000	Y_WP:	0.000	Y_WP:	0.500	X:	0.068	Y:	0.028	Z:	0.751	yaw:	3.933	yaw rate:	10.792	Roll:	7.891	Pitch:	0.823	Yaw:	4.812	Thrust:	75.540
Time:	2.954	Roll Set Point:	-0.140	Pitch Set Point:	-0.053	Yaw Set Point:	-0.067	X_WP:	0.000	Y_WP:	0.000	Y_WP:	0.500	X:	0.069	Y:	0.029	Z:	0.751	yaw:	3.861	yaw rate:	7.204	Roll:	6.259	Pitch:	0.450	Yaw:	4.832	Thrust:	60.096
Time:	2.964	Roll Set Point:	-0.141	Pitch Set Point:	-0.055	Yaw Set Point:	-0.067	X_WP:	0.000	Y_WP:	0.000	Y_WP:	0.500	X:	0.070	Y:	0.030	Z:	0.752	yaw:	3.814	yaw rate:	4.630	Roll:	6.493	Pitch:	0.684	Yaw:	5.219	Thrust:	55.050
Time:	2.975	Roll Set Point:	-0.143	Pitch Set Point:	-0.056	Yaw Set Point:	-0.065	X_WP:	0.000	Y_WP:	0.000	Y_WP:	0.500	X:	0.070	Y:	0.030	Z:	0.752	yaw:	3.753	yaw rate:	6.164	Roll:	6.299	Pitch:	0.565	Yaw:	4.902	Thrust:	59.528
Time:	2.990	Roll Set Point:	-0.144	Pitch Set Point:	-0.057	Yaw Set Point:	-0.064	X_WP:	0.000	Y_WP:	0.000	Y_WP:	0.500	X:	0.071	Y:	0.031	Z:	0.753	yaw:	3.664	yaw rate:	8.891	Roll:	6.376	Pitch:	0.071	Yaw:	4.855	Thrust:	78.994
Time:	3.009	Roll Set Point:	-0.145	Pitch Set Point:	-0.059	Yaw Set Point:	-0.061	X_WP:	0.000	Y_WP:	0.000	Y_WP:	0.500	X:	0.072	Y:	0.032	Z:	0.753	yaw:	3.516	yaw rate:	14.806	Roll:	6.820	Pitch:	-1.702	Yaw:	4.981	Thrust:	100.000
Time:	3.020	Roll Set Point:	-0.146	Pitch Set Point:	-0.061	Yaw Set Point:	-0.061	X_WP:	0.000	Y_WP:	0.000	Y_WP:	0.500	X:	0.072	Y:	0.032	Z:	0.753	yaw:	3.494	yaw rate:	2.187	Roll:	6.557	Pitch:	0.903	Yaw:	5.389	Thrust:	55.387
Time:	3.034	Roll Set Point:	-0.150	Pitch Set Point:	-0.064	Yaw Set Point:	-0.058	X_WP:	0.000	Y_WP:	0.000	Y_WP:	0.500	X:	0.074	Y:	0.034	Z:	0.753	yaw:	3.338	yaw rate:	12.515	Roll:	9.717	Pitch:	3.997	Yaw:	3.322	Thrust:	64.332
Time:	3.045	Roll Set Point:	-0.152	Pitch Set Point:	-0.066	Yaw Set Point:	-0.058	X_WP:	0.000	Y_WP:	0.000	Y_WP:	0.500	X:	0.075	Y:	0.035	Z:	0.753	yaw:	3.327	yaw rate:	1.080	Roll:	6.581	Pitch:	-0.215	Yaw:	5.440	Thrust:	72.352
Time:	3.058	Roll Set Point:	-0.153	Pitch Set Point:	-0.067	Yaw Set Point:	-0.057	X_WP:	0.000	Y_WP:	0.000	Y_WP:	0.500	X:	0.075	Y:	0.036	Z:	0.754	yaw:	3.252	yaw rate:	7.535	Roll:	6.388	Pitch:	0.526	Yaw:	4.216	Thrust:	67.257
Time:	3.081	Roll Set Point:	-0.154	Pitch Set Point:	-0.068	Yaw Set Point:	-0.055	X_WP:	0.000	Y_WP:	0.000	Y_WP:	0.500	X:	0.076	Y:	0.036	Z:	0.754	yaw:	3.168	yaw rate:	8.401	Roll:	7.053	Pitch:	-2.082	Yaw:	5.642	Thrust:	100.000
Time:	3.094	Roll Set Point:	-0.156	Pitch Set Point:	-0.071	Yaw Set Point:	-0.053	X_WP:	0.000	Y_WP:	0.000	Y_WP:	0.500	X:	0.077	Y:	0.038	Z:	0.755	yaw:	3.016	yaw rate:	5.974	Roll:	7.502	Pitch:	1.750	Yaw:	2.943	Thrust:	75.091
Time:	3.106	Roll Set Point:	-0.157	Pitch Set Point:	-0.072	Yaw Set Point:	-0.051	X_WP:	0.000	Y_WP:	0.000	Y_WP:	0.500	X:	0.077	Y:	0.038	Z:	0.755	yaw:	2.914	yaw rate:	10.178	Roll:	6.142	Pitch:	0.585	Yaw:	2.930	Thrust:	62.312
Time:	3.118	Roll Set Point:	-0.157	Pitch Set Point:	-0.074	Yaw Set Point:	-0.047	X_WP:	0.000	Y_WP:	0.000	Y_WP:	0.500	X:	0.078	Y:	0.039	Z:	0.756	yaw:	2.720	yaw rate:	19.454	Roll:	5.619	Pitch:	1.762	Yaw:	0.744	Thrust:	60.309
Time:	3.139	Roll Set Point:	-0.158	Pitch Set Point:	-0.075	Yaw Set Point:	-0.046	X_WP:	0.000	Y_WP:	0.000	Y_WP:	0.500	X:	0.078	Y:	0.039	Z:	0.757	yaw:	2.617	yaw rate:	10.260	Roll:	6.172	Pitch:	0.114	Yaw:	4.240	Thrust:	76.878
Time:	3.150	Roll Set Point:	-0.161	Pitch Set Point:	-0.078	Yaw Set Point:	-0.044	X_WP:	0.000	Y_WP:	0.000	Y_WP:	0.500	X:	0.079	Y:	0.041	Z:	0.759	yaw:	2.492	yaw rate:	12.575	Roll:	7.955	Pitch:	0.524	Yaw:	2.283	Thrust:	94.858
Time:	3.161	Roll Set Point:	-0.161	Pitch Set Point:	-0.080	Yaw Set Point:	-0.040	X_WP:	0.000	Y_WP:	0.000	Y_WP:	0.500	X:	0.080	Y:	0.042	Z:	0.760	yaw:	2.284	yaw rate:	20.875	Roll:	5.257	Pitch:	2.223	Yaw:	-0.948	Thrust:	44.061
Time:	3.171	Roll Set Point:	-0.162	Pitch Set Point:	-0.081	Yaw Set Point:	-0.041	X_WP:	0.000	Y_WP:	0.000	Y_WP:	0.500	X:	0.080	Y:	0.042	Z:	0.761	yaw:	2.324	yaw rate:	-4.042	Roll:	6.041	Pitch:	0.421	Yaw:	5.303	Thrust:	50.939
Time:	3.185	Roll Set Point:	-0.162	Pitch Set Point:	-0.082	Yaw Set Point:	-0.039	X_WP:	0.000	Y_WP:	0.000	Y_WP:	0.500	X:	0.080	Y:	0.042	Z:	0.762	yaw:	2.223	yaw rate:	10.150	Roll:	5.794	Pitch:	0.555	Yaw:	2.612	Thrust:	63.172
Time:	3.197	Roll Set Point:	-0.163	Pitch Set Point:	-0.083	Yaw Set Point:	-0.036	X_WP:	0.000	Y_WP:	0.000	Y_WP:	0.500	X:	0.081	Y:	0.043	Z:	0.764	yaw:	2.054	yaw rate:	16.817	Roll:	5.142	Pitch:	1.212	Yaw:	0.208	Thrust:	55.616
Time:	3.211	Roll Set Point:	-0.163	Pitch Set Point:	-0.085	Yaw Set Point:	-0.034	X_WP:	0.000	Y_WP:	0.000	Y_WP:	0.500	X:	0.081	Y:	0.044	Z:	0.766	yaw:	1.956	yaw rate:	11.189	Roll:	6.151	Pitch:	0.982	Yaw:	2.302	Thrust:	64.085
Time:	3.223	Roll Set Point:	-0.164	Pitch Set Point:	-0.086	Yaw Set Point:	-0.032	X_WP:	0.000	Y_WP:	0.000	Y_WP:	0.500	X:	0.081	Y:	0.044	Z:	0.769	yaw:	1.831	yaw rate:	12.505	Roll:	5.609	Pitch:	1.613	Yaw:	1.001	Thrust:	52.152
Time:	3.235	Roll Set Point:	-0.164	Pitch Set Point:	-0.087	Yaw Set Point:	-0.032	X_WP:	0.000	Y_WP:	0.000	Y_WP:	0.500	X:	0.081	Y:	0.045	Z:	0.770	yaw:	1.808	yaw rate:	2.242	Roll:	5.679	Pitch:	0.125	Yaw:	3.219	Thrust:	53.134
Time:	3.247	Roll Set Point:	-0.164	Pitch Set Point:	-0.088	Yaw Set Point:	-0.030	X_WP:	0.000	Y_WP:	0.000	Y_WP:	0.500	X:	0.082	Y:	0.045	Z:	0.772	yaw:	1.702	yaw rate:	10.618	Roll:	5.127	Pitch:	0.926	Yaw:	1.273	Thrust:	46.701
Time:	3.262	Roll Set Point:	-0.165	Pitch Set Point:	-0.088	Yaw Set Point:	-0.031	X_WP:	0.000	Y_WP:	0.000	Y_WP:	0.500	X:	0.082	Y:	0.045	Z:	0.773	yaw:	1.760	yaw rate:	-5.797	Roll:	5.608	Pitch:	-0.701	Yaw:	4.971	Thrust:	75.946
Time:	3.278	Roll Set Point:	-0.165	Pitch Set Point:	-0.089	Yaw Set Point:	-0.029	X_WP:	0.000	Y_WP:	0.000	Y_WP:	0.500	X:	0.082	Y:	0.045	Z:	0.774	yaw:	1.641	yaw rate:	11.903	Roll:	6.096	Pitch:	-0.638	Yaw:	1.846	Thrust:	78.013
Time:	3.290	Roll Set Point:	-0.165	Pitch Set Point:	-0.089	Yaw Set Point:	-0.027	X_WP:	0.000	Y_WP:	0.000	Y_WP:	0.500	X:	0.082	Y:	0.046	Z:	0.777	yaw:	1.535	yaw rate:	10.578	Roll:	5.224	Pitch:	0.850	Yaw:	1.046	Thrust:	48.511
Time:	3.301	Roll Set Point:	-0.165	Pitch Set Point:	-0.090	Yaw Set Point:	-0.026	X_WP:	0.000	Y_WP:	0.000	Y_WP:	0.500	X:	0.082	Y:	0.046	Z:	0.778	yaw:	1.495	yaw rate:	3.986	Roll:	5.063	Pitch:	0.192	Yaw:	2.251	Thrust:	46.640
Time:	3.313	Roll Set Point:	-0.165	Pitch Set Point:	-0.090	Yaw Set Point:	-0.027	X_WP:	0.000	Y_WP:	0.000	Y_WP:	0.500	X:	0.082	Y:	0.046	Z:	0.779	yaw:	1.563	yaw rate:	-6.740	Roll:	5.385	Pitch:	-0.460	Yaw:	4.887	Thrust:	46.811
Time:	3.328	Roll Set Point:	-0.165	Pitch Set Point:	-0.090	Yaw Set Point:	-0.025	X_WP:	0.000	Y_WP:	0.000	Y_WP:	0.500	X:	0.082	Y:	0.046	Z:	0.780	yaw:	1.413	yaw rate:	14.938	Roll:	4.718	Pitch:	0.343	Yaw:	1.011	Thrust:	67.642
Time:	3.340	Roll Set Point:	-0.165	Pitch Set Point:	-0.090	Yaw Set Point:	-0.024	X_WP:	0.000	Y_WP:	0.000	Y_WP:	0.500	X:	0.082	Y:	0.046	Z:	0.780	yaw:	1.365	yaw rate:	4.823	Roll:	5.645	Pitch:	-0.689	Yaw:	2.244	Thrust:	64.674
Time:	3.351	Roll Set Point:	-0.165	Pitch Set Point:	-0.090	Yaw Set Point:	-0.023	X_WP:	0.000	Y_WP:	0.000	Y_WP:	0.500	X:	0.082	Y:	0.046	Z:	0.782	yaw:	1.317	yaw rate:	10.553	Roll:	4.738	Pitch:	0.254	Yaw:	1.808	Thrust:	37.422
Time:	3.362	Roll Set Point:	-0.165	Pitch Set Point:	-0.090	Yaw Set Point:	-0.021	X_WP:	0.000	Y_WP:	0.000	Y_WP:	0.500	X:	0.082	Y:	0.046	Z:	0.782	yaw:	1.227	yaw rate:	9.012	Roll:	4.694	Pitch:	0.041	Yaw:	0.534	Thrust:	49.669
Time:	3.373	Roll Set Point:	-0.164	Pitch Set Point:	-0.090	Yaw Set Point:	-0.021	X_WP:	0.000	Y_WP:	0.000	Y_WP:	0.500	X:	0.082	Y:	0.046	Z:	0.783	yaw:	1.176	yaw rate:	5.137	Roll:	4.628	Pitch:	-0.085	Yaw:	1.435	Thrust:	42.947
