Time:	0.046	Roll Set Point:	0.040	Pitch Set Point:	-0.084	Yaw Set Point:	1.518	X_WP:	0.000	Y_WP:	0.000	Y_WP:	1.000	X:	0.020	Y:	0.061	Z:	0.057	yaw:	-86.948	yaw rate:	-44.201	Roll:	-1.731	Pitch:	0.669	Yaw:	-121.403	Thrust:	51.890
Time:	0.070	Roll Set Point:	0.040	Pitch Set Point:	-0.084	Yaw Set Point:	1.518	X_WP:	0.000	Y_WP:	0.000	Y_WP:	1.000	X:	0.020	Y:	0.061	Z:	0.057	yaw:	-86.968	yaw rate:	1.935	Roll:	-1.763	Pitch:	0.660	Yaw:	-122.350	Thrust:	54.576
Time:	0.088	Roll Set Point:	0.040	Pitch Set Point:	-0.084	Yaw Set Point:	1.528	X_WP:	0.000	Y_WP:	0.000	Y_WP:	1.000	X:	0.020	Y:	0.061	Z:	0.057	yaw:	-87.529	yaw rate:	56.128	Roll:	-1.990	Pitch:	0.259	Yaw:	-131.599	Thrust:	55.577
Time:	0.109	Roll Set Point:	0.041	Pitch Set Point:	-0.082	Yaw Set Point:	1.550	X_WP:	0.000	Y_WP:	0.000	Y_WP:	1.000	X:	0.020	Y:	0.061	Z:	0.057	yaw:	-88.808	yaw rate:	127.867	Roll:	-2.418	Pitch:	-0.742	Yaw:	-141.161	Thrust:	58.641
Time:	0.126	Roll Set Point:	0.041	Pitch Set Point:	-0.082	Yaw Set Point:	1.552	X_WP:	0.000	Y_WP:	0.000	Y_WP:	1.000	X:	0.020	Y:	0.061	Z:	0.057	yaw:	-88.923	yaw rate:	11.505	Roll:	-1.747	Pitch:	0.490	Yaw:	-128.012	Thrust:	59.933
Time:	0.145	Roll Set Point:	0.041	Pitch Set Point:	-0.082	Yaw Set Point:	1.549	X_WP:	0.000	Y_WP:	0.000	Y_WP:	1.000	X:	0.020	Y:	0.061	Z:	0.057	yaw:	-88.765	yaw rate:	-15.817	Roll:	-1.724	Pitch:	0.713	Yaw:	-124.710	Thrust:	63.091
Time:	0.176	Roll Set Point:	0.041	Pitch Set Point:	-0.082	Yaw Set Point:	1.540	X_WP:	0.000	Y_WP:	0.000	Y_WP:	1.000	X:	0.020	Y:	0.061	Z:	0.057	yaw:	-88.264	yaw rate:	-50.049	Roll:	-1.411	Pitch:	0.873	Yaw:	-124.756	Thrust:	68.893
Time:	0.188	Roll Set Point:	0.039	Pitch Set Point:	-0.084	Yaw Set Point:	1.510	X_WP:	0.000	Y_WP:	0.000	Y_WP:	1.000	X:	0.020	Y:	0.060	Z:	0.057	yaw:	-86.545	yaw rate:	-171.913	Roll:	-0.842	Pitch:	2.878	Yaw:	-82.913	Thrust:	65.825
Time:	0.206	Roll Set Point:	0.039	Pitch Set Point:	-0.085	Yaw Set Point:	1.499	X_WP:	0.000	Y_WP:	0.000	Y_WP:	1.000	X:	0.020	Y:	0.060	Z:	0.057	yaw:	-85.874	yaw rate:	-67.120	Roll:	-1.360	Pitch:	1.563	Yaw:	-113.841	Thrust:	66.815
Time:	0.228	Roll Set Point:	0.038	Pitch Set Point:	-0.085	Yaw Set Point:	1.487	X_WP:	0.000	Y_WP:	0.000	Y_WP:	1.000	X:	0.020	Y:	0.060	Z:	0.057	yaw:	-85.202	yaw rate:	-67.122	Roll:	-1.198	Pitch:	1.326	Yaw:	-115.700	Thrust:	73.839
Time:	0.245	Roll Set Point:	0.036	Pitch Set Point:	-0.087	Yaw Set Point:	1.448	X_WP:	0.000	Y_WP:	0.000	Y_WP:	1.000	X:	0.020	Y:	0.060	Z:	0.058	yaw:	-82.972	yaw rate:	-223.067	Roll:	-0.203	Pitch:	3.108	Yaw:	-84.452	Thrust:	70.715
Time:	0.266	Roll Set Point:	0.034	Pitch Set Point:	-0.089	Yaw Set Point:	1.405	X_WP:	0.000	Y_WP:	0.000	Y_WP:	1.000	X:	0.021	Y:	0.059	Z:	0.059	yaw:	-80.499	yaw rate:	-247.248	Roll:	0.126	Pitch:	2.921	Yaw:	-85.276	Thrust:	74.454
Time:	0.287	Roll Set Point:	0.032	Pitch Set Point:	-0.091	Yaw Set Point:	1.363	X_WP:	0.000	Y_WP:	0.000	Y_WP:	1.000	X:	0.021	Y:	0.058	Z:	0.061	yaw:	-78.109	yaw rate:	-239.037	Roll:	-0.138	Pitch:	2.953	Yaw:	-81.531	Thrust:	74.133
Time:	0.308	Roll Set Point:	0.030	Pitch Set Point:	-0.092	Yaw Set Point:	1.336	X_WP:	0.000	Y_WP:	0.000	Y_WP:	1.000	X:	0.021	Y:	0.058	Z:	0.064	yaw:	-76.545	yaw rate:	-156.362	Roll:	-0.095	Pitch:	2.388	Yaw:	-92.206	Thrust:	77.142
Time:	0.326	Roll Set Point:	0.028	Pitch Set Point:	-0.094	Yaw Set Point:	1.292	X_WP:	0.000	Y_WP:	0.000	Y_WP:	1.000	X:	0.022	Y:	0.057	Z:	0.068	yaw:	-74.012	yaw rate:	-253.335	Roll:	0.255	Pitch:	3.197	Yaw:	-71.774	Thrust:	70.755
Time:	0.345	Roll Set Point:	0.025	Pitch Set Point:	-0.094	Yaw Set Point:	1.258	X_WP:	0.000	Y_WP:	0.000	Y_WP:	1.000	X:	0.022	Y:	0.056	Z:	0.073	yaw:	-72.065	yaw rate:	-194.652	Roll:	0.475	Pitch:	2.366	Yaw:	-78.095	Thrust:	71.976
Time:	0.373	Roll Set Point:	0.024	Pitch Set Point:	-0.094	Yaw Set Point:	1.239	X_WP:	0.000	Y_WP:	0.000	Y_WP:	1.000	X:	0.021	Y:	0.056	Z:	0.080	yaw:	-71.003	yaw rate:	-106.258	Roll:	-0.568	Pitch:	1.473	Yaw:	-93.436	Thrust:	83.454
Time:	0.386	Roll Set Point:	0.023	Pitch Set Point:	-0.094	Yaw Set Point:	1.200	X_WP:	0.000	Y_WP:	0.000	Y_WP:	1.000	X:	0.021	Y:	0.055	Z:	0.088	yaw:	-68.767	yaw rate:	-223.618	Roll:	1.022	Pitch:	2.203	Yaw:	-59.389	Thrust:	55.657
Time:	0.405	Roll Set Point:	0.022	Pitch Set Point:	-0.094	Yaw Set Point:	1.176	X_WP:	0.000	Y_WP:	0.000	Y_WP:	1.000	X:	0.021	Y:	0.054	Z:	0.098	yaw:	-67.360	yaw rate:	-140.710	Roll:	-0.046	Pitch:	1.541	Yaw:	-79.138	Thrust:	66.600
Time:	0.429	Roll Set Point:	0.020	Pitch Set Point:	-0.094	Yaw Set Point:	1.131	X_WP:	0.000	Y_WP:	0.000	Y_WP:	1.000	X:	0.020	Y:	0.053	Z:	0.109	yaw:	-64.780	yaw rate:	-257.970	Roll:	0.459	Pitch:	1.578	Yaw:	-66.181	Thrust:	77.652
Time:	0.446	Roll Set Point:	0.020	Pitch Set Point:	-0.091	Yaw Set Point:	1.114	X_WP:	0.000	Y_WP:	0.000	Y_WP:	1.000	X:	0.018	Y:	0.052	Z:	0.122	yaw:	-63.856	yaw rate:	-92.438	Roll:	0.233	Pitch:	0.287	Yaw:	-78.399	Thrust:	53.369
Time:	0.465	Roll Set Point:	0.020	Pitch Set Point:	-0.090	Yaw Set Point:	1.094	X_WP:	0.000	Y_WP:	0.000	Y_WP:	1.000	X:	0.017	Y:	0.051	Z:	0.135	yaw:	-62.683	yaw rate:	-117.295	Roll:	-0.317	Pitch:	0.506	Yaw:	-75.907	Thrust:	63.710
Time:	0.485	Roll Set Point:	0.021	Pitch Set Point:	-0.088	Yaw Set Point:	1.068	X_WP:	0.000	Y_WP:	0.000	Y_WP:	1.000	X:	0.016	Y:	0.050	Z:	0.149	yaw:	-61.171	yaw rate:	-151.174	Roll:	0.022	Pitch:	0.284	Yaw:	-68.628	Thrust:	60.978
Time:	0.508	Roll Set Point:	0.021	Pitch Set Point:	-0.085	Yaw Set Point:	1.048	X_WP:	0.000	Y_WP:	0.000	Y_WP:	1.000	X:	0.014	Y:	0.049	Z:	0.164	yaw:	-60.040	yaw rate:	-113.106	Roll:	-0.173	Pitch:	0.102	Yaw:	-75.981	Thrust:	76.153
Time:	0.525	Roll Set Point:	0.022	Pitch Set Point:	-0.083	Yaw Set Point:	1.020	X_WP:	0.000	Y_WP:	0.000	Y_WP:	1.000	X:	0.012	Y:	0.048	Z:	0.179	yaw:	-58.443	yaw rate:	-159.642	Roll:	-0.405	Pitch:	0.005	Yaw:	-60.589	Thrust:	50.552
Time:	0.546	Roll Set Point:	0.023	Pitch Set Point:	-0.081	Yaw Set Point:	0.991	X_WP:	0.000	Y_WP:	0.000	Y_WP:	1.000	X:	0.010	Y:	0.047	Z:	0.195	yaw:	-56.755	yaw rate:	-168.849	Roll:	-0.195	Pitch:	0.187	Yaw:	-61.485	Thrust:	66.995
Time:	0.570	Roll Set Point:	0.025	Pitch Set Point:	-0.079	Yaw Set Point:	0.966	X_WP:	0.000	Y_WP:	0.000	Y_WP:	1.000	X:	0.008	Y:	0.046	Z:	0.211	yaw:	-55.333	yaw rate:	-142.206	Roll:	-0.812	Pitch:	0.003	Yaw:	-66.681	Thrust:	80.092
Time:	0.584	Roll Set Point:	0.026	Pitch Set Point:	-0.076	Yaw Set Point:	0.944	X_WP:	0.000	Y_WP:	0.000	Y_WP:	1.000	X:	0.006	Y:	0.045	Z:	0.228	yaw:	-54.084	yaw rate:	-124.874	Roll:	-0.427	Pitch:	-0.791	Yaw:	-56.042	Thrust:	37.351
Time:	0.606	Roll Set Point:	0.028	Pitch Set Point:	-0.074	Yaw Set Point:	0.916	X_WP:	0.000	Y_WP:	0.000	Y_WP:	1.000	X:	0.004	Y:	0.044	Z:	0.245	yaw:	-52.457	yaw rate:	-162.755	Roll:	-0.647	Pitch:	0.013	Yaw:	-57.331	Thrust:	65.886
Time:	0.630	Roll Set Point:	0.029	Pitch Set Point:	-0.073	Yaw Set Point:	0.863	X_WP:	0.000	Y_WP:	0.000	Y_WP:	1.000	X:	0.002	Y:	0.043	Z:	0.263	yaw:	-49.455	yaw rate:	-300.127	Roll:	-0.371	Pitch:	0.735	Yaw:	-40.761	Thrust:	83.967
Time:	0.645	Roll Set Point:	0.031	Pitch Set Point:	-0.071	Yaw Set Point:	0.846	X_WP:	0.000	Y_WP:	0.000	Y_WP:	1.000	X:	0.001	Y:	0.042	Z:	0.281	yaw:	-48.488	yaw rate:	-96.765	Roll:	-0.907	Pitch:	-0.850	Yaw:	-55.119	Thrust:	36.625
Time:	0.665	Roll Set Point:	0.033	Pitch Set Point:	-0.069	Yaw Set Point:	0.806	X_WP:	0.000	Y_WP:	0.000	Y_WP:	1.000	X:	-0.002	Y:	0.041	Z:	0.299	yaw:	-46.206	yaw rate:	-228.157	Roll:	-0.983	Pitch:	0.052	Yaw:	-38.895	Thrust:	67.499
Time:	0.684	Roll Set Point:	0.035	Pitch Set Point:	-0.067	Yaw Set Point:	0.804	X_WP:	0.000	Y_WP:	0.000	Y_WP:	1.000	X:	-0.004	Y:	0.041	Z:	0.318	yaw:	-46.062	yaw rate:	-14.363	Roll:	-1.596	Pitch:	-0.758	Yaw:	-65.894	Thrust:	52.791
Time:	0.711	Roll Set Point:	0.038	Pitch Set Point:	-0.065	Yaw Set Point:	0.763	X_WP:	0.000	Y_WP:	0.000	Y_WP:	1.000	X:	-0.006	Y:	0.040	Z:	0.337	yaw:	-43.730	yaw rate:	-233.253	Roll:	-1.027	Pitch:	0.152	Yaw:	-43.948	Thrust:	96.560
Time:	0.726	Roll Set Point:	0.039	Pitch Set Point:	-0.064	Yaw Set Point:	0.723	X_WP:	0.000	Y_WP:	0.000	Y_WP:	1.000	X:	-0.008	Y:	0.039	Z:	0.356	yaw:	-41.425	yaw rate:	-230.503	Roll:	-0.884	Pitch:	0.238	Yaw:	-19.932	Thrust:	28.073
Time:	0.745	Roll Set Point:	0.043	Pitch Set Point:	-0.062	Yaw Set Point:	0.714	X_WP:	0.000	Y_WP:	0.000	Y_WP:	1.000	X:	-0.010	Y:	0.039	Z:	0.376	yaw:	-40.911	yaw rate:	-51.339	Roll:	-2.045	Pitch:	-0.587	Yaw:	-54.199	Thrust:	59.732
Time:	0.772	Roll Set Point:	0.046	Pitch Set Point:	-0.060	Yaw Set Point:	0.699	X_WP:	0.000	Y_WP:	0.000	Y_WP:	1.000	X:	-0.012	Y:	0.038	Z:	0.396	yaw:	-40.066	yaw rate:	-84.593	Roll:	-1.698	Pitch:	-0.157	Yaw:	-52.951	Thrust:	100.000
Time:	0.785	Roll Set Point:	0.048	Pitch Set Point:	-0.058	Yaw Set Point:	0.662	X_WP:	0.000	Y_WP:	0.000	Y_WP:	1.000	X:	-0.014	Y:	0.037	Z:	0.417	yaw:	-37.931	yaw rate:	-213.420	Roll:	-1.151	Pitch:	-0.241	Yaw:	-13.268	Thrust:	12.398
Time:	0.805	Roll Set Point:	0.052	Pitch Set Point:	-0.057	Yaw Set Point:	0.647	X_WP:	0.000	Y_WP:	0.000	Y_WP:	1.000	X:	-0.016	Y:	0.037	Z:	0.436	yaw:	-37.044	yaw rate:	-88.749	Roll:	-2.365	Pitch:	-0.288	Yaw:	-43.821	Thrust:	61.148
Time:	0.828	Roll Set Point:	0.055	Pitch Set Point:	-0.055	Yaw Set Point:	0.627	X_WP:	0.000	Y_WP:	0.000	Y_WP:	1.000	X:	-0.018	Y:	0.037	Z:	0.456	yaw:	-35.927	yaw rate:	-111.650	Roll:	-1.777	Pitch:	-0.045	Yaw:	-41.907	Thrust:	79.779
Time:	0.846	Roll Set Point:	0.057	Pitch Set Point:	-0.055	Yaw Set Point:	0.602	X_WP:	0.000	Y_WP:	0.000	Y_WP:	1.000	X:	-0.020	Y:	0.036	Z:	0.476	yaw:	-34.518	yaw rate:	-140.908	Roll:	-1.788	Pitch:	0.320	Yaw:	-31.360	Thrust:	51.288
Time:	0.866	Roll Set Point:	0.059	Pitch Set Point:	-0.052	Yaw Set Point:	0.600	X_WP:	0.000	Y_WP:	0.000	Y_WP:	1.000	X:	-0.022	Y:	0.035	Z:	0.495	yaw:	-34.378	yaw rate:	-13.976	Roll:	-1.960	Pitch:	-0.866	Yaw:	-50.224	Thrust:	64.601
Time:	0.885	Roll Set Point:	0.062	Pitch Set Point:	-0.051	Yaw Set Point:	0.580	X_WP:	0.000	Y_WP:	0.000	Y_WP:	1.000	X:	-0.023	Y:	0.035	Z:	0.513	yaw:	-33.212	yaw rate:	-116.664	Roll:	-1.781	Pitch:	0.233	Yaw:	-33.943	Thrust:	63.586
Time:	0.909	Roll Set Point:	0.064	Pitch Set Point:	-0.050	Yaw Set Point:	0.561	X_WP:	0.000	Y_WP:	0.000	Y_WP:	1.000	X:	-0.025	Y:	0.034	Z:	0.531	yaw:	-32.153	yaw rate:	-105.876	Roll:	-1.725	Pitch:	0.027	Yaw:	-38.193	Thrust:	89.501
Time:	0.926	Roll Set Point:	0.066	Pitch Set Point:	-0.049	Yaw Set Point:	0.548	X_WP:	0.000	Y_WP:	0.000	Y_WP:	1.000	X:	-0.026	Y:	0.034	Z:	0.548	yaw:	-31.388	yaw rate:	-76.542	Roll:	-1.820	Pitch:	-0.253	Yaw:	-35.672	Thrust:	51.507
Time:	0.945	Roll Set Point:	0.068	Pitch Set Point:	-0.049	Yaw Set Point:	0.518	X_WP:	0.000	Y_WP:	0.000	Y_WP:	1.000	X:	-0.027	Y:	0.033	Z:	0.566	yaw:	-29.697	yaw rate:	-169.054	Roll:	-1.687	Pitch:	0.786	Yaw:	-22.518	Thrust:	69.443
Time:	0.972	Roll Set Point:	0.069	Pitch Set Point:	-0.047	Yaw Set Point:	0.513	X_WP:	0.000	Y_WP:	0.000	Y_WP:	1.000	X:	-0.029	Y:	0.033	Z:	0.584	yaw:	-29.378	yaw rate:	-31.870	Roll:	-1.746	Pitch:	-0.272	Yaw:	-43.037	Thrust:	100.000
Time:	0.995	Roll Set Point:	0.071	Pitch Set Point:	-0.047	Yaw Set Point:	0.474	X_WP:	0.000	Y_WP:	0.000	Y_WP:	1.000	X:	-0.030	Y:	0.032	Z:	0.612	yaw:	-27.166	yaw rate:	-221.232	Roll:	-1.658	Pitch:	0.768	Yaw:	-18.772	Thrust:	78.374
Time:	1.015	Roll Set Point:	0.073	Pitch Set Point:	-0.046	Yaw Set Point:	0.465	X_WP:	0.000	Y_WP:	0.000	Y_WP:	1.000	X:	-0.031	Y:	0.032	Z:	0.630	yaw:	-26.668	yaw rate:	-49.792	Roll:	-1.989	Pitch:	0.145	Yaw:	-34.407	Thrust:	62.339
Time:	1.041	Roll Set Point:	0.074	Pitch Set Point:	-0.045	Yaw Set Point:	0.451	X_WP:	0.000	Y_WP:	0.000	Y_WP:	1.000	X:	-0.032	Y:	0.031	Z:	0.651	yaw:	-25.835	yaw rate:	-83.326	Roll:	-1.240	Pitch:	0.243	Yaw:	-32.372	Thrust:	94.772
Time:	1.055	Roll Set Point:	0.075	Pitch Set Point:	-0.043	Yaw Set Point:	0.443	X_WP:	0.000	Y_WP:	0.000	Y_WP:	1.000	X:	-0.032	Y:	0.030	Z:	0.671	yaw:	-25.392	yaw rate:	-44.278	Roll:	-1.573	Pitch:	-0.379	Yaw:	-30.458	Thrust:	20.756
Time:	1.076	Roll Set Point:	0.075	Pitch Set Point:	-0.042	Yaw Set Point:	0.434	X_WP:	0.000	Y_WP:	0.000	Y_WP:	1.000	X:	-0.033	Y:	0.029	Z:	0.693	yaw:	-24.880	yaw rate:	-51.180	Roll:	-1.350	Pitch:	0.166	Yaw:	-32.545	Thrust:	65.121
Time:	1.096	Roll Set Point:	0.076	Pitch Set Point:	-0.041	Yaw Set Point:	0.432	X_WP:	0.000	Y_WP:	0.000	Y_WP:	1.000	X:	-0.034	Y:	0.029	Z:	0.715	yaw:	-24.778	yaw rate:	-10.282	Roll:	-1.663	Pitch:	-0.164	Yaw:	-37.272	Thrust:	57.431
Time:	1.115	Roll Set Point:	0.077	Pitch Set Point:	-0.041	Yaw Set Point:	0.410	X_WP:	0.000	Y_WP:	0.000	Y_WP:	1.000	X:	-0.034	Y:	0.028	Z:	0.739	yaw:	-23.474	yaw rate:	-130.306	Roll:	-1.249	Pitch:	0.577	Yaw:	-18.830	Thrust:	48.341
Time:	1.135	Roll Set Point:	0.076	Pitch Set Point:	-0.038	Yaw Set Point:	0.414	X_WP:	0.000	Y_WP:	0.000	Y_WP:	1.000	X:	-0.034	Y:	0.027	Z:	0.762	yaw:	-23.744	yaw rate:	26.963	Roll:	-0.917	Pitch:	-0.525	Yaw:	-40.693	Thrust:	55.706
Time:	1.156	Roll Set Point:	0.076	Pitch Set Point:	-0.038	Yaw Set Point:	0.384	X_WP:	0.000	Y_WP:	0.000	Y_WP:	1.000	X:	-0.034	Y:	0.026	Z:	0.785	yaw:	-21.977	yaw rate:	-176.684	Roll:	-0.986	Pitch:	0.827	Yaw:	-12.704	Thrust:	60.041
Time:	1.177	Roll Set Point:	0.075	Pitch Set Point:	-0.037	Yaw Set Point:	0.369	X_WP:	0.000	Y_WP:	0.000	Y_WP:	1.000	X:	-0.034	Y:	0.026	Z:	0.808	yaw:	-21.115	yaw rate:	-86.242	Roll:	-0.769	Pitch:	0.232	Yaw:	-22.614	Thrust:	57.239
Time:	1.194	Roll Set Point:	0.074	Pitch Set Point:	-0.036	Yaw Set Point:	0.355	X_WP:	0.000	Y_WP:	0.000	Y_WP:	1.000	X:	-0.034	Y:	0.025	Z:	0.830	yaw:	-20.337	yaw rate:	-77.789	Roll:	-0.576	Pitch:	0.165	Yaw:	-20.549	Thrust:	36.944
Time:	1.215	Roll Set Point:	0.074	Pitch Set Point:	-0.035	Yaw Set Point:	0.350	X_WP:	0.000	Y_WP:	0.000	Y_WP:	1.000	X:	-0.034	Y:	0.024	Z:	0.852	yaw:	-20.027	yaw rate:	-31.039	Roll:	-1.172	Pitch:	0.049	Yaw:	-28.187	Thrust:	58.944
Time:	1.240	Roll Set Point:	0.072	Pitch Set Point:	-0.034	Yaw Set Point:	0.332	X_WP:	0.000	Y_WP:	0.000	Y_WP:	1.000	X:	-0.033	Y:	0.023	Z:	0.874	yaw:	-19.024	yaw rate:	-100.266	Roll:	-0.597	Pitch:	0.354	Yaw:	-20.793	Thrust:	83.528
Time:	1.254	Roll Set Point:	0.071	Pitch Set Point:	-0.032	Yaw Set Point:	0.324	X_WP:	0.000	Y_WP:	0.000	Y_WP:	1.000	X:	-0.033	Y:	0.022	Z:	0.896	yaw:	-18.562	yaw rate:	-46.171	Roll:	-0.336	Pitch:	-0.143	Yaw:	-20.549	Thrust:	0.000
Time:	1.275	Roll Set Point:	0.070	Pitch Set Point:	-0.031	Yaw Set Point:	0.314	X_WP:	0.000	Y_WP:	0.000	Y_WP:	1.000	X:	-0.032	Y:	0.021	Z:	0.917	yaw:	-18.019	yaw rate:	-54.355	Roll:	-0.566	Pitch:	0.130	Yaw:	-22.445	Thrust:	64.768
Time:	1.297	Roll Set Point:	0.069	Pitch Set Point:	-0.030	Yaw Set Point:	0.303	X_WP:	0.000	Y_WP:	0.000	Y_WP:	1.000	X:	-0.032	Y:	0.020	Z:	0.938	yaw:	-17.354	yaw rate:	-66.512	Roll:	-0.630	Pitch:	0.125	Yaw:	-20.566	Thrust:	57.532
Time:	1.314	Roll Set Point:	0.067	Pitch Set Point:	-0.029	Yaw Set Point:	0.289	X_WP:	0.000	Y_WP:	0.000	Y_WP:	1.000	X:	-0.031	Y:	0.019	Z:	0.958	yaw:	-16.567	yaw rate:	-78.639	Roll:	-0.038	Pitch:	0.131	Yaw:	-14.703	Thrust:	39.277
Time:	1.335	Roll Set Point:	0.066	Pitch Set Point:	-0.028	Yaw Set Point:	0.287	X_WP:	0.000	Y_WP:	0.000	Y_WP:	1.000	X:	-0.031	Y:	0.019	Z:	0.978	yaw:	-16.448	yaw rate:	-11.869	Roll:	-0.700	Pitch:	-0.121	Yaw:	-25.565	Thrust:	56.197
Time:	1.356	Roll Set Point:	0.064	Pitch Set Point:	-0.026	Yaw Set Point:	0.279	X_WP:	0.000	Y_WP:	0.000	Y_WP:	1.000	X:	-0.030	Y:	0.017	Z:	0.998	yaw:	-15.985	yaw rate:	-46.346	Roll:	-0.032	Pitch:	-0.128	Yaw:	-20.680	Thrust:	57.517
Time:	1.377	Roll Set Point:	0.063	Pitch Set Point:	-0.025	Yaw Set Point:	0.280	X_WP:	0.000	Y_WP:	0.000	Y_WP:	1.000	X:	-0.030	Y:	0.017	Z:	1.017	yaw:	-16.056	yaw rate:	7.078	Roll:	-0.808	Pitch:	-0.267	Yaw:	-27.510	Thrust:	56.963
Time:	1.395	Roll Set Point:	0.062	Pitch Set Point:	-0.023	Yaw Set Point:	0.286	X_WP:	0.000	Y_WP:	0.000	Y_WP:	1.000	X:	-0.029	Y:	0.016	Z:	1.036	yaw:	-16.365	yaw rate:	30.903	Roll:	-0.527	Pitch:	-0.521	Yaw:	-30.936	Thrust:	42.948
Time:	1.415	Roll Set Point:	0.060	Pitch Set Point:	-0.021	Yaw Set Point:	0.281	X_WP:	0.000	Y_WP:	0.000	Y_WP:	1.000	X:	-0.029	Y:	0.015	Z:	1.054	yaw:	-16.092	yaw rate:	-27.332	Roll:	-0.048	Pitch:	-0.284	Yaw:	-22.931	Thrust:	46.115
Time:	1.442	Roll Set Point:	0.058	Pitch Set Point:	-0.020	Yaw Set Point:	0.276	X_WP:	0.000	Y_WP:	0.000	Y_WP:	1.000	X:	-0.028	Y:	0.014	Z:	1.071	yaw:	-15.804	yaw rate:	-28.741	Roll:	-0.449	Pitch:	-0.051	Yaw:	-24.727	Thrust:	100.000
Time:	1.455	Roll Set Point:	0.057	Pitch Set Point:	-0.018	Yaw Set Point:	0.273	X_WP:	0.000	Y_WP:	0.000	Y_WP:	1.000	X:	-0.027	Y:	0.013	Z:	1.088	yaw:	-15.662	yaw rate:	-14.231	Roll:	0.199	Pitch:	-0.699	Yaw:	-21.687	Thrust:	4.224
Time:	1.476	Roll Set Point:	0.055	Pitch Set Point:	-0.017	Yaw Set Point:	0.268	X_WP:	0.000	Y_WP:	0.000	Y_WP:	1.000	X:	-0.026	Y:	0.012	Z:	1.105	yaw:	-15.341	yaw rate:	-32.116	Roll:	-0.150	Pitch:	-0.143	Yaw:	-21.365	Thrust:	55.061
Time:	1.496	Roll Set Point:	0.053	Pitch Set Point:	-0.015	Yaw Set Point:	0.262	X_WP:	0.000	Y_WP:	0.000	Y_WP:	1.000	X:	-0.025	Y:	0.011	Z:	1.121	yaw:	-15.018	yaw rate:	-32.282	Roll:	0.060	Pitch:	-0.338	Yaw:	-20.378	Thrust:	46.941
Time:	1.514	Roll Set Point:	0.051	Pitch Set Point:	-0.013	Yaw Set Point:	0.265	X_WP:	0.000	Y_WP:	0.000	Y_WP:	1.000	X:	-0.025	Y:	0.010	Z:	1.137	yaw:	-15.184	yaw rate:	16.570	Roll:	-0.089	Pitch:	-0.516	Yaw:	-27.291	Thrust:	45.628
Time:	1.535	Roll Set Point:	0.050	Pitch Set Point:	-0.012	Yaw Set Point:	0.265	X_WP:	0.000	Y_WP:	0.000	Y_WP:	1.000	X:	-0.024	Y:	0.009	Z:	1.152	yaw:	-15.210	yaw rate:	2.664	Roll:	-0.155	Pitch:	-0.302	Yaw:	-25.807	Thrust:	60.170
Time:	1.555	Roll Set Point:	0.048	Pitch Set Point:	-0.010	Yaw Set Point:	0.259	X_WP:	0.000	Y_WP:	0.000	Y_WP:	1.000	X:	-0.023	Y:	0.008	Z:	1.166	yaw:	-14.839	yaw rate:	-37.128	Roll:	-0.015	Pitch:	-0.573	Yaw:	-19.920	Thrust:	53.665
Time:	1.575	Roll Set Point:	0.046	Pitch Set Point:	-0.008	Yaw Set Point:	0.262	X_WP:	0.000	Y_WP:	0.000	Y_WP:	1.000	X:	-0.022	Y:	0.007	Z:	1.180	yaw:	-15.015	yaw rate:	17.608	Roll:	0.250	Pitch:	-0.729	Yaw:	-27.275	Thrust:	54.193
Time:	1.595	Roll Set Point:	0.044	Pitch Set Point:	-0.006	Yaw Set Point:	0.259	X_WP:	0.000	Y_WP:	0.000	Y_WP:	1.000	X:	-0.022	Y:	0.006	Z:	1.192	yaw:	-14.813	yaw rate:	-20.211	Roll:	0.095	Pitch:	-0.490	Yaw:	-21.582	Thrust:	46.869
Time:	1.614	Roll Set Point:	0.042	Pitch Set Point:	-0.005	Yaw Set Point:	0.255	X_WP:	0.000	Y_WP:	0.000	Y_WP:	1.000	X:	-0.021	Y:	0.005	Z:	1.204	yaw:	-14.615	yaw rate:	-19.744	Roll:	-0.031	Pitch:	-0.468	Yaw:	-21.901	Thrust:	57.140
Time:	1.640	Roll Set Point:	0.040	Pitch Set Point:	-0.003	Yaw Set Point:	0.241	X_WP:	0.000	Y_WP:	0.000	Y_WP:	1.000	X:	-0.020	Y:	0.004	Z:	1.215	yaw:	-13.810	yaw rate:	-80.574	Roll:	0.098	Pitch:	-0.220	Yaw:	-15.884	Thrust:	84.123
Time:	1.654	Roll Set Point:	0.039	Pitch Set Point:	-0.002	Yaw Set Point:	0.237	X_WP:	0.000	Y_WP:	0.000	Y_WP:	1.000	X:	-0.019	Y:	0.003	Z:	1.225	yaw:	-13.553	yaw rate:	-25.644	Roll:	0.121	Pitch:	-0.579	Yaw:	-17.489	Thrust:	25.594
Time:	1.676	Roll Set Point:	0.037	Pitch Set Point:	0.000	Yaw Set Point:	0.237	X_WP:	0.000	Y_WP:	0.000	Y_WP:	1.000	X:	-0.018	Y:	0.002	Z:	1.236	yaw:	-13.556	yaw rate:	0.324	Roll:	0.251	Pitch:	-0.722	Yaw:	-23.098	Thrust:	58.681
Time:	1.701	Roll Set Point:	0.035	Pitch Set Point:	0.001	Yaw Set Point:	0.229	X_WP:	0.000	Y_WP:	0.000	Y_WP:	1.000	X:	-0.018	Y:	0.002	Z:	1.245	yaw:	-13.099	yaw rate:	-45.778	Roll:	-0.184	Pitch:	-0.207	Yaw:	-18.742	Thrust:	86.395
Time:	1.715	Roll Set Point:	0.033	Pitch Set Point:	0.003	Yaw Set Point:	0.216	X_WP:	0.000	Y_WP:	0.000	Y_WP:	1.000	X:	-0.017	Y:	0.000	Z:	1.255	yaw:	-12.350	yaw rate:	-74.843	Roll:	0.731	Pitch:	-0.877	Yaw:	-6.242	Thrust:	19.440
Time:	1.735	Roll Set Point:	0.032	Pitch Set Point:	0.005	Yaw Set Point:	0.224	X_WP:	0.000	Y_WP:	0.000	Y_WP:	1.000	X:	-0.016	Y:	-0.001	Z:	1.264	yaw:	-12.829	yaw rate:	47.875	Roll:	0.067	Pitch:	-0.711	Yaw:	-28.201	Thrust:	53.951
Time:	1.755	Roll Set Point:	0.030	Pitch Set Point:	0.006	Yaw Set Point:	0.217	X_WP:	0.000	Y_WP:	0.000	Y_WP:	1.000	X:	-0.015	Y:	-0.001	Z:	1.273	yaw:	-12.448	yaw rate:	-38.145	Roll:	0.230	Pitch:	-0.583	Yaw:	-16.718	Thrust:	53.287
Time:	1.775	Roll Set Point:	0.028	Pitch Set Point:	0.007	Yaw Set Point:	0.194	X_WP:	0.000	Y_WP:	0.000	Y_WP:	1.000	X:	-0.014	Y:	-0.002	Z:	1.280	yaw:	-11.115	yaw rate:	-133.239	Roll:	0.163	Pitch:	-0.194	Yaw:	-2.154	Thrust:	58.641
Time:	1.794	Roll Set Point:	0.026	Pitch Set Point:	0.009	Yaw Set Point:	0.209	X_WP:	0.000	Y_WP:	0.000	Y_WP:	1.000	X:	-0.014	Y:	-0.003	Z:	1.288	yaw:	-11.958	yaw rate:	84.297	Roll:	0.338	Pitch:	-0.999	Yaw:	-32.500	Thrust:	47.724
Time:	1.815	Roll Set Point:	0.025	Pitch Set Point:	0.010	Yaw Set Point:	0.201	X_WP:	0.000	Y_WP:	0.000	Y_WP:	1.000	X:	-0.013	Y:	-0.004	Z:	1.295	yaw:	-11.495	yaw rate:	-46.323	Roll:	0.337	Pitch:	-0.564	Yaw:	-14.651	Thrust:	62.790
Time:	1.839	Roll Set Point:	0.023	Pitch Set Point:	0.011	Yaw Set Point:	0.195	X_WP:	0.000	Y_WP:	0.000	Y_WP:	1.000	X:	-0.012	Y:	-0.005	Z:	1.301	yaw:	-11.156	yaw rate:	-33.843	Roll:	0.205	Pitch:	-0.415	Yaw:	-16.702	Thrust:	73.942
Time:	1.855	Roll Set Point:	0.021	Pitch Set Point:	0.012	Yaw Set Point:	0.171	X_WP:	0.000	Y_WP:	0.000	Y_WP:	1.000	X:	-0.011	Y:	-0.005	Z:	1.306	yaw:	-9.781	yaw rate:	-137.512	Roll:	0.235	Pitch:	-0.460	Yaw:	5.389	Thrust:	40.134
Time:	1.876	Roll Set Point:	0.020	Pitch Set Point:	0.014	Yaw Set Point:	0.171	X_WP:	0.000	Y_WP:	0.000	Y_WP:	1.000	X:	-0.010	Y:	-0.006	Z:	1.311	yaw:	-9.803	yaw rate:	2.202	Roll:	0.263	Pitch:	-0.732	Yaw:	-17.991	Thrust:	56.956
Time:	1.896	Roll Set Point:	0.018	Pitch Set Point:	0.015	Yaw Set Point:	0.158	X_WP:	0.000	Y_WP:	0.000	Y_WP:	1.000	X:	-0.010	Y:	-0.007	Z:	1.316	yaw:	-9.080	yaw rate:	-72.339	Roll:	0.139	Pitch:	-0.354	Yaw:	-7.714	Thrust:	55.079
Time:	1.915	Roll Set Point:	0.017	Pitch Set Point:	0.016	Yaw Set Point:	0.157	X_WP:	0.000	Y_WP:	0.000	Y_WP:	1.000	X:	-0.009	Y:	-0.007	Z:	1.320	yaw:	-8.992	yaw rate:	-8.804	Roll:	0.249	Pitch:	-0.614	Yaw:	-15.027	Thrust:	53.838
Time:	1.935	Roll Set Point:	0.016	Pitch Set Point:	0.016	Yaw Set Point:	0.148	X_WP:	0.000	Y_WP:	0.000	Y_WP:	1.000	X:	-0.008	Y:	-0.008	Z:	1.324	yaw:	-8.488	yaw rate:	-50.397	Roll:	0.124	Pitch:	-0.363	Yaw:	-9.516	Thrust:	58.394
Time:	1.955	Roll Set Point:	0.014	Pitch Set Point:	0.017	Yaw Set Point:	0.141	X_WP:	0.000	Y_WP:	0.000	Y_WP:	1.000	X:	-0.008	Y:	-0.008	Z:	1.328	yaw:	-8.055	yaw rate:	-43.256	Roll:	0.179	Pitch:	-0.436	Yaw:	-9.678	Thrust:	56.199
Time:	1.975	Roll Set Point:	0.013	Pitch Set Point:	0.018	Yaw Set Point:	0.140	X_WP:	0.000	Y_WP:	0.000	Y_WP:	1.000	X:	-0.007	Y:	-0.009	Z:	1.331	yaw:	-8.037	yaw rate:	-1.872	Roll:	0.238	Pitch:	-0.626	Yaw:	-14.991	Thrust:	54.824
Time:	1.995	Roll Set Point:	0.012	Pitch Set Point:	0.019	Yaw Set Point:	0.129	X_WP:	0.000	Y_WP:	0.000	Y_WP:	1.000	X:	-0.007	Y:	-0.009	Z:	1.335	yaw:	-7.415	yaw rate:	-62.201	Roll:	0.058	Pitch:	-0.380	Yaw:	-5.903	Thrust:	52.360
Time:	2.014	Roll Set Point:	0.011	Pitch Set Point:	0.019	Yaw Set Point:	0.127	X_WP:	0.000	Y_WP:	0.000	Y_WP:	1.000	X:	-0.006	Y:	-0.009	Z:	1.338	yaw:	-7.305	yaw rate:	-10.977	Roll:	0.215	Pitch:	-0.481	Yaw:	-12.540	Thrust:	50.153
Time:	2.041	Roll Set Point:	0.010	Pitch Set Point:	0.020	Yaw Set Point:	0.123	X_WP:	0.000	Y_WP:	0.000	Y_WP:	1.000	X:	-0.006	Y:	-0.010	Z:	1.341	yaw:	-7.041	yaw rate:	-26.427	Roll:	0.010	Pitch:	-0.260	Yaw:	-12.685	Thrust:	82.859
Time:	2.054	Roll Set Point:	0.009	Pitch Set Point:	0.020	Yaw Set Point:	0.111	X_WP:	0.000	Y_WP:	0.000	Y_WP:	1.000	X:	-0.005	Y:	-0.010	Z:	1.344	yaw:	-6.370	yaw rate:	-67.085	Roll:	0.102	Pitch:	-0.123	Yaw:	2.574	Thrust:	19.472
Time:	2.075	Roll Set Point:	0.008	Pitch Set Point:	0.020	Yaw Set Point:	0.106	X_WP:	0.000	Y_WP:	0.000	Y_WP:	1.000	X:	-0.005	Y:	-0.010	Z:	1.346	yaw:	-6.080	yaw rate:	-29.012	Roll:	0.047	Pitch:	-0.331	Yaw:	-9.268	Thrust:	58.353
Time:	2.103	Roll Set Point:	0.008	Pitch Set Point:	0.020	Yaw Set Point:	0.090	X_WP:	0.000	Y_WP:	0.000	Y_WP:	1.000	X:	-0.005	Y:	-0.010	Z:	1.349	yaw:	-5.153	yaw rate:	-92.683	Roll:	-0.312	Pitch:	-0.116	Yaw:	-3.998	Thrust:	78.388
Time:	2.115	Roll Set Point:	0.007	Pitch Set Point:	0.020	Yaw Set Point:	0.079	X_WP:	0.000	Y_WP:	0.000	Y_WP:	1.000	X:	-0.004	Y:	-0.010	Z:	1.351	yaw:	-4.535	yaw rate:	-61.799	Roll:	0.370	Pitch:	-0.181	Yaw:	4.525	Thrust:	23.697
Time:	2.135	Roll Set Point:	0.006	Pitch Set Point:	0.020	Yaw Set Point:	0.084	X_WP:	0.000	Y_WP:	0.000	Y_WP:	1.000	X:	-0.003	Y:	-0.010	Z:	1.352	yaw:	-4.833	yaw rate:	29.859	Roll:	0.343	Pitch:	-0.327	Yaw:	-14.657	Thrust:	51.472
Time:	2.156	Roll Set Point:	0.006	Pitch Set Point:	0.020	Yaw Set Point:	0.097	X_WP:	0.000	Y_WP:	0.000	Y_WP:	1.000	X:	-0.003	Y:	-0.010	Z:	1.353	yaw:	-5.537	yaw rate:	70.365	Roll:	-0.084	Pitch:	-0.285	Yaw:	-20.676	Thrust:	56.507
Time:	2.175	Roll Set Point:	0.005	Pitch Set Point:	0.020	Yaw Set Point:	0.076	X_WP:	0.000	Y_WP:	0.000	Y_WP:	1.000	X:	-0.003	Y:	-0.010	Z:	1.354	yaw:	-4.373	yaw rate:	-116.449	Roll:	0.115	Pitch:	-0.025	Yaw:	6.619	Thrust:	46.639
Time:	2.196	Roll Set Point:	0.004	Pitch Set Point:	0.019	Yaw Set Point:	0.072	X_WP:	0.000	Y_WP:	0.000	Y_WP:	1.000	X:	-0.002	Y:	-0.010	Z:	1.354	yaw:	-4.122	yaw rate:	-25.069	Roll:	-0.036	Pitch:	-0.062	Yaw:	-6.508	Thrust:	53.384
Time:	2.215	Roll Set Point:	0.004	Pitch Set Point:	0.019	Yaw Set Point:	0.067	X_WP:	0.000	Y_WP:	0.000	Y_WP:	1.000	X:	-0.002	Y:	-0.010	Z:	1.353	yaw:	-3.830	yaw rate:	-29.156	Roll:	0.002	Pitch:	-0.100	Yaw:	-5.716	Thrust:	55.392
Time:	2.242	Roll Set Point:	0.003	Pitch Set Point:	0.019	Yaw Set Point:	0.063	X_WP:	0.000	Y_WP:	0.000	Y_WP:	1.000	X:	-0.002	Y:	-0.009	Z:	1.351	yaw:	-3.627	yaw rate:	-20.354	Roll:	-0.149	Pitch:	-0.034	Yaw:	-8.188	Thrust:	74.466
Time:	2.255	Roll Set Point:	0.003	Pitch Set Point:	0.019	Yaw Set Point:	0.075	X_WP:	0.000	Y_WP:	0.000	Y_WP:	1.000	X:	-0.002	Y:	-0.009	Z:	1.349	yaw:	-4.272	yaw rate:	64.483	Roll:	-0.092	Pitch:	-0.172	Yaw:	-21.105	Thrust:	35.583
Time:	2.275	Roll Set Point:	0.002	Pitch Set Point:	0.018	Yaw Set Point:	0.056	X_WP:	0.000	Y_WP:	0.000	Y_WP:	1.000	X:	-0.001	Y:	-0.009	Z:	1.346	yaw:	-3.219	yaw rate:	-105.241	Roll:	0.028	Pitch:	0.220	Yaw:	4.692	Thrust:	57.446
Time:	2.299	Roll Set Point:	0.002	Pitch Set Point:	0.017	Yaw Set Point:	0.055	X_WP:	0.000	Y_WP:	0.000	Y_WP:	1.000	X:	-0.001	Y:	-0.009	Z:	1.343	yaw:	-3.127	yaw rate:	-9.258	Roll:	-0.110	Pitch:	-0.016	Yaw:	-7.970	Thrust:	64.179
Time:	2.314	Roll Set Point:	0.002	Pitch Set Point:	0.017	Yaw Set Point:	0.052	X_WP:	0.000	Y_WP:	0.000	Y_WP:	1.000	X:	-0.001	Y:	-0.008	Z:	1.340	yaw:	-2.994	yaw rate:	-13.236	Roll:	-0.065	Pitch:	0.109	Yaw:	-5.133	Thrust:	44.593
Time:	2.335	Roll Set Point:	0.002	Pitch Set Point:	0.016	Yaw Set Point:	0.062	X_WP:	0.000	Y_WP:	0.000	Y_WP:	1.000	X:	-0.001	Y:	-0.008	Z:	1.336	yaw:	-3.573	yaw rate:	57.907	Roll:	-0.252	Pitch:	-0.008	Yaw:	-16.462	Thrust:	56.095
Time:	2.355	Roll Set Point:	0.002	Pitch Set Point:	0.016	Yaw Set Point:	0.059	X_WP:	0.000	Y_WP:	0.000	Y_WP:	1.000	X:	-0.001	Y:	-0.008	Z:	1.333	yaw:	-3.391	yaw rate:	-18.260	Roll:	-0.192	Pitch:	0.110	Yaw:	-6.372	Thrust:	57.448
Time:	2.375	Roll Set Point:	0.001	Pitch Set Point:	0.015	Yaw Set Point:	0.025	X_WP:	0.000	Y_WP:	0.000	Y_WP:	1.000	X:	-0.001	Y:	-0.007	Z:	1.329	yaw:	-1.427	yaw rate:	-196.357	Roll:	-0.007	Pitch:	0.298	Yaw:	19.357	Thrust:	55.906
Time:	2.395	Roll Set Point:	0.001	Pitch Set Point:	0.013	Yaw Set Point:	0.025	X_WP:	0.000	Y_WP:	0.000	Y_WP:	1.000	X:	-0.001	Y:	-0.007	Z:	1.324	yaw:	-1.429	yaw rate:	0.194	Roll:	-0.222	Pitch:	0.421	Yaw:	-5.906	Thrust:	53.846
Time:	2.415	Roll Set Point:	0.002	Pitch Set Point:	0.013	Yaw Set Point:	0.052	X_WP:	0.000	Y_WP:	0.000	Y_WP:	1.000	X:	-0.001	Y:	-0.007	Z:	1.320	yaw:	-2.968	yaw rate:	153.837	Roll:	-0.290	Pitch:	-0.089	Yaw:	-28.227	Thrust:	56.330
Time:	2.440	Roll Set Point:	0.002	Pitch Set Point:	0.012	Yaw Set Point:	0.034	X_WP:	0.000	Y_WP:	0.000	Y_WP:	1.000	X:	-0.001	Y:	-0.006	Z:	1.315	yaw:	-1.976	yaw rate:	-99.191	Roll:	-0.249	Pitch:	0.179	Yaw:	2.280	Thrust:	67.641
Time:	2.454	Roll Set Point:	0.001	Pitch Set Point:	0.012	Yaw Set Point:	0.042	X_WP:	0.000	Y_WP:	0.000	Y_WP:	1.000	X:	-0.001	Y:	-0.006	Z:	1.310	yaw:	-2.382	yaw rate:	40.649	Roll:	0.040	Pitch:	0.189	Yaw:	-13.706	Thrust:	44.136
Time:	2.475	Roll Set Point:	0.001	Pitch Set Point:	0.011	Yaw Set Point:	0.038	X_WP:	0.000	Y_WP:	0.000	Y_WP:	1.000	X:	-0.001	Y:	-0.005	Z:	1.305	yaw:	-2.198	yaw rate:	-18.449	Roll:	-0.241	Pitch:	0.299	Yaw:	-4.730	Thrust:	55.723
Time:	2.496	Roll Set Point:	0.002	Pitch Set Point:	0.009	Yaw Set Point:	0.020	X_WP:	0.000	Y_WP:	0.000	Y_WP:	1.000	X:	-0.001	Y:	-0.005	Z:	1.300	yaw:	-1.118	yaw rate:	-107.982	Roll:	-0.621	Pitch:	0.588	Yaw:	7.621	Thrust:	57.057
Time:	2.515	Roll Set Point:	0.002	Pitch Set Point:	0.009	Yaw Set Point:	0.036	X_WP:	0.000	Y_WP:	0.000	Y_WP:	1.000	X:	-0.001	Y:	-0.005	Z:	1.295	yaw:	-2.074	yaw rate:	95.655	Roll:	-0.015	Pitch:	0.005	Yaw:	-19.862	Thrust:	53.124
Time:	2.535	Roll Set Point:	0.002	Pitch Set Point:	0.008	Yaw Set Point:	0.030	X_WP:	0.000	Y_WP:	0.000	Y_WP:	1.000	X:	-0.001	Y:	-0.004	Z:	1.289	yaw:	-1.693	yaw rate:	-38.181	Roll:	-0.275	Pitch:	0.349	Yaw:	-1.615	Thrust:	54.688
Time:	2.556	Roll Set Point:	0.003	Pitch Set Point:	0.006	Yaw Set Point:	0.003	X_WP:	0.000	Y_WP:	0.000	Y_WP:	1.000	X:	-0.001	Y:	-0.003	Z:	1.284	yaw:	-0.146	yaw rate:	-154.610	Roll:	-0.593	Pitch:	0.849	Yaw:	15.769	Thrust:	55.875
Time:	2.576	Roll Set Point:	0.003	Pitch Set Point:	0.006	Yaw Set Point:	0.012	X_WP:	0.000	Y_WP:	0.000	Y_WP:	1.000	X:	-0.002	Y:	-0.003	Z:	1.278	yaw:	-0.691	yaw rate:	54.432	Roll:	-0.399	Pitch:	0.205	Yaw:	-12.163	Thrust:	54.440
Time:	2.596	Roll Set Point:	0.004	Pitch Set Point:	0.004	Yaw Set Point:	-0.005	X_WP:	0.000	Y_WP:	0.000	Y_WP:	1.000	X:	-0.002	Y:	-0.002	Z:	1.272	yaw:	0.290	yaw rate:	-98.082	Roll:	-0.319	Pitch:	0.687	Yaw:	8.939	Thrust:	53.318
Time:	2.614	Roll Set Point:	0.004	Pitch Set Point:	0.004	Yaw Set Point:	0.005	X_WP:	0.000	Y_WP:	0.000	Y_WP:	1.000	X:	-0.002	Y:	-0.002	Z:	1.266	yaw:	-0.284	yaw rate:	57.425	Roll:	-0.334	Pitch:	0.109	Yaw:	-12.462	Thrust:	52.790
Time:	2.641	Roll Set Point:	0.004	Pitch Set Point:	0.003	Yaw Set Point:	0.019	X_WP:	0.000	Y_WP:	0.000	Y_WP:	1.000	X:	-0.002	Y:	-0.001	Z:	1.259	yaw:	-1.107	yaw rate:	82.282	Roll:	-0.496	Pitch:	0.312	Yaw:	-14.832	Thrust:	72.459
Time:	2.654	Roll Set Point:	0.005	Pitch Set Point:	0.001	Yaw Set Point:	-0.005	X_WP:	0.000	Y_WP:	0.000	Y_WP:	1.000	X:	-0.002	Y:	-0.001	Z:	1.253	yaw:	0.279	yaw rate:	-138.645	Roll:	-0.384	Pitch:	1.102	Yaw:	25.540	Thrust:	43.973
Time:	2.675	Roll Set Point:	0.005	Pitch Set Point:	-0.000	Yaw Set Point:	-0.014	X_WP:	0.000	Y_WP:	0.000	Y_WP:	1.000	X:	-0.003	Y:	0.000	Z:	1.246	yaw:	0.829	yaw rate:	-54.970	Roll:	-0.380	Pitch:	0.669	Yaw:	4.150	Thrust:	55.115
Time:	2.696	Roll Set Point:	0.006	Pitch Set Point:	-0.001	Yaw Set Point:	-0.010	X_WP:	0.000	Y_WP:	0.000	Y_WP:	1.000	X:	-0.003	Y:	0.001	Z:	1.239	yaw:	0.549	yaw rate:	28.001	Roll:	-0.497	Pitch:	0.429	Yaw:	-6.925	Thrust:	59.541
Time:	2.714	Roll Set Point:	0.007	Pitch Set Point:	-0.003	Yaw Set Point:	-0.022	X_WP:	0.000	Y_WP:	0.000	Y_WP:	1.000	X:	-0.003	Y:	0.001	Z:	1.232	yaw:	1.246	yaw rate:	-69.696	Roll:	-0.639	Pitch:	0.920	Yaw:	8.191	Thrust:	53.343
Time:	2.736	Roll Set Point:	0.007	Pitch Set Point:	-0.003	Yaw Set Point:	-0.013	X_WP:	0.000	Y_WP:	0.000	Y_WP:	1.000	X:	-0.003	Y:	0.002	Z:	1.225	yaw:	0.733	yaw rate:	51.354	Roll:	-0.344	Pitch:	0.212	Yaw:	-9.512	Thrust:	58.014
Time:	2.755	Roll Set Point:	0.007	Pitch Set Point:	-0.005	Yaw Set Point:	-0.020	X_WP:	0.000	Y_WP:	0.000	Y_WP:	1.000	X:	-0.004	Y:	0.002	Z:	1.217	yaw:	1.125	yaw rate:	-39.258	Roll:	-0.421	Pitch:	0.734	Yaw:	2.875	Thrust:	56.953
Time:	2.776	Roll Set Point:	0.008	Pitch Set Point:	-0.005	Yaw Set Point:	-0.007	X_WP:	0.000	Y_WP:	0.000	Y_WP:	1.000	X:	-0.004	Y:	0.002	Z:	1.209	yaw:	0.395	yaw rate:	72.972	Roll:	-0.604	Pitch:	0.231	Yaw:	-12.816	Thrust:	58.578
Time:	2.795	Roll Set Point:	0.008	Pitch Set Point:	-0.006	Yaw Set Point:	-0.006	X_WP:	0.000	Y_WP:	0.000	Y_WP:	1.000	X:	-0.004	Y:	0.003	Z:	1.201	yaw:	0.350	yaw rate:	4.584	Roll:	-0.565	Pitch:	0.685	Yaw:	-3.763	Thrust:	54.377
Time:	2.815	Roll Set Point:	0.009	Pitch Set Point:	-0.008	Yaw Set Point:	-0.014	X_WP:	0.000	Y_WP:	0.000	Y_WP:	1.000	X:	-0.005	Y:	0.004	Z:	1.194	yaw:	0.792	yaw rate:	-44.239	Roll:	-0.596	Pitch:	0.915	Yaw:	2.450	Thrust:	58.522
Time:	2.842	Roll Set Point:	0.010	Pitch Set Point:	-0.008	Yaw Set Point:	-0.001	X_WP:	0.000	Y_WP:	0.000	Y_WP:	1.000	X:	-0.005	Y:	0.004	Z:	1.186	yaw:	0.054	yaw rate:	73.774	Roll:	-0.548	Pitch:	0.217	Yaw:	-12.459	Thrust:	69.481
Time:	2.854	Roll Set Point:	0.010	Pitch Set Point:	-0.009	Yaw Set Point:	-0.019	X_WP:	0.000	Y_WP:	0.000	Y_WP:	1.000	X:	-0.005	Y:	0.005	Z:	1.178	yaw:	1.100	yaw rate:	-104.620	Roll:	-0.464	Pitch:	0.997	Yaw:	19.834	Thrust:	49.686
Time:	2.875	Roll Set Point:	0.011	Pitch Set Point:	-0.010	Yaw Set Point:	-0.004	X_WP:	0.000	Y_WP:	0.000	Y_WP:	1.000	X:	-0.006	Y:	0.005	Z:	1.170	yaw:	0.221	yaw rate:	87.921	Roll:	-0.774	Pitch:	0.460	Yaw:	-15.115	Thrust:	57.800
Time:	2.896	Roll Set Point:	0.012	Pitch Set Point:	-0.011	Yaw Set Point:	-0.014	X_WP:	0.000	Y_WP:	0.000	Y_WP:	1.000	X:	-0.006	Y:	0.005	Z:	1.162	yaw:	0.796	yaw rate:	-57.460	Roll:	-0.582	Pitch:	0.682	Yaw:	4.094	Thrust:	57.292
Time:	2.915	Roll Set Point:	0.012	Pitch Set Point:	-0.013	Yaw Set Point:	-0.026	X_WP:	0.000	Y_WP:	0.000	Y_WP:	1.000	X:	-0.006	Y:	0.006	Z:	1.154	yaw:	1.504	yaw rate:	-70.781	Roll:	-0.590	Pitch:	0.982	Yaw:	8.043	Thrust:	56.541
Time:	2.935	Roll Set Point:	0.013	Pitch Set Point:	-0.013	Yaw Set Point:	-0.028	X_WP:	0.000	Y_WP:	0.000	Y_WP:	1.000	X:	-0.007	Y:	0.007	Z:	1.147	yaw:	1.599	yaw rate:	-9.507	Roll:	-0.612	Pitch:	0.662	Yaw:	-0.544	Thrust:	57.281
Time:	2.955	Roll Set Point:	0.014	Pitch Set Point:	-0.014	Yaw Set Point:	-0.020	X_WP:	0.000	Y_WP:	0.000	Y_WP:	1.000	X:	-0.007	Y:	0.007	Z:	1.139	yaw:	1.117	yaw rate:	48.132	Roll:	-0.821	Pitch:	0.479	Yaw:	-8.759	Thrust:	56.359
Time:	2.976	Roll Set Point:	0.014	Pitch Set Point:	-0.015	Yaw Set Point:	-0.027	X_WP:	0.000	Y_WP:	0.000	Y_WP:	1.000	X:	-0.007	Y:	0.007	Z:	1.131	yaw:	1.565	yaw rate:	-44.753	Roll:	-0.573	Pitch:	0.718	Yaw:	3.291	Thrust:	60.112
Time:	2.995	Roll Set Point:	0.015	Pitch Set Point:	-0.016	Yaw Set Point:	-0.021	X_WP:	0.000	Y_WP:	0.000	Y_WP:	1.000	X:	-0.008	Y:	0.008	Z:	1.123	yaw:	1.230	yaw rate:	33.444	Roll:	-0.801	Pitch:	0.572	Yaw:	-6.615	Thrust:	55.679
Time:	3.014	Roll Set Point:	0.016	Pitch Set Point:	-0.016	Yaw Set Point:	-0.024	X_WP:	0.000	Y_WP:	0.000	Y_WP:	1.000	X:	-0.008	Y:	0.008	Z:	1.115	yaw:	1.352	yaw rate:	-12.123	Roll:	-0.644	Pitch:	0.589	Yaw:	-0.181	Thrust:	56.326
Time:	3.040	Roll Set Point:	0.017	Pitch Set Point:	-0.017	Yaw Set Point:	-0.011	X_WP:	0.000	Y_WP:	0.000	Y_WP:	1.000	X:	-0.009	Y:	0.008	Z:	1.107	yaw:	0.610	yaw rate:	74.214	Roll:	-0.859	Pitch:	0.455	Yaw:	-11.711	Thrust:	66.960
Time:	3.054	Roll Set Point:	0.018	Pitch Set Point:	-0.017	Yaw Set Point:	-0.008	X_WP:	0.000	Y_WP:	0.000	Y_WP:	1.000	X:	-0.009	Y:	0.009	Z:	1.100	yaw:	0.461	yaw rate:	14.829	Roll:	-0.856	Pitch:	0.552	Yaw:	-4.849	Thrust:	52.303
Time:	3.078	Roll Set Point:	0.018	Pitch Set Point:	-0.018	Yaw Set Point:	-0.015	X_WP:	0.000	Y_WP:	0.000	Y_WP:	1.000	X:	-0.009	Y:	0.009	Z:	1.092	yaw:	0.849	yaw rate:	-38.736	Roll:	-0.625	Pitch:	0.672	Yaw:	0.999	Thrust:	62.258
Time:	3.097	Roll Set Point:	0.019	Pitch Set Point:	-0.019	Yaw Set Point:	-0.025	X_WP:	0.000	Y_WP:	0.000	Y_WP:	1.000	X:	-0.010	Y:	0.009	Z:	1.084	yaw:	1.430	yaw rate:	-58.148	Roll:	-0.921	Pitch:	0.754	Yaw:	6.297	Thrust:	57.508
Time:	3.115	Roll Set Point:	0.019	Pitch Set Point:	-0.019	Yaw Set Point:	-0.032	X_WP:	0.000	Y_WP:	0.000	Y_WP:	1.000	X:	-0.010	Y:	0.010	Z:	1.076	yaw:	1.861	yaw rate:	-43.080	Roll:	-0.401	Pitch:	0.592	Yaw:	5.100	Thrust:	56.734
Time:	3.135	Roll Set Point:	0.020	Pitch Set Point:	-0.020	Yaw Set Point:	-0.028	X_WP:	0.000	Y_WP:	0.000	Y_WP:	1.000	X:	-0.010	Y:	0.010	Z:	1.069	yaw:	1.633	yaw rate:	22.817	Roll:	-0.684	Pitch:	0.461	Yaw:	-4.553	Thrust:	58.371
Time:	3.154	Roll Set Point:	0.021	Pitch Set Point:	-0.020	Yaw Set Point:	-0.027	X_WP:	0.000	Y_WP:	0.000	Y_WP:	1.000	X:	-0.010	Y:	0.010	Z:	1.061	yaw:	1.550	yaw rate:	8.298	Roll:	-0.794	Pitch:	0.450	Yaw:	-2.651	Thrust:	57.435
Time:	3.176	Roll Set Point:	0.022	Pitch Set Point:	-0.020	Yaw Set Point:	-0.023	X_WP:	0.000	Y_WP:	0.000	Y_WP:	1.000	X:	-0.011	Y:	0.010	Z:	1.054	yaw:	1.320	yaw rate:	22.991	Roll:	-0.870	Pitch:	0.523	Yaw:	-5.017	Thrust:	59.625
Time:	3.195	Roll Set Point:	0.023	Pitch Set Point:	-0.021	Yaw Set Point:	-0.010	X_WP:	0.000	Y_WP:	0.000	Y_WP:	1.000	X:	-0.012	Y:	0.010	Z:	1.047	yaw:	0.592	yaw rate:	72.751	Roll:	-1.180	Pitch:	0.407	Yaw:	-12.610	Thrust:	57.493
Time:	3.215	Roll Set Point:	0.024	Pitch Set Point:	-0.021	Yaw Set Point:	-0.019	X_WP:	0.000	Y_WP:	0.000	Y_WP:	1.000	X:	-0.012	Y:	0.010	Z:	1.039	yaw:	1.067	yaw rate:	-47.463	Roll:	-0.815	Pitch:	0.662	Yaw:	3.723	Thrust:	57.366
Time:	3.237	Roll Set Point:	0.024	Pitch Set Point:	-0.021	Yaw Set Point:	-0.018	X_WP:	0.000	Y_WP:	0.000	Y_WP:	1.000	X:	-0.012	Y:	0.011	Z:	1.033	yaw:	1.055	yaw rate:	1.163	Roll:	-0.780	Pitch:	0.520	Yaw:	-2.707	Thrust:	60.775
Time:	3.254	Roll Set Point:	0.025	Pitch Set Point:	-0.022	Yaw Set Point:	-0.025	X_WP:	0.000	Y_WP:	0.000	Y_WP:	1.000	X:	-0.013	Y:	0.011	Z:	1.025	yaw:	1.430	yaw rate:	-37.420	Roll:	-0.707	Pitch:	0.679	Yaw:	3.958	Thrust:	57.714
Time:	3.274	Roll Set Point:	0.026	Pitch Set Point:	-0.022	Yaw Set Point:	-0.006	X_WP:	0.000	Y_WP:	0.000	Y_WP:	1.000	X:	-0.013	Y:	0.011	Z:	1.019	yaw:	0.326	yaw rate:	110.346	Roll:	-1.060	Pitch:	0.213	Yaw:	-17.812	Thrust:	57.969
Time:	3.296	Roll Set Point:	0.026	Pitch Set Point:	-0.022	Yaw Set Point:	-0.012	X_WP:	0.000	Y_WP:	0.000	Y_WP:	1.000	X:	-0.013	Y:	0.011	Z:	1.012	yaw:	0.680	yaw rate:	-35.414	Roll:	-0.573	Pitch:	0.472	Yaw:	1.274	Thrust:	61.044
Time:	3.314	Roll Set Point:	0.026	Pitch Set Point:	-0.022	Yaw Set Point:	-0.022	X_WP:	0.000	Y_WP:	0.000	Y_WP:	1.000	X:	-0.013	Y:	0.011	Z:	1.005	yaw:	1.268	yaw rate:	-58.754	Roll:	-0.672	Pitch:	0.613	Yaw:	6.599	Thrust:	55.885
Time:	3.335	Roll Set Point:	0.027	Pitch Set Point:	-0.022	Yaw Set Point:	-0.012	X_WP:	0.000	Y_WP:	0.000	Y_WP:	1.000	X:	-0.013	Y:	0.011	Z:	0.999	yaw:	0.664	yaw rate:	60.353	Roll:	-0.764	Pitch:	0.287	Yaw:	-10.578	Thrust:	60.065
Time:	3.355	Roll Set Point:	0.027	Pitch Set Point:	-0.023	Yaw Set Point:	-0.029	X_WP:	0.000	Y_WP:	0.000	Y_WP:	1.000	X:	-0.014	Y:	0.011	Z:	0.992	yaw:	1.673	yaw rate:	-100.918	Roll:	-0.611	Pitch:	0.728	Yaw:	12.260	Thrust:	59.179
Time:	3.375	Roll Set Point:	0.027	Pitch Set Point:	-0.023	Yaw Set Point:	-0.018	X_WP:	0.000	Y_WP:	0.000	Y_WP:	1.000	X:	-0.014	Y:	0.011	Z:	0.986	yaw:	1.040	yaw rate:	63.349	Roll:	-0.666	Pitch:	0.412	Yaw:	-10.426	Thrust:	60.032
Time:	3.395	Roll Set Point:	0.028	Pitch Set Point:	-0.023	Yaw Set Point:	-0.023	X_WP:	0.000	Y_WP:	0.000	Y_WP:	1.000	X:	-0.014	Y:	0.011	Z:	0.980	yaw:	1.310	yaw rate:	-26.992	Roll:	-0.939	Pitch:	0.518	Yaw:	1.818	Thrust:	58.503
Time:	3.415	Roll Set Point:	0.028	Pitch Set Point:	-0.023	Yaw Set Point:	-0.027	X_WP:	0.000	Y_WP:	0.000	Y_WP:	1.000	X:	-0.014	Y:	0.011	Z:	0.973	yaw:	1.519	yaw rate:	-20.927	Roll:	-0.820	Pitch:	0.522	Yaw:	1.040	Thrust:	60.333
Time:	3.438	Roll Set Point:	0.029	Pitch Set Point:	-0.023	Yaw Set Point:	-0.025	X_WP:	0.000	Y_WP:	0.000	Y_WP:	1.000	X:	-0.014	Y:	0.011	Z:	0.967	yaw:	1.432	yaw rate:	8.719	Roll:	-0.748	Pitch:	0.444	Yaw:	-3.222	Thrust:	62.501
Time:	3.455	Roll Set Point:	0.028	Pitch Set Point:	-0.023	Yaw Set Point:	-0.042	X_WP:	0.000	Y_WP:	0.000	Y_WP:	1.000	X:	-0.014	Y:	0.011	Z:	0.962	yaw:	2.419	yaw rate:	-98.699	Roll:	-0.266	Pitch:	0.567	Yaw:	15.202	Thrust:	56.316
Time:	3.475	Roll Set Point:	0.029	Pitch Set Point:	-0.024	Yaw Set Point:	-0.039	X_WP:	0.000	Y_WP:	0.000	Y_WP:	1.000	X:	-0.014	Y:	0.012	Z:	0.956	yaw:	2.238	yaw rate:	18.119	Roll:	-0.743	Pitch:	0.563	Yaw:	-2.965	Thrust:	59.761
Time:	3.496	Roll Set Point:	0.029	Pitch Set Point:	-0.024	Yaw Set Point:	-0.034	X_WP:	0.000	Y_WP:	0.000	Y_WP:	1.000	X:	-0.015	Y:	0.012	Z:	0.951	yaw:	1.975	yaw rate:	26.251	Roll:	-0.948	Pitch:	0.442	Yaw:	-4.373	Thrust:	59.575
Time:	3.516	Roll Set Point:	0.030	Pitch Set Point:	-0.024	Yaw Set Point:	-0.037	X_WP:	0.000	Y_WP:	0.000	Y_WP:	1.000	X:	-0.015	Y:	0.012	Z:	0.946	yaw:	2.122	yaw rate:	-14.663	Roll:	-0.870	Pitch:	0.403	Yaw:	1.195	Thrust:	59.441
Time:	3.536	Roll Set Point:	0.031	Pitch Set Point:	-0.024	Yaw Set Point:	-0.027	X_WP:	0.000	Y_WP:	0.000	Y_WP:	1.000	X:	-0.015	Y:	0.012	Z:	0.941	yaw:	1.569	yaw rate:	55.276	Roll:	-0.997	Pitch:	0.427	Yaw:	-8.747	Thrust:	58.363
Time:	3.554	Roll Set Point:	0.031	Pitch Set Point:	-0.024	Yaw Set Point:	-0.016	X_WP:	0.000	Y_WP:	0.000	Y_WP:	1.000	X:	-0.015	Y:	0.012	Z:	0.937	yaw:	0.940	yaw rate:	62.914	Roll:	-0.670	Pitch:	0.325	Yaw:	-10.829	Thrust:	56.195
Time:	3.575	Roll Set Point:	0.031	Pitch Set Point:	-0.024	Yaw Set Point:	-0.021	X_WP:	0.000	Y_WP:	0.000	Y_WP:	1.000	X:	-0.016	Y:	0.012	Z:	0.933	yaw:	1.218	yaw rate:	-27.805	Roll:	-0.899	Pitch:	0.574	Yaw:	1.306	Thrust:	60.260
Time:	3.598	Roll Set Point:	0.031	Pitch Set Point:	-0.024	Yaw Set Point:	-0.037	X_WP:	0.000	Y_WP:	0.000	Y_WP:	1.000	X:	-0.016	Y:	0.012	Z:	0.928	yaw:	2.141	yaw rate:	-92.336	Roll:	-0.505	Pitch:	0.587	Yaw:	10.159	Thrust:	62.067
Time:	3.617	Roll Set Point:	0.032	Pitch Set Point:	-0.024	Yaw Set Point:	-0.023	X_WP:	0.000	Y_WP:	0.000	Y_WP:	1.000	X:	-0.016	Y:	0.012	Z:	0.924	yaw:	1.340	yaw rate:	80.182	Roll:	-1.043	Pitch:	0.181	Yaw:	-12.328	Thrust:	58.290
Time:	3.639	Roll Set Point:	0.032	Pitch Set Point:	-0.023	Yaw Set Point:	-0.028	X_WP:	0.000	Y_WP:	0.000	Y_WP:	1.000	X:	-0.016	Y:	0.011	Z:	0.921	yaw:	1.623	yaw rate:	-28.376	Roll:	-0.602	Pitch:	0.255	Yaw:	1.825	Thrust:	59.521
Time:	3.654	Roll Set Point:	0.031	Pitch Set Point:	-0.024	Yaw Set Point:	-0.043	X_WP:	0.000	Y_WP:	0.000	Y_WP:	1.000	X:	-0.016	Y:	0.012	Z:	0.917	yaw:	2.470	yaw rate:	-84.694	Roll:	-0.346	Pitch:	0.918	Yaw:	14.779	Thrust:	51.616
Time:	3.675	Roll Set Point:	0.032	Pitch Set Point:	-0.024	Yaw Set Point:	-0.027	X_WP:	0.000	Y_WP:	0.000	Y_WP:	1.000	X:	-0.016	Y:	0.012	Z:	0.914	yaw:	1.565	yaw rate:	90.528	Roll:	-0.932	Pitch:	0.203	Yaw:	-12.963	Thrust:	59.468
Time:	3.695	Roll Set Point:	0.032	Pitch Set Point:	-0.024	Yaw Set Point:	-0.042	X_WP:	0.000	Y_WP:	0.000	Y_WP:	1.000	X:	-0.016	Y:	0.012	Z:	0.911	yaw:	2.418	yaw rate:	-85.338	Roll:	-0.495	Pitch:	0.588	Yaw:	10.601	Thrust:	58.976
Time:	3.715	Roll Set Point:	0.032	Pitch Set Point:	-0.024	Yaw Set Point:	-0.041	X_WP:	0.000	Y_WP:	0.000	Y_WP:	1.000	X:	-0.016	Y:	0.012	Z:	0.908	yaw:	2.347	yaw rate:	7.144	Roll:	-0.928	Pitch:	0.503	Yaw:	-1.152	Thrust:	57.867
Time:	3.735	Roll Set Point:	0.032	Pitch Set Point:	-0.024	Yaw Set Point:	-0.043	X_WP:	0.000	Y_WP:	0.000	Y_WP:	1.000	X:	-0.016	Y:	0.012	Z:	0.905	yaw:	2.448	yaw rate:	-10.122	Roll:	-0.685	Pitch:	0.373	Yaw:	1.198	Thrust:	57.452
Time:	3.756	Roll Set Point:	0.032	Pitch Set Point:	-0.024	Yaw Set Point:	-0.042	X_WP:	0.000	Y_WP:	0.000	Y_WP:	1.000	X:	-0.016	Y:	0.011	Z:	0.902	yaw:	2.412	yaw rate:	3.646	Roll:	-0.745	Pitch:	0.347	Yaw:	-0.646	Thrust:	60.021
Time:	3.776	Roll Set Point:	0.033	Pitch Set Point:	-0.024	Yaw Set Point:	-0.042	X_WP:	0.000	Y_WP:	0.000	Y_WP:	1.000	X:	-0.017	Y:	0.011	Z:	0.899	yaw:	2.420	yaw rate:	-0.869	Roll:	-0.713	Pitch:	0.441	Yaw:	-0.197	Thrust:	59.955
Time:	3.796	Roll Set Point:	0.032	Pitch Set Point:	-0.024	Yaw Set Point:	-0.042	X_WP:	0.000	Y_WP:	0.000	Y_WP:	1.000	X:	-0.016	Y:	0.011	Z:	0.897	yaw:	2.414	yaw rate:	0.679	Roll:	-0.538	Pitch:	0.368	Yaw:	0.059	Thrust:	56.432
Time:	3.815	Roll Set Point:	0.032	Pitch Set Point:	-0.023	Yaw Set Point:	-0.038	X_WP:	0.000	Y_WP:	0.000	Y_WP:	1.000	X:	-0.016	Y:	0.011	Z:	0.894	yaw:	2.156	yaw rate:	25.785	Roll:	-0.737	Pitch:	0.271	Yaw:	-3.831	Thrust:	59.854
Time:	3.838	Roll Set Point:	0.032	Pitch Set Point:	-0.023	Yaw Set Point:	-0.040	X_WP:	0.000	Y_WP:	0.000	Y_WP:	1.000	X:	-0.016	Y:	0.011	Z:	0.892	yaw:	2.273	yaw rate:	-11.773	Roll:	-0.678	Pitch:	0.413	Yaw:	0.530	Thrust:	65.858
Time:	3.854	Roll Set Point:	0.033	Pitch Set Point:	-0.023	Yaw Set Point:	-0.035	X_WP:	0.000	Y_WP:	0.000	Y_WP:	1.000	X:	-0.017	Y:	0.011	Z:	0.890	yaw:	2.027	yaw rate:	24.617	Roll:	-0.830	Pitch:	0.334	Yaw:	-3.905	Thrust:	52.295
Time:	3.875	Roll Set Point:	0.032	Pitch Set Point:	-0.023	Yaw Set Point:	-0.043	X_WP:	0.000	Y_WP:	0.000	Y_WP:	1.000	X:	-0.016	Y:	0.011	Z:	0.887	yaw:	2.490	yaw rate:	-46.240	Roll:	-0.468	Pitch:	0.354	Yaw:	5.850	Thrust:	61.167
Time:	3.901	Roll Set Point:	0.032	Pitch Set Point:	-0.023	Yaw Set Point:	-0.036	X_WP:	0.000	Y_WP:	0.000	Y_WP:	1.000	X:	-0.016	Y:	0.011	Z:	0.885	yaw:	2.053	yaw rate:	43.689	Roll:	-0.755	Pitch:	0.341	Yaw:	-5.956	Thrust:	72.395
Time:	3.915	Roll Set Point:	0.032	Pitch Set Point:	-0.022	Yaw Set Point:	-0.029	X_WP:	0.000	Y_WP:	0.000	Y_WP:	1.000	X:	-0.016	Y:	0.011	Z:	0.883	yaw:	1.674	yaw rate:	37.897	Roll:	-0.699	Pitch:	0.011	Yaw:	-7.078	Thrust:	46.545
Time:	3.935	Roll Set Point:	0.032	Pitch Set Point:	-0.022	Yaw Set Point:	-0.044	X_WP:	0.000	Y_WP:	0.000	Y_WP:	1.000	X:	-0.016	Y:	0.011	Z:	0.882	yaw:	2.515	yaw rate:	-84.085	Roll:	-0.479	Pitch:	0.541	Yaw:	11.102	Thrust:	59.784
Time:	3.955	Roll Set Point:	0.032	Pitch Set Point:	-0.022	Yaw Set Point:	-0.030	X_WP:	0.000	Y_WP:	0.000	Y_WP:	1.000	X:	-0.016	Y:	0.011	Z:	0.880	yaw:	1.706	yaw rate:	80.853	Roll:	-0.825	Pitch:	0.103	Yaw:	-11.678	Thrust:	58.707
Time:	3.977	Roll Set Point:	0.032	Pitch Set Point:	-0.022	Yaw Set Point:	-0.043	X_WP:	0.000	Y_WP:	0.000	Y_WP:	1.000	X:	-0.016	Y:	0.010	Z:	0.879	yaw:	2.463	yaw rate:	-75.722	Roll:	-0.504	Pitch:	0.526	Yaw:	8.449	Thrust:	64.924
Time:	3.995	Roll Set Point:	0.032	Pitch Set Point:	-0.021	Yaw Set Point:	-0.034	X_WP:	0.000	Y_WP:	0.000	Y_WP:	1.000	X:	-0.016	Y:	0.010	Z:	0.878	yaw:	1.925	yaw rate:	53.874	Roll:	-0.592	Pitch:	-0.035	Yaw:	-8.271	Thrust:	54.003
Time:	4.016	Roll Set Point:	0.032	Pitch Set Point:	-0.021	Yaw Set Point:	-0.038	X_WP:	0.000	Y_WP:	0.000	Y_WP:	1.000	X:	-0.016	Y:	0.010	Z:	0.877	yaw:	2.205	yaw rate:	-28.062	Roll:	-0.766	Pitch:	0.473	Yaw:	2.988	Thrust:	62.238
Time:	4.039	Roll Set Point:	0.032	Pitch Set Point:	-0.021	Yaw Set Point:	-0.046	X_WP:	0.000	Y_WP:	0.000	Y_WP:	1.000	X:	-0.016	Y:	0.010	Z:	0.876	yaw:	2.608	yaw rate:	-40.273	Roll:	-0.513	Pitch:	0.356	Yaw:	4.780	Thrust:	63.276
Time:	4.053	Roll Set Point:	0.032	Pitch Set Point:	-0.020	Yaw Set Point:	-0.041	X_WP:	0.000	Y_WP:	0.000	Y_WP:	1.000	X:	-0.016	Y:	0.010	Z:	0.875	yaw:	2.334	yaw rate:	27.381	Roll:	-0.769	Pitch:	0.125	Yaw:	-3.956	Thrust:	49.105
Time:	4.074	Roll Set Point:	0.032	Pitch Set Point:	-0.020	Yaw Set Point:	-0.031	X_WP:	0.000	Y_WP:	0.000	Y_WP:	1.000	X:	-0.016	Y:	0.010	Z:	0.875	yaw:	1.775	yaw rate:	55.894	Roll:	-0.628	Pitch:	0.036	Yaw:	-7.983	Thrust:	60.346
Time:	4.098	Roll Set Point:	0.032	Pitch Set Point:	-0.020	Yaw Set Point:	-0.046	X_WP:	0.000	Y_WP:	0.000	Y_WP:	1.000	X:	-0.016	Y:	0.009	Z:	0.875	yaw:	2.633	yaw rate:	-85.738	Roll:	-0.575	Pitch:	0.510	Yaw:	9.585	Thrust:	64.809
Time:	4.117	Roll Set Point:	0.032	Pitch Set Point:	-0.019	Yaw Set Point:	-0.051	X_WP:	0.000	Y_WP:	0.000	Y_WP:	1.000	X:	-0.016	Y:	0.009	Z:	0.875	yaw:	2.923	yaw rate:	-29.080	Roll:	-0.636	Pitch:	0.331	Yaw:	4.583	Thrust:	62.126
Time:	4.134	Roll Set Point:	0.031	Pitch Set Point:	-0.019	Yaw Set Point:	-0.048	X_WP:	0.000	Y_WP:	0.000	Y_WP:	1.000	X:	-0.016	Y:	0.009	Z:	0.875	yaw:	2.735	yaw rate:	18.867	Roll:	-0.497	Pitch:	0.185	Yaw:	-1.819	Thrust:	50.653
Time:	4.156	Roll Set Point:	0.032	Pitch Set Point:	-0.019	Yaw Set Point:	-0.040	X_WP:	0.000	Y_WP:	0.000	Y_WP:	1.000	X:	-0.016	Y:	0.009	Z:	0.875	yaw:	2.294	yaw rate:	44.113	Roll:	-0.952	Pitch:	0.329	Yaw:	-5.550	Thrust:	64.482
Time:	4.177	Roll Set Point:	0.031	Pitch Set Point:	-0.018	Yaw Set Point:	-0.051	X_WP:	0.000	Y_WP:	0.000	Y_WP:	1.000	X:	-0.016	Y:	0.009	Z:	0.876	yaw:	2.924	yaw rate:	-63.042	Roll:	-0.202	Pitch:	0.098	Yaw:	9.124	Thrust:	58.916
Time:	4.195	Roll Set Point:	0.031	Pitch Set Point:	-0.018	Yaw Set Point:	-0.052	X_WP:	0.000	Y_WP:	0.000	Y_WP:	1.000	X:	-0.016	Y:	0.008	Z:	0.876	yaw:	2.956	yaw rate:	-3.246	Roll:	-0.681	Pitch:	0.140	Yaw:	1.651	Thrust:	54.681
Time:	4.217	Roll Set Point:	0.031	Pitch Set Point:	-0.017	Yaw Set Point:	-0.044	X_WP:	0.000	Y_WP:	0.000	Y_WP:	1.000	X:	-0.016	Y:	0.008	Z:	0.877	yaw:	2.550	yaw rate:	40.690	Roll:	-0.639	Pitch:	0.123	Yaw:	-4.736	Thrust:	63.387
Time:	4.237	Roll Set Point:	0.031	Pitch Set Point:	-0.017	Yaw Set Point:	-0.036	X_WP:	0.000	Y_WP:	0.000	Y_WP:	1.000	X:	-0.015	Y:	0.008	Z:	0.878	yaw:	2.074	yaw rate:	47.595	Roll:	-0.663	Pitch:	0.178	Yaw:	-6.528	Thrust:	57.806
Time:	4.255	Roll Set Point:	0.031	Pitch Set Point:	-0.016	Yaw Set Point:	-0.033	X_WP:	0.000	Y_WP:	0.000	Y_WP:	1.000	X:	-0.015	Y:	0.008	Z:	0.879	yaw:	1.866	yaw rate:	20.777	Roll:	-0.659	Pitch:	0.032	Yaw:	-3.208	Thrust:	55.463
Time:	4.274	Roll Set Point:	0.031	Pitch Set Point:	-0.016	Yaw Set Point:	-0.047	X_WP:	0.000	Y_WP:	0.000	Y_WP:	1.000	X:	-0.016	Y:	0.008	Z:	0.879	yaw:	2.719	yaw rate:	-85.273	Roll:	-0.616	Pitch:	0.412	Yaw:	12.823	Thrust:	55.204
Time:	4.302	Roll Set Point:	0.030	Pitch Set Point:	-0.016	Yaw Set Point:	-0.041	X_WP:	0.000	Y_WP:	0.000	Y_WP:	1.000	X:	-0.015	Y:	0.008	Z:	0.880	yaw:	2.339	yaw rate:	37.923	Roll:	-0.619	Pitch:	0.102	Yaw:	-4.573	Thrust:	78.018
Time:	4.314	Roll Set Point:	0.031	Pitch Set Point:	-0.016	Yaw Set Point:	-0.036	X_WP:	0.000	Y_WP:	0.000	Y_WP:	1.000	X:	-0.015	Y:	0.008	Z:	0.881	yaw:	2.060	yaw rate:	27.916	Roll:	-0.786	Pitch:	0.365	Yaw:	-4.807	Thrust:	42.066
Time:	4.335	Roll Set Point:	0.030	Pitch Set Point:	-0.015	Yaw Set Point:	-0.045	X_WP:	0.000	Y_WP:	0.000	Y_WP:	1.000	X:	-0.015	Y:	0.007	Z:	0.882	yaw:	2.597	yaw rate:	-53.712	Roll:	-0.316	Pitch:	0.019	Yaw:	7.243	Thrust:	60.798
Time:	4.356	Roll Set Point:	0.029	Pitch Set Point:	-0.015	Yaw Set Point:	-0.059	X_WP:	0.000	Y_WP:	0.000	Y_WP:	1.000	X:	-0.015	Y:	0.007	Z:	0.883	yaw:	3.390	yaw rate:	-79.255	Roll:	-0.395	Pitch:	0.405	Yaw:	11.642	Thrust:	62.199
Time:	4.377	Roll Set Point:	0.029	Pitch Set Point:	-0.014	Yaw Set Point:	-0.050	X_WP:	0.000	Y_WP:	0.000	Y_WP:	1.000	X:	-0.015	Y:	0.007	Z:	0.884	yaw:	2.857	yaw rate:	53.280	Roll:	-0.572	Pitch:	-0.024	Yaw:	-5.795	Thrust:	61.975
Time:	4.394	Roll Set Point:	0.029	Pitch Set Point:	-0.014	Yaw Set Point:	-0.047	X_WP:	0.000	Y_WP:	0.000	Y_WP:	1.000	X:	-0.015	Y:	0.007	Z:	0.885	yaw:	2.703	yaw rate:	15.361	Roll:	-0.750	Pitch:	0.294	Yaw:	-1.134	Thrust:	52.648
Time:	4.415	Roll Set Point:	0.029	Pitch Set Point:	-0.013	Yaw Set Point:	-0.042	X_WP:	0.000	Y_WP:	0.000	Y_WP:	1.000	X:	-0.015	Y:	0.006	Z:	0.887	yaw:	2.426	yaw rate:	27.778	Roll:	-0.637	Pitch:	-0.055	Yaw:	-3.204	Thrust:	55.999
Time:	4.436	Roll Set Point:	0.029	Pitch Set Point:	-0.013	Yaw Set Point:	-0.033	X_WP:	0.000	Y_WP:	0.000	Y_WP:	1.000	X:	-0.015	Y:	0.006	Z:	0.889	yaw:	1.881	yaw rate:	54.456	Roll:	-0.658	Pitch:	-0.086	Yaw:	-7.257	Thrust:	63.628
Time:	4.454	Roll Set Point:	0.029	Pitch Set Point:	-0.013	Yaw Set Point:	-0.047	X_WP:	0.000	Y_WP:	0.000	Y_WP:	1.000	X:	-0.015	Y:	0.006	Z:	0.891	yaw:	2.707	yaw rate:	-82.593	Roll:	-0.467	Pitch:	0.493	Yaw:	12.658	Thrust:	56.163
Time:	4.474	Roll Set Point:	0.029	Pitch Set Point:	-0.012	Yaw Set Point:	-0.053	X_WP:	0.000	Y_WP:	0.000	Y_WP:	1.000	X:	-0.014	Y:	0.006	Z:	0.893	yaw:	3.015	yaw rate:	-30.844	Roll:	-0.482	Pitch:	0.055	Yaw:	5.321	Thrust:	56.400
Time:	4.496	Roll Set Point:	0.029	Pitch Set Point:	-0.012	Yaw Set Point:	-0.046	X_WP:	0.000	Y_WP:	0.000	Y_WP:	1.000	X:	-0.014	Y:	0.005	Z:	0.895	yaw:	2.664	yaw rate:	35.193	Roll:	-0.676	Pitch:	0.011	Yaw:	-3.696	Thrust:	63.118
Time:	4.514	Roll Set Point:	0.028	Pitch Set Point:	-0.011	Yaw Set Point:	-0.043	X_WP:	0.000	Y_WP:	0.000	Y_WP:	1.000	X:	-0.014	Y:	0.005	Z:	0.897	yaw:	2.444	yaw rate:	21.942	Roll:	-0.575	Pitch:	-0.084	Yaw:	-2.349	Thrust:	53.761
Time:	4.535	Roll Set Point:	0.028	Pitch Set Point:	-0.011	Yaw Set Point:	-0.042	X_WP:	0.000	Y_WP:	0.000	Y_WP:	1.000	X:	-0.014	Y:	0.005	Z:	0.900	yaw:	2.407	yaw rate:	3.734	Roll:	-0.560	Pitch:	0.088	Yaw:	-0.003	Thrust:	58.216
Time:	4.556	Roll Set Point:	0.028	Pitch Set Point:	-0.010	Yaw Set Point:	-0.042	X_WP:	0.000	Y_WP:	0.000	Y_WP:	1.000	X:	-0.014	Y:	0.005	Z:	0.902	yaw:	2.388	yaw rate:	1.905	Roll:	-0.605	Pitch:	0.110	Yaw:	-0.015	Thrust:	61.137
Time:	4.576	Roll Set Point:	0.028	Pitch Set Point:	-0.010	Yaw Set Point:	-0.038	X_WP:	0.000	Y_WP:	0.000	Y_WP:	1.000	X:	-0.014	Y:	0.005	Z:	0.905	yaw:	2.191	yaw rate:	19.624	Roll:	-0.674	Pitch:	0.043	Yaw:	-2.334	Thrust:	61.596
Time:	4.595	Roll Set Point:	0.028	Pitch Set Point:	-0.009	Yaw Set Point:	-0.019	X_WP:	0.000	Y_WP:	0.000	Y_WP:	1.000	X:	-0.014	Y:	0.004	Z:	0.907	yaw:	1.088	yaw rate:	110.358	Roll:	-0.780	Pitch:	-0.115	Yaw:	-16.567	Thrust:	54.089
Time:	4.614	Roll Set Point:	0.028	Pitch Set Point:	-0.009	Yaw Set Point:	-0.025	X_WP:	0.000	Y_WP:	0.000	Y_WP:	1.000	X:	-0.014	Y:	0.004	Z:	0.909	yaw:	1.448	yaw rate:	-36.003	Roll:	-0.367	Pitch:	0.082	Yaw:	4.437	Thrust:	54.196
Time:	4.639	Roll Set Point:	0.028	Pitch Set Point:	-0.008	Yaw Set Point:	-0.024	X_WP:	0.000	Y_WP:	0.000	Y_WP:	1.000	X:	-0.014	Y:	0.004	Z:	0.912	yaw:	1.372	yaw rate:	7.543	Roll:	-0.618	Pitch:	0.072	Yaw:	-2.332	Thrust:	70.319
Time:	4.654	Roll Set Point:	0.027	Pitch Set Point:	-0.008	Yaw Set Point:	-0.038	X_WP:	0.000	Y_WP:	0.000	Y_WP:	1.000	X:	-0.014	Y:	0.004	Z:	0.914	yaw:	2.167	yaw rate:	-79.479	Roll:	-0.213	Pitch:	-0.003	Yaw:	14.062	Thrust:	48.261
Time:	4.674	Roll Set Point:	0.027	Pitch Set Point:	-0.008	Yaw Set Point:	-0.027	X_WP:	0.000	Y_WP:	0.000	Y_WP:	1.000	X:	-0.013	Y:	0.004	Z:	0.916	yaw:	1.558	yaw rate:	60.934	Roll:	-0.584	Pitch:	0.074	Yaw:	-8.497	Thrust:	57.822
Time:	4.696	Roll Set Point:	0.026	Pitch Set Point:	-0.007	Yaw Set Point:	-0.043	X_WP:	0.000	Y_WP:	0.000	Y_WP:	1.000	X:	-0.013	Y:	0.003	Z:	0.919	yaw:	2.453	yaw rate:	-89.456	Roll:	-0.389	Pitch:	0.150	Yaw:	12.317	Thrust:	60.826
Time:	4.714	Roll Set Point:	0.027	Pitch Set Point:	-0.007	Yaw Set Point:	-0.042	X_WP:	0.000	Y_WP:	0.000	Y_WP:	1.000	X:	-0.013	Y:	0.003	Z:	0.921	yaw:	2.408	yaw rate:	4.476	Roll:	-0.811	Pitch:	-0.056	Yaw:	0.052	Thrust:	58.029
Time:	4.736	Roll Set Point:	0.026	Pitch Set Point:	-0.006	Yaw Set Point:	-0.047	X_WP:	0.000	Y_WP:	0.000	Y_WP:	1.000	X:	-0.013	Y:	0.003	Z:	0.923	yaw:	2.700	yaw rate:	-29.201	Roll:	-0.364	Pitch:	0.187	Yaw:	4.521	Thrust:	61.920
Time:	4.755	Roll Set Point:	0.026	Pitch Set Point:	-0.006	Yaw Set Point:	-0.026	X_WP:	0.000	Y_WP:	0.000	Y_WP:	1.000	X:	-0.013	Y:	0.003	Z:	0.925	yaw:	1.468	yaw rate:	123.197	Roll:	-0.613	Pitch:	-0.104	Yaw:	-17.055	Thrust:	59.825
Time:	4.777	Roll Set Point:	0.026	Pitch Set Point:	-0.006	Yaw Set Point:	-0.015	X_WP:	0.000	Y_WP:	0.000	Y_WP:	1.000	X:	-0.013	Y:	0.003	Z:	0.927	yaw:	0.842	yaw rate:	62.597	Roll:	-0.751	Pitch:	-0.006	Yaw:	-9.328	Thrust:	65.277
Time:	4.800	Roll Set Point:	0.025	Pitch Set Point:	-0.005	Yaw Set Point:	-0.042	X_WP:	0.000	Y_WP:	0.000	Y_WP:	1.000	X:	-0.013	Y:	0.002	Z:	0.929	yaw:	2.415	yaw rate:	-157.297	Roll:	-0.098	Pitch:	0.255	Yaw:	18.018	Thrust:	52.508
Time:	4.814	Roll Set Point:	0.025	Pitch Set Point:	-0.005	Yaw Set Point:	-0.038	X_WP:	0.000	Y_WP:	0.000	Y_WP:	1.000	X:	-0.013	Y:	0.002	Z:	0.931	yaw:	2.183	yaw rate:	23.178	Roll:	-0.590	Pitch:	-0.031	Yaw:	-3.124	Thrust:	59.274
Time:	4.837	Roll Set Point:	0.025	Pitch Set Point:	-0.004	Yaw Set Point:	-0.021	X_WP:	0.000	Y_WP:	0.000	Y_WP:	1.000	X:	-0.013	Y:	0.002	Z:	0.933	yaw:	1.204	yaw rate:	97.942	Roll:	-0.551	Pitch:	-0.112	Yaw:	-13.061	Thrust:	65.317
Time:	4.855	Roll Set Point:	0.025	Pitch Set Point:	-0.005	Yaw Set Point:	-0.032	X_WP:	0.000	Y_WP:	0.000	Y_WP:	1.000	X:	-0.013	Y:	0.002	Z:	0.935	yaw:	1.832	yaw rate:	-62.867	Roll:	-0.482	Pitch:	0.273	Yaw:	8.780	Thrust:	55.926
Time:	4.874	Roll Set Point:	0.025	Pitch Set Point:	-0.004	Yaw Set Point:	-0.039	X_WP:	0.000	Y_WP:	0.000	Y_WP:	1.000	X:	-0.012	Y:	0.002	Z:	0.937	yaw:	2.262	yaw rate:	-43.005	Roll:	-0.486	Pitch:	0.061	Yaw:	6.592	Thrust:	56.451
Time:	4.896	Roll Set Point:	0.024	Pitch Set Point:	-0.004	Yaw Set Point:	-0.034	X_WP:	0.000	Y_WP:	0.000	Y_WP:	1.000	X:	-0.012	Y:	0.002	Z:	0.939	yaw:	1.975	yaw rate:	28.749	Roll:	-0.487	Pitch:	-0.018	Yaw:	-3.540	Thrust:	63.491
Time:	4.914	Roll Set Point:	0.024	Pitch Set Point:	-0.004	Yaw Set Point:	-0.045	X_WP:	0.000	Y_WP:	0.000	Y_WP:	1.000	X:	-0.012	Y:	0.002	Z:	0.942	yaw:	2.595	yaw rate:	-61.998	Roll:	-0.225	Pitch:	0.308	Yaw:	10.172	Thrust:	56.245
Time:	4.935	Roll Set Point:	0.023	Pitch Set Point:	-0.004	Yaw Set Point:	-0.050	X_WP:	0.000	Y_WP:	0.000	Y_WP:	1.000	X:	-0.012	Y:	0.002	Z:	0.944	yaw:	2.853	yaw rate:	-25.827	Roll:	-0.309	Pitch:	0.077	Yaw:	4.534	Thrust:	62.173
Time:	4.955	Roll Set Point:	0.023	Pitch Set Point:	-0.004	Yaw Set Point:	-0.051	X_WP:	0.000	Y_WP:	0.000	Y_WP:	1.000	X:	-0.012	Y:	0.002	Z:	0.946	yaw:	2.920	yaw rate:	-6.684	Roll:	-0.584	Pitch:	0.216	Yaw:	2.275	Thrust:	58.382
Time:	4.977	Roll Set Point:	0.023	Pitch Set Point:	-0.004	Yaw Set Point:	-0.047	X_WP:	0.000	Y_WP:	0.000	Y_WP:	1.000	X:	-0.011	Y:	0.002	Z:	0.949	yaw:	2.718	yaw rate:	20.172	Roll:	-0.464	Pitch:	0.051	Yaw:	-1.393	Thrust:	65.890
Time:	4.995	Roll Set Point:	0.023	Pitch Set Point:	-0.003	Yaw Set Point:	-0.047	X_WP:	0.000	Y_WP:	0.000	Y_WP:	1.000	X:	-0.011	Y:	0.001	Z:	0.951	yaw:	2.665	yaw rate:	5.296	Roll:	-0.497	Pitch:	0.051	Yaw:	0.615	Thrust:	51.264
Time:	5.013	Roll Set Point:	0.341	Pitch Set Point:	-0.359	Yaw Set Point:	-0.047	X_WP:	0.335	Y_WP:	-0.340	Y_WP:	1.000	X:	-0.011	Y:	0.001	Z:	0.954	yaw:	2.702	yaw rate:	-3.700	Roll:	-30.000	Pitch:	30.000	Yaw:	2.077	Thrust:	54.913
Time:	5.038	Roll Set Point:	0.338	Pitch Set Point:	-0.358	Yaw Set Point:	-0.046	X_WP:	0.332	Y_WP:	-0.340	Y_WP:	1.000	X:	-0.011	Y:	0.001	Z:	0.957	yaw:	2.651	yaw rate:	5.167	Roll:	-8.095	Pitch:	10.303	Yaw:	0.090	Thrust:	68.970
Time:	5.054	Roll Set Point:	0.339	Pitch Set Point:	-0.356	Yaw Set Point:	-0.038	X_WP:	0.330	Y_WP:	-0.340	Y_WP:	1.000	X:	-0.011	Y:	0.001	Z:	0.959	yaw:	2.187	yaw rate:	46.382	Roll:	-10.173	Pitch:	8.065	Yaw:	-6.278	Thrust:	51.865
Time:	5.075	Roll Set Point:	0.333	Pitch Set Point:	-0.357	Yaw Set Point:	-0.045	X_WP:	0.327	Y_WP:	-0.340	Y_WP:	1.000	X:	-0.011	Y:	0.001	Z:	0.962	yaw:	2.568	yaw rate:	-38.106	Roll:	-5.015	Pitch:	12.029	Yaw:	5.829	Thrust:	59.581
Time:	5.104	Roll Set Point:	0.334	Pitch Set Point:	-0.353	Yaw Set Point:	-0.033	X_WP:	0.324	Y_WP:	-0.340	Y_WP:	1.000	X:	-0.011	Y:	0.001	Z:	0.965	yaw:	1.898	yaw rate:	66.996	Roll:	-10.725	Pitch:	7.279	Yaw:	-7.063	Thrust:	79.110
Time:	5.117	Roll Set Point:	0.329	Pitch Set Point:	-0.355	Yaw Set Point:	-0.042	X_WP:	0.321	Y_WP:	-0.340	Y_WP:	1.000	X:	-0.011	Y:	0.001	Z:	0.966	yaw:	2.407	yaw rate:	-50.899	Roll:	-4.591	Pitch:	12.564	Yaw:	11.067	Thrust:	43.946
Time:	5.138	Roll Set Point:	0.326	Pitch Set Point:	-0.351	Yaw Set Point:	-0.037	X_WP:	0.318	Y_WP:	-0.339	Y_WP:	1.000	X:	-0.010	Y:	0.000	Z:	0.969	yaw:	2.096	yaw rate:	31.039	Roll:	-7.682	Pitch:	7.769	Yaw:	-3.528	Thrust:	61.221
Time:	5.156	Roll Set Point:	0.318	Pitch Set Point:	-0.350	Yaw Set Point:	-0.044	X_WP:	0.316	Y_WP:	-0.338	Y_WP:	1.000	X:	-0.009	Y:	-0.001	Z:	0.971	yaw:	2.524	yaw rate:	-42.723	Roll:	-3.846	Pitch:	10.789	Yaw:	7.358	Thrust:	55.204
Time:	5.179	Roll Set Point:	0.317	Pitch Set Point:	-0.344	Yaw Set Point:	-0.035	X_WP:	0.313	Y_WP:	-0.338	Y_WP:	1.000	X:	-0.008	Y:	-0.002	Z:	0.974	yaw:	1.981	yaw rate:	54.219	Roll:	-9.503	Pitch:	6.651	Yaw:	-6.121	Thrust:	67.765
Time:	5.198	Roll Set Point:	0.309	Pitch Set Point:	-0.342	Yaw Set Point:	-0.042	X_WP:	0.311	Y_WP:	-0.337	Y_WP:	1.000	X:	-0.006	Y:	-0.004	Z:	0.976	yaw:	2.425	yaw rate:	-44.399	Roll:	-3.557	Pitch:	10.296	Yaw:	7.431	Thrust:	55.203
Time:	5.217	Roll Set Point:	0.302	Pitch Set Point:	-0.338	Yaw Set Point:	-0.045	X_WP:	0.308	Y_WP:	-0.338	Y_WP:	1.000	X:	-0.005	Y:	-0.007	Z:	0.978	yaw:	2.571	yaw rate:	-14.599	Roll:	-3.929	Pitch:	8.734	Yaw:	3.469	Thrust:	54.707
Time:	5.242	Roll Set Point:	0.296	Pitch Set Point:	-0.332	Yaw Set Point:	-0.042	X_WP:	0.305	Y_WP:	-0.338	Y_WP:	1.000	X:	-0.003	Y:	-0.009	Z:	0.981	yaw:	2.411	yaw rate:	16.091	Roll:	-6.162	Pitch:	7.688	Yaw:	-1.260	Thrust:	74.905
Time:	5.256	Roll Set Point:	0.288	Pitch Set Point:	-0.326	Yaw Set Point:	-0.045	X_WP:	0.303	Y_WP:	-0.339	Y_WP:	1.000	X:	-0.000	Y:	-0.013	Z:	0.983	yaw:	2.592	yaw rate:	-18.116	Roll:	-3.219	Pitch:	7.797	Yaw:	5.176	Thrust:	40.152
Time:	5.275	Roll Set Point:	0.280	Pitch Set Point:	-0.318	Yaw Set Point:	-0.045	X_WP:	0.300	Y_WP:	-0.339	Y_WP:	1.000	X:	0.003	Y:	-0.017	Z:	0.985	yaw:	2.581	yaw rate:	1.078	Roll:	-3.819	Pitch:	6.812	Yaw:	1.311	Thrust:	56.876
Time:	5.305	Roll Set Point:	0.272	Pitch Set Point:	-0.309	Yaw Set Point:	-0.042	X_WP:	0.297	Y_WP:	-0.339	Y_WP:	1.000	X:	0.006	Y:	-0.021	Z:	0.988	yaw:	2.424	yaw rate:	15.705	Roll:	-4.823	Pitch:	6.065	Yaw:	-1.245	Thrust:	74.456
Time:	5.319	Roll Set Point:	0.265	Pitch Set Point:	-0.297	Yaw Set Point:	-0.038	X_WP:	0.295	Y_WP:	-0.340	Y_WP:	1.000	X:	0.009	Y:	-0.026	Z:	0.989	yaw:	2.199	yaw rate:	22.525	Roll:	-5.245	Pitch:	4.617	Yaw:	-2.474	Thrust:	55.334
