Time:	0.038	Roll Set Point:	-0.006	Pitch Set Point:	-0.149	Yaw Set Point:	0.046	X_WP:	0.000	Y_WP:	0.000	Y_WP:	0.750	X:	0.005	Y:	0.074	Z:	0.052	yaw:	-2.640	yaw rate:	-7.535	Roll:	0.041	Pitch:	2.163	Yaw:	-3.686	Thrust:	38.388
Time:	0.057	Roll Set Point:	-0.006	Pitch Set Point:	-0.149	Yaw Set Point:	0.046	X_WP:	0.000	Y_WP:	0.000	Y_WP:	0.750	X:	0.005	Y:	0.074	Z:	0.052	yaw:	-2.622	yaw rate:	-1.748	Roll:	0.066	Pitch:	2.177	Yaw:	-3.451	Thrust:	40.016
Time:	0.076	Roll Set Point:	-0.006	Pitch Set Point:	-0.149	Yaw Set Point:	0.047	X_WP:	0.000	Y_WP:	0.000	Y_WP:	0.750	X:	0.005	Y:	0.074	Z:	0.052	yaw:	-2.691	yaw rate:	6.905	Roll:	-0.058	Pitch:	2.143	Yaw:	-4.766	Thrust:	41.458
Time:	0.096	Roll Set Point:	-0.005	Pitch Set Point:	-0.149	Yaw Set Point:	0.053	X_WP:	0.000	Y_WP:	0.000	Y_WP:	0.750	X:	0.005	Y:	0.074	Z:	0.053	yaw:	-3.051	yaw rate:	35.983	Roll:	-0.529	Pitch:	2.001	Yaw:	-9.033	Thrust:	40.383
Time:	0.115	Roll Set Point:	-0.005	Pitch Set Point:	-0.150	Yaw Set Point:	0.064	X_WP:	0.000	Y_WP:	0.000	Y_WP:	0.750	X:	0.005	Y:	0.075	Z:	0.052	yaw:	-3.661	yaw rate:	60.990	Roll:	-0.666	Pitch:	2.631	Yaw:	-13.565	Thrust:	47.211
Time:	0.137	Roll Set Point:	-0.005	Pitch Set Point:	-0.149	Yaw Set Point:	0.055	X_WP:	0.000	Y_WP:	0.000	Y_WP:	0.750	X:	0.005	Y:	0.075	Z:	0.052	yaw:	-3.158	yaw rate:	-50.347	Roll:	0.509	Pitch:	2.011	Yaw:	1.562	Thrust:	47.875
Time:	0.156	Roll Set Point:	-0.005	Pitch Set Point:	-0.149	Yaw Set Point:	0.058	X_WP:	0.000	Y_WP:	0.000	Y_WP:	0.750	X:	0.005	Y:	0.075	Z:	0.052	yaw:	-3.309	yaw rate:	15.183	Roll:	0.040	Pitch:	2.186	Yaw:	-6.776	Thrust:	47.475
Time:	0.177	Roll Set Point:	-0.006	Pitch Set Point:	-0.149	Yaw Set Point:	0.050	X_WP:	0.000	Y_WP:	0.000	Y_WP:	0.750	X:	0.005	Y:	0.074	Z:	0.052	yaw:	-2.887	yaw rate:	-42.198	Roll:	0.570	Pitch:	2.077	Yaw:	1.269	Thrust:	50.659
Time:	0.195	Roll Set Point:	-0.006	Pitch Set Point:	-0.149	Yaw Set Point:	0.056	X_WP:	0.000	Y_WP:	0.000	Y_WP:	0.750	X:	0.005	Y:	0.075	Z:	0.052	yaw:	-3.215	yaw rate:	32.761	Roll:	-0.477	Pitch:	2.320	Yaw:	-9.194	Thrust:	50.441
Time:	0.216	Roll Set Point:	-0.006	Pitch Set Point:	-0.149	Yaw Set Point:	0.056	X_WP:	0.000	Y_WP:	0.000	Y_WP:	0.750	X:	0.005	Y:	0.075	Z:	0.052	yaw:	-3.225	yaw rate:	1.034	Roll:	0.084	Pitch:	2.223	Yaw:	-4.831	Thrust:	53.905
Time:	0.237	Roll Set Point:	-0.006	Pitch Set Point:	-0.149	Yaw Set Point:	0.051	X_WP:	0.000	Y_WP:	0.000	Y_WP:	0.750	X:	0.005	Y:	0.074	Z:	0.052	yaw:	-2.904	yaw rate:	-32.094	Roll:	0.374	Pitch:	2.114	Yaw:	-0.417	Thrust:	56.694
Time:	0.256	Roll Set Point:	-0.007	Pitch Set Point:	-0.149	Yaw Set Point:	0.048	X_WP:	0.000	Y_WP:	0.000	Y_WP:	0.750	X:	0.005	Y:	0.074	Z:	0.052	yaw:	-2.778	yaw rate:	-12.676	Roll:	0.423	Pitch:	2.166	Yaw:	-2.265	Thrust:	55.564
Time:	0.276	Roll Set Point:	-0.007	Pitch Set Point:	-0.149	Yaw Set Point:	0.039	X_WP:	0.000	Y_WP:	0.000	Y_WP:	0.750	X:	0.005	Y:	0.075	Z:	0.051	yaw:	-2.226	yaw rate:	-55.206	Roll:	0.634	Pitch:	2.384	Yaw:	3.775	Thrust:	60.787
Time:	0.296	Roll Set Point:	-0.007	Pitch Set Point:	-0.149	Yaw Set Point:	0.055	X_WP:	0.000	Y_WP:	0.000	Y_WP:	0.750	X:	0.005	Y:	0.074	Z:	0.052	yaw:	-3.148	yaw rate:	92.202	Roll:	-0.700	Pitch:	2.118	Yaw:	-16.772	Thrust:	57.755
Time:	0.316	Roll Set Point:	-0.007	Pitch Set Point:	-0.149	Yaw Set Point:	0.054	X_WP:	0.000	Y_WP:	0.000	Y_WP:	0.750	X:	0.006	Y:	0.074	Z:	0.052	yaw:	-3.082	yaw rate:	-6.577	Roll:	0.317	Pitch:	2.192	Yaw:	-3.675	Thrust:	60.606
Time:	0.336	Roll Set Point:	-0.009	Pitch Set Point:	-0.150	Yaw Set Point:	0.036	X_WP:	0.000	Y_WP:	0.000	Y_WP:	0.750	X:	0.006	Y:	0.075	Z:	0.053	yaw:	-2.073	yaw rate:	-100.912	Roll:	1.237	Pitch:	2.568	Yaw:	9.556	Thrust:	62.960
Time:	0.356	Roll Set Point:	-0.006	Pitch Set Point:	-0.149	Yaw Set Point:	0.076	X_WP:	0.000	Y_WP:	0.000	Y_WP:	0.750	X:	0.006	Y:	0.074	Z:	0.054	yaw:	-4.362	yaw rate:	228.886	Roll:	-2.356	Pitch:	1.796	Yaw:	-35.494	Thrust:	64.606
Time:	0.377	Roll Set Point:	-0.008	Pitch Set Point:	-0.148	Yaw Set Point:	0.060	X_WP:	0.000	Y_WP:	0.000	Y_WP:	0.750	X:	0.006	Y:	0.074	Z:	0.055	yaw:	-3.458	yaw rate:	-90.391	Roll:	1.048	Pitch:	1.947	Yaw:	6.031	Thrust:	66.020
Time:	0.396	Roll Set Point:	-0.006	Pitch Set Point:	-0.147	Yaw Set Point:	0.068	X_WP:	0.000	Y_WP:	0.000	Y_WP:	0.750	X:	0.006	Y:	0.074	Z:	0.056	yaw:	-3.868	yaw rate:	41.051	Roll:	-0.848	Pitch:	1.786	Yaw:	-11.503	Thrust:	62.353
Time:	0.415	Roll Set Point:	-0.006	Pitch Set Point:	-0.147	Yaw Set Point:	0.059	X_WP:	0.000	Y_WP:	0.000	Y_WP:	0.750	X:	0.005	Y:	0.073	Z:	0.059	yaw:	-3.361	yaw rate:	-50.682	Roll:	0.274	Pitch:	1.874	Yaw:	1.693	Thrust:	63.420
Time:	0.437	Roll Set Point:	-0.005	Pitch Set Point:	-0.145	Yaw Set Point:	0.061	X_WP:	0.000	Y_WP:	0.000	Y_WP:	0.750	X:	0.005	Y:	0.072	Z:	0.062	yaw:	-3.522	yaw rate:	16.109	Roll:	-0.396	Pitch:	1.526	Yaw:	-7.391	Thrust:	66.162
Time:	0.457	Roll Set Point:	-0.004	Pitch Set Point:	-0.142	Yaw Set Point:	0.071	X_WP:	0.000	Y_WP:	0.000	Y_WP:	0.750	X:	0.004	Y:	0.071	Z:	0.065	yaw:	-4.082	yaw rate:	55.944	Roll:	-0.997	Pitch:	1.008	Yaw:	-13.540	Thrust:	64.607
Time:	0.476	Roll Set Point:	-0.005	Pitch Set Point:	-0.140	Yaw Set Point:	0.046	X_WP:	0.000	Y_WP:	0.000	Y_WP:	0.750	X:	0.004	Y:	0.070	Z:	0.070	yaw:	-2.615	yaw rate:	-146.694	Roll:	1.364	Pitch:	0.907	Yaw:	15.497	Thrust:	61.973
Time:	0.495	Roll Set Point:	-0.003	Pitch Set Point:	-0.136	Yaw Set Point:	0.058	X_WP:	0.000	Y_WP:	0.000	Y_WP:	0.750	X:	0.003	Y:	0.068	Z:	0.076	yaw:	-3.344	yaw rate:	72.951	Roll:	-1.098	Pitch:	0.312	Yaw:	-15.116	Thrust:	61.218
Time:	0.515	Roll Set Point:	-0.002	Pitch Set Point:	-0.131	Yaw Set Point:	0.058	X_WP:	0.000	Y_WP:	0.000	Y_WP:	0.750	X:	0.003	Y:	0.065	Z:	0.081	yaw:	-3.298	yaw rate:	-4.605	Roll:	-0.433	Pitch:	-0.041	Yaw:	-4.531	Thrust:	63.614
Time:	0.536	Roll Set Point:	-0.001	Pitch Set Point:	-0.127	Yaw Set Point:	0.054	X_WP:	0.000	Y_WP:	0.000	Y_WP:	0.750	X:	0.002	Y:	0.063	Z:	0.088	yaw:	-3.094	yaw rate:	-20.464	Roll:	-0.386	Pitch:	0.054	Yaw:	-2.306	Thrust:	65.408
Time:	0.556	Roll Set Point:	0.001	Pitch Set Point:	-0.121	Yaw Set Point:	0.054	X_WP:	0.000	Y_WP:	0.000	Y_WP:	0.750	X:	0.001	Y:	0.061	Z:	0.095	yaw:	-3.107	yaw rate:	1.315	Roll:	-0.643	Pitch:	-0.285	Yaw:	-5.082	Thrust:	63.153
Time:	0.577	Roll Set Point:	0.003	Pitch Set Point:	-0.116	Yaw Set Point:	0.055	X_WP:	0.000	Y_WP:	0.000	Y_WP:	0.750	X:	0.000	Y:	0.058	Z:	0.103	yaw:	-3.157	yaw rate:	4.968	Roll:	-0.786	Pitch:	-0.607	Yaw:	-5.648	Thrust:	65.799
Time:	0.605	Roll Set Point:	0.004	Pitch Set Point:	-0.108	Yaw Set Point:	0.051	X_WP:	0.000	Y_WP:	0.000	Y_WP:	0.750	X:	-0.001	Y:	0.054	Z:	0.111	yaw:	-2.913	yaw rate:	-24.395	Roll:	-0.427	Pitch:	-0.665	Yaw:	-2.484	Thrust:	83.138
Time:	0.616	Roll Set Point:	0.006	Pitch Set Point:	-0.102	Yaw Set Point:	0.043	X_WP:	0.000	Y_WP:	0.000	Y_WP:	0.750	X:	-0.002	Y:	0.051	Z:	0.120	yaw:	-2.441	yaw rate:	-47.217	Roll:	-1.196	Pitch:	-2.401	Yaw:	5.660	Thrust:	34.480
Time:	0.638	Roll Set Point:	0.009	Pitch Set Point:	-0.095	Yaw Set Point:	0.043	X_WP:	0.000	Y_WP:	0.000	Y_WP:	0.750	X:	-0.003	Y:	0.048	Z:	0.129	yaw:	-2.456	yaw rate:	1.550	Roll:	-1.007	Pitch:	-1.336	Yaw:	-4.304	Thrust:	65.615
Time:	0.659	Roll Set Point:	0.011	Pitch Set Point:	-0.087	Yaw Set Point:	0.043	X_WP:	0.000	Y_WP:	0.000	Y_WP:	0.750	X:	-0.005	Y:	0.044	Z:	0.139	yaw:	-2.438	yaw rate:	-1.775	Roll:	-1.181	Pitch:	-1.963	Yaw:	-3.865	Thrust:	65.032
Time:	0.675	Roll Set Point:	0.014	Pitch Set Point:	-0.079	Yaw Set Point:	0.046	X_WP:	0.000	Y_WP:	0.000	Y_WP:	0.750	X:	-0.006	Y:	0.040	Z:	0.149	yaw:	-2.662	yaw rate:	22.423	Roll:	-1.554	Pitch:	-2.865	Yaw:	-7.665	Thrust:	53.176
Time:	0.695	Roll Set Point:	0.017	Pitch Set Point:	-0.071	Yaw Set Point:	0.048	X_WP:	0.000	Y_WP:	0.000	Y_WP:	0.750	X:	-0.008	Y:	0.036	Z:	0.159	yaw:	-2.729	yaw rate:	6.629	Roll:	-1.570	Pitch:	-2.241	Yaw:	-5.385	Thrust:	61.342
Time:	0.715	Roll Set Point:	0.020	Pitch Set Point:	-0.062	Yaw Set Point:	0.049	X_WP:	0.000	Y_WP:	0.000	Y_WP:	0.750	X:	-0.009	Y:	0.031	Z:	0.170	yaw:	-2.825	yaw rate:	9.657	Roll:	-1.376	Pitch:	-2.823	Yaw:	-5.931	Thrust:	62.981
Time:	0.736	Roll Set Point:	0.023	Pitch Set Point:	-0.054	Yaw Set Point:	0.045	X_WP:	0.000	Y_WP:	0.000	Y_WP:	0.750	X:	-0.011	Y:	0.027	Z:	0.181	yaw:	-2.586	yaw rate:	-23.898	Roll:	-1.544	Pitch:	-2.579	Yaw:	-1.258	Thrust:	64.044
Time:	0.755	Roll Set Point:	0.026	Pitch Set Point:	-0.045	Yaw Set Point:	0.043	X_WP:	0.000	Y_WP:	0.000	Y_WP:	0.750	X:	-0.013	Y:	0.023	Z:	0.192	yaw:	-2.476	yaw rate:	-10.990	Roll:	-1.591	Pitch:	-3.112	Yaw:	-2.780	Thrust:	61.868
Time:	0.775	Roll Set Point:	0.029	Pitch Set Point:	-0.037	Yaw Set Point:	0.037	X_WP:	0.000	Y_WP:	0.000	Y_WP:	0.750	X:	-0.014	Y:	0.019	Z:	0.203	yaw:	-2.141	yaw rate:	-33.570	Roll:	-1.525	Pitch:	-2.638	Yaw:	0.598	Thrust:	66.081
Time:	0.798	Roll Set Point:	0.032	Pitch Set Point:	-0.027	Yaw Set Point:	0.045	X_WP:	0.000	Y_WP:	0.000	Y_WP:	0.750	X:	-0.016	Y:	0.014	Z:	0.214	yaw:	-2.597	yaw rate:	45.591	Roll:	-1.653	Pitch:	-3.187	Yaw:	-9.664	Thrust:	77.246
Time:	0.816	Roll Set Point:	0.035	Pitch Set Point:	-0.018	Yaw Set Point:	0.045	X_WP:	0.000	Y_WP:	0.000	Y_WP:	0.750	X:	-0.017	Y:	0.010	Z:	0.226	yaw:	-2.573	yaw rate:	-2.316	Roll:	-1.972	Pitch:	-4.043	Yaw:	-3.942	Thrust:	54.894
Time:	0.841	Roll Set Point:	0.038	Pitch Set Point:	-0.010	Yaw Set Point:	0.037	X_WP:	0.000	Y_WP:	0.000	Y_WP:	0.750	X:	-0.019	Y:	0.005	Z:	0.237	yaw:	-2.143	yaw rate:	-43.041	Roll:	-1.477	Pitch:	-2.627	Yaw:	0.515	Thrust:	85.733
Time:	0.858	Roll Set Point:	0.041	Pitch Set Point:	-0.001	Yaw Set Point:	0.035	X_WP:	0.000	Y_WP:	0.000	Y_WP:	0.750	X:	-0.021	Y:	0.001	Z:	0.249	yaw:	-1.995	yaw rate:	-14.777	Roll:	-2.054	Pitch:	-4.402	Yaw:	-1.215	Thrust:	49.916
Time:	0.875	Roll Set Point:	0.044	Pitch Set Point:	0.008	Yaw Set Point:	0.039	X_WP:	0.000	Y_WP:	0.000	Y_WP:	0.750	X:	-0.022	Y:	-0.003	Z:	0.261	yaw:	-2.213	yaw rate:	21.733	Roll:	-1.991	Pitch:	-4.102	Yaw:	-7.085	Thrust:	53.163
Time:	0.896	Roll Set Point:	0.047	Pitch Set Point:	0.016	Yaw Set Point:	0.032	X_WP:	0.000	Y_WP:	0.000	Y_WP:	0.750	X:	-0.024	Y:	-0.008	Z:	0.274	yaw:	-1.859	yaw rate:	-35.393	Roll:	-1.865	Pitch:	-3.544	Yaw:	0.984	Thrust:	67.940
Time:	0.915	Roll Set Point:	0.050	Pitch Set Point:	0.024	Yaw Set Point:	0.034	X_WP:	0.000	Y_WP:	0.000	Y_WP:	0.750	X:	-0.025	Y:	-0.012	Z:	0.287	yaw:	-1.963	yaw rate:	10.466	Roll:	-1.975	Pitch:	-3.871	Yaw:	-5.024	Thrust:	59.150
Time:	0.936	Roll Set Point:	0.053	Pitch Set Point:	0.032	Yaw Set Point:	0.025	X_WP:	0.000	Y_WP:	0.000	Y_WP:	0.750	X:	-0.026	Y:	-0.016	Z:	0.300	yaw:	-1.431	yaw rate:	-53.217	Roll:	-1.787	Pitch:	-3.704	Yaw:	3.763	Thrust:	68.222
Time:	0.955	Roll Set Point:	0.055	Pitch Set Point:	0.039	Yaw Set Point:	0.029	X_WP:	0.000	Y_WP:	0.000	Y_WP:	0.750	X:	-0.028	Y:	-0.019	Z:	0.314	yaw:	-1.658	yaw rate:	22.683	Roll:	-1.800	Pitch:	-3.567	Yaw:	-6.238	Thrust:	60.746
Time:	0.976	Roll Set Point:	0.058	Pitch Set Point:	0.047	Yaw Set Point:	0.028	X_WP:	0.000	Y_WP:	0.000	Y_WP:	0.750	X:	-0.029	Y:	-0.023	Z:	0.328	yaw:	-1.631	yaw rate:	-2.683	Roll:	-1.998	Pitch:	-3.606	Yaw:	-2.859	Thrust:	63.940
Time:	0.995	Roll Set Point:	0.060	Pitch Set Point:	0.054	Yaw Set Point:	0.018	X_WP:	0.000	Y_WP:	0.000	Y_WP:	0.750	X:	-0.030	Y:	-0.026	Z:	0.342	yaw:	-1.058	yaw rate:	-57.291	Roll:	-2.008	Pitch:	-3.551	Yaw:	5.041	Thrust:	64.048
Time:	1.016	Roll Set Point:	0.518	Pitch Set Point:	1.247	Yaw Set Point:	0.020	X_WP:	0.480	Y_WP:	1.177	Y_WP:	0.750	X:	-0.032	Y:	-0.030	Z:	0.356	yaw:	-1.166	yaw rate:	10.810	Roll:	-30.000	Pitch:	-30.000	Yaw:	-3.990	Thrust:	60.373
Time:	1.038	Roll Set Point:	0.518	Pitch Set Point:	1.254	Yaw Set Point:	0.022	X_WP:	0.480	Y_WP:	1.177	Y_WP:	0.750	X:	-0.033	Y:	-0.033	Z:	0.371	yaw:	-1.265	yaw rate:	9.841	Roll:	-13.363	Pitch:	-30.000	Yaw:	-3.984	Thrust:	70.064
Time:	1.057	Roll Set Point:	0.527	Pitch Set Point:	1.256	Yaw Set Point:	0.016	X_WP:	0.480	Y_WP:	1.177	Y_WP:	0.750	X:	-0.034	Y:	-0.036	Z:	0.386	yaw:	-0.917	yaw rate:	-34.806	Roll:	-21.303	Pitch:	-30.000	Yaw:	2.500	Thrust:	58.243
Time:	1.075	Roll Set Point:	0.517	Pitch Set Point:	1.266	Yaw Set Point:	0.026	X_WP:	0.480	Y_WP:	1.177	Y_WP:	0.750	X:	-0.035	Y:	-0.038	Z:	0.401	yaw:	-1.485	yaw rate:	56.812	Roll:	-4.151	Pitch:	-30.000	Yaw:	-10.788	Thrust:	55.942
Time:	1.096	Roll Set Point:	0.531	Pitch Set Point:	1.265	Yaw Set Point:	0.015	X_WP:	0.480	Y_WP:	1.177	Y_WP:	0.750	X:	-0.035	Y:	-0.040	Z:	0.417	yaw:	-0.850	yaw rate:	-63.467	Roll:	-26.389	Pitch:	-30.000	Yaw:	5.861	Thrust:	56.559
Time:	1.115	Roll Set Point:	0.557	Pitch Set Point:	1.257	Yaw Set Point:	-0.006	X_WP:	0.480	Y_WP:	1.177	Y_WP:	0.750	X:	-0.035	Y:	-0.042	Z:	0.433	yaw:	0.364	yaw rate:	-121.467	Roll:	-30.000	Pitch:	-27.612	Yaw:	16.267	Thrust:	60.048
Time:	1.135	Roll Set Point:	0.578	Pitch Set Point:	1.248	Yaw Set Point:	-0.024	X_WP:	0.480	Y_WP:	1.177	Y_WP:	0.750	X:	-0.035	Y:	-0.042	Z:	0.449	yaw:	1.376	yaw rate:	-101.196	Roll:	-30.000	Pitch:	-27.423	Yaw:	14.088	Thrust:	59.097
Time:	1.155	Roll Set Point:	0.558	Pitch Set Point:	1.254	Yaw Set Point:	-0.008	X_WP:	0.480	Y_WP:	1.177	Y_WP:	0.750	X:	-0.034	Y:	-0.041	Z:	0.465	yaw:	0.476	yaw rate:	90.084	Roll:	0.885	Pitch:	-30.000	Yaw:	-12.089	Thrust:	58.731
Time:	1.176	Roll Set Point:	0.504	Pitch Set Point:	1.273	Yaw Set Point:	0.032	X_WP:	0.480	Y_WP:	1.177	Y_WP:	0.750	X:	-0.032	Y:	-0.040	Z:	0.482	yaw:	-1.844	yaw rate:	231.916	Roll:	29.140	Pitch:	-30.000	Yaw:	-33.108	Thrust:	59.386
Time:	1.196	Roll Set Point:	0.473	Pitch Set Point:	1.278	Yaw Set Point:	0.053	X_WP:	0.480	Y_WP:	1.177	Y_WP:	0.750	X:	-0.030	Y:	-0.038	Z:	0.498	yaw:	-3.036	yaw rate:	119.243	Roll:	10.276	Pitch:	-30.000	Yaw:	-20.578	Thrust:	60.247
Time:	1.216	Roll Set Point:	0.425	Pitch Set Point:	1.283	Yaw Set Point:	0.087	X_WP:	0.480	Y_WP:	1.177	Y_WP:	0.750	X:	-0.027	Y:	-0.033	Z:	0.513	yaw:	-4.996	yaw rate:	196.013	Roll:	28.114	Pitch:	-30.000	Yaw:	-33.972	Thrust:	58.801
Time:	1.237	Roll Set Point:	0.484	Pitch Set Point:	1.248	Yaw Set Point:	0.031	X_WP:	0.480	Y_WP:	1.177	Y_WP:	0.750	X:	-0.021	Y:	-0.028	Z:	0.527	yaw:	-1.802	yaw rate:	-319.392	Roll:	-30.000	Pitch:	-10.480	Yaw:	38.214	Thrust:	61.511
Time:	1.257	Roll Set Point:	0.479	Pitch Set Point:	1.232	Yaw Set Point:	0.027	X_WP:	0.480	Y_WP:	1.177	Y_WP:	0.750	X:	-0.016	Y:	-0.021	Z:	0.543	yaw:	-1.559	yaw rate:	-24.313	Roll:	-14.059	Pitch:	-28.466	Yaw:	-0.269	Thrust:	61.666
Time:	1.277	Roll Set Point:	0.546	Pitch Set Point:	1.180	Yaw Set Point:	-0.036	X_WP:	0.480	Y_WP:	1.177	Y_WP:	0.750	X:	-0.012	Y:	-0.011	Z:	0.555	yaw:	2.066	yaw rate:	-362.534	Roll:	-30.000	Pitch:	0.895	Yaw:	50.496	Thrust:	66.125
Time:	1.295	Roll Set Point:	0.589	Pitch Set Point:	1.133	Yaw Set Point:	-0.084	X_WP:	0.480	Y_WP:	1.177	Y_WP:	0.750	X:	-0.007	Y:	-0.000	Z:	0.567	yaw:	4.797	yaw rate:	-273.054	Roll:	-30.000	Pitch:	-0.206	Yaw:	43.865	Thrust:	58.832
Time:	1.315	Roll Set Point:	0.612	Pitch Set Point:	1.093	Yaw Set Point:	-0.117	X_WP:	0.480	Y_WP:	1.177	Y_WP:	0.750	X:	0.000	Y:	0.010	Z:	0.582	yaw:	6.705	yaw rate:	-190.870	Roll:	-30.000	Pitch:	-7.677	Yaw:	33.267	Thrust:	58.198
Time:	1.335	Roll Set Point:	0.560	Pitch Set Point:	1.089	Yaw Set Point:	-0.080	X_WP:	0.480	Y_WP:	1.177	Y_WP:	0.750	X:	0.005	Y:	0.023	Z:	0.596	yaw:	4.603	yaw rate:	210.287	Roll:	22.270	Pitch:	-30.000	Yaw:	-21.741	Thrust:	63.731
Time:	1.355	Roll Set Point:	0.553	Pitch Set Point:	1.059	Yaw Set Point:	-0.082	X_WP:	0.480	Y_WP:	1.177	Y_WP:	0.750	X:	0.009	Y:	0.038	Z:	0.609	yaw:	4.703	yaw rate:	-10.019	Roll:	-13.723	Pitch:	-19.602	Yaw:	6.960	Thrust:	61.390
Time:	1.375	Roll Set Point:	0.555	Pitch Set Point:	1.022	Yaw Set Point:	-0.092	X_WP:	0.480	Y_WP:	1.177	Y_WP:	0.750	X:	0.013	Y:	0.054	Z:	0.621	yaw:	5.270	yaw rate:	-56.690	Roll:	-21.784	Pitch:	-14.075	Yaw:	13.853	Thrust:	65.369
Time:	1.395	Roll Set Point:	0.516	Pitch Set Point:	1.005	Yaw Set Point:	-0.064	X_WP:	0.480	Y_WP:	1.177	Y_WP:	0.750	X:	0.017	Y:	0.070	Z:	0.634	yaw:	3.690	yaw rate:	157.988	Roll:	13.894	Pitch:	-30.000	Yaw:	-16.425	Thrust:	61.839
Time:	1.416	Roll Set Point:	0.479	Pitch Set Point:	0.982	Yaw Set Point:	-0.037	X_WP:	0.480	Y_WP:	1.177	Y_WP:	0.750	X:	0.021	Y:	0.088	Z:	0.647	yaw:	2.139	yaw rate:	155.123	Roll:	13.623	Pitch:	-28.247	Yaw:	-17.854	Thrust:	60.862
Time:	1.439	Roll Set Point:	0.411	Pitch Set Point:	0.971	Yaw Set Point:	0.019	X_WP:	0.480	Y_WP:	1.177	Y_WP:	0.750	X:	0.024	Y:	0.107	Z:	0.659	yaw:	-1.061	yaw rate:	319.981	Roll:	30.000	Pitch:	-30.000	Yaw:	-39.464	Thrust:	79.129
Time:	1.459	Roll Set Point:	0.417	Pitch Set Point:	0.922	Yaw Set Point:	0.004	X_WP:	0.480	Y_WP:	1.177	Y_WP:	0.750	X:	0.029	Y:	0.128	Z:	0.671	yaw:	-0.228	yaw rate:	-83.302	Roll:	-23.351	Pitch:	-7.442	Yaw:	10.012	Thrust:	61.980
Time:	1.476	Roll Set Point:	0.405	Pitch Set Point:	0.879	Yaw Set Point:	0.003	X_WP:	0.480	Y_WP:	1.177	Y_WP:	0.750	X:	0.036	Y:	0.150	Z:	0.683	yaw:	-0.151	yaw rate:	-7.673	Roll:	-8.491	Pitch:	-9.247	Yaw:	0.150	Thrust:	50.164
Time:	1.495	Roll Set Point:	0.407	Pitch Set Point:	0.826	Yaw Set Point:	-0.015	X_WP:	0.480	Y_WP:	1.177	Y_WP:	0.750	X:	0.044	Y:	0.172	Z:	0.696	yaw:	0.845	yaw rate:	-99.690	Roll:	-22.039	Pitch:	-3.632	Yaw:	13.947	Thrust:	56.151
Time:	1.515	Roll Set Point:	0.382	Pitch Set Point:	0.782	Yaw Set Point:	-0.008	X_WP:	0.480	Y_WP:	1.177	Y_WP:	0.750	X:	0.053	Y:	0.196	Z:	0.709	yaw:	0.448	yaw rate:	39.718	Roll:	0.479	Pitch:	-11.882	Yaw:	-5.386	Thrust:	58.783
Time:	1.535	Roll Set Point:	0.442	Pitch Set Point:	0.694	Yaw Set Point:	-0.093	X_WP:	0.480	Y_WP:	1.177	Y_WP:	0.750	X:	0.062	Y:	0.220	Z:	0.720	yaw:	5.322	yaw rate:	-487.356	Roll:	-30.000	Pitch:	26.742	Yaw:	69.873	Thrust:	63.135
Time:	1.555	Roll Set Point:	0.421	Pitch Set Point:	0.643	Yaw Set Point:	-0.090	X_WP:	0.480	Y_WP:	1.177	Y_WP:	0.750	X:	0.071	Y:	0.247	Z:	0.732	yaw:	5.183	yaw rate:	13.887	Roll:	-3.619	Pitch:	-5.770	Yaw:	4.633	Thrust:	60.679
Time:	1.575	Roll Set Point:	0.408	Pitch Set Point:	0.587	Yaw Set Point:	-0.096	X_WP:	0.480	Y_WP:	1.177	Y_WP:	0.750	X:	0.078	Y:	0.274	Z:	0.743	yaw:	5.520	yaw rate:	-33.681	Roll:	-10.525	Pitch:	-1.077	Yaw:	11.328	Thrust:	62.326
Time:	1.595	Roll Set Point:	0.387	Pitch Set Point:	0.534	Yaw Set Point:	-0.092	X_WP:	0.480	Y_WP:	1.177	Y_WP:	0.750	X:	0.085	Y:	0.302	Z:	0.754	yaw:	5.253	yaw rate:	26.662	Roll:	-2.408	Pitch:	-2.677	Yaw:	3.139	Thrust:	55.656
Time:	1.616	Roll Set Point:	0.371	Pitch Set Point:	0.478	Yaw Set Point:	-0.090	X_WP:	0.480	Y_WP:	1.177	Y_WP:	0.750	X:	0.092	Y:	0.330	Z:	0.766	yaw:	5.179	yaw rate:	7.382	Roll:	-5.924	Pitch:	-2.371	Yaw:	5.594	Thrust:	65.803
Time:	1.637	Roll Set Point:	0.345	Pitch Set Point:	0.430	Yaw Set Point:	-0.072	X_WP:	0.480	Y_WP:	1.177	Y_WP:	0.750	X:	0.096	Y:	0.359	Z:	0.777	yaw:	4.123	yaw rate:	105.639	Roll:	3.721	Pitch:	-7.509	Yaw:	-7.654	Thrust:	64.132
Time:	1.658	Roll Set Point:	0.335	Pitch Set Point:	0.372	Yaw Set Point:	-0.074	X_WP:	0.480	Y_WP:	1.177	Y_WP:	0.750	X:	0.101	Y:	0.388	Z:	0.788	yaw:	4.229	yaw rate:	-10.597	Roll:	-9.383	Pitch:	0.183	Yaw:	6.585	Thrust:	69.805
Time:	1.677	Roll Set Point:	0.314	Pitch Set Point:	0.321	Yaw Set Point:	-0.057	X_WP:	0.480	Y_WP:	1.177	Y_WP:	0.750	X:	0.104	Y:	0.417	Z:	0.799	yaw:	3.266	yaw rate:	96.244	Roll:	3.712	Pitch:	-2.108	Yaw:	-9.921	Thrust:	47.362
Time:	1.695	Roll Set Point:	0.309	Pitch Set Point:	0.262	Yaw Set Point:	-0.063	X_WP:	0.480	Y_WP:	1.177	Y_WP:	0.750	X:	0.108	Y:	0.445	Z:	0.811	yaw:	3.603	yaw rate:	-33.638	Roll:	-11.758	Pitch:	6.648	Yaw:	9.226	Thrust:	47.616
Time:	1.715	Roll Set Point:	0.299	Pitch Set Point:	0.206	Yaw Set Point:	-0.058	X_WP:	0.480	Y_WP:	1.177	Y_WP:	0.750	X:	0.111	Y:	0.474	Z:	0.823	yaw:	3.323	yaw rate:	27.997	Roll:	-5.783	Pitch:	2.271	Yaw:	0.453	Thrust:	55.074
Time:	1.735	Roll Set Point:	0.290	Pitch Set Point:	0.148	Yaw Set Point:	-0.058	X_WP:	0.480	Y_WP:	1.177	Y_WP:	0.750	X:	0.114	Y:	0.503	Z:	0.835	yaw:	3.339	yaw rate:	-1.570	Roll:	-8.303	Pitch:	4.946	Yaw:	4.364	Thrust:	53.847
Time:	1.756	Roll Set Point:	0.272	Pitch Set Point:	0.097	Yaw Set Point:	-0.042	X_WP:	0.480	Y_WP:	1.177	Y_WP:	0.750	X:	0.117	Y:	0.532	Z:	0.847	yaw:	2.434	yaw rate:	90.503	Roll:	0.401	Pitch:	0.047	Yaw:	-8.570	Thrust:	57.190
Time:	1.777	Roll Set Point:	0.259	Pitch Set Point:	0.043	Yaw Set Point:	-0.032	X_WP:	0.480	Y_WP:	1.177	Y_WP:	0.750	X:	0.120	Y:	0.561	Z:	0.858	yaw:	1.850	yaw rate:	58.341	Roll:	-3.254	Pitch:	1.954	Yaw:	-5.331	Thrust:	55.820
Time:	1.795	Roll Set Point:	0.235	Pitch Set Point:	-0.005	Yaw Set Point:	-0.003	X_WP:	0.480	Y_WP:	1.177	Y_WP:	0.750	X:	0.123	Y:	0.590	Z:	0.870	yaw:	0.158	yaw rate:	169.190	Roll:	8.813	Pitch:	-1.479	Yaw:	-23.484	Thrust:	47.791
Time:	1.816	Roll Set Point:	0.226	Pitch Set Point:	-0.062	Yaw Set Point:	-0.001	X_WP:	0.480	Y_WP:	1.177	Y_WP:	0.750	X:	0.127	Y:	0.620	Z:	0.882	yaw:	0.075	yaw rate:	8.290	Roll:	-7.359	Pitch:	7.485	Yaw:	-1.420	Thrust:	52.882
Time:	1.837	Roll Set Point:	0.217	Pitch Set Point:	-0.119	Yaw Set Point:	0.001	X_WP:	0.480	Y_WP:	1.177	Y_WP:	0.750	X:	0.131	Y:	0.648	Z:	0.893	yaw:	-0.081	yaw rate:	15.599	Roll:	-6.520	Pitch:	6.025	Yaw:	-2.536	Thrust:	55.477
Time:	1.858	Roll Set Point:	0.212	Pitch Set Point:	-0.179	Yaw Set Point:	-0.007	X_WP:	0.480	Y_WP:	1.177	Y_WP:	0.750	X:	0.135	Y:	0.677	Z:	0.905	yaw:	0.378	yaw rate:	-45.828	Roll:	-10.459	Pitch:	11.501	Yaw:	5.908	Thrust:	51.607
Time:	1.876	Roll Set Point:	0.199	Pitch Set Point:	-0.234	Yaw Set Point:	0.000	X_WP:	0.480	Y_WP:	1.177	Y_WP:	0.750	X:	0.140	Y:	0.705	Z:	0.917	yaw:	-0.003	yaw rate:	38.094	Roll:	-3.146	Pitch:	9.271	Yaw:	-5.905	Thrust:	37.937
Time:	1.895	Roll Set Point:	0.186	Pitch Set Point:	-0.288	Yaw Set Point:	0.005	X_WP:	0.480	Y_WP:	1.177	Y_WP:	0.750	X:	0.146	Y:	0.733	Z:	0.928	yaw:	-0.287	yaw rate:	28.369	Roll:	-3.823	Pitch:	9.007	Yaw:	-4.611	Thrust:	46.977
Time:	1.916	Roll Set Point:	0.171	Pitch Set Point:	-0.340	Yaw Set Point:	0.016	X_WP:	0.479	Y_WP:	1.177	Y_WP:	0.750	X:	0.151	Y:	0.761	Z:	0.938	yaw:	-0.934	yaw rate:	64.682	Roll:	-1.674	Pitch:	6.433	Yaw:	-9.821	Thrust:	54.361
Time:	1.935	Roll Set Point:	0.165	Pitch Set Point:	-0.399	Yaw Set Point:	0.001	X_WP:	0.480	Y_WP:	1.177	Y_WP:	0.750	X:	0.157	Y:	0.788	Z:	0.948	yaw:	-0.079	yaw rate:	-85.448	Roll:	-10.175	Pitch:	16.223	Yaw:	10.979	Thrust:	45.891
Time:	1.956	Roll Set Point:	0.151	Pitch Set Point:	-0.453	Yaw Set Point:	0.002	X_WP:	0.480	Y_WP:	1.177	Y_WP:	0.750	X:	0.164	Y:	0.815	Z:	0.958	yaw:	-0.117	yaw rate:	3.754	Roll:	-3.999	Pitch:	11.869	Yaw:	-1.114	Thrust:	49.394
Time:	1.977	Roll Set Point:	0.136	Pitch Set Point:	-0.504	Yaw Set Point:	0.011	X_WP:	0.480	Y_WP:	1.177	Y_WP:	0.750	X:	0.170	Y:	0.842	Z:	0.967	yaw:	-0.615	yaw rate:	49.815	Roll:	-2.719	Pitch:	8.210	Yaw:	-7.430	Thrust:	56.190
Time:	1.996	Roll Set Point:	0.124	Pitch Set Point:	-0.558	Yaw Set Point:	0.000	X_WP:	0.480	Y_WP:	1.177	Y_WP:	0.750	X:	0.178	Y:	0.868	Z:	0.976	yaw:	-0.022	yaw rate:	-59.277	Roll:	-5.430	Pitch:	17.185	Yaw:	7.873	Thrust:	38.851
Time:	2.016	Roll Set Point:	0.108	Pitch Set Point:	-0.608	Yaw Set Point:	0.003	X_WP:	0.480	Y_WP:	1.177	Y_WP:	0.750	X:	0.185	Y:	0.893	Z:	0.984	yaw:	-0.190	yaw rate:	16.785	Roll:	-2.210	Pitch:	11.134	Yaw:	-2.927	Thrust:	51.728
Time:	2.037	Roll Set Point:	0.094	Pitch Set Point:	-0.659	Yaw Set Point:	-0.001	X_WP:	0.480	Y_WP:	1.177	Y_WP:	0.750	X:	0.193	Y:	0.918	Z:	0.991	yaw:	0.053	yaw rate:	-24.331	Roll:	-3.683	Pitch:	12.089	Yaw:	2.493	Thrust:	58.049
Time:	2.057	Roll Set Point:	0.077	Pitch Set Point:	-0.708	Yaw Set Point:	-0.005	X_WP:	0.480	Y_WP:	1.177	Y_WP:	0.750	X:	0.202	Y:	0.942	Z:	0.998	yaw:	0.300	yaw rate:	-24.718	Roll:	-2.386	Pitch:	14.385	Yaw:	3.196	Thrust:	51.431
Time:	2.076	Roll Set Point:	0.058	Pitch Set Point:	-0.752	Yaw Set Point:	0.007	X_WP:	0.480	Y_WP:	1.177	Y_WP:	0.750	X:	0.210	Y:	0.965	Z:	1.003	yaw:	-0.427	yaw rate:	72.690	Roll:	1.387	Pitch:	11.206	Yaw:	-11.284	Thrust:	45.897
Time:	2.096	Roll Set Point:	0.039	Pitch Set Point:	-0.795	Yaw Set Point:	0.010	X_WP:	0.480	Y_WP:	1.177	Y_WP:	0.750	X:	0.219	Y:	0.988	Z:	1.008	yaw:	-0.580	yaw rate:	15.343	Roll:	0.066	Pitch:	12.466	Yaw:	-3.321	Thrust:	50.053
Time:	2.115	Roll Set Point:	0.019	Pitch Set Point:	-0.837	Yaw Set Point:	0.019	X_WP:	0.480	Y_WP:	1.177	Y_WP:	0.750	X:	0.229	Y:	1.009	Z:	1.012	yaw:	-1.110	yaw rate:	53.012	Roll:	1.558	Pitch:	11.735	Yaw:	-8.942	Thrust:	49.388
Time:	2.136	Roll Set Point:	0.000	Pitch Set Point:	-0.879	Yaw Set Point:	0.021	X_WP:	0.480	Y_WP:	1.177	Y_WP:	0.750	X:	0.238	Y:	1.031	Z:	1.016	yaw:	-1.227	yaw rate:	11.734	Roll:	-0.174	Pitch:	11.635	Yaw:	-3.715	Thrust:	59.313
Time:	2.155	Roll Set Point:	-0.020	Pitch Set Point:	-0.919	Yaw Set Point:	0.022	X_WP:	0.480	Y_WP:	1.177	Y_WP:	0.750	X:	0.248	Y:	1.051	Z:	1.019	yaw:	-1.269	yaw rate:	4.200	Roll:	1.327	Pitch:	12.736	Yaw:	-2.810	Thrust:	52.405
Time:	2.177	Roll Set Point:	-0.039	Pitch Set Point:	-0.960	Yaw Set Point:	0.012	X_WP:	0.479	Y_WP:	1.177	Y_WP:	0.750	X:	0.259	Y:	1.070	Z:	1.021	yaw:	-0.706	yaw rate:	-56.375	Roll:	-0.073	Pitch:	13.960	Yaw:	5.441	Thrust:	60.146
Time:	2.195	Roll Set Point:	-0.061	Pitch Set Point:	-0.995	Yaw Set Point:	0.023	X_WP:	0.480	Y_WP:	1.177	Y_WP:	0.750	X:	0.269	Y:	1.089	Z:	1.023	yaw:	-1.318	yaw rate:	61.244	Roll:	3.315	Pitch:	11.223	Yaw:	-10.976	Thrust:	50.078
Time:	2.215	Roll Set Point:	-0.081	Pitch Set Point:	-1.030	Yaw Set Point:	0.025	X_WP:	0.480	Y_WP:	1.177	Y_WP:	0.750	X:	0.280	Y:	1.106	Z:	1.024	yaw:	-1.429	yaw rate:	11.109	Roll:	2.348	Pitch:	11.859	Yaw:	-3.956	Thrust:	56.925
Time:	2.240	Roll Set Point:	-0.102	Pitch Set Point:	-1.067	Yaw Set Point:	0.009	X_WP:	0.479	Y_WP:	1.177	Y_WP:	0.750	X:	0.290	Y:	1.123	Z:	1.024	yaw:	-0.518	yaw rate:	-91.159	Roll:	0.392	Pitch:	11.359	Yaw:	8.347	Thrust:	74.863
Time:	2.258	Roll Set Point:	-0.124	Pitch Set Point:	-1.097	Yaw Set Point:	0.017	X_WP:	0.480	Y_WP:	1.177	Y_WP:	0.750	X:	0.301	Y:	1.139	Z:	1.025	yaw:	-0.986	yaw rate:	46.811	Roll:	4.330	Pitch:	11.894	Yaw:	-8.686	Thrust:	48.824
Time:	2.276	Roll Set Point:	-0.145	Pitch Set Point:	-1.127	Yaw Set Point:	0.019	X_WP:	0.480	Y_WP:	1.177	Y_WP:	0.750	X:	0.312	Y:	1.154	Z:	1.025	yaw:	-1.117	yaw rate:	13.138	Roll:	4.504	Pitch:	12.693	Yaw:	-3.945	Thrust:	49.861
Time:	2.296	Roll Set Point:	-0.167	Pitch Set Point:	-1.156	Yaw Set Point:	0.012	X_WP:	0.480	Y_WP:	1.177	Y_WP:	0.750	X:	0.323	Y:	1.167	Z:	1.025	yaw:	-0.715	yaw rate:	-40.162	Roll:	3.966	Pitch:	12.091	Yaw:	3.698	Thrust:	56.775
Time:	2.323	Roll Set Point:	-0.188	Pitch Set Point:	-1.180	Yaw Set Point:	0.022	X_WP:	0.480	Y_WP:	1.177	Y_WP:	0.750	X:	0.334	Y:	1.180	Z:	1.025	yaw:	-1.263	yaw rate:	54.742	Roll:	1.409	Pitch:	6.135	Yaw:	-7.815	Thrust:	79.926
Time:	2.339	Roll Set Point:	-0.210	Pitch Set Point:	-1.204	Yaw Set Point:	0.022	X_WP:	0.479	Y_WP:	1.177	Y_WP:	0.750	X:	0.345	Y:	1.192	Z:	1.025	yaw:	-1.247	yaw rate:	-1.576	Roll:	7.066	Pitch:	13.007	Yaw:	-1.927	Thrust:	37.826
Time:	2.359	Roll Set Point:	-0.231	Pitch Set Point:	-1.224	Yaw Set Point:	0.031	X_WP:	0.480	Y_WP:	1.177	Y_WP:	0.750	X:	0.356	Y:	1.203	Z:	1.025	yaw:	-1.774	yaw rate:	52.725	Roll:	4.622	Pitch:	8.022	Yaw:	-9.917	Thrust:	54.847
Time:	2.378	Roll Set Point:	-0.253	Pitch Set Point:	-1.246	Yaw Set Point:	0.022	X_WP:	0.480	Y_WP:	1.177	Y_WP:	0.750	X:	0.367	Y:	1.213	Z:	1.024	yaw:	-1.272	yaw rate:	-50.260	Roll:	5.871	Pitch:	9.907	Yaw:	4.579	Thrust:	55.705
Time:	2.396	Roll Set Point:	-0.273	Pitch Set Point:	-1.263	Yaw Set Point:	0.034	X_WP:	0.480	Y_WP:	1.177	Y_WP:	0.750	X:	0.377	Y:	1.222	Z:	1.024	yaw:	-1.957	yaw rate:	68.523	Roll:	5.139	Pitch:	8.511	Yaw:	-13.587	Thrust:	45.293
Time:	2.416	Roll Set Point:	-0.294	Pitch Set Point:	-1.280	Yaw Set Point:	0.028	X_WP:	0.479	Y_WP:	1.177	Y_WP:	0.750	X:	0.388	Y:	1.230	Z:	1.023	yaw:	-1.580	yaw rate:	-37.652	Roll:	5.521	Pitch:	8.382	Yaw:	1.974	Thrust:	56.665
Time:	2.440	Roll Set Point:	-0.314	Pitch Set Point:	-1.293	Yaw Set Point:	0.044	X_WP:	0.480	Y_WP:	1.177	Y_WP:	0.750	X:	0.398	Y:	1.237	Z:	1.022	yaw:	-2.499	yaw rate:	91.853	Roll:	3.786	Pitch:	5.080	Yaw:	-14.733	Thrust:	63.298
Time:	2.457	Roll Set Point:	-0.336	Pitch Set Point:	-1.308	Yaw Set Point:	0.026	X_WP:	0.480	Y_WP:	1.177	Y_WP:	0.750	X:	0.408	Y:	1.244	Z:	1.020	yaw:	-1.463	yaw rate:	-103.616	Roll:	6.904	Pitch:	8.908	Yaw:	12.027	Thrust:	51.299
Time:	2.481	Roll Set Point:	-0.355	Pitch Set Point:	-1.320	Yaw Set Point:	0.026	X_WP:	0.480	Y_WP:	1.177	Y_WP:	0.750	X:	0.418	Y:	1.249	Z:	1.017	yaw:	-1.472	yaw rate:	0.939	Roll:	4.212	Pitch:	5.605	Yaw:	-2.907	Thrust:	66.869
Time:	2.497	Roll Set Point:	-0.374	Pitch Set Point:	-1.330	Yaw Set Point:	0.027	X_WP:	0.480	Y_WP:	1.177	Y_WP:	0.750	X:	0.428	Y:	1.254	Z:	1.015	yaw:	-1.569	yaw rate:	9.641	Roll:	8.446	Pitch:	6.859	Yaw:	-4.271	Thrust:	45.072
Time:	2.515	Roll Set Point:	-0.394	Pitch Set Point:	-1.340	Yaw Set Point:	0.012	X_WP:	0.480	Y_WP:	1.177	Y_WP:	0.750	X:	0.437	Y:	1.259	Z:	1.012	yaw:	-0.674	yaw rate:	-89.508	Roll:	7.174	Pitch:	7.020	Yaw:	11.454	Thrust:	50.778
Time:	2.536	Roll Set Point:	-0.408	Pitch Set Point:	-1.345	Yaw Set Point:	0.051	X_WP:	0.480	Y_WP:	1.177	Y_WP:	0.750	X:	0.446	Y:	1.262	Z:	1.009	yaw:	-2.936	yaw rate:	226.265	Roll:	3.059	Pitch:	3.150	Yaw:	-33.124	Thrust:	57.650
Time:	2.555	Roll Set Point:	-0.429	Pitch Set Point:	-1.354	Yaw Set Point:	0.012	X_WP:	0.480	Y_WP:	1.177	Y_WP:	0.750	X:	0.455	Y:	1.266	Z:	1.005	yaw:	-0.711	yaw rate:	-222.563	Roll:	8.443	Pitch:	6.201	Yaw:	28.214	Thrust:	56.474
Time:	2.576	Roll Set Point:	-0.444	Pitch Set Point:	-1.358	Yaw Set Point:	0.026	X_WP:	0.480	Y_WP:	1.177	Y_WP:	0.750	X:	0.463	Y:	1.268	Z:	1.002	yaw:	-1.479	yaw rate:	76.827	Roll:	4.251	Pitch:	3.596	Yaw:	-12.313	Thrust:	58.491
Time:	2.595	Roll Set Point:	-0.461	Pitch Set Point:	-1.363	Yaw Set Point:	0.017	X_WP:	0.480	Y_WP:	1.177	Y_WP:	0.750	X:	0.471	Y:	1.270	Z:	0.999	yaw:	-0.995	yaw rate:	-48.406	Roll:	7.158	Pitch:	3.996	Yaw:	4.643	Thrust:	53.733
Time:	2.618	Roll Set Point:	-0.476	Pitch Set Point:	-1.366	Yaw Set Point:	0.011	X_WP:	0.480	Y_WP:	1.177	Y_WP:	0.750	X:	0.478	Y:	1.272	Z:	0.995	yaw:	-0.659	yaw rate:	-33.608	Roll:	4.945	Pitch:	3.394	Yaw:	2.284	Thrust:	62.755
Time:	2.636	Roll Set Point:	-0.491	Pitch Set Point:	-1.368	Yaw Set Point:	0.005	X_WP:	0.480	Y_WP:	1.177	Y_WP:	0.750	X:	0.486	Y:	1.273	Z:	0.990	yaw:	-0.310	yaw rate:	-34.920	Roll:	6.957	Pitch:	3.020	Yaw:	3.796	Thrust:	54.322
Time:	2.656	Roll Set Point:	-0.505	Pitch Set Point:	-1.368	Yaw Set Point:	0.005	X_WP:	0.480	Y_WP:	1.177	Y_WP:	0.750	X:	0.493	Y:	1.273	Z:	0.986	yaw:	-0.259	yaw rate:	-5.079	Roll:	5.445	Pitch:	2.057	Yaw:	-0.396	Thrust:	55.335
Time:	2.676	Roll Set Point:	-0.516	Pitch Set Point:	-1.369	Yaw Set Point:	0.020	X_WP:	0.480	Y_WP:	1.177	Y_WP:	0.750	X:	0.499	Y:	1.273	Z:	0.981	yaw:	-1.170	yaw rate:	91.092	Roll:	3.829	Pitch:	2.537	Yaw:	-14.776	Thrust:	56.777
Time:	2.695	Roll Set Point:	-0.530	Pitch Set Point:	-1.368	Yaw Set Point:	0.003	X_WP:	0.480	Y_WP:	1.177	Y_WP:	0.750	X:	0.505	Y:	1.272	Z:	0.976	yaw:	-0.182	yaw rate:	-98.749	Roll:	6.705	Pitch:	1.507	Yaw:	11.802	Thrust:	58.322
Time:	2.715	Roll Set Point:	-0.538	Pitch Set Point:	-1.366	Yaw Set Point:	0.020	X_WP:	0.480	Y_WP:	1.177	Y_WP:	0.750	X:	0.510	Y:	1.271	Z:	0.971	yaw:	-1.143	yaw rate:	96.071	Roll:	3.083	Pitch:	1.645	Yaw:	-15.434	Thrust:	54.717
Time:	2.737	Roll Set Point:	-0.553	Pitch Set Point:	-1.363	Yaw Set Point:	-0.027	X_WP:	0.480	Y_WP:	1.177	Y_WP:	0.750	X:	0.515	Y:	1.271	Z:	0.966	yaw:	1.554	yaw rate:	-269.733	Roll:	7.686	Pitch:	0.268	Yaw:	32.089	Thrust:	65.512
Time:	2.756	Roll Set Point:	-0.560	Pitch Set Point:	-1.360	Yaw Set Point:	-0.006	X_WP:	0.480	Y_WP:	1.177	Y_WP:	0.750	X:	0.520	Y:	1.269	Z:	0.960	yaw:	0.329	yaw rate:	122.587	Roll:	2.914	Pitch:	1.020	Yaw:	-17.855	Thrust:	53.394
Time:	2.777	Roll Set Point:	-0.569	Pitch Set Point:	-1.357	Yaw Set Point:	-0.020	X_WP:	0.480	Y_WP:	1.177	Y_WP:	0.750	X:	0.523	Y:	1.268	Z:	0.955	yaw:	1.117	yaw rate:	-78.876	Roll:	4.454	Pitch:	0.436	Yaw:	10.479	Thrust:	61.556
Time:	2.795	Roll Set Point:	-0.577	Pitch Set Point:	-1.353	Yaw Set Point:	-0.010	X_WP:	0.480	Y_WP:	1.177	Y_WP:	0.750	X:	0.528	Y:	1.265	Z:	0.949	yaw:	0.582	yaw rate:	53.510	Roll:	3.818	Pitch:	-0.205	Yaw:	-7.549	Thrust:	53.262
Time:	2.817	Roll Set Point:	-0.583	Pitch Set Point:	-1.348	Yaw Set Point:	-0.006	X_WP:	0.480	Y_WP:	1.177	Y_WP:	0.750	X:	0.531	Y:	1.263	Z:	0.944	yaw:	0.338	yaw rate:	24.437	Roll:	2.940	Pitch:	0.117	Yaw:	-3.173	Thrust:	61.825
Time:	2.836	Roll Set Point:	-0.590	Pitch Set Point:	-1.343	Yaw Set Point:	-0.023	X_WP:	0.480	Y_WP:	1.177	Y_WP:	0.750	X:	0.534	Y:	1.260	Z:	0.938	yaw:	1.328	yaw rate:	-99.021	Roll:	4.972	Pitch:	-1.399	Yaw:	15.585	Thrust:	54.853
Time:	2.857	Roll Set Point:	-0.576	Pitch Set Point:	-1.346	Yaw Set Point:	0.157	X_WP:	0.480	Y_WP:	1.177	Y_WP:	0.750	X:	0.534	Y:	1.258	Z:	0.937	yaw:	-9.013	yaw rate:	1034.091	Roll:	-11.024	Pitch:	6.834	Yaw:	-144.160	Thrust:	48.023
Time:	2.876	Roll Set Point:	-0.578	Pitch Set Point:	-1.342	Yaw Set Point:	0.170	X_WP:	0.479	Y_WP:	1.177	Y_WP:	0.750	X:	0.536	Y:	1.255	Z:	0.932	yaw:	-9.739	yaw rate:	72.598	Roll:	1.468	Pitch:	0.388	Yaw:	-24.155	Thrust:	55.674
Time:	2.896	Roll Set Point:	-0.584	Pitch Set Point:	-1.336	Yaw Set Point:	0.160	X_WP:	0.480	Y_WP:	1.177	Y_WP:	0.750	X:	0.538	Y:	1.252	Z:	0.926	yaw:	-9.179	yaw rate:	-56.011	Roll:	3.523	Pitch:	-1.103	Yaw:	-5.992	Thrust:	55.387
Time:	2.915	Roll Set Point:	-0.587	Pitch Set Point:	-1.330	Yaw Set Point:	0.162	X_WP:	0.480	Y_WP:	1.177	Y_WP:	0.750	X:	0.540	Y:	1.249	Z:	0.921	yaw:	-9.303	yaw rate:	12.400	Roll:	2.162	Pitch:	-0.642	Yaw:	-15.497	Thrust:	57.098
Time:	2.936	Roll Set Point:	-0.592	Pitch Set Point:	-1.322	Yaw Set Point:	0.153	X_WP:	0.480	Y_WP:	1.177	Y_WP:	0.750	X:	0.541	Y:	1.245	Z:	0.915	yaw:	-8.763	yaw rate:	-53.962	Roll:	3.402	Pitch:	-1.951	Yaw:	-6.478	Thrust:	56.644
Time:	2.956	Roll Set Point:	-0.603	Pitch Set Point:	-1.310	Yaw Set Point:	0.027	X_WP:	0.480	Y_WP:	1.177	Y_WP:	0.750	X:	0.542	Y:	1.243	Z:	0.903	yaw:	-1.518	yaw rate:	-724.473	Roll:	9.458	Pitch:	-6.085	Yaw:	92.947	Thrust:	71.961
Time:	2.976	Roll Set Point:	-0.612	Pitch Set Point:	-1.298	Yaw Set Point:	-0.040	X_WP:	0.480	Y_WP:	1.177	Y_WP:	0.750	X:	0.545	Y:	1.239	Z:	0.897	yaw:	2.304	yaw rate:	-382.251	Roll:	6.759	Pitch:	-6.043	Yaw:	50.261	Thrust:	59.980
Time:	2.995	Roll Set Point:	-0.613	Pitch Set Point:	-1.291	Yaw Set Point:	-0.043	X_WP:	0.480	Y_WP:	1.177	Y_WP:	0.750	X:	0.545	Y:	1.235	Z:	0.890	yaw:	2.478	yaw rate:	-17.347	Roll:	1.791	Pitch:	-2.320	Yaw:	5.052	Thrust:	56.215
Time:	3.015	Roll Set Point:	-0.611	Pitch Set Point:	-1.286	Yaw Set Point:	-0.024	X_WP:	0.480	Y_WP:	1.177	Y_WP:	0.750	X:	0.544	Y:	1.232	Z:	0.884	yaw:	1.371	yaw rate:	110.614	Roll:	-0.372	Pitch:	-0.450	Yaw:	-13.199	Thrust:	58.625
Time:	3.038	Roll Set Point:	-0.613	Pitch Set Point:	-1.277	Yaw Set Point:	-0.039	X_WP:	0.480	Y_WP:	1.177	Y_WP:	0.750	X:	0.545	Y:	1.228	Z:	0.878	yaw:	2.235	yaw rate:	-86.325	Roll:	2.312	Pitch:	-3.068	Yaw:	11.660	Thrust:	65.476
Time:	3.057	Roll Set Point:	-0.612	Pitch Set Point:	-1.270	Yaw Set Point:	-0.033	X_WP:	0.480	Y_WP:	1.177	Y_WP:	0.750	X:	0.545	Y:	1.225	Z:	0.872	yaw:	1.882	yaw rate:	35.236	Roll:	0.580	Pitch:	-2.250	Yaw:	-3.444	Thrust:	53.786
Time:	3.076	Roll Set Point:	-0.611	Pitch Set Point:	-1.263	Yaw Set Point:	-0.047	X_WP:	0.480	Y_WP:	1.177	Y_WP:	0.750	X:	0.544	Y:	1.221	Z:	0.866	yaw:	2.673	yaw rate:	-79.021	Roll:	1.057	Pitch:	-3.142	Yaw:	13.408	Thrust:	57.542
Time:	3.095	Roll Set Point:	-0.609	Pitch Set Point:	-1.256	Yaw Set Point:	-0.039	X_WP:	0.480	Y_WP:	1.177	Y_WP:	0.750	X:	0.543	Y:	1.218	Z:	0.860	yaw:	2.217	yaw rate:	45.553	Roll:	0.007	Pitch:	-1.900	Yaw:	-3.892	Thrust:	56.949
Time:	3.115	Roll Set Point:	-0.607	Pitch Set Point:	-1.249	Yaw Set Point:	-0.048	X_WP:	0.480	Y_WP:	1.177	Y_WP:	0.750	X:	0.542	Y:	1.215	Z:	0.854	yaw:	2.728	yaw rate:	-51.061	Roll:	0.386	Pitch:	-2.791	Yaw:	9.554	Thrust:	57.373
Time:	3.136	Roll Set Point:	-0.602	Pitch Set Point:	-1.245	Yaw Set Point:	-0.020	X_WP:	0.480	Y_WP:	1.177	Y_WP:	0.750	X:	0.540	Y:	1.212	Z:	0.849	yaw:	1.129	yaw rate:	159.849	Roll:	-1.464	Pitch:	-0.655	Yaw:	-20.621	Thrust:	55.664
Time:	3.157	Roll Set Point:	-0.599	Pitch Set Point:	-1.239	Yaw Set Point:	-0.015	X_WP:	0.480	Y_WP:	1.177	Y_WP:	0.750	X:	0.539	Y:	1.208	Z:	0.844	yaw:	0.836	yaw rate:	29.275	Roll:	-0.355	Pitch:	-2.330	Yaw:	-3.457	Thrust:	57.850
Time:	3.177	Roll Set Point:	-0.595	Pitch Set Point:	-1.232	Yaw Set Point:	-0.034	X_WP:	0.480	Y_WP:	1.177	Y_WP:	0.750	X:	0.537	Y:	1.206	Z:	0.839	yaw:	1.930	yaw rate:	-109.319	Roll:	-0.080	Pitch:	-2.831	Yaw:	14.946	Thrust:	59.990
Time:	3.196	Roll Set Point:	-0.591	Pitch Set Point:	-1.227	Yaw Set Point:	-0.036	X_WP:	0.480	Y_WP:	1.177	Y_WP:	0.750	X:	0.535	Y:	1.203	Z:	0.833	yaw:	2.058	yaw rate:	-12.795	Roll:	-0.964	Pitch:	-2.380	Yaw:	3.853	Thrust:	55.215
Time:	3.215	Roll Set Point:	-0.587	Pitch Set Point:	-1.221	Yaw Set Point:	-0.043	X_WP:	0.480	Y_WP:	1.177	Y_WP:	0.750	X:	0.533	Y:	1.200	Z:	0.827	yaw:	2.451	yaw rate:	-39.332	Roll:	-0.865	Pitch:	-2.461	Yaw:	7.921	Thrust:	56.711
Time:	3.238	Roll Set Point:	-0.582	Pitch Set Point:	-1.217	Yaw Set Point:	-0.043	X_WP:	0.480	Y_WP:	1.177	Y_WP:	0.750	X:	0.531	Y:	1.198	Z:	0.821	yaw:	2.462	yaw rate:	-1.146	Roll:	-1.130	Pitch:	-1.942	Yaw:	2.642	Thrust:	62.089
Time:	3.257	Roll Set Point:	-0.577	Pitch Set Point:	-1.212	Yaw Set Point:	-0.018	X_WP:	0.479	Y_WP:	1.177	Y_WP:	0.750	X:	0.528	Y:	1.195	Z:	0.816	yaw:	1.045	yaw rate:	141.705	Roll:	-1.728	Pitch:	-1.267	Yaw:	-18.263	Thrust:	56.677
Time:	3.276	Roll Set Point:	-0.572	Pitch Set Point:	-1.208	Yaw Set Point:	-0.028	X_WP:	0.480	Y_WP:	1.177	Y_WP:	0.750	X:	0.526	Y:	1.193	Z:	0.810	yaw:	1.624	yaw rate:	-57.892	Roll:	-1.418	Pitch:	-2.364	Yaw:	9.633	Thrust:	56.245
Time:	3.296	Roll Set Point:	-0.564	Pitch Set Point:	-1.207	Yaw Set Point:	0.019	X_WP:	0.480	Y_WP:	1.177	Y_WP:	0.750	X:	0.522	Y:	1.192	Z:	0.805	yaw:	-1.085	yaw rate:	270.917	Roll:	-3.077	Pitch:	0.140	Yaw:	-37.473	Thrust:	57.923
Time:	3.315	Roll Set Point:	-0.562	Pitch Set Point:	-1.200	Yaw Set Point:	-0.043	X_WP:	0.480	Y_WP:	1.177	Y_WP:	0.750	X:	0.520	Y:	1.190	Z:	0.798	yaw:	2.440	yaw rate:	-352.464	Roll:	-0.111	Pitch:	-4.242	Yaw:	51.066	Thrust:	58.994
Time:	3.335	Roll Set Point:	-0.556	Pitch Set Point:	-1.197	Yaw Set Point:	-0.025	X_WP:	0.480	Y_WP:	1.177	Y_WP:	0.750	X:	0.518	Y:	1.188	Z:	0.793	yaw:	1.413	yaw rate:	102.641	Roll:	-2.034	Pitch:	-1.289	Yaw:	-12.137	Thrust:	58.726
Time:	3.357	Roll Set Point:	-0.551	Pitch Set Point:	-1.194	Yaw Set Point:	-0.025	X_WP:	0.480	Y_WP:	1.177	Y_WP:	0.750	X:	0.515	Y:	1.186	Z:	0.787	yaw:	1.441	yaw rate:	-2.754	Roll:	-1.970	Pitch:	-1.716	Yaw:	1.499	Thrust:	61.890
Time:	3.377	Roll Set Point:	-0.545	Pitch Set Point:	-1.191	Yaw Set Point:	-0.031	X_WP:	0.480	Y_WP:	1.177	Y_WP:	0.750	X:	0.512	Y:	1.185	Z:	0.781	yaw:	1.763	yaw rate:	-32.229	Roll:	-1.930	Pitch:	-1.590	Yaw:	6.140	Thrust:	58.623
Time:	3.399	Roll Set Point:	-0.539	Pitch Set Point:	-1.189	Yaw Set Point:	-0.028	X_WP:	0.480	Y_WP:	1.177	Y_WP:	0.750	X:	0.509	Y:	1.184	Z:	0.775	yaw:	1.629	yaw rate:	13.360	Roll:	-2.160	Pitch:	-1.236	Yaw:	-0.156	Thrust:	63.103
Time:	3.415	Roll Set Point:	-0.534	Pitch Set Point:	-1.187	Yaw Set Point:	-0.014	X_WP:	0.480	Y_WP:	1.177	Y_WP:	0.750	X:	0.507	Y:	1.182	Z:	0.769	yaw:	0.829	yaw rate:	80.047	Roll:	-2.555	Pitch:	-1.405	Yaw:	-11.467	Thrust:	54.665
Time:	3.436	Roll Set Point:	-0.529	Pitch Set Point:	-1.184	Yaw Set Point:	-0.033	X_WP:	0.480	Y_WP:	1.177	Y_WP:	0.750	X:	0.504	Y:	1.181	Z:	0.763	yaw:	1.904	yaw rate:	-107.449	Roll:	-1.973	Pitch:	-1.579	Yaw:	15.078	Thrust:	64.058
Time:	3.458	Roll Set Point:	-0.523	Pitch Set Point:	-1.183	Yaw Set Point:	-0.030	X_WP:	0.480	Y_WP:	1.177	Y_WP:	0.750	X:	0.501	Y:	1.181	Z:	0.758	yaw:	1.712	yaw rate:	19.167	Roll:	-2.308	Pitch:	-0.993	Yaw:	-0.728	Thrust:	63.153
Time:	3.476	Roll Set Point:	-0.517	Pitch Set Point:	-1.182	Yaw Set Point:	0.013	X_WP:	0.480	Y_WP:	1.177	Y_WP:	0.750	X:	0.498	Y:	1.179	Z:	0.752	yaw:	-0.768	yaw rate:	247.975	Roll:	-2.921	Pitch:	-0.651	Yaw:	-38.705	Thrust:	54.998
Time:	3.495	Roll Set Point:	-0.513	Pitch Set Point:	-1.181	Yaw Set Point:	-0.030	X_WP:	0.480	Y_WP:	1.177	Y_WP:	0.750	X:	0.496	Y:	1.179	Z:	0.747	yaw:	1.703	yaw rate:	-247.043	Roll:	-2.068	Pitch:	-1.398	Yaw:	35.571	Thrust:	60.106
Time:	3.516	Roll Set Point:	-0.508	Pitch Set Point:	-1.180	Yaw Set Point:	-0.011	X_WP:	0.480	Y_WP:	1.177	Y_WP:	0.750	X:	0.494	Y:	1.179	Z:	0.741	yaw:	0.659	yaw rate:	104.401	Roll:	-2.534	Pitch:	-0.582	Yaw:	-12.811	Thrust:	62.546
Time:	3.539	Roll Set Point:	-0.503	Pitch Set Point:	-1.178	Yaw Set Point:	-0.021	X_WP:	0.480	Y_WP:	1.177	Y_WP:	0.750	X:	0.491	Y:	1.178	Z:	0.736	yaw:	1.179	yaw rate:	-52.045	Roll:	-2.042	Pitch:	-1.398	Yaw:	6.560	Thrust:	66.743
Time:	3.555	Roll Set Point:	-0.498	Pitch Set Point:	-1.178	Yaw Set Point:	-0.028	X_WP:	0.480	Y_WP:	1.177	Y_WP:	0.750	X:	0.489	Y:	1.178	Z:	0.731	yaw:	1.606	yaw rate:	-42.687	Roll:	-2.808	Pitch:	-0.666	Yaw:	8.720	Thrust:	53.540
Time:	3.579	Roll Set Point:	-0.493	Pitch Set Point:	-1.178	Yaw Set Point:	-0.005	X_WP:	0.480	Y_WP:	1.177	Y_WP:	0.750	X:	0.486	Y:	1.178	Z:	0.726	yaw:	0.268	yaw rate:	133.799	Roll:	-2.500	Pitch:	-0.495	Yaw:	-15.592	Thrust:	66.024
Time:	3.596	Roll Set Point:	-0.489	Pitch Set Point:	-1.177	Yaw Set Point:	-0.014	X_WP:	0.480	Y_WP:	1.177	Y_WP:	0.750	X:	0.484	Y:	1.177	Z:	0.722	yaw:	0.775	yaw rate:	-50.766	Roll:	-2.208	Pitch:	-1.002	Yaw:	8.413	Thrust:	54.288
Time:	3.618	Roll Set Point:	-0.485	Pitch Set Point:	-1.177	Yaw Set Point:	-0.015	X_WP:	0.479	Y_WP:	1.177	Y_WP:	0.750	X:	0.482	Y:	1.177	Z:	0.717	yaw:	0.875	yaw rate:	-9.904	Roll:	-2.333	Pitch:	-0.618	Yaw:	1.590	Thrust:	64.917
Time:	3.637	Roll Set Point:	-0.481	Pitch Set Point:	-1.177	Yaw Set Point:	-0.013	X_WP:	0.480	Y_WP:	1.177	Y_WP:	0.750	X:	0.480	Y:	1.177	Z:	0.713	yaw:	0.770	yaw rate:	10.433	Roll:	-2.632	Pitch:	-0.523	Yaw:	-1.024	Thrust:	57.049
Time:	3.658	Roll Set Point:	-0.477	Pitch Set Point:	-1.177	Yaw Set Point:	-0.012	X_WP:	0.479	Y_WP:	1.177	Y_WP:	0.750	X:	0.478	Y:	1.177	Z:	0.709	yaw:	0.666	yaw rate:	10.437	Roll:	-2.114	Pitch:	-0.582	Yaw:	-1.086	Thrust:	61.243
Time:	3.676	Roll Set Point:	-0.471	Pitch Set Point:	-1.179	Yaw Set Point:	0.022	X_WP:	0.479	Y_WP:	1.177	Y_WP:	0.750	X:	0.475	Y:	1.178	Z:	0.705	yaw:	-1.273	yaw rate:	193.842	Roll:	-3.586	Pitch:	0.254	Yaw:	-29.565	Thrust:	56.382
Time:	3.695	Roll Set Point:	-0.470	Pitch Set Point:	-1.178	Yaw Set Point:	0.000	X_WP:	0.480	Y_WP:	1.177	Y_WP:	0.750	X:	0.475	Y:	1.178	Z:	0.701	yaw:	-0.011	yaw rate:	-126.123	Roll:	-1.234	Pitch:	-1.201	Yaw:	16.665	Thrust:	60.179
Time:	3.715	Roll Set Point:	-0.467	Pitch Set Point:	-1.178	Yaw Set Point:	-0.006	X_WP:	0.479	Y_WP:	1.177	Y_WP:	0.750	X:	0.473	Y:	1.178	Z:	0.696	yaw:	0.344	yaw rate:	-35.523	Roll:	-2.120	Pitch:	-0.332	Yaw:	4.440	Thrust:	61.001
Time:	3.735	Roll Set Point:	-0.462	Pitch Set Point:	-1.179	Yaw Set Point:	0.022	X_WP:	0.480	Y_WP:	1.177	Y_WP:	0.750	X:	0.471	Y:	1.178	Z:	0.692	yaw:	-1.270	yaw rate:	161.342	Roll:	-2.863	Pitch:	-0.478	Yaw:	-23.940	Thrust:	60.016
Time:	3.756	Roll Set Point:	-0.459	Pitch Set Point:	-1.181	Yaw Set Point:	-0.003	X_WP:	0.480	Y_WP:	1.177	Y_WP:	0.750	X:	0.469	Y:	1.179	Z:	0.688	yaw:	0.192	yaw rate:	-146.171	Roll:	-2.138	Pitch:	0.299	Yaw:	18.132	Thrust:	63.273
Time:	3.775	Roll Set Point:	-0.457	Pitch Set Point:	-1.180	Yaw Set Point:	0.026	X_WP:	0.480	Y_WP:	1.177	Y_WP:	0.750	X:	0.468	Y:	1.179	Z:	0.684	yaw:	-1.490	yaw rate:	168.190	Roll:	-2.101	Pitch:	-0.815	Yaw:	-24.554	Thrust:	62.093
Time:	3.797	Roll Set Point:	-0.456	Pitch Set Point:	-1.181	Yaw Set Point:	-0.017	X_WP:	0.479	Y_WP:	1.177	Y_WP:	0.750	X:	0.468	Y:	1.179	Z:	0.679	yaw:	0.952	yaw rate:	-244.136	Roll:	-1.173	Pitch:	-0.290	Yaw:	30.990	Thrust:	65.646
Time:	3.815	Roll Set Point:	-0.454	Pitch Set Point:	-1.181	Yaw Set Point:	-0.008	X_WP:	0.480	Y_WP:	1.177	Y_WP:	0.750	X:	0.467	Y:	1.179	Z:	0.676	yaw:	0.484	yaw rate:	46.790	Roll:	-1.936	Pitch:	-0.422	Yaw:	-6.411	Thrust:	60.102
Time:	3.838	Roll Set Point:	-0.452	Pitch Set Point:	-1.181	Yaw Set Point:	0.002	X_WP:	0.480	Y_WP:	1.177	Y_WP:	0.750	X:	0.466	Y:	1.179	Z:	0.672	yaw:	-0.118	yaw rate:	60.201	Roll:	-1.996	Pitch:	-0.571	Yaw:	-7.976	Thrust:	66.609
Time:	3.855	Roll Set Point:	-0.450	Pitch Set Point:	-1.182	Yaw Set Point:	-0.018	X_WP:	0.480	Y_WP:	1.177	Y_WP:	0.750	X:	0.465	Y:	1.180	Z:	0.668	yaw:	1.051	yaw rate:	-116.879	Roll:	-1.683	Pitch:	0.205	Yaw:	18.152	Thrust:	58.288
Time:	3.875	Roll Set Point:	-0.449	Pitch Set Point:	-1.182	Yaw Set Point:	0.003	X_WP:	0.480	Y_WP:	1.177	Y_WP:	0.750	X:	0.464	Y:	1.180	Z:	0.665	yaw:	-0.156	yaw rate:	120.610	Roll:	-1.878	Pitch:	-0.571	Yaw:	-16.646	Thrust:	61.485
Time:	3.896	Roll Set Point:	-0.444	Pitch Set Point:	-1.184	Yaw Set Point:	0.048	X_WP:	0.480	Y_WP:	1.177	Y_WP:	0.750	X:	0.462	Y:	1.181	Z:	0.662	yaw:	-2.763	yaw rate:	260.736	Roll:	-3.183	Pitch:	-0.182	Yaw:	-38.518	Thrust:	61.529
Time:	3.916	Roll Set Point:	-0.444	Pitch Set Point:	-1.185	Yaw Set Point:	0.040	X_WP:	0.480	Y_WP:	1.177	Y_WP:	0.750	X:	0.462	Y:	1.181	Z:	0.659	yaw:	-2.312	yaw rate:	-45.127	Roll:	-1.486	Pitch:	-0.155	Yaw:	1.960	Thrust:	62.591
Time:	3.935	Roll Set Point:	-0.443	Pitch Set Point:	-1.186	Yaw Set Point:	0.007	X_WP:	0.480	Y_WP:	1.177	Y_WP:	0.750	X:	0.461	Y:	1.182	Z:	0.657	yaw:	-0.417	yaw rate:	-189.500	Roll:	-1.300	Pitch:	0.257	Yaw:	24.169	Thrust:	59.933
Time:	3.956	Roll Set Point:	-0.443	Pitch Set Point:	-1.186	Yaw Set Point:	0.010	X_WP:	0.479	Y_WP:	1.177	Y_WP:	0.750	X:	0.461	Y:	1.182	Z:	0.654	yaw:	-0.592	yaw rate:	17.530	Roll:	-1.333	Pitch:	-0.552	Yaw:	-3.800	Thrust:	63.444
Time:	3.975	Roll Set Point:	-0.444	Pitch Set Point:	-1.185	Yaw Set Point:	0.007	X_WP:	0.480	Y_WP:	1.177	Y_WP:	0.750	X:	0.462	Y:	1.181	Z:	0.651	yaw:	-0.399	yaw rate:	-19.338	Roll:	-0.681	Pitch:	-0.899	Yaw:	1.331	Thrust:	61.674
Time:	3.996	Roll Set Point:	-0.443	Pitch Set Point:	-1.186	Yaw Set Point:	-0.012	X_WP:	0.479	Y_WP:	1.177	Y_WP:	0.750	X:	0.461	Y:	1.182	Z:	0.649	yaw:	0.713	yaw rate:	-111.191	Roll:	-1.427	Pitch:	0.282	Yaw:	14.320	Thrust:	63.301
Time:	4.018	Roll Set Point:	-0.443	Pitch Set Point:	-1.186	Yaw Set Point:	0.003	X_WP:	0.479	Y_WP:	1.177	Y_WP:	0.750	X:	0.461	Y:	1.181	Z:	0.647	yaw:	-0.145	yaw rate:	85.813	Roll:	-1.251	Pitch:	-0.825	Yaw:	-11.291	Thrust:	64.385
Time:	4.035	Roll Set Point:	-0.443	Pitch Set Point:	-1.186	Yaw Set Point:	-0.005	X_WP:	0.480	Y_WP:	1.177	Y_WP:	0.750	X:	0.461	Y:	1.182	Z:	0.645	yaw:	0.311	yaw rate:	-45.600	Roll:	-1.133	Pitch:	-0.103	Yaw:	6.555	Thrust:	57.794
Time:	4.057	Roll Set Point:	-0.443	Pitch Set Point:	-1.186	Yaw Set Point:	-0.007	X_WP:	0.480	Y_WP:	1.177	Y_WP:	0.750	X:	0.461	Y:	1.182	Z:	0.643	yaw:	0.373	yaw rate:	-6.228	Roll:	-1.195	Pitch:	-0.462	Yaw:	0.525	Thrust:	64.738
Time:	4.076	Roll Set Point:	-0.443	Pitch Set Point:	-1.186	Yaw Set Point:	0.002	X_WP:	0.480	Y_WP:	1.177	Y_WP:	0.750	X:	0.461	Y:	1.182	Z:	0.642	yaw:	-0.108	yaw rate:	48.168	Roll:	-1.211	Pitch:	-0.574	Yaw:	-7.439	Thrust:	58.970
Time:	4.096	Roll Set Point:	-0.444	Pitch Set Point:	-1.186	Yaw Set Point:	-0.005	X_WP:	0.480	Y_WP:	1.177	Y_WP:	0.750	X:	0.462	Y:	1.182	Z:	0.641	yaw:	0.300	yaw rate:	-40.802	Roll:	-1.021	Pitch:	-0.309	Yaw:	5.018	Thrust:	61.344
Time:	4.115	Roll Set Point:	-0.444	Pitch Set Point:	-1.186	Yaw Set Point:	-0.003	X_WP:	0.480	Y_WP:	1.177	Y_WP:	0.750	X:	0.462	Y:	1.182	Z:	0.640	yaw:	0.197	yaw rate:	10.250	Roll:	-0.992	Pitch:	-0.509	Yaw:	-1.810	Thrust:	58.955
Time:	4.136	Roll Set Point:	-0.445	Pitch Set Point:	-1.186	Yaw Set Point:	-0.009	X_WP:	0.480	Y_WP:	1.177	Y_WP:	0.750	X:	0.462	Y:	1.182	Z:	0.639	yaw:	0.526	yaw rate:	-32.854	Roll:	-0.860	Pitch:	-0.445	Yaw:	4.336	Thrust:	61.000
Time:	4.155	Roll Set Point:	-0.445	Pitch Set Point:	-1.186	Yaw Set Point:	-0.000	X_WP:	0.480	Y_WP:	1.177	Y_WP:	0.750	X:	0.462	Y:	1.182	Z:	0.639	yaw:	0.007	yaw rate:	51.837	Roll:	-1.170	Pitch:	-0.600	Yaw:	-7.333	Thrust:	61.601
Time:	4.175	Roll Set Point:	-0.445	Pitch Set Point:	-1.186	Yaw Set Point:	0.005	X_WP:	0.480	Y_WP:	1.177	Y_WP:	0.750	X:	0.462	Y:	1.181	Z:	0.638	yaw:	-0.278	yaw rate:	28.595	Roll:	-1.036	Pitch:	-0.608	Yaw:	-4.826	Thrust:	61.128
Time:	4.195	Roll Set Point:	-0.445	Pitch Set Point:	-1.187	Yaw Set Point:	0.002	X_WP:	0.480	Y_WP:	1.177	Y_WP:	0.750	X:	0.462	Y:	1.182	Z:	0.637	yaw:	-0.140	yaw rate:	-13.849	Roll:	-1.352	Pitch:	-0.073	Yaw:	0.979	Thrust:	61.520
Time:	4.215	Roll Set Point:	-0.446	Pitch Set Point:	-1.186	Yaw Set Point:	-0.009	X_WP:	0.480	Y_WP:	1.177	Y_WP:	0.750	X:	0.463	Y:	1.181	Z:	0.637	yaw:	0.499	yaw rate:	-63.936	Roll:	-0.425	Pitch:	-0.733	Yaw:	8.104	Thrust:	59.796
Time:	4.238	Roll Set Point:	-0.447	Pitch Set Point:	-1.185	Yaw Set Point:	-0.015	X_WP:	0.480	Y_WP:	1.177	Y_WP:	0.750	X:	0.463	Y:	1.181	Z:	0.637	yaw:	0.874	yaw rate:	-37.424	Roll:	-0.783	Pitch:	-0.686	Yaw:	4.738	Thrust:	66.070
Time:	4.257	Roll Set Point:	-0.449	Pitch Set Point:	-1.184	Yaw Set Point:	-0.003	X_WP:	0.480	Y_WP:	1.177	Y_WP:	0.750	X:	0.464	Y:	1.181	Z:	0.637	yaw:	0.144	yaw rate:	72.918	Roll:	-0.545	Pitch:	-1.143	Yaw:	-10.758	Thrust:	59.016
Time:	4.275	Roll Set Point:	-0.449	Pitch Set Point:	-1.184	Yaw Set Point:	-0.003	X_WP:	0.480	Y_WP:	1.177	Y_WP:	0.750	X:	0.464	Y:	1.180	Z:	0.638	yaw:	0.150	yaw rate:	-0.508	Roll:	-0.745	Pitch:	-0.637	Yaw:	-0.356	Thrust:	55.874
Time:	4.295	Roll Set Point:	-0.450	Pitch Set Point:	-1.183	Yaw Set Point:	-0.004	X_WP:	0.480	Y_WP:	1.177	Y_WP:	0.750	X:	0.465	Y:	1.180	Z:	0.638	yaw:	0.209	yaw rate:	-5.970	Roll:	-0.812	Pitch:	-0.711	Yaw:	0.366	Thrust:	60.870
Time:	4.315	Roll Set Point:	-0.451	Pitch Set Point:	-1.183	Yaw Set Point:	-0.008	X_WP:	0.480	Y_WP:	1.177	Y_WP:	0.750	X:	0.465	Y:	1.180	Z:	0.638	yaw:	0.442	yaw rate:	-23.271	Roll:	-0.855	Pitch:	-0.674	Yaw:	2.957	Thrust:	60.793
Time:	4.335	Roll Set Point:	-0.451	Pitch Set Point:	-1.182	Yaw Set Point:	0.006	X_WP:	0.480	Y_WP:	1.177	Y_WP:	0.750	X:	0.465	Y:	1.180	Z:	0.639	yaw:	-0.340	yaw rate:	78.143	Roll:	-1.127	Pitch:	-0.654	Yaw:	-11.661	Thrust:	58.461
Time:	4.355	Roll Set Point:	-0.452	Pitch Set Point:	-1.181	Yaw Set Point:	-0.001	X_WP:	0.480	Y_WP:	1.177	Y_WP:	0.750	X:	0.466	Y:	1.179	Z:	0.640	yaw:	0.067	yaw rate:	-40.632	Roll:	-0.372	Pitch:	-1.034	Yaw:	4.560	Thrust:	61.288
Time:	4.375	Roll Set Point:	-0.453	Pitch Set Point:	-1.181	Yaw Set Point:	-0.015	X_WP:	0.480	Y_WP:	1.177	Y_WP:	0.750	X:	0.466	Y:	1.179	Z:	0.641	yaw:	0.877	yaw rate:	-81.047	Roll:	-0.779	Pitch:	-0.691	Yaw:	11.109	Thrust:	61.099
Time:	4.396	Roll Set Point:	-0.454	Pitch Set Point:	-1.180	Yaw Set Point:	-0.010	X_WP:	0.480	Y_WP:	1.177	Y_WP:	0.750	X:	0.467	Y:	1.178	Z:	0.642	yaw:	0.575	yaw rate:	30.178	Roll:	-0.366	Pitch:	-0.961	Yaw:	-3.747	Thrust:	58.366
Time:	4.416	Roll Set Point:	-0.455	Pitch Set Point:	-1.179	Yaw Set Point:	-0.014	X_WP:	0.480	Y_WP:	1.177	Y_WP:	0.750	X:	0.467	Y:	1.178	Z:	0.643	yaw:	0.808	yaw rate:	-23.234	Roll:	-0.714	Pitch:	-0.727	Yaw:	3.529	Thrust:	62.372
Time:	4.437	Roll Set Point:	-0.456	Pitch Set Point:	-1.179	Yaw Set Point:	-0.023	X_WP:	0.480	Y_WP:	1.177	Y_WP:	0.750	X:	0.468	Y:	1.178	Z:	0.644	yaw:	1.296	yaw rate:	-48.864	Roll:	-0.858	Pitch:	-0.840	Yaw:	6.989	Thrust:	65.796
Time:	4.458	Roll Set Point:	-0.456	Pitch Set Point:	-1.178	Yaw Set Point:	0.002	X_WP:	0.480	Y_WP:	1.177	Y_WP:	0.750	X:	0.468	Y:	1.178	Z:	0.645	yaw:	-0.129	yaw rate:	142.512	Roll:	-0.844	Pitch:	-0.915	Yaw:	-19.513	Thrust:	59.918
Time:	4.475	Roll Set Point:	-0.458	Pitch Set Point:	-1.177	Yaw Set Point:	0.001	X_WP:	0.480	Y_WP:	1.177	Y_WP:	0.750	X:	0.469	Y:	1.177	Z:	0.647	yaw:	-0.063	yaw rate:	-6.528	Roll:	-0.330	Pitch:	-1.186	Yaw:	0.253	Thrust:	54.299
Time:	4.496	Roll Set Point:	-0.458	Pitch Set Point:	-1.177	Yaw Set Point:	-0.017	X_WP:	0.480	Y_WP:	1.177	Y_WP:	0.750	X:	0.469	Y:	1.177	Z:	0.648	yaw:	0.972	yaw rate:	-103.547	Roll:	-0.678	Pitch:	-0.598	Yaw:	13.855	Thrust:	62.361
Time:	4.515	Roll Set Point:	-0.459	Pitch Set Point:	-1.175	Yaw Set Point:	-0.011	X_WP:	0.480	Y_WP:	1.177	Y_WP:	0.750	X:	0.469	Y:	1.176	Z:	0.649	yaw:	0.641	yaw rate:	33.071	Roll:	-0.742	Pitch:	-1.283	Yaw:	-4.281	Thrust:	57.233
Time:	4.536	Roll Set Point:	-0.460	Pitch Set Point:	-1.175	Yaw Set Point:	-0.015	X_WP:	0.480	Y_WP:	1.177	Y_WP:	0.750	X:	0.470	Y:	1.176	Z:	0.651	yaw:	0.851	yaw rate:	-20.985	Roll:	-0.633	Pitch:	-0.590	Yaw:	3.309	Thrust:	59.692
Time:	4.556	Roll Set Point:	-0.458	Pitch Set Point:	-1.175	Yaw Set Point:	0.002	X_WP:	0.480	Y_WP:	1.177	Y_WP:	0.750	X:	0.469	Y:	1.176	Z:	0.652	yaw:	-0.119	yaw rate:	97.002	Roll:	-1.569	Pitch:	-0.734	Yaw:	-12.896	Thrust:	63.729
Time:	4.576	Roll Set Point:	-0.459	Pitch Set Point:	-1.175	Yaw Set Point:	0.002	X_WP:	0.480	Y_WP:	1.177	Y_WP:	0.750	X:	0.469	Y:	1.176	Z:	0.654	yaw:	-0.095	yaw rate:	-2.392	Roll:	-0.634	Pitch:	-0.781	Yaw:	-0.454	Thrust:	59.296
Time:	4.595	Roll Set Point:	-0.459	Pitch Set Point:	-1.174	Yaw Set Point:	0.020	X_WP:	0.480	Y_WP:	1.177	Y_WP:	0.750	X:	0.469	Y:	1.176	Z:	0.655	yaw:	-1.171	yaw rate:	107.660	Roll:	-0.950	Pitch:	-0.873	Yaw:	-16.422	Thrust:	60.805
Time:	4.615	Roll Set Point:	-0.460	Pitch Set Point:	-1.174	Yaw Set Point:	-0.006	X_WP:	0.480	Y_WP:	1.177	Y_WP:	0.750	X:	0.470	Y:	1.175	Z:	0.657	yaw:	0.320	yaw rate:	-149.158	Roll:	-0.587	Pitch:	-0.723	Yaw:	19.504	Thrust:	59.560
Time:	4.637	Roll Set Point:	-0.461	Pitch Set Point:	-1.173	Yaw Set Point:	-0.012	X_WP:	0.480	Y_WP:	1.177	Y_WP:	0.750	X:	0.470	Y:	1.175	Z:	0.659	yaw:	0.688	yaw rate:	-36.762	Roll:	-0.751	Pitch:	-0.890	Yaw:	4.550	Thrust:	68.277
Time:	4.658	Roll Set Point:	-0.460	Pitch Set Point:	-1.172	Yaw Set Point:	0.032	X_WP:	0.480	Y_WP:	1.177	Y_WP:	0.750	X:	0.470	Y:	1.175	Z:	0.660	yaw:	-1.856	yaw rate:	254.333	Roll:	-1.121	Pitch:	-1.331	Yaw:	-35.181	Thrust:	62.227
Time:	4.675	Roll Set Point:	-0.464	Pitch Set Point:	-1.170	Yaw Set Point:	-0.031	X_WP:	0.480	Y_WP:	1.177	Y_WP:	0.750	X:	0.472	Y:	1.174	Z:	0.661	yaw:	1.751	yaw rate:	-360.678	Roll:	0.730	Pitch:	-1.221	Yaw:	56.715	Thrust:	55.591
Time:	4.696	Roll Set Point:	-0.462	Pitch Set Point:	-1.171	Yaw Set Point:	0.012	X_WP:	0.480	Y_WP:	1.177	Y_WP:	0.750	X:	0.470	Y:	1.174	Z:	0.663	yaw:	-0.711	yaw rate:	246.271	Roll:	-1.738	Pitch:	-0.621	Yaw:	-32.820	Thrust:	61.975
Time:	4.715	Roll Set Point:	-0.463	Pitch Set Point:	-1.170	Yaw Set Point:	-0.008	X_WP:	0.479	Y_WP:	1.177	Y_WP:	0.750	X:	0.471	Y:	1.173	Z:	0.665	yaw:	0.446	yaw rate:	-115.704	Roll:	-0.533	Pitch:	-1.059	Yaw:	15.892	Thrust:	57.525
Time:	4.735	Roll Set Point:	-0.463	Pitch Set Point:	-1.169	Yaw Set Point:	-0.001	X_WP:	0.480	Y_WP:	1.177	Y_WP:	0.750	X:	0.471	Y:	1.173	Z:	0.667	yaw:	0.074	yaw rate:	37.160	Roll:	-0.896	Pitch:	-1.060	Yaw:	-5.362	Thrust:	61.228
Time:	4.755	Roll Set Point:	-0.463	Pitch Set Point:	-1.168	Yaw Set Point:	0.002	X_WP:	0.480	Y_WP:	1.177	Y_WP:	0.750	X:	0.471	Y:	1.173	Z:	0.669	yaw:	-0.129	yaw rate:	20.337	Roll:	-0.922	Pitch:	-0.992	Yaw:	-3.497	Thrust:	59.319
Time:	4.780	Roll Set Point:	-0.464	Pitch Set Point:	-1.167	Yaw Set Point:	0.001	X_WP:	0.480	Y_WP:	1.177	Y_WP:	0.750	X:	0.472	Y:	1.172	Z:	0.672	yaw:	-0.043	yaw rate:	-8.671	Roll:	-0.520	Pitch:	-1.159	Yaw:	0.064	Thrust:	62.432
Time:	4.796	Roll Set Point:	-0.464	Pitch Set Point:	-1.167	Yaw Set Point:	-0.013	X_WP:	0.480	Y_WP:	1.177	Y_WP:	0.750	X:	0.472	Y:	1.172	Z:	0.674	yaw:	0.752	yaw rate:	-79.474	Roll:	-0.949	Pitch:	-1.049	Yaw:	13.345	Thrust:	60.945
Time:	4.815	Roll Set Point:	-0.466	Pitch Set Point:	-1.165	Yaw Set Point:	-0.039	X_WP:	0.479	Y_WP:	1.177	Y_WP:	0.750	X:	0.473	Y:	1.171	Z:	0.676	yaw:	2.229	yaw rate:	-147.654	Roll:	0.064	Pitch:	-1.386	Yaw:	22.556	Thrust:	58.109
Time:	4.836	Roll Set Point:	-0.466	Pitch Set Point:	-1.164	Yaw Set Point:	-0.032	X_WP:	0.480	Y_WP:	1.177	Y_WP:	0.750	X:	0.473	Y:	1.171	Z:	0.679	yaw:	1.830	yaw rate:	39.839	Roll:	-0.852	Pitch:	-1.197	Yaw:	-3.261	Thrust:	60.026
Time:	4.862	Roll Set Point:	-0.464	Pitch Set Point:	-1.164	Yaw Set Point:	-0.013	X_WP:	0.480	Y_WP:	1.177	Y_WP:	0.750	X:	0.472	Y:	1.171	Z:	0.681	yaw:	0.722	yaw rate:	110.838	Roll:	-1.677	Pitch:	-0.956	Yaw:	-10.726	Thrust:	81.411
Time:	4.876	Roll Set Point:	-0.465	Pitch Set Point:	-1.164	Yaw Set Point:	-0.008	X_WP:	0.480	Y_WP:	1.177	Y_WP:	0.750	X:	0.472	Y:	1.170	Z:	0.684	yaw:	0.449	yaw rate:	27.329	Roll:	-0.396	Pitch:	-0.963	Yaw:	-5.253	Thrust:	33.858
Time:	4.895	Roll Set Point:	-0.464	Pitch Set Point:	-1.164	Yaw Set Point:	-0.013	X_WP:	0.480	Y_WP:	1.177	Y_WP:	0.750	X:	0.472	Y:	1.170	Z:	0.687	yaw:	0.766	yaw rate:	-31.730	Roll:	-1.145	Pitch:	-0.645	Yaw:	4.708	Thrust:	58.349
Time:	4.915	Roll Set Point:	-0.465	Pitch Set Point:	-1.162	Yaw Set Point:	-0.009	X_WP:	0.480	Y_WP:	1.177	Y_WP:	0.750	X:	0.472	Y:	1.170	Z:	0.689	yaw:	0.495	yaw rate:	27.060	Roll:	-0.587	Pitch:	-1.589	Yaw:	-3.455	Thrust:	59.495
Time:	4.936	Roll Set Point:	-0.466	Pitch Set Point:	-1.160	Yaw Set Point:	-0.022	X_WP:	0.480	Y_WP:	1.177	Y_WP:	0.750	X:	0.473	Y:	1.169	Z:	0.692	yaw:	1.242	yaw rate:	-74.714	Roll:	-0.314	Pitch:	-1.576	Yaw:	10.810	Thrust:	59.892
Time:	4.955	Roll Set Point:	-0.466	Pitch Set Point:	-1.160	Yaw Set Point:	-0.015	X_WP:	0.480	Y_WP:	1.177	Y_WP:	0.750	X:	0.473	Y:	1.168	Z:	0.695	yaw:	0.888	yaw rate:	35.478	Roll:	-0.979	Pitch:	-1.168	Yaw:	-3.932	Thrust:	60.470
Time:	4.976	Roll Set Point:	-0.466	Pitch Set Point:	-1.159	Yaw Set Point:	-0.014	X_WP:	0.480	Y_WP:	1.177	Y_WP:	0.750	X:	0.473	Y:	1.168	Z:	0.697	yaw:	0.801	yaw rate:	8.685	Roll:	-1.015	Pitch:	-1.109	Yaw:	-0.586	Thrust:	64.214
Time:	4.996	Roll Set Point:	-0.466	Pitch Set Point:	-1.159	Yaw Set Point:	-0.046	X_WP:	0.480	Y_WP:	1.177	Y_WP:	0.750	X:	0.473	Y:	1.168	Z:	0.700	yaw:	2.622	yaw rate:	-182.079	Roll:	-0.760	Pitch:	-0.837	Yaw:	27.542	Thrust:	53.872
Time:	5.015	Roll Set Point:	-0.465	Pitch Set Point:	-1.159	Yaw Set Point:	-0.012	X_WP:	0.480	Y_WP:	1.177	Y_WP:	0.750	X:	0.472	Y:	1.168	Z:	0.703	yaw:	0.713	yaw rate:	190.802	Roll:	-1.452	Pitch:	-0.890	Yaw:	-25.484	Thrust:	59.903
Time:	5.039	Roll Set Point:	-0.466	Pitch Set Point:	-1.158	Yaw Set Point:	-0.052	X_WP:	0.480	Y_WP:	1.177	Y_WP:	0.750	X:	0.473	Y:	1.167	Z:	0.704	yaw:	2.952	yaw rate:	-223.824	Roll:	-0.649	Pitch:	-1.328	Yaw:	29.228	Thrust:	67.432
Time:	5.058	Roll Set Point:	-0.466	Pitch Set Point:	-1.157	Yaw Set Point:	-0.053	X_WP:	0.480	Y_WP:	1.177	Y_WP:	0.750	X:	0.473	Y:	1.167	Z:	0.707	yaw:	3.009	yaw rate:	-5.759	Roll:	-0.930	Pitch:	-1.225	Yaw:	4.443	Thrust:	61.286
Time:	5.076	Roll Set Point:	-0.465	Pitch Set Point:	-1.156	Yaw Set Point:	-0.036	X_WP:	0.480	Y_WP:	1.177	Y_WP:	0.750	X:	0.473	Y:	1.167	Z:	0.709	yaw:	2.060	yaw rate:	94.907	Roll:	-0.953	Pitch:	-1.108	Yaw:	-11.359	Thrust:	53.591
Time:	5.097	Roll Set Point:	-0.465	Pitch Set Point:	-1.155	Yaw Set Point:	-0.010	X_WP:	0.480	Y_WP:	1.177	Y_WP:	0.750	X:	0.472	Y:	1.166	Z:	0.711	yaw:	0.585	yaw rate:	147.497	Roll:	-0.933	Pitch:	-1.664	Yaw:	-18.028	Thrust:	60.272
Time:	5.116	Roll Set Point:	-0.465	Pitch Set Point:	-1.155	Yaw Set Point:	-0.038	X_WP:	0.480	Y_WP:	1.177	Y_WP:	0.750	X:	0.472	Y:	1.166	Z:	0.714	yaw:	2.204	yaw rate:	-161.826	Roll:	-1.138	Pitch:	-0.556	Yaw:	24.832	Thrust:	60.458
Time:	5.137	Roll Set Point:	-0.466	Pitch Set Point:	-1.154	Yaw Set Point:	-0.049	X_WP:	0.479	Y_WP:	1.177	Y_WP:	0.750	X:	0.473	Y:	1.165	Z:	0.716	yaw:	2.810	yaw rate:	-60.624	Roll:	-0.683	Pitch:	-1.645	Yaw:	10.736	Thrust:	61.877
Time:	5.156	Roll Set Point:	-0.464	Pitch Set Point:	-1.154	Yaw Set Point:	-0.048	X_WP:	0.480	Y_WP:	1.177	Y_WP:	0.750	X:	0.472	Y:	1.165	Z:	0.718	yaw:	2.759	yaw rate:	5.048	Roll:	-1.497	Pitch:	-0.666	Yaw:	2.705	Thrust:	57.766
Time:	5.179	Roll Set Point:	-0.465	Pitch Set Point:	-1.152	Yaw Set Point:	-0.013	X_WP:	0.480	Y_WP:	1.177	Y_WP:	0.750	X:	0.472	Y:	1.164	Z:	0.720	yaw:	0.740	yaw rate:	201.885	Roll:	-0.663	Pitch:	-2.051	Yaw:	-22.827	Thrust:	70.151
Time:	5.195	Roll Set Point:	-0.465	Pitch Set Point:	-1.152	Yaw Set Point:	-0.065	X_WP:	0.480	Y_WP:	1.177	Y_WP:	0.750	X:	0.473	Y:	1.164	Z:	0.723	yaw:	3.702	yaw rate:	-296.172	Roll:	-1.091	Pitch:	-0.567	Yaw:	50.746	Thrust:	49.615
Time:	5.216	Roll Set Point:	-0.464	Pitch Set Point:	-1.152	Yaw Set Point:	-0.043	X_WP:	0.480	Y_WP:	1.177	Y_WP:	0.750	X:	0.472	Y:	1.164	Z:	0.725	yaw:	2.482	yaw rate:	122.062	Roll:	-1.160	Pitch:	-1.058	Yaw:	-12.258	Thrust:	61.540
Time:	5.237	Roll Set Point:	-0.462	Pitch Set Point:	-1.153	Yaw Set Point:	-0.047	X_WP:	0.480	Y_WP:	1.177	Y_WP:	0.750	X:	0.471	Y:	1.165	Z:	0.727	yaw:	2.701	yaw rate:	-21.913	Roll:	-1.877	Pitch:	-0.465	Yaw:	6.347	Thrust:	59.729
Time:	5.258	Roll Set Point:	-0.464	Pitch Set Point:	-1.150	Yaw Set Point:	-0.048	X_WP:	0.480	Y_WP:	1.177	Y_WP:	0.750	X:	0.472	Y:	1.164	Z:	0.729	yaw:	2.756	yaw rate:	-5.543	Roll:	-0.251	Pitch:	-2.066	Yaw:	4.119	Thrust:	64.680
Time:	5.276	Roll Set Point:	-0.464	Pitch Set Point:	-1.149	Yaw Set Point:	-0.056	X_WP:	0.480	Y_WP:	1.177	Y_WP:	0.750	X:	0.472	Y:	1.163	Z:	0.731	yaw:	3.192	yaw rate:	-43.580	Roll:	-0.864	Pitch:	-1.422	Yaw:	10.236	Thrust:	55.812
Time:	5.296	Roll Set Point:	-0.464	Pitch Set Point:	-1.149	Yaw Set Point:	-0.066	X_WP:	0.479	Y_WP:	1.177	Y_WP:	0.750	X:	0.472	Y:	1.163	Z:	0.733	yaw:	3.795	yaw rate:	-60.309	Roll:	-1.127	Pitch:	-1.215	Yaw:	12.971	Thrust:	59.679
Time:	5.315	Roll Set Point:	-0.464	Pitch Set Point:	-1.148	Yaw Set Point:	-0.034	X_WP:	0.480	Y_WP:	1.177	Y_WP:	0.750	X:	0.472	Y:	1.162	Z:	0.735	yaw:	1.942	yaw rate:	185.319	Roll:	-0.820	Pitch:	-1.414	Yaw:	-21.800	Thrust:	60.066
