Time:	0.031	Roll Set Point:	-0.061	Pitch Set Point:	-0.040	Yaw Set Point:	0.173	X_WP:	0.000	Y_WP:	0.000	Y_WP:	-0.100	X:	0.032	Y:	0.017	Z:	0.048	yaw:	-9.914	yaw rate:	-6.818	Roll:	0.290	Pitch:	0.227	Yaw:	-13.842	Thrust:	0.000
Time:	0.042	Roll Set Point:	-0.061	Pitch Set Point:	-0.040	Yaw Set Point:	0.172	X_WP:	0.000	Y_WP:	0.000	Y_WP:	-0.100	X:	0.032	Y:	0.017	Z:	0.048	yaw:	-9.874	yaw rate:	-3.936	Roll:	0.318	Pitch:	0.225	Yaw:	-12.875	Thrust:	0.000
Time:	0.063	Roll Set Point:	-0.061	Pitch Set Point:	-0.040	Yaw Set Point:	0.174	X_WP:	0.000	Y_WP:	0.000	Y_WP:	-0.100	X:	0.032	Y:	0.017	Z:	0.048	yaw:	-9.985	yaw rate:	11.079	Roll:	0.270	Pitch:	0.257	Yaw:	-15.464	Thrust:	0.000
Time:	0.074	Roll Set Point:	-0.061	Pitch Set Point:	-0.040	Yaw Set Point:	0.175	X_WP:	0.000	Y_WP:	0.000	Y_WP:	-0.100	X:	0.032	Y:	0.017	Z:	0.048	yaw:	-10.001	yaw rate:	0.490	Roll:	0.314	Pitch:	0.245	Yaw:	-14.456	Thrust:	0.000
Time:	0.085	Roll Set Point:	-0.062	Pitch Set Point:	-0.040	Yaw Set Point:	0.170	X_WP:	0.000	Y_WP:	0.000	Y_WP:	-0.100	X:	0.033	Y:	0.017	Z:	0.048	yaw:	-9.712	yaw rate:	-28.863	Roll:	0.418	Pitch:	0.200	Yaw:	-7.283	Thrust:	0.000
Time:	0.096	Roll Set Point:	-0.062	Pitch Set Point:	-0.040	Yaw Set Point:	0.170	X_WP:	0.000	Y_WP:	0.000	Y_WP:	-0.100	X:	0.032	Y:	0.017	Z:	0.048	yaw:	-9.767	yaw rate:	5.505	Roll:	0.303	Pitch:	0.248	Yaw:	-15.132	Thrust:	0.000
Time:	0.111	Roll Set Point:	-0.062	Pitch Set Point:	-0.040	Yaw Set Point:	0.170	X_WP:	0.000	Y_WP:	0.000	Y_WP:	-0.100	X:	0.032	Y:	0.017	Z:	0.048	yaw:	-9.759	yaw rate:	-0.813	Roll:	0.340	Pitch:	0.269	Yaw:	-13.799	Thrust:	0.000
Time:	0.132	Roll Set Point:	-0.061	Pitch Set Point:	-0.040	Yaw Set Point:	0.174	X_WP:	0.000	Y_WP:	0.000	Y_WP:	-0.100	X:	0.032	Y:	0.017	Z:	0.048	yaw:	-9.985	yaw rate:	-0.766	Roll:	0.337	Pitch:	0.317	Yaw:	-17.427	Thrust:	0.000
Time:	0.142	Roll Set Point:	-0.061	Pitch Set Point:	-0.040	Yaw Set Point:	0.174	X_WP:	0.000	Y_WP:	0.000	Y_WP:	-0.100	X:	0.032	Y:	0.017	Z:	0.048	yaw:	-9.957	yaw rate:	-2.810	Roll:	0.361	Pitch:	0.276	Yaw:	-13.497	Thrust:	0.000
Time:	0.152	Roll Set Point:	-0.061	Pitch Set Point:	-0.040	Yaw Set Point:	0.174	X_WP:	0.000	Y_WP:	0.000	Y_WP:	-0.100	X:	0.032	Y:	0.017	Z:	0.048	yaw:	-9.992	yaw rate:	3.498	Roll:	0.307	Pitch:	0.273	Yaw:	-15.147	Thrust:	0.000
Time:	0.163	Roll Set Point:	-0.061	Pitch Set Point:	-0.040	Yaw Set Point:	0.174	X_WP:	0.000	Y_WP:	0.000	Y_WP:	-0.100	X:	0.032	Y:	0.017	Z:	0.048	yaw:	-9.964	yaw rate:	-2.801	Roll:	0.375	Pitch:	0.272	Yaw:	-13.625	Thrust:	0.000
Time:	0.174	Roll Set Point:	-0.061	Pitch Set Point:	-0.040	Yaw Set Point:	0.175	X_WP:	0.000	Y_WP:	0.000	Y_WP:	-0.100	X:	0.032	Y:	0.017	Z:	0.048	yaw:	-10.001	yaw rate:	3.751	Roll:	0.350	Pitch:	0.278	Yaw:	-15.319	Thrust:	0.000
Time:	0.198	Roll Set Point:	-0.061	Pitch Set Point:	-0.040	Yaw Set Point:	0.174	X_WP:	0.000	Y_WP:	0.000	Y_WP:	-0.100	X:	0.032	Y:	0.017	Z:	0.048	yaw:	-9.962	yaw rate:	-3.944	Roll:	0.449	Pitch:	0.356	Yaw:	-14.479	Thrust:	0.000
Time:	0.209	Roll Set Point:	-0.061	Pitch Set Point:	-0.040	Yaw Set Point:	0.174	X_WP:	0.000	Y_WP:	0.000	Y_WP:	-0.100	X:	0.032	Y:	0.017	Z:	0.048	yaw:	-9.977	yaw rate:	-1.492	Roll:	0.388	Pitch:	0.303	Yaw:	-14.798	Thrust:	0.000
Time:	0.221	Roll Set Point:	-0.061	Pitch Set Point:	-0.040	Yaw Set Point:	0.174	X_WP:	0.000	Y_WP:	0.000	Y_WP:	-0.100	X:	0.032	Y:	0.017	Z:	0.048	yaw:	-9.981	yaw rate:	0.375	Roll:	0.376	Pitch:	0.294	Yaw:	-14.595	Thrust:	0.000
Time:	0.231	Roll Set Point:	-0.061	Pitch Set Point:	-0.040	Yaw Set Point:	0.174	X_WP:	0.000	Y_WP:	0.000	Y_WP:	-0.100	X:	0.032	Y:	0.017	Z:	0.048	yaw:	-9.988	yaw rate:	0.703	Roll:	0.378	Pitch:	0.296	Yaw:	-14.669	Thrust:	0.000
Time:	0.243	Roll Set Point:	-0.061	Pitch Set Point:	-0.040	Yaw Set Point:	0.174	X_WP:	0.000	Y_WP:	0.000	Y_WP:	-0.100	X:	0.032	Y:	0.017	Z:	0.048	yaw:	-9.962	yaw rate:	-2.592	Roll:	0.418	Pitch:	0.315	Yaw:	-14.049	Thrust:	0.000
Time:	0.263	Roll Set Point:	-0.061	Pitch Set Point:	-0.040	Yaw Set Point:	0.172	X_WP:	0.000	Y_WP:	0.000	Y_WP:	-0.100	X:	0.032	Y:	0.017	Z:	0.048	yaw:	-9.875	yaw rate:	-8.728	Roll:	0.497	Pitch:	0.369	Yaw:	-13.755	Thrust:	0.000
Time:	0.274	Roll Set Point:	-0.061	Pitch Set Point:	-0.040	Yaw Set Point:	0.174	X_WP:	0.000	Y_WP:	0.000	Y_WP:	-0.100	X:	0.032	Y:	0.017	Z:	0.048	yaw:	-9.967	yaw rate:	-4.977	Roll:	0.376	Pitch:	0.339	Yaw:	-16.840	Thrust:	0.000
Time:	0.285	Roll Set Point:	-0.062	Pitch Set Point:	-0.040	Yaw Set Point:	0.169	X_WP:	0.000	Y_WP:	0.000	Y_WP:	-0.100	X:	0.032	Y:	0.017	Z:	0.048	yaw:	-9.690	yaw rate:	-27.662	Roll:	0.491	Pitch:	0.264	Yaw:	-7.674	Thrust:	0.000
Time:	0.295	Roll Set Point:	-0.061	Pitch Set Point:	-0.040	Yaw Set Point:	0.174	X_WP:	0.000	Y_WP:	0.000	Y_WP:	-0.100	X:	0.032	Y:	0.017	Z:	0.048	yaw:	-9.991	yaw rate:	30.072	Roll:	0.336	Pitch:	0.381	Yaw:	-22.169	Thrust:	0.000
Time:	0.307	Roll Set Point:	-0.061	Pitch Set Point:	-0.040	Yaw Set Point:	0.174	X_WP:	0.000	Y_WP:	0.000	Y_WP:	-0.100	X:	0.032	Y:	0.017	Z:	0.048	yaw:	-9.985	yaw rate:	-0.550	Roll:	0.408	Pitch:	0.327	Yaw:	-14.664	Thrust:	0.000
Time:	0.330	Roll Set Point:	-0.061	Pitch Set Point:	-0.040	Yaw Set Point:	0.173	X_WP:	0.000	Y_WP:	0.000	Y_WP:	-0.100	X:	0.032	Y:	0.017	Z:	0.048	yaw:	-9.903	yaw rate:	-8.267	Roll:	0.596	Pitch:	0.467	Yaw:	-14.705	Thrust:	0.000
Time:	0.342	Roll Set Point:	-0.061	Pitch Set Point:	-0.040	Yaw Set Point:	0.174	X_WP:	0.000	Y_WP:	0.000	Y_WP:	-0.100	X:	0.032	Y:	0.017	Z:	0.048	yaw:	-9.993	yaw rate:	2.565	Roll:	0.423	Pitch:	0.365	Yaw:	-16.903	Thrust:	0.000
Time:	0.353	Roll Set Point:	-0.061	Pitch Set Point:	-0.040	Yaw Set Point:	0.175	X_WP:	0.000	Y_WP:	0.000	Y_WP:	-0.100	X:	0.032	Y:	0.017	Z:	0.048	yaw:	-9.998	yaw rate:	0.531	Roll:	0.446	Pitch:	0.342	Yaw:	-14.968	Thrust:	0.000
Time:	0.363	Roll Set Point:	-0.061	Pitch Set Point:	-0.040	Yaw Set Point:	0.174	X_WP:	0.000	Y_WP:	0.000	Y_WP:	-0.100	X:	0.032	Y:	0.017	Z:	0.048	yaw:	-9.964	yaw rate:	-3.465	Roll:	0.453	Pitch:	0.352	Yaw:	-13.999	Thrust:	0.000
Time:	0.379	Roll Set Point:	-0.061	Pitch Set Point:	-0.040	Yaw Set Point:	0.175	X_WP:	0.000	Y_WP:	0.000	Y_WP:	-0.100	X:	0.032	Y:	0.017	Z:	0.048	yaw:	-10.000	yaw rate:	3.617	Roll:	0.481	Pitch:	0.389	Yaw:	-15.975	Thrust:	0.000
Time:	0.397	Roll Set Point:	-0.061	Pitch Set Point:	-0.040	Yaw Set Point:	0.174	X_WP:	0.000	Y_WP:	0.000	Y_WP:	-0.100	X:	0.032	Y:	0.017	Z:	0.048	yaw:	-9.984	yaw rate:	-1.550	Roll:	0.613	Pitch:	0.476	Yaw:	-15.457	Thrust:	0.000
Time:	0.409	Roll Set Point:	-0.061	Pitch Set Point:	-0.040	Yaw Set Point:	0.174	X_WP:	0.000	Y_WP:	0.000	Y_WP:	-0.100	X:	0.032	Y:	0.017	Z:	0.048	yaw:	-9.952	yaw rate:	-4.277	Roll:	0.499	Pitch:	0.385	Yaw:	-14.312	Thrust:	0.000
Time:	0.420	Roll Set Point:	-0.061	Pitch Set Point:	-0.040	Yaw Set Point:	0.174	X_WP:	0.000	Y_WP:	0.000	Y_WP:	-0.100	X:	0.032	Y:	0.017	Z:	0.048	yaw:	-9.943	yaw rate:	-0.872	Roll:	0.467	Pitch:	0.349	Yaw:	-14.739	Thrust:	0.000
Time:	0.431	Roll Set Point:	-0.061	Pitch Set Point:	-0.040	Yaw Set Point:	0.174	X_WP:	0.000	Y_WP:	0.000	Y_WP:	-0.100	X:	0.032	Y:	0.017	Z:	0.048	yaw:	-9.984	yaw rate:	4.061	Roll:	0.449	Pitch:	0.399	Yaw:	-16.052	Thrust:	0.000
Time:	0.442	Roll Set Point:	-0.061	Pitch Set Point:	-0.040	Yaw Set Point:	0.174	X_WP:	0.000	Y_WP:	0.000	Y_WP:	-0.100	X:	0.032	Y:	0.017	Z:	0.048	yaw:	-9.975	yaw rate:	-0.897	Roll:	0.502	Pitch:	0.361	Yaw:	-14.907	Thrust:	0.000
Time:	0.462	Roll Set Point:	-0.061	Pitch Set Point:	-0.040	Yaw Set Point:	0.174	X_WP:	0.000	Y_WP:	0.000	Y_WP:	-0.100	X:	0.032	Y:	0.017	Z:	0.048	yaw:	-9.972	yaw rate:	-0.299	Roll:	0.639	Pitch:	0.522	Yaw:	-16.056	Thrust:	0.000
Time:	0.473	Roll Set Point:	-0.061	Pitch Set Point:	-0.040	Yaw Set Point:	0.174	X_WP:	0.000	Y_WP:	0.000	Y_WP:	-0.100	X:	0.032	Y:	0.017	Z:	0.048	yaw:	-9.991	yaw rate:	-0.837	Roll:	0.544	Pitch:	0.409	Yaw:	-15.734	Thrust:	0.000
Time:	0.484	Roll Set Point:	-0.061	Pitch Set Point:	-0.040	Yaw Set Point:	0.174	X_WP:	0.000	Y_WP:	0.000	Y_WP:	-0.100	X:	0.032	Y:	0.017	Z:	0.048	yaw:	-9.966	yaw rate:	-2.489	Roll:	0.499	Pitch:	0.389	Yaw:	-14.535	Thrust:	0.000
Time:	0.495	Roll Set Point:	-0.061	Pitch Set Point:	-0.040	Yaw Set Point:	0.174	X_WP:	0.000	Y_WP:	0.000	Y_WP:	-0.100	X:	0.032	Y:	0.017	Z:	0.048	yaw:	-9.942	yaw rate:	-2.392	Roll:	0.517	Pitch:	0.388	Yaw:	-14.569	Thrust:	0.000
Time:	0.506	Roll Set Point:	-0.061	Pitch Set Point:	-0.040	Yaw Set Point:	0.174	X_WP:	0.000	Y_WP:	0.000	Y_WP:	-0.100	X:	0.032	Y:	0.017	Z:	0.048	yaw:	-9.963	yaw rate:	2.131	Roll:	0.490	Pitch:	0.426	Yaw:	-15.800	Thrust:	0.000
Time:	0.518	Roll Set Point:	-0.061	Pitch Set Point:	-0.040	Yaw Set Point:	0.174	X_WP:	0.000	Y_WP:	0.000	Y_WP:	-0.100	X:	0.032	Y:	0.017	Z:	0.048	yaw:	-9.973	yaw rate:	1.020	Roll:	0.544	Pitch:	0.418	Yaw:	-15.696	Thrust:	0.000
Time:	0.533	Roll Set Point:	-0.061	Pitch Set Point:	-0.040	Yaw Set Point:	0.174	X_WP:	0.000	Y_WP:	0.000	Y_WP:	-0.100	X:	0.032	Y:	0.017	Z:	0.048	yaw:	-9.962	yaw rate:	-1.100	Roll:	0.628	Pitch:	0.492	Yaw:	-15.702	Thrust:	0.000
Time:	0.546	Roll Set Point:	-0.061	Pitch Set Point:	-0.040	Yaw Set Point:	0.173	X_WP:	0.000	Y_WP:	0.000	Y_WP:	-0.100	X:	0.032	Y:	0.017	Z:	0.048	yaw:	-9.938	yaw rate:	-2.391	Roll:	0.585	Pitch:	0.447	Yaw:	-15.194	Thrust:	0.000
Time:	0.556	Roll Set Point:	-0.061	Pitch Set Point:	-0.040	Yaw Set Point:	0.174	X_WP:	0.000	Y_WP:	0.000	Y_WP:	-0.100	X:	0.032	Y:	0.017	Z:	0.048	yaw:	-9.989	yaw rate:	5.009	Roll:	0.533	Pitch:	0.432	Yaw:	-16.654	Thrust:	0.000
Time:	0.568	Roll Set Point:	-0.061	Pitch Set Point:	-0.040	Yaw Set Point:	0.175	X_WP:	0.000	Y_WP:	0.000	Y_WP:	-0.100	X:	0.032	Y:	0.017	Z:	0.048	yaw:	-10.007	yaw rate:	1.804	Roll:	0.562	Pitch:	0.446	Yaw:	-15.970	Thrust:	0.000
Time:	0.599	Roll Set Point:	-0.061	Pitch Set Point:	-0.040	Yaw Set Point:	0.174	X_WP:	0.000	Y_WP:	0.000	Y_WP:	-0.100	X:	0.032	Y:	0.017	Z:	0.048	yaw:	-9.990	yaw rate:	-1.655	Roll:	0.611	Pitch:	0.790	Yaw:	-18.345	Thrust:	0.000
Time:	0.614	Roll Set Point:	-0.061	Pitch Set Point:	-0.040	Yaw Set Point:	0.174	X_WP:	0.000	Y_WP:	0.000	Y_WP:	-0.100	X:	0.032	Y:	0.017	Z:	0.048	yaw:	-9.946	yaw rate:	-4.441	Roll:	1.082	Pitch:	0.549	Yaw:	-15.357	Thrust:	0.000
Time:	0.625	Roll Set Point:	-0.061	Pitch Set Point:	-0.040	Yaw Set Point:	0.173	X_WP:	0.000	Y_WP:	0.000	Y_WP:	-0.100	X:	0.032	Y:	0.017	Z:	0.048	yaw:	-9.920	yaw rate:	-2.603	Roll:	0.602	Pitch:	0.430	Yaw:	-14.916	Thrust:	0.000
Time:	0.635	Roll Set Point:	-0.061	Pitch Set Point:	-0.040	Yaw Set Point:	0.174	X_WP:	0.000	Y_WP:	0.000	Y_WP:	-0.100	X:	0.032	Y:	0.017	Z:	0.048	yaw:	-9.981	yaw rate:	6.143	Roll:	0.544	Pitch:	0.453	Yaw:	-17.106	Thrust:	0.000
Time:	0.650	Roll Set Point:	-0.061	Pitch Set Point:	-0.040	Yaw Set Point:	0.174	X_WP:	0.000	Y_WP:	0.000	Y_WP:	-0.100	X:	0.032	Y:	0.017	Z:	0.048	yaw:	-9.990	yaw rate:	0.940	Roll:	0.666	Pitch:	0.547	Yaw:	-16.517	Thrust:	0.000
Time:	0.664	Roll Set Point:	-0.061	Pitch Set Point:	-0.040	Yaw Set Point:	0.174	X_WP:	0.000	Y_WP:	0.000	Y_WP:	-0.100	X:	0.032	Y:	0.017	Z:	0.048	yaw:	-9.980	yaw rate:	-2.004	Roll:	0.667	Pitch:	0.524	Yaw:	-16.037	Thrust:	0.000
Time:	0.675	Roll Set Point:	-0.061	Pitch Set Point:	-0.040	Yaw Set Point:	0.175	X_WP:	0.000	Y_WP:	0.000	Y_WP:	-0.100	X:	0.032	Y:	0.017	Z:	0.048	yaw:	-10.000	yaw rate:	1.942	Roll:	0.610	Pitch:	0.469	Yaw:	-16.231	Thrust:	0.000
Time:	0.685	Roll Set Point:	-0.061	Pitch Set Point:	-0.040	Yaw Set Point:	0.174	X_WP:	0.000	Y_WP:	0.000	Y_WP:	-0.100	X:	0.032	Y:	0.017	Z:	0.048	yaw:	-9.990	yaw rate:	-1.006	Roll:	0.570	Pitch:	0.457	Yaw:	-15.487	Thrust:	0.000
Time:	0.696	Roll Set Point:	-0.061	Pitch Set Point:	-0.040	Yaw Set Point:	0.174	X_WP:	0.000	Y_WP:	0.000	Y_WP:	-0.100	X:	0.032	Y:	0.017	Z:	0.048	yaw:	-9.946	yaw rate:	-4.323	Roll:	0.625	Pitch:	0.469	Yaw:	-14.812	Thrust:	0.000
Time:	0.709	Roll Set Point:	-0.061	Pitch Set Point:	-0.040	Yaw Set Point:	0.174	X_WP:	0.000	Y_WP:	0.000	Y_WP:	-0.100	X:	0.032	Y:	0.017	Z:	0.048	yaw:	-9.994	yaw rate:	4.780	Roll:	0.642	Pitch:	0.512	Yaw:	-17.098	Thrust:	0.000
Time:	0.733	Roll Set Point:	-0.061	Pitch Set Point:	-0.040	Yaw Set Point:	0.174	X_WP:	0.000	Y_WP:	0.000	Y_WP:	-0.100	X:	0.032	Y:	0.017	Z:	0.048	yaw:	-9.998	yaw rate:	0.322	Roll:	1.015	Pitch:	0.808	Yaw:	-18.433	Thrust:	0.000
Time:	0.744	Roll Set Point:	-0.061	Pitch Set Point:	-0.040	Yaw Set Point:	0.174	X_WP:	0.000	Y_WP:	0.000	Y_WP:	-0.100	X:	0.032	Y:	0.017	Z:	0.048	yaw:	-9.983	yaw rate:	5.423	Roll:	0.656	Pitch:	0.496	Yaw:	-15.664	Thrust:	0.000
Time:	0.754	Roll Set Point:	-0.061	Pitch Set Point:	-0.040	Yaw Set Point:	0.174	X_WP:	0.000	Y_WP:	0.000	Y_WP:	-0.100	X:	0.032	Y:	0.017	Z:	0.048	yaw:	-9.979	yaw rate:	-0.397	Roll:	0.577	Pitch:	0.485	Yaw:	-15.811	Thrust:	0.000
Time:	0.765	Roll Set Point:	-0.061	Pitch Set Point:	-0.040	Yaw Set Point:	0.174	X_WP:	0.000	Y_WP:	0.000	Y_WP:	-0.100	X:	0.032	Y:	0.017	Z:	0.048	yaw:	-9.955	yaw rate:	-2.442	Roll:	0.649	Pitch:	0.494	Yaw:	-15.310	Thrust:	0.000
Time:	0.776	Roll Set Point:	-0.061	Pitch Set Point:	-0.040	Yaw Set Point:	0.173	X_WP:	0.000	Y_WP:	0.000	Y_WP:	-0.100	X:	0.032	Y:	0.017	Z:	0.048	yaw:	-9.910	yaw rate:	-4.476	Roll:	0.642	Pitch:	0.464	Yaw:	-14.921	Thrust:	0.000
Time:	0.799	Roll Set Point:	-0.061	Pitch Set Point:	-0.040	Yaw Set Point:	0.173	X_WP:	0.000	Y_WP:	0.000	Y_WP:	-0.100	X:	0.032	Y:	0.017	Z:	0.048	yaw:	-9.895	yaw rate:	-1.557	Roll:	1.034	Pitch:	0.841	Yaw:	-18.107	Thrust:	0.000
Time:	0.810	Roll Set Point:	-0.061	Pitch Set Point:	-0.040	Yaw Set Point:	0.174	X_WP:	0.000	Y_WP:	0.000	Y_WP:	-0.100	X:	0.032	Y:	0.017	Z:	0.048	yaw:	-9.969	yaw rate:	-0.603	Roll:	0.690	Pitch:	0.532	Yaw:	-17.894	Thrust:	0.000
Time:	0.820	Roll Set Point:	-0.061	Pitch Set Point:	-0.040	Yaw Set Point:	0.173	X_WP:	0.000	Y_WP:	0.000	Y_WP:	-0.100	X:	0.032	Y:	0.017	Z:	0.048	yaw:	-9.934	yaw rate:	-3.477	Roll:	0.627	Pitch:	0.491	Yaw:	-15.112	Thrust:	0.000
Time:	0.831	Roll Set Point:	-0.061	Pitch Set Point:	-0.040	Yaw Set Point:	0.174	X_WP:	0.000	Y_WP:	0.000	Y_WP:	-0.100	X:	0.032	Y:	0.017	Z:	0.048	yaw:	-9.989	yaw rate:	5.447	Roll:	0.683	Pitch:	0.552	Yaw:	-17.435	Thrust:	0.000
Time:	0.843	Roll Set Point:	-0.061	Pitch Set Point:	-0.040	Yaw Set Point:	0.175	X_WP:	0.000	Y_WP:	0.000	Y_WP:	-0.100	X:	0.032	Y:	0.017	Z:	0.048	yaw:	-10.005	yaw rate:	1.625	Roll:	0.689	Pitch:	0.537	Yaw:	-16.753	Thrust:	0.000
Time:	0.863	Roll Set Point:	-0.061	Pitch Set Point:	-0.040	Yaw Set Point:	0.174	X_WP:	0.000	Y_WP:	0.000	Y_WP:	-0.100	X:	0.032	Y:	0.017	Z:	0.048	yaw:	-9.997	yaw rate:	-0.817	Roll:	1.020	Pitch:	0.816	Yaw:	-17.863	Thrust:	0.000
Time:	0.874	Roll Set Point:	-0.061	Pitch Set Point:	-0.040	Yaw Set Point:	0.174	X_WP:	0.000	Y_WP:	0.000	Y_WP:	-0.100	X:	0.032	Y:	0.017	Z:	0.048	yaw:	-9.997	yaw rate:	0.050	Roll:	0.709	Pitch:	0.550	Yaw:	-16.181	Thrust:	0.000
Time:	0.886	Roll Set Point:	-0.061	Pitch Set Point:	-0.040	Yaw Set Point:	0.173	X_WP:	0.000	Y_WP:	0.000	Y_WP:	-0.100	X:	0.032	Y:	0.017	Z:	0.048	yaw:	-9.910	yaw rate:	-8.669	Roll:	0.754	Pitch:	0.544	Yaw:	-14.365	Thrust:	0.000
Time:	0.898	Roll Set Point:	-0.061	Pitch Set Point:	-0.040	Yaw Set Point:	0.174	X_WP:	0.000	Y_WP:	0.000	Y_WP:	-0.100	X:	0.032	Y:	0.017	Z:	0.048	yaw:	-9.957	yaw rate:	4.746	Roll:	0.692	Pitch:	0.581	Yaw:	-17.263	Thrust:	0.000
Time:	0.910	Roll Set Point:	-0.061	Pitch Set Point:	-0.040	Yaw Set Point:	0.173	X_WP:	0.000	Y_WP:	0.000	Y_WP:	-0.100	X:	0.032	Y:	0.017	Z:	0.048	yaw:	-9.935	yaw rate:	-2.232	Roll:	0.744	Pitch:	0.568	Yaw:	-15.802	Thrust:	0.000
Time:	0.934	Roll Set Point:	-0.062	Pitch Set Point:	-0.040	Yaw Set Point:	0.170	X_WP:	0.000	Y_WP:	0.000	Y_WP:	-0.100	X:	0.033	Y:	0.017	Z:	0.048	yaw:	-9.740	yaw rate:	-19.511	Roll:	1.217	Pitch:	0.925	Yaw:	-16.152	Thrust:	0.000
Time:	0.946	Roll Set Point:	-0.062	Pitch Set Point:	-0.040	Yaw Set Point:	0.169	X_WP:	0.000	Y_WP:	0.000	Y_WP:	-0.100	X:	0.033	Y:	0.017	Z:	0.048	yaw:	-9.707	yaw rate:	-13.234	Roll:	0.805	Pitch:	0.613	Yaw:	-15.107	Thrust:	0.000
Time:	0.957	Roll Set Point:	-0.061	Pitch Set Point:	-0.040	Yaw Set Point:	0.174	X_WP:	0.000	Y_WP:	0.000	Y_WP:	-0.100	X:	0.032	Y:	0.017	Z:	0.048	yaw:	-9.997	yaw rate:	29.018	Roll:	0.631	Pitch:	0.655	Yaw:	-22.677	Thrust:	0.000
Time:	0.968	Roll Set Point:	-0.061	Pitch Set Point:	-0.040	Yaw Set Point:	0.174	X_WP:	0.000	Y_WP:	0.000	Y_WP:	-0.100	X:	0.032	Y:	0.017	Z:	0.048	yaw:	-9.994	yaw rate:	-0.343	Roll:	0.785	Pitch:	0.580	Yaw:	-16.112	Thrust:	0.000
Time:	0.983	Roll Set Point:	-0.061	Pitch Set Point:	-0.040	Yaw Set Point:	0.174	X_WP:	0.000	Y_WP:	0.000	Y_WP:	-0.100	X:	0.032	Y:	0.017	Z:	0.048	yaw:	-9.998	yaw rate:	0.415	Roll:	0.783	Pitch:	0.652	Yaw:	-16.943	Thrust:	0.000
Time:	1.000	Roll Set Point:	-0.061	Pitch Set Point:	-0.040	Yaw Set Point:	0.174	X_WP:	0.000	Y_WP:	0.000	Y_WP:	-0.100	X:	0.032	Y:	0.017	Z:	0.048	yaw:	-9.978	yaw rate:	-1.972	Roll:	1.070	Pitch:	0.801	Yaw:	-16.928	Thrust:	0.000
Time:	1.011	Roll Set Point:	-0.061	Pitch Set Point:	-0.040	Yaw Set Point:	0.174	X_WP:	0.000	Y_WP:	0.000	Y_WP:	-0.100	X:	0.032	Y:	0.017	Z:	0.048	yaw:	-9.989	yaw rate:	1.129	Roll:	0.757	Pitch:	0.596	Yaw:	-16.346	Thrust:	0.000
Time:	1.022	Roll Set Point:	-0.061	Pitch Set Point:	-0.040	Yaw Set Point:	0.174	X_WP:	0.000	Y_WP:	0.000	Y_WP:	-0.100	X:	0.032	Y:	0.017	Z:	0.048	yaw:	-9.988	yaw rate:	-0.116	Roll:	0.755	Pitch:	0.621	Yaw:	-16.227	Thrust:	0.000
Time:	1.032	Roll Set Point:	-0.061	Pitch Set Point:	-0.040	Yaw Set Point:	0.174	X_WP:	0.000	Y_WP:	0.000	Y_WP:	-0.100	X:	0.032	Y:	0.017	Z:	0.048	yaw:	-9.954	yaw rate:	-3.462	Roll:	0.792	Pitch:	0.596	Yaw:	-15.283	Thrust:	0.000
Time:	1.049	Roll Set Point:	-0.061	Pitch Set Point:	-0.040	Yaw Set Point:	0.174	X_WP:	0.000	Y_WP:	0.000	Y_WP:	-0.100	X:	0.032	Y:	0.017	Z:	0.048	yaw:	-9.968	yaw rate:	1.447	Roll:	0.955	Pitch:	0.756	Yaw:	-17.554	Thrust:	0.000
Time:	1.066	Roll Set Point:	-0.061	Pitch Set Point:	-0.040	Yaw Set Point:	0.173	X_WP:	0.000	Y_WP:	0.000	Y_WP:	-0.100	X:	0.032	Y:	0.017	Z:	0.048	yaw:	-9.910	yaw rate:	-4.355	Roll:	1.103	Pitch:	0.843	Yaw:	-16.220	Thrust:	0.000
Time:	1.078	Roll Set Point:	-0.061	Pitch Set Point:	-0.040	Yaw Set Point:	0.172	X_WP:	0.000	Y_WP:	0.000	Y_WP:	-0.100	X:	0.032	Y:	0.017	Z:	0.048	yaw:	-9.832	yaw rate:	-7.781	Roll:	0.833	Pitch:	0.652	Yaw:	-14.269	Thrust:	0.000
Time:	1.089	Roll Set Point:	-0.061	Pitch Set Point:	-0.040	Yaw Set Point:	0.175	X_WP:	0.000	Y_WP:	0.000	Y_WP:	-0.100	X:	0.032	Y:	0.017	Z:	0.048	yaw:	-10.003	yaw rate:	17.126	Roll:	0.758	Pitch:	0.648	Yaw:	-20.238	Thrust:	0.000
Time:	1.100	Roll Set Point:	-0.061	Pitch Set Point:	-0.040	Yaw Set Point:	0.174	X_WP:	0.000	Y_WP:	0.000	Y_WP:	-0.100	X:	0.032	Y:	0.017	Z:	0.048	yaw:	-9.958	yaw rate:	-4.510	Roll:	0.838	Pitch:	0.640	Yaw:	-15.146	Thrust:	0.000
Time:	1.117	Roll Set Point:	-0.061	Pitch Set Point:	-0.040	Yaw Set Point:	0.173	X_WP:	0.000	Y_WP:	0.000	Y_WP:	-0.100	X:	0.032	Y:	0.017	Z:	0.048	yaw:	-9.916	yaw rate:	-4.236	Roll:	0.910	Pitch:	0.691	Yaw:	-16.249	Thrust:	0.000
Time:	1.134	Roll Set Point:	-0.061	Pitch Set Point:	-0.040	Yaw Set Point:	0.175	X_WP:	0.000	Y_WP:	0.000	Y_WP:	-0.100	X:	0.032	Y:	0.017	Z:	0.048	yaw:	-10.004	yaw rate:	1.028	Roll:	1.211	Pitch:	0.988	Yaw:	-18.866	Thrust:	0.000
Time:	1.144	Roll Set Point:	-0.061	Pitch Set Point:	-0.040	Yaw Set Point:	0.175	X_WP:	0.000	Y_WP:	0.000	Y_WP:	-0.100	X:	0.032	Y:	0.017	Z:	0.048	yaw:	-10.003	yaw rate:	-0.188	Roll:	0.839	Pitch:	0.643	Yaw:	-16.026	Thrust:	0.000
Time:	1.155	Roll Set Point:	-0.061	Pitch Set Point:	-0.040	Yaw Set Point:	0.174	X_WP:	0.000	Y_WP:	0.000	Y_WP:	-0.100	X:	0.032	Y:	0.017	Z:	0.048	yaw:	-9.975	yaw rate:	-2.757	Roll:	0.776	Pitch:	0.629	Yaw:	-15.348	Thrust:	0.000
Time:	1.166	Roll Set Point:	-0.061	Pitch Set Point:	-0.040	Yaw Set Point:	0.174	X_WP:	0.000	Y_WP:	0.000	Y_WP:	-0.100	X:	0.032	Y:	0.017	Z:	0.048	yaw:	-9.991	yaw rate:	1.617	Roll:	0.834	Pitch:	0.633	Yaw:	-16.468	Thrust:	0.000
Time:	1.179	Roll Set Point:	-0.061	Pitch Set Point:	-0.040	Yaw Set Point:	0.173	X_WP:	0.000	Y_WP:	0.000	Y_WP:	-0.100	X:	0.032	Y:	0.017	Z:	0.048	yaw:	-9.906	yaw rate:	-8.540	Roll:	0.982	Pitch:	0.750	Yaw:	-15.048	Thrust:	0.000
Time:	1.201	Roll Set Point:	-0.061	Pitch Set Point:	-0.040	Yaw Set Point:	0.174	X_WP:	0.000	Y_WP:	0.000	Y_WP:	-0.100	X:	0.032	Y:	0.017	Z:	0.048	yaw:	-9.996	yaw rate:	9.063	Roll:	1.353	Pitch:	1.100	Yaw:	-19.425	Thrust:	0.000
Time:	1.214	Roll Set Point:	-0.061	Pitch Set Point:	-0.040	Yaw Set Point:	0.174	X_WP:	0.000	Y_WP:	0.000	Y_WP:	-0.100	X:	0.032	Y:	0.017	Z:	0.048	yaw:	-9.974	yaw rate:	-2.258	Roll:	0.980	Pitch:	0.739	Yaw:	-15.916	Thrust:	0.000
Time:	1.225	Roll Set Point:	-0.061	Pitch Set Point:	-0.040	Yaw Set Point:	0.174	X_WP:	0.000	Y_WP:	0.000	Y_WP:	-0.100	X:	0.032	Y:	0.017	Z:	0.048	yaw:	-9.987	yaw rate:	7.478	Roll:	0.829	Pitch:	0.686	Yaw:	-16.556	Thrust:	0.000
Time:	1.236	Roll Set Point:	-0.061	Pitch Set Point:	-0.040	Yaw Set Point:	0.174	X_WP:	0.000	Y_WP:	0.000	Y_WP:	-0.100	X:	0.032	Y:	0.017	Z:	0.048	yaw:	-9.990	yaw rate:	0.309	Roll:	0.889	Pitch:	0.669	Yaw:	-16.132	Thrust:	0.000
Time:	1.253	Roll Set Point:	-0.061	Pitch Set Point:	-0.040	Yaw Set Point:	0.175	X_WP:	0.000	Y_WP:	0.000	Y_WP:	-0.100	X:	0.032	Y:	0.017	Z:	0.048	yaw:	-10.003	yaw rate:	1.233	Roll:	1.080	Pitch:	0.857	Yaw:	-17.384	Thrust:	0.000
Time:	1.272	Roll Set Point:	-0.061	Pitch Set Point:	-0.040	Yaw Set Point:	0.175	X_WP:	0.000	Y_WP:	0.000	Y_WP:	-0.100	X:	0.032	Y:	0.017	Z:	0.048	yaw:	-10.015	yaw rate:	1.223	Roll:	1.438	Pitch:	1.148	Yaw:	-18.291	Thrust:	0.000
Time:	1.283	Roll Set Point:	-0.061	Pitch Set Point:	-0.040	Yaw Set Point:	0.172	X_WP:	0.000	Y_WP:	0.000	Y_WP:	-0.100	X:	0.032	Y:	0.017	Z:	0.048	yaw:	-9.837	yaw rate:	-17.789	Roll:	0.906	Pitch:	0.599	Yaw:	-11.097	Thrust:	0.000
Time:	1.294	Roll Set Point:	-0.061	Pitch Set Point:	-0.040	Yaw Set Point:	0.175	X_WP:	0.000	Y_WP:	0.000	Y_WP:	-0.100	X:	0.032	Y:	0.017	Z:	0.048	yaw:	-10.007	yaw rate:	17.035	Roll:	0.788	Pitch:	0.745	Yaw:	-20.222	Thrust:	0.000
Time:	1.306	Roll Set Point:	-0.061	Pitch Set Point:	-0.040	Yaw Set Point:	0.174	X_WP:	0.000	Y_WP:	0.000	Y_WP:	-0.100	X:	0.032	Y:	0.017	Z:	0.048	yaw:	-9.976	yaw rate:	-3.165	Roll:	0.957	Pitch:	0.689	Yaw:	-15.455	Thrust:	0.000
Time:	1.318	Roll Set Point:	-0.061	Pitch Set Point:	-0.040	Yaw Set Point:	0.174	X_WP:	0.000	Y_WP:	0.000	Y_WP:	-0.100	X:	0.032	Y:	0.017	Z:	0.048	yaw:	-9.985	yaw rate:	0.951	Roll:	0.986	Pitch:	0.778	Yaw:	-16.744	Thrust:	0.000
Time:	1.339	Roll Set Point:	-0.061	Pitch Set Point:	-0.040	Yaw Set Point:	0.175	X_WP:	0.000	Y_WP:	0.000	Y_WP:	-0.100	X:	0.032	Y:	0.017	Z:	0.048	yaw:	-10.007	yaw rate:	0.805	Roll:	1.496	Pitch:	1.182	Yaw:	-18.459	Thrust:	0.000
Time:	1.350	Roll Set Point:	-0.061	Pitch Set Point:	-0.040	Yaw Set Point:	0.174	X_WP:	0.000	Y_WP:	0.000	Y_WP:	-0.100	X:	0.032	Y:	0.017	Z:	0.048	yaw:	-9.997	yaw rate:	-1.072	Roll:	0.901	Pitch:	0.712	Yaw:	-15.997	Thrust:	0.000
Time:	1.361	Roll Set Point:	-0.061	Pitch Set Point:	-0.040	Yaw Set Point:	0.174	X_WP:	0.000	Y_WP:	0.000	Y_WP:	-0.100	X:	0.032	Y:	0.017	Z:	0.048	yaw:	-9.947	yaw rate:	-4.961	Roll:	0.910	Pitch:	0.727	Yaw:	-14.759	Thrust:	0.000
Time:	1.373	Roll Set Point:	-0.061	Pitch Set Point:	-0.040	Yaw Set Point:	0.173	X_WP:	0.000	Y_WP:	0.000	Y_WP:	-0.100	X:	0.032	Y:	0.017	Z:	0.048	yaw:	-9.922	yaw rate:	-2.477	Roll:	0.973	Pitch:	0.706	Yaw:	-15.688	Thrust:	0.000
Time:	1.384	Roll Set Point:	-0.061	Pitch Set Point:	-0.040	Yaw Set Point:	0.175	X_WP:	0.000	Y_WP:	0.000	Y_WP:	-0.100	X:	0.032	Y:	0.017	Z:	0.048	yaw:	-10.015	yaw rate:	9.237	Roll:	0.926	Pitch:	0.798	Yaw:	-18.386	Thrust:	0.000
Time:	1.399	Roll Set Point:	-0.061	Pitch Set Point:	-0.040	Yaw Set Point:	0.174	X_WP:	0.000	Y_WP:	0.000	Y_WP:	-0.100	X:	0.032	Y:	0.017	Z:	0.048	yaw:	-9.985	yaw rate:	-3.004	Roll:	1.212	Pitch:	0.923	Yaw:	-16.425	Thrust:	0.000
Time:	1.409	Roll Set Point:	-0.061	Pitch Set Point:	-0.040	Yaw Set Point:	0.174	X_WP:	0.000	Y_WP:	0.000	Y_WP:	-0.100	X:	0.032	Y:	0.017	Z:	0.048	yaw:	-9.987	yaw rate:	9.282	Roll:	0.927	Pitch:	0.721	Yaw:	-16.018	Thrust:	0.000
Time:	1.421	Roll Set Point:	-0.061	Pitch Set Point:	-0.040	Yaw Set Point:	0.173	X_WP:	0.000	Y_WP:	0.000	Y_WP:	-0.100	X:	0.032	Y:	0.017	Z:	0.048	yaw:	-9.901	yaw rate:	-8.552	Roll:	0.968	Pitch:	0.737	Yaw:	-14.199	Thrust:	0.000
Time:	1.432	Roll Set Point:	-0.061	Pitch Set Point:	-0.040	Yaw Set Point:	0.174	X_WP:	0.000	Y_WP:	0.000	Y_WP:	-0.100	X:	0.032	Y:	0.017	Z:	0.048	yaw:	-9.943	yaw rate:	4.212	Roll:	0.921	Pitch:	0.812	Yaw:	-17.138	Thrust:	0.000
Time:	1.448	Roll Set Point:	-0.061	Pitch Set Point:	-0.040	Yaw Set Point:	0.174	X_WP:	0.000	Y_WP:	0.000	Y_WP:	-0.100	X:	0.032	Y:	0.017	Z:	0.048	yaw:	-9.994	yaw rate:	5.032	Roll:	1.234	Pitch:	0.956	Yaw:	-17.839	Thrust:	0.000
Time:	1.465	Roll Set Point:	-0.061	Pitch Set Point:	-0.040	Yaw Set Point:	0.174	X_WP:	0.000	Y_WP:	0.000	Y_WP:	-0.100	X:	0.032	Y:	0.017	Z:	0.048	yaw:	-9.983	yaw rate:	-1.081	Roll:	1.344	Pitch:	1.032	Yaw:	-17.078	Thrust:	0.000
Time:	1.475	Roll Set Point:	-0.061	Pitch Set Point:	-0.040	Yaw Set Point:	0.174	X_WP:	0.000	Y_WP:	0.000	Y_WP:	-0.100	X:	0.032	Y:	0.017	Z:	0.048	yaw:	-9.970	yaw rate:	-1.268	Roll:	0.977	Pitch:	0.745	Yaw:	-15.712	Thrust:	0.000
Time:	1.486	Roll Set Point:	-0.061	Pitch Set Point:	-0.040	Yaw Set Point:	0.175	X_WP:	0.000	Y_WP:	0.000	Y_WP:	-0.100	X:	0.032	Y:	0.017	Z:	0.048	yaw:	-10.002	yaw rate:	2.435	Roll:	0.974	Pitch:	0.777	Yaw:	-16.915	Thrust:	0.000
Time:	1.497	Roll Set Point:	-0.061	Pitch Set Point:	-0.040	Yaw Set Point:	0.173	X_WP:	0.000	Y_WP:	0.000	Y_WP:	-0.100	X:	0.032	Y:	0.017	Z:	0.048	yaw:	-9.892	yaw rate:	-10.911	Roll:	1.021	Pitch:	0.759	Yaw:	-13.632	Thrust:	0.000
Time:	1.509	Roll Set Point:	-0.061	Pitch Set Point:	-0.040	Yaw Set Point:	0.173	X_WP:	0.000	Y_WP:	0.000	Y_WP:	-0.100	X:	0.032	Y:	0.017	Z:	0.048	yaw:	-9.931	yaw rate:	3.856	Roll:	0.999	Pitch:	0.797	Yaw:	-17.056	Thrust:	0.000
Time:	1.527	Roll Set Point:	-0.061	Pitch Set Point:	-0.040	Yaw Set Point:	0.174	X_WP:	0.000	Y_WP:	0.000	Y_WP:	-0.100	X:	0.032	Y:	0.017	Z:	0.048	yaw:	-9.981	yaw rate:	4.976	Roll:	1.478	Pitch:	1.183	Yaw:	-18.350	Thrust:	0.000
Time:	1.539	Roll Set Point:	-0.061	Pitch Set Point:	-0.040	Yaw Set Point:	0.173	X_WP:	0.000	Y_WP:	0.000	Y_WP:	-0.100	X:	0.032	Y:	0.017	Z:	0.048	yaw:	-9.912	yaw rate:	-6.911	Roll:	1.129	Pitch:	0.845	Yaw:	-14.587	Thrust:	0.000
Time:	1.549	Roll Set Point:	-0.061	Pitch Set Point:	-0.040	Yaw Set Point:	0.174	X_WP:	0.000	Y_WP:	0.000	Y_WP:	-0.100	X:	0.032	Y:	0.017	Z:	0.048	yaw:	-9.994	yaw rate:	8.212	Roll:	0.918	Pitch:	0.765	Yaw:	-18.102	Thrust:	0.000
Time:	1.560	Roll Set Point:	-0.061	Pitch Set Point:	-0.040	Yaw Set Point:	0.175	X_WP:	0.000	Y_WP:	0.000	Y_WP:	-0.100	X:	0.032	Y:	0.017	Z:	0.048	yaw:	-10.011	yaw rate:	1.690	Roll:	1.008	Pitch:	0.819	Yaw:	-16.558	Thrust:	0.000
Time:	1.574	Roll Set Point:	-0.061	Pitch Set Point:	-0.040	Yaw Set Point:	0.174	X_WP:	0.000	Y_WP:	0.000	Y_WP:	-0.100	X:	0.032	Y:	0.017	Z:	0.048	yaw:	-9.988	yaw rate:	-2.303	Roll:	1.201	Pitch:	0.973	Yaw:	-16.281	Thrust:	0.000
Time:	1.597	Roll Set Point:	-0.061	Pitch Set Point:	-0.040	Yaw Set Point:	0.174	X_WP:	0.000	Y_WP:	0.000	Y_WP:	-0.100	X:	0.032	Y:	0.017	Z:	0.048	yaw:	-9.947	yaw rate:	-4.700	Roll:	1.179	Pitch:	1.350	Yaw:	-17.815	Thrust:	0.000
Time:	1.608	Roll Set Point:	-0.061	Pitch Set Point:	-0.040	Yaw Set Point:	0.173	X_WP:	0.000	Y_WP:	0.000	Y_WP:	-0.100	X:	0.032	Y:	0.017	Z:	0.048	yaw:	-9.902	yaw rate:	-4.506	Roll:	1.810	Pitch:	0.917	Yaw:	-15.269	Thrust:	0.000
Time:	1.619	Roll Set Point:	-0.061	Pitch Set Point:	-0.040	Yaw Set Point:	0.174	X_WP:	0.000	Y_WP:	0.000	Y_WP:	-0.100	X:	0.032	Y:	0.017	Z:	0.048	yaw:	-9.986	yaw rate:	8.402	Roll:	0.946	Pitch:	0.781	Yaw:	-18.137	Thrust:	0.000
Time:	1.630	Roll Set Point:	-0.061	Pitch Set Point:	-0.040	Yaw Set Point:	0.174	X_WP:	0.000	Y_WP:	0.000	Y_WP:	-0.100	X:	0.032	Y:	0.017	Z:	0.048	yaw:	-9.968	yaw rate:	-0.613	Roll:	1.033	Pitch:	0.818	Yaw:	-15.650	Thrust:	0.000
Time:	1.641	Roll Set Point:	-0.061	Pitch Set Point:	-0.040	Yaw Set Point:	0.174	X_WP:	0.000	Y_WP:	0.000	Y_WP:	-0.100	X:	0.032	Y:	0.017	Z:	0.048	yaw:	-9.994	yaw rate:	2.532	Roll:	1.082	Pitch:	0.901	Yaw:	-16.855	Thrust:	0.000
Time:	1.652	Roll Set Point:	-0.061	Pitch Set Point:	-0.040	Yaw Set Point:	0.172	X_WP:	0.000	Y_WP:	0.000	Y_WP:	-0.100	X:	0.032	Y:	0.017	Z:	0.048	yaw:	-9.833	yaw rate:	-16.100	Roll:	1.110	Pitch:	0.785	Yaw:	-11.843	Thrust:	0.000
Time:	1.665	Roll Set Point:	-0.061	Pitch Set Point:	-0.040	Yaw Set Point:	0.174	X_WP:	0.000	Y_WP:	0.000	Y_WP:	-0.100	X:	0.032	Y:	0.017	Z:	0.048	yaw:	-9.998	yaw rate:	16.509	Roll:	1.215	Pitch:	0.972	Yaw:	-19.860	Thrust:	0.000
Time:	1.675	Roll Set Point:	-0.061	Pitch Set Point:	-0.040	Yaw Set Point:	0.173	X_WP:	0.000	Y_WP:	0.000	Y_WP:	-0.100	X:	0.032	Y:	0.017	Z:	0.048	yaw:	-9.898	yaw rate:	-10.022	Roll:	1.061	Pitch:	0.804	Yaw:	-13.207	Thrust:	0.000
Time:	1.686	Roll Set Point:	-0.061	Pitch Set Point:	-0.040	Yaw Set Point:	0.174	X_WP:	0.000	Y_WP:	0.000	Y_WP:	-0.100	X:	0.032	Y:	0.017	Z:	0.048	yaw:	-9.977	yaw rate:	7.983	Roll:	1.022	Pitch:	0.844	Yaw:	-18.031	Thrust:	0.000
Time:	1.697	Roll Set Point:	-0.061	Pitch Set Point:	-0.040	Yaw Set Point:	0.175	X_WP:	0.000	Y_WP:	0.000	Y_WP:	-0.100	X:	0.032	Y:	0.017	Z:	0.048	yaw:	-9.999	yaw rate:	2.134	Roll:	1.095	Pitch:	0.888	Yaw:	-16.675	Thrust:	0.000
Time:	1.710	Roll Set Point:	-0.061	Pitch Set Point:	-0.040	Yaw Set Point:	0.173	X_WP:	0.000	Y_WP:	0.000	Y_WP:	-0.100	X:	0.032	Y:	0.017	Z:	0.048	yaw:	-9.912	yaw rate:	-8.636	Roll:	1.229	Pitch:	0.908	Yaw:	-14.720	Thrust:	0.000
Time:	1.730	Roll Set Point:	-0.061	Pitch Set Point:	-0.040	Yaw Set Point:	0.175	X_WP:	0.000	Y_WP:	0.000	Y_WP:	-0.100	X:	0.032	Y:	0.017	Z:	0.048	yaw:	-10.000	yaw rate:	8.725	Roll:	1.766	Pitch:	1.406	Yaw:	-18.972	Thrust:	0.000
Time:	1.740	Roll Set Point:	-0.061	Pitch Set Point:	-0.040	Yaw Set Point:	0.174	X_WP:	0.000	Y_WP:	0.000	Y_WP:	-0.100	X:	0.032	Y:	0.017	Z:	0.048	yaw:	-9.995	yaw rate:	1.485	Roll:	1.068	Pitch:	0.843	Yaw:	-15.943	Thrust:	0.000
Time:	1.752	Roll Set Point:	-0.061	Pitch Set Point:	-0.040	Yaw Set Point:	0.174	X_WP:	0.000	Y_WP:	0.000	Y_WP:	-0.100	X:	0.032	Y:	0.017	Z:	0.048	yaw:	-9.972	yaw rate:	-2.320	Roll:	1.140	Pitch:	0.878	Yaw:	-15.704	Thrust:	0.000
Time:	1.762	Roll Set Point:	-0.061	Pitch Set Point:	-0.040	Yaw Set Point:	0.175	X_WP:	0.000	Y_WP:	0.000	Y_WP:	-0.100	X:	0.032	Y:	0.017	Z:	0.048	yaw:	-10.000	yaw rate:	2.826	Roll:	1.104	Pitch:	0.914	Yaw:	-16.826	Thrust:	0.000
Time:	1.777	Roll Set Point:	-0.061	Pitch Set Point:	-0.040	Yaw Set Point:	0.174	X_WP:	0.000	Y_WP:	0.000	Y_WP:	-0.100	X:	0.032	Y:	0.017	Z:	0.048	yaw:	-9.959	yaw rate:	-4.111	Roll:	1.303	Pitch:	1.049	Yaw:	-16.115	Thrust:	0.000
Time:	1.798	Roll Set Point:	-0.061	Pitch Set Point:	-0.040	Yaw Set Point:	0.174	X_WP:	0.000	Y_WP:	0.000	Y_WP:	-0.100	X:	0.032	Y:	0.017	Z:	0.048	yaw:	-9.975	yaw rate:	1.639	Roll:	1.946	Pitch:	1.500	Yaw:	-18.253	Thrust:	0.000
Time:	1.808	Roll Set Point:	-0.061	Pitch Set Point:	-0.040	Yaw Set Point:	0.175	X_WP:	0.000	Y_WP:	0.000	Y_WP:	-0.100	X:	0.032	Y:	0.017	Z:	0.048	yaw:	-9.999	yaw rate:	0.043	Roll:	1.184	Pitch:	0.912	Yaw:	-16.655	Thrust:	0.000
Time:	1.819	Roll Set Point:	-0.061	Pitch Set Point:	-0.040	Yaw Set Point:	0.173	X_WP:	0.000	Y_WP:	0.000	Y_WP:	-0.100	X:	0.032	Y:	0.017	Z:	0.048	yaw:	-9.926	yaw rate:	-7.263	Roll:	1.126	Pitch:	0.841	Yaw:	-14.100	Thrust:	0.000
Time:	1.830	Roll Set Point:	-0.061	Pitch Set Point:	-0.040	Yaw Set Point:	0.174	X_WP:	0.000	Y_WP:	0.000	Y_WP:	-0.100	X:	0.032	Y:	0.017	Z:	0.048	yaw:	-9.988	yaw rate:	6.163	Roll:	1.144	Pitch:	0.926	Yaw:	-17.657	Thrust:	0.000
Time:	1.842	Roll Set Point:	-0.061	Pitch Set Point:	-0.040	Yaw Set Point:	0.175	X_WP:	0.000	Y_WP:	0.000	Y_WP:	-0.100	X:	0.032	Y:	0.017	Z:	0.048	yaw:	-10.002	yaw rate:	1.464	Roll:	1.168	Pitch:	0.923	Yaw:	-16.611	Thrust:	0.000
Time:	1.863	Roll Set Point:	-0.062	Pitch Set Point:	-0.040	Yaw Set Point:	0.170	X_WP:	0.000	Y_WP:	0.000	Y_WP:	-0.100	X:	0.033	Y:	0.017	Z:	0.048	yaw:	-9.716	yaw rate:	-28.632	Roll:	1.788	Pitch:	1.521	Yaw:	-14.035	Thrust:	0.000
Time:	1.873	Roll Set Point:	-0.061	Pitch Set Point:	-0.040	Yaw Set Point:	0.174	X_WP:	0.000	Y_WP:	0.000	Y_WP:	-0.100	X:	0.032	Y:	0.017	Z:	0.048	yaw:	-9.988	yaw rate:	1.780	Roll:	1.360	Pitch:	1.014	Yaw:	-22.652	Thrust:	0.000
Time:	1.883	Roll Set Point:	-0.061	Pitch Set Point:	-0.040	Yaw Set Point:	0.174	X_WP:	0.000	Y_WP:	0.000	Y_WP:	-0.100	X:	0.032	Y:	0.017	Z:	0.048	yaw:	-9.987	yaw rate:	-0.099	Roll:	1.134	Pitch:	0.857	Yaw:	-15.937	Thrust:	0.000
Time:	1.894	Roll Set Point:	-0.061	Pitch Set Point:	-0.040	Yaw Set Point:	0.174	X_WP:	0.000	Y_WP:	0.000	Y_WP:	-0.100	X:	0.032	Y:	0.017	Z:	0.048	yaw:	-9.960	yaw rate:	-2.730	Roll:	1.154	Pitch:	0.905	Yaw:	-15.467	Thrust:	0.000
Time:	1.906	Roll Set Point:	-0.061	Pitch Set Point:	-0.040	Yaw Set Point:	0.174	X_WP:	0.000	Y_WP:	0.000	Y_WP:	-0.100	X:	0.032	Y:	0.017	Z:	0.048	yaw:	-9.997	yaw rate:	3.729	Roll:	1.147	Pitch:	0.905	Yaw:	-17.054	Thrust:	0.000
Time:	1.916	Roll Set Point:	-0.061	Pitch Set Point:	-0.040	Yaw Set Point:	0.173	X_WP:	0.000	Y_WP:	0.000	Y_WP:	-0.100	X:	0.032	Y:	0.017	Z:	0.048	yaw:	-9.915	yaw rate:	-8.206	Roll:	1.230	Pitch:	0.966	Yaw:	-13.910	Thrust:	0.000
Time:	1.930	Roll Set Point:	-0.061	Pitch Set Point:	-0.040	Yaw Set Point:	0.174	X_WP:	0.000	Y_WP:	0.000	Y_WP:	-0.100	X:	0.032	Y:	0.017	Z:	0.048	yaw:	-9.948	yaw rate:	3.246	Roll:	1.443	Pitch:	1.155	Yaw:	-17.303	Thrust:	0.000
Time:	1.941	Roll Set Point:	-0.061	Pitch Set Point:	-0.040	Yaw Set Point:	0.174	X_WP:	0.000	Y_WP:	0.000	Y_WP:	-0.100	X:	0.032	Y:	0.017	Z:	0.048	yaw:	-9.987	yaw rate:	3.932	Roll:	1.253	Pitch:	0.956	Yaw:	-17.089	Thrust:	0.000
Time:	1.952	Roll Set Point:	-0.061	Pitch Set Point:	-0.040	Yaw Set Point:	0.174	X_WP:	0.000	Y_WP:	0.000	Y_WP:	-0.100	X:	0.032	Y:	0.017	Z:	0.048	yaw:	-9.997	yaw rate:	0.992	Roll:	1.133	Pitch:	0.938	Yaw:	-16.312	Thrust:	0.000
Time:	1.963	Roll Set Point:	-0.061	Pitch Set Point:	-0.040	Yaw Set Point:	0.172	X_WP:	0.000	Y_WP:	0.000	Y_WP:	-0.100	X:	0.032	Y:	0.017	Z:	0.048	yaw:	-9.866	yaw rate:	-13.126	Roll:	1.309	Pitch:	0.936	Yaw:	-13.107	Thrust:	0.000
Time:	1.976	Roll Set Point:	-0.061	Pitch Set Point:	-0.040	Yaw Set Point:	0.174	X_WP:	0.000	Y_WP:	0.000	Y_WP:	-0.100	X:	0.032	Y:	0.017	Z:	0.048	yaw:	-9.985	yaw rate:	11.951	Roll:	1.339	Pitch:	1.160	Yaw:	-18.951	Thrust:	0.000
Time:	1.998	Roll Set Point:	-0.061	Pitch Set Point:	-0.040	Yaw Set Point:	0.174	X_WP:	0.000	Y_WP:	0.000	Y_WP:	-0.100	X:	0.032	Y:	0.017	Z:	0.048	yaw:	-9.995	yaw rate:	0.955	Roll:	2.066	Pitch:	1.663	Yaw:	-18.394	Thrust:	0.000
Time:	2.009	Roll Set Point:	-0.061	Pitch Set Point:	-0.040	Yaw Set Point:	0.175	X_WP:	0.000	Y_WP:	0.000	Y_WP:	-0.100	X:	0.032	Y:	0.017	Z:	0.048	yaw:	-10.007	yaw rate:	1.199	Roll:	1.396	Pitch:	0.999	Yaw:	-16.418	Thrust:	0.000
Time:	2.020	Roll Set Point:	-0.061	Pitch Set Point:	-0.040	Yaw Set Point:	0.174	X_WP:	0.000	Y_WP:	0.000	Y_WP:	-0.100	X:	0.032	Y:	0.017	Z:	0.048	yaw:	-9.984	yaw rate:	-2.340	Roll:	1.212	Pitch:	0.977	Yaw:	-15.592	Thrust:	0.000
Time:	2.031	Roll Set Point:	-0.061	Pitch Set Point:	-0.040	Yaw Set Point:	0.174	X_WP:	0.000	Y_WP:	0.000	Y_WP:	-0.100	X:	0.032	Y:	0.017	Z:	0.048	yaw:	-9.989	yaw rate:	0.750	Roll:	1.253	Pitch:	0.959	Yaw:	-16.282	Thrust:	0.000
Time:	2.043	Roll Set Point:	-0.061	Pitch Set Point:	-0.040	Yaw Set Point:	0.174	X_WP:	0.000	Y_WP:	0.000	Y_WP:	-0.100	X:	0.032	Y:	0.017	Z:	0.048	yaw:	-9.958	yaw rate:	-3.108	Roll:	1.408	Pitch:	1.106	Yaw:	-15.641	Thrust:	0.000
Time:	2.065	Roll Set Point:	-0.061	Pitch Set Point:	-0.040	Yaw Set Point:	0.175	X_WP:	0.000	Y_WP:	0.000	Y_WP:	-0.100	X:	0.032	Y:	0.017	Z:	0.048	yaw:	-10.000	yaw rate:	4.245	Roll:	2.164	Pitch:	1.779	Yaw:	-18.971	Thrust:	0.000
Time:	2.076	Roll Set Point:	-0.061	Pitch Set Point:	-0.040	Yaw Set Point:	0.173	X_WP:	0.000	Y_WP:	0.000	Y_WP:	-0.100	X:	0.032	Y:	0.017	Z:	0.048	yaw:	-9.906	yaw rate:	-9.414	Roll:	1.427	Pitch:	1.010	Yaw:	-13.792	Thrust:	0.000
Time:	2.088	Roll Set Point:	-0.061	Pitch Set Point:	-0.040	Yaw Set Point:	0.174	X_WP:	0.000	Y_WP:	0.000	Y_WP:	-0.100	X:	0.032	Y:	0.017	Z:	0.048	yaw:	-9.996	yaw rate:	1.620	Roll:	1.293	Pitch:	1.043	Yaw:	-18.292	Thrust:	0.000
Time:	2.098	Roll Set Point:	-0.061	Pitch Set Point:	-0.040	Yaw Set Point:	0.175	X_WP:	0.000	Y_WP:	0.000	Y_WP:	-0.100	X:	0.032	Y:	0.017	Z:	0.048	yaw:	-10.003	yaw rate:	0.779	Roll:	1.255	Pitch:	0.993	Yaw:	-16.278	Thrust:	0.000
Time:	2.116	Roll Set Point:	-0.061	Pitch Set Point:	-0.040	Yaw Set Point:	0.174	X_WP:	0.000	Y_WP:	0.000	Y_WP:	-0.100	X:	0.032	Y:	0.017	Z:	0.048	yaw:	-9.987	yaw rate:	-1.646	Roll:	1.751	Pitch:	1.447	Yaw:	-17.208	Thrust:	0.000
Time:	2.130	Roll Set Point:	-0.061	Pitch Set Point:	-0.040	Yaw Set Point:	0.173	X_WP:	0.000	Y_WP:	0.000	Y_WP:	-0.100	X:	0.032	Y:	0.017	Z:	0.048	yaw:	-9.910	yaw rate:	-7.700	Roll:	1.698	Pitch:	1.269	Yaw:	-15.202	Thrust:	0.000
Time:	2.141	Roll Set Point:	-0.061	Pitch Set Point:	-0.040	Yaw Set Point:	0.174	X_WP:	0.000	Y_WP:	0.000	Y_WP:	-0.100	X:	0.032	Y:	0.017	Z:	0.048	yaw:	-9.985	yaw rate:	-0.104	Roll:	1.328	Pitch:	1.038	Yaw:	-17.915	Thrust:	0.000
Time:	2.151	Roll Set Point:	-0.061	Pitch Set Point:	-0.040	Yaw Set Point:	0.175	X_WP:	0.000	Y_WP:	0.000	Y_WP:	-0.100	X:	0.032	Y:	0.017	Z:	0.048	yaw:	-10.006	yaw rate:	2.099	Roll:	1.219	Pitch:	1.000	Yaw:	-16.598	Thrust:	0.000
Time:	2.163	Roll Set Point:	-0.061	Pitch Set Point:	-0.040	Yaw Set Point:	0.175	X_WP:	0.000	Y_WP:	0.000	Y_WP:	-0.100	X:	0.032	Y:	0.017	Z:	0.048	yaw:	-10.008	yaw rate:	0.199	Roll:	1.324	Pitch:	1.045	Yaw:	-16.227	Thrust:	0.000
Time:	2.176	Roll Set Point:	-0.061	Pitch Set Point:	-0.040	Yaw Set Point:	0.174	X_WP:	0.000	Y_WP:	0.000	Y_WP:	-0.100	X:	0.032	Y:	0.017	Z:	0.048	yaw:	-9.987	yaw rate:	-2.043	Roll:	1.473	Pitch:	1.189	Yaw:	-16.142	Thrust:	0.000
Time:	2.197	Roll Set Point:	-0.061	Pitch Set Point:	-0.040	Yaw Set Point:	0.174	X_WP:	0.000	Y_WP:	0.000	Y_WP:	-0.100	X:	0.032	Y:	0.017	Z:	0.048	yaw:	-9.982	yaw rate:	-0.520	Roll:	2.151	Pitch:	1.657	Yaw:	-17.992	Thrust:	0.000
Time:	2.208	Roll Set Point:	-0.061	Pitch Set Point:	-0.040	Yaw Set Point:	0.173	X_WP:	0.000	Y_WP:	0.000	Y_WP:	-0.100	X:	0.032	Y:	0.017	Z:	0.048	yaw:	-9.884	yaw rate:	-9.790	Roll:	1.663	Pitch:	1.230	Yaw:	-14.116	Thrust:	0.000
Time:	2.219	Roll Set Point:	-0.061	Pitch Set Point:	-0.040	Yaw Set Point:	0.174	X_WP:	0.000	Y_WP:	0.000	Y_WP:	-0.100	X:	0.032	Y:	0.017	Z:	0.048	yaw:	-9.979	yaw rate:	9.530	Roll:	1.270	Pitch:	1.048	Yaw:	-18.409	Thrust:	0.000
Time:	2.230	Roll Set Point:	-0.061	Pitch Set Point:	-0.040	Yaw Set Point:	0.174	X_WP:	0.000	Y_WP:	0.000	Y_WP:	-0.100	X:	0.032	Y:	0.017	Z:	0.048	yaw:	-9.959	yaw rate:	-4.638	Roll:	1.314	Pitch:	1.066	Yaw:	-15.651	Thrust:	0.000
Time:	2.242	Roll Set Point:	-0.061	Pitch Set Point:	-0.040	Yaw Set Point:	0.174	X_WP:	0.000	Y_WP:	0.000	Y_WP:	-0.100	X:	0.032	Y:	0.017	Z:	0.048	yaw:	-9.985	yaw rate:	2.614	Roll:	1.508	Pitch:	1.152	Yaw:	-16.927	Thrust:	0.000
Time:	2.264	Roll Set Point:	-0.061	Pitch Set Point:	-0.040	Yaw Set Point:	0.174	X_WP:	0.000	Y_WP:	0.000	Y_WP:	-0.100	X:	0.032	Y:	0.017	Z:	0.048	yaw:	-9.957	yaw rate:	-2.853	Roll:	2.310	Pitch:	1.889	Yaw:	-17.982	Thrust:	0.000
Time:	2.276	Roll Set Point:	-0.061	Pitch Set Point:	-0.040	Yaw Set Point:	0.174	X_WP:	0.000	Y_WP:	0.000	Y_WP:	-0.100	X:	0.032	Y:	0.017	Z:	0.048	yaw:	-9.994	yaw rate:	3.715	Roll:	1.589	Pitch:	1.187	Yaw:	-17.151	Thrust:	0.000
Time:	2.287	Roll Set Point:	-0.061	Pitch Set Point:	-0.040	Yaw Set Point:	0.174	X_WP:	0.000	Y_WP:	0.000	Y_WP:	-0.100	X:	0.032	Y:	0.017	Z:	0.048	yaw:	-9.993	yaw rate:	-0.051	Roll:	1.300	Pitch:	1.042	Yaw:	-16.047	Thrust:	0.000
Time:	2.298	Roll Set Point:	-0.061	Pitch Set Point:	-0.040	Yaw Set Point:	0.175	X_WP:	0.000	Y_WP:	0.000	Y_WP:	-0.100	X:	0.032	Y:	0.017	Z:	0.048	yaw:	-10.000	yaw rate:	0.672	Roll:	1.421	Pitch:	1.086	Yaw:	-16.322	Thrust:	0.000
Time:	2.309	Roll Set Point:	-0.061	Pitch Set Point:	-0.040	Yaw Set Point:	0.173	X_WP:	0.000	Y_WP:	0.000	Y_WP:	-0.100	X:	0.032	Y:	0.017	Z:	0.048	yaw:	-9.917	yaw rate:	-8.286	Roll:	1.435	Pitch:	1.102	Yaw:	-14.157	Thrust:	0.000
Time:	2.329	Roll Set Point:	-0.061	Pitch Set Point:	-0.040	Yaw Set Point:	0.174	X_WP:	0.000	Y_WP:	0.000	Y_WP:	-0.100	X:	0.032	Y:	0.017	Z:	0.048	yaw:	-9.955	yaw rate:	3.746	Roll:	2.151	Pitch:	1.823	Yaw:	-18.488	Thrust:	0.000
Time:	2.339	Roll Set Point:	-0.061	Pitch Set Point:	-0.040	Yaw Set Point:	0.174	X_WP:	0.000	Y_WP:	0.000	Y_WP:	-0.100	X:	0.032	Y:	0.017	Z:	0.048	yaw:	-9.992	yaw rate:	-0.910	Roll:	1.508	Pitch:	1.071	Yaw:	-16.939	Thrust:	0.000
Time:	2.351	Roll Set Point:	-0.061	Pitch Set Point:	-0.040	Yaw Set Point:	0.173	X_WP:	0.000	Y_WP:	0.000	Y_WP:	-0.100	X:	0.032	Y:	0.017	Z:	0.048	yaw:	-9.920	yaw rate:	-7.212	Roll:	1.436	Pitch:	1.139	Yaw:	-14.522	Thrust:	0.000
Time:	2.362	Roll Set Point:	-0.061	Pitch Set Point:	-0.040	Yaw Set Point:	0.174	X_WP:	0.000	Y_WP:	0.000	Y_WP:	-0.100	X:	0.032	Y:	0.017	Z:	0.048	yaw:	-9.981	yaw rate:	6.159	Roll:	1.367	Pitch:	1.109	Yaw:	-17.591	Thrust:	0.000
Time:	2.373	Roll Set Point:	-0.061	Pitch Set Point:	-0.040	Yaw Set Point:	0.174	X_WP:	0.000	Y_WP:	0.000	Y_WP:	-0.100	X:	0.032	Y:	0.017	Z:	0.048	yaw:	-9.991	yaw rate:	0.985	Roll:	1.444	Pitch:	1.169	Yaw:	-16.491	Thrust:	0.000
Time:	2.396	Roll Set Point:	-0.061	Pitch Set Point:	-0.040	Yaw Set Point:	0.174	X_WP:	0.000	Y_WP:	0.000	Y_WP:	-0.100	X:	0.032	Y:	0.017	Z:	0.048	yaw:	-9.991	yaw rate:	0.005	Roll:	2.468	Pitch:	1.945	Yaw:	-18.369	Thrust:	0.000
Time:	2.409	Roll Set Point:	-0.061	Pitch Set Point:	-0.040	Yaw Set Point:	0.174	X_WP:	0.000	Y_WP:	0.000	Y_WP:	-0.100	X:	0.032	Y:	0.017	Z:	0.048	yaw:	-9.988	yaw rate:	-0.360	Roll:	1.758	Pitch:	1.296	Yaw:	-16.478	Thrust:	0.000
Time:	2.420	Roll Set Point:	-0.061	Pitch Set Point:	-0.040	Yaw Set Point:	0.174	X_WP:	0.000	Y_WP:	0.000	Y_WP:	-0.100	X:	0.032	Y:	0.017	Z:	0.048	yaw:	-9.995	yaw rate:	5.660	Roll:	1.484	Pitch:	1.176	Yaw:	-16.345	Thrust:	0.000
Time:	2.430	Roll Set Point:	-0.061	Pitch Set Point:	-0.040	Yaw Set Point:	0.173	X_WP:	0.000	Y_WP:	0.000	Y_WP:	-0.100	X:	0.032	Y:	0.017	Z:	0.048	yaw:	-9.911	yaw rate:	-8.455	Roll:	1.443	Pitch:	1.086	Yaw:	-13.841	Thrust:	0.000
Time:	2.442	Roll Set Point:	-0.061	Pitch Set Point:	-0.040	Yaw Set Point:	0.174	X_WP:	0.000	Y_WP:	0.000	Y_WP:	-0.100	X:	0.032	Y:	0.017	Z:	0.048	yaw:	-9.979	yaw rate:	6.859	Roll:	1.474	Pitch:	1.201	Yaw:	-17.835	Thrust:	0.000
Time:	2.466	Roll Set Point:	-0.061	Pitch Set Point:	-0.040	Yaw Set Point:	0.174	X_WP:	0.000	Y_WP:	0.000	Y_WP:	-0.100	X:	0.032	Y:	0.017	Z:	0.048	yaw:	-9.960	yaw rate:	-1.950	Roll:	2.908	Pitch:	2.284	Yaw:	-18.509	Thrust:	0.000
Time:	2.478	Roll Set Point:	-0.061	Pitch Set Point:	-0.040	Yaw Set Point:	0.173	X_WP:	0.000	Y_WP:	0.000	Y_WP:	-0.100	X:	0.032	Y:	0.017	Z:	0.048	yaw:	-9.912	yaw rate:	-5.504	Roll:	1.615	Pitch:	1.240	Yaw:	-15.100	Thrust:	0.000
Time:	2.488	Roll Set Point:	-0.061	Pitch Set Point:	-0.040	Yaw Set Point:	0.174	X_WP:	0.000	Y_WP:	0.000	Y_WP:	-0.100	X:	0.032	Y:	0.017	Z:	0.048	yaw:	-9.995	yaw rate:	8.323	Roll:	1.329	Pitch:	1.129	Yaw:	-18.131	Thrust:	0.000
Time:	2.499	Roll Set Point:	-0.061	Pitch Set Point:	-0.040	Yaw Set Point:	0.175	X_WP:	0.000	Y_WP:	0.000	Y_WP:	-0.100	X:	0.032	Y:	0.017	Z:	0.048	yaw:	-10.004	yaw rate:	0.836	Roll:	1.475	Pitch:	1.145	Yaw:	-16.282	Thrust:	0.000
Time:	2.518	Roll Set Point:	-0.061	Pitch Set Point:	-0.040	Yaw Set Point:	0.174	X_WP:	0.000	Y_WP:	0.000	Y_WP:	-0.100	X:	0.032	Y:	0.017	Z:	0.048	yaw:	-9.987	yaw rate:	-1.646	Roll:	2.108	Pitch:	1.723	Yaw:	-17.427	Thrust:	0.000
Time:	2.533	Roll Set Point:	-0.061	Pitch Set Point:	-0.040	Yaw Set Point:	0.174	X_WP:	0.000	Y_WP:	0.000	Y_WP:	-0.100	X:	0.032	Y:	0.017	Z:	0.048	yaw:	-9.985	yaw rate:	-0.187	Roll:	2.145	Pitch:	1.596	Yaw:	-17.019	Thrust:	0.000
Time:	2.544	Roll Set Point:	-0.061	Pitch Set Point:	-0.040	Yaw Set Point:	0.173	X_WP:	0.000	Y_WP:	0.000	Y_WP:	-0.100	X:	0.032	Y:	0.017	Z:	0.048	yaw:	-9.892	yaw rate:	-9.350	Roll:	1.562	Pitch:	1.183	Yaw:	-13.654	Thrust:	0.000
Time:	2.555	Roll Set Point:	-0.061	Pitch Set Point:	-0.040	Yaw Set Point:	0.174	X_WP:	0.000	Y_WP:	0.000	Y_WP:	-0.100	X:	0.032	Y:	0.017	Z:	0.048	yaw:	-9.996	yaw rate:	10.431	Roll:	1.417	Pitch:	1.207	Yaw:	-18.639	Thrust:	0.000
Time:	2.566	Roll Set Point:	-0.061	Pitch Set Point:	-0.040	Yaw Set Point:	0.174	X_WP:	0.000	Y_WP:	0.000	Y_WP:	-0.100	X:	0.032	Y:	0.017	Z:	0.048	yaw:	-9.974	yaw rate:	-2.187	Roll:	1.564	Pitch:	1.190	Yaw:	-15.615	Thrust:	0.000
Time:	2.582	Roll Set Point:	-0.061	Pitch Set Point:	-0.040	Yaw Set Point:	0.174	X_WP:	0.000	Y_WP:	0.000	Y_WP:	-0.100	X:	0.032	Y:	0.017	Z:	0.048	yaw:	-9.979	yaw rate:	0.481	Roll:	2.082	Pitch:	1.682	Yaw:	-17.324	Thrust:	0.000
Time:	2.597	Roll Set Point:	-0.061	Pitch Set Point:	-0.040	Yaw Set Point:	0.174	X_WP:	0.000	Y_WP:	0.000	Y_WP:	-0.100	X:	0.032	Y:	0.017	Z:	0.048	yaw:	-9.995	yaw rate:	1.562	Roll:	1.982	Pitch:	1.512	Yaw:	-17.235	Thrust:	0.000
Time:	2.608	Roll Set Point:	-0.061	Pitch Set Point:	-0.040	Yaw Set Point:	0.174	X_WP:	0.000	Y_WP:	0.000	Y_WP:	-0.100	X:	0.032	Y:	0.017	Z:	0.048	yaw:	-9.981	yaw rate:	-0.884	Roll:	1.538	Pitch:	1.197	Yaw:	-15.691	Thrust:	0.000
Time:	2.619	Roll Set Point:	-0.061	Pitch Set Point:	-0.040	Yaw Set Point:	0.174	X_WP:	0.000	Y_WP:	0.000	Y_WP:	-0.100	X:	0.032	Y:	0.017	Z:	0.048	yaw:	-9.970	yaw rate:	-1.068	Roll:	1.426	Pitch:	1.178	Yaw:	-15.763	Thrust:	0.000
Time:	2.630	Roll Set Point:	-0.061	Pitch Set Point:	-0.040	Yaw Set Point:	0.174	X_WP:	0.000	Y_WP:	0.000	Y_WP:	-0.100	X:	0.032	Y:	0.017	Z:	0.048	yaw:	-9.982	yaw rate:	1.213	Roll:	1.565	Pitch:	1.207	Yaw:	-16.396	Thrust:	0.000
Time:	2.642	Roll Set Point:	-0.061	Pitch Set Point:	-0.040	Yaw Set Point:	0.175	X_WP:	0.000	Y_WP:	0.000	Y_WP:	-0.100	X:	0.032	Y:	0.017	Z:	0.048	yaw:	-10.012	yaw rate:	2.963	Roll:	1.614	Pitch:	1.348	Yaw:	-17.110	Thrust:	0.000
Time:	2.665	Roll Set Point:	-0.061	Pitch Set Point:	-0.040	Yaw Set Point:	0.174	X_WP:	0.000	Y_WP:	0.000	Y_WP:	-0.100	X:	0.032	Y:	0.017	Z:	0.048	yaw:	-9.962	yaw rate:	-5.001	Roll:	2.846	Pitch:	2.233	Yaw:	-17.860	Thrust:	0.000
Time:	2.675	Roll Set Point:	-0.061	Pitch Set Point:	-0.040	Yaw Set Point:	0.174	X_WP:	0.000	Y_WP:	0.000	Y_WP:	-0.100	X:	0.032	Y:	0.017	Z:	0.048	yaw:	-9.983	yaw rate:	-2.716	Roll:	1.682	Pitch:	1.233	Yaw:	-16.571	Thrust:	0.000
Time:	2.686	Roll Set Point:	-0.061	Pitch Set Point:	-0.040	Yaw Set Point:	0.175	X_WP:	0.000	Y_WP:	0.000	Y_WP:	-0.100	X:	0.032	Y:	0.017	Z:	0.048	yaw:	-10.005	yaw rate:	2.209	Roll:	1.509	Pitch:	1.235	Yaw:	-16.701	Thrust:	0.000
Time:	2.698	Roll Set Point:	-0.062	Pitch Set Point:	-0.040	Yaw Set Point:	0.169	X_WP:	0.000	Y_WP:	0.000	Y_WP:	-0.100	X:	0.033	Y:	0.017	Z:	0.048	yaw:	-9.709	yaw rate:	-29.611	Roll:	1.712	Pitch:	1.230	Yaw:	-9.087	Thrust:	0.000
Time:	2.708	Roll Set Point:	-0.061	Pitch Set Point:	-0.040	Yaw Set Point:	0.174	X_WP:	0.000	Y_WP:	0.000	Y_WP:	-0.100	X:	0.032	Y:	0.017	Z:	0.048	yaw:	-9.961	yaw rate:	25.230	Roll:	1.488	Pitch:	1.246	Yaw:	-22.331	Thrust:	0.000
Time:	2.728	Roll Set Point:	-0.061	Pitch Set Point:	-0.040	Yaw Set Point:	0.174	X_WP:	0.000	Y_WP:	0.000	Y_WP:	-0.100	X:	0.032	Y:	0.017	Z:	0.048	yaw:	-9.985	yaw rate:	2.360	Roll:	1.535	Pitch:	1.297	Yaw:	-18.078	Thrust:	0.000
Time:	2.740	Roll Set Point:	-0.061	Pitch Set Point:	-0.040	Yaw Set Point:	0.174	X_WP:	0.000	Y_WP:	0.000	Y_WP:	-0.100	X:	0.032	Y:	0.017	Z:	0.048	yaw:	-9.997	yaw rate:	0.546	Roll:	2.806	Pitch:	2.118	Yaw:	-16.766	Thrust:	0.000
Time:	2.751	Roll Set Point:	-0.061	Pitch Set Point:	-0.040	Yaw Set Point:	0.174	X_WP:	0.000	Y_WP:	0.000	Y_WP:	-0.100	X:	0.032	Y:	0.017	Z:	0.048	yaw:	-9.982	yaw rate:	-1.471	Roll:	1.621	Pitch:	1.261	Yaw:	-15.909	Thrust:	0.000
Time:	2.762	Roll Set Point:	-0.061	Pitch Set Point:	-0.040	Yaw Set Point:	0.175	X_WP:	0.000	Y_WP:	0.000	Y_WP:	-0.100	X:	0.032	Y:	0.017	Z:	0.048	yaw:	-10.011	yaw rate:	2.827	Roll:	1.598	Pitch:	1.310	Yaw:	-16.854	Thrust:	0.000
Time:	2.774	Roll Set Point:	-0.061	Pitch Set Point:	-0.040	Yaw Set Point:	0.174	X_WP:	0.000	Y_WP:	0.000	Y_WP:	-0.100	X:	0.032	Y:	0.017	Z:	0.048	yaw:	-9.992	yaw rate:	-1.838	Roll:	1.796	Pitch:	1.369	Yaw:	-15.973	Thrust:	0.000
Time:	2.796	Roll Set Point:	-0.061	Pitch Set Point:	-0.040	Yaw Set Point:	0.174	X_WP:	0.000	Y_WP:	0.000	Y_WP:	-0.100	X:	0.032	Y:	0.017	Z:	0.048	yaw:	-9.979	yaw rate:	-1.327	Roll:	2.626	Pitch:	2.204	Yaw:	-18.122	Thrust:	0.000
Time:	2.806	Roll Set Point:	-0.061	Pitch Set Point:	-0.040	Yaw Set Point:	0.174	X_WP:	0.000	Y_WP:	0.000	Y_WP:	-0.100	X:	0.032	Y:	0.017	Z:	0.048	yaw:	-9.992	yaw rate:	-0.692	Roll:	1.809	Pitch:	1.279	Yaw:	-16.293	Thrust:	0.000
Time:	2.817	Roll Set Point:	-0.061	Pitch Set Point:	-0.040	Yaw Set Point:	0.174	X_WP:	0.000	Y_WP:	0.000	Y_WP:	-0.100	X:	0.032	Y:	0.017	Z:	0.048	yaw:	-9.974	yaw rate:	-1.763	Roll:	1.530	Pitch:	1.247	Yaw:	-15.590	Thrust:	0.000
Time:	2.829	Roll Set Point:	-0.061	Pitch Set Point:	-0.040	Yaw Set Point:	0.173	X_WP:	0.000	Y_WP:	0.000	Y_WP:	-0.100	X:	0.032	Y:	0.017	Z:	0.048	yaw:	-9.892	yaw rate:	-8.243	Roll:	1.702	Pitch:	1.298	Yaw:	-14.192	Thrust:	0.000
Time:	2.841	Roll Set Point:	-0.061	Pitch Set Point:	-0.040	Yaw Set Point:	0.174	X_WP:	0.000	Y_WP:	0.000	Y_WP:	-0.100	X:	0.032	Y:	0.017	Z:	0.048	yaw:	-9.972	yaw rate:	8.008	Roll:	1.742	Pitch:	1.477	Yaw:	-18.105	Thrust:	0.000
Time:	2.864	Roll Set Point:	-0.061	Pitch Set Point:	-0.040	Yaw Set Point:	0.175	X_WP:	0.000	Y_WP:	0.000	Y_WP:	-0.100	X:	0.032	Y:	0.017	Z:	0.048	yaw:	-10.022	yaw rate:	5.018	Roll:	3.087	Pitch:	2.421	Yaw:	-19.178	Thrust:	0.000
Time:	2.875	Roll Set Point:	-0.061	Pitch Set Point:	-0.040	Yaw Set Point:	0.174	X_WP:	0.000	Y_WP:	0.000	Y_WP:	-0.100	X:	0.032	Y:	0.017	Z:	0.048	yaw:	-9.997	yaw rate:	1.735	Roll:	1.908	Pitch:	1.396	Yaw:	-15.701	Thrust:	0.000
Time:	2.887	Roll Set Point:	-0.061	Pitch Set Point:	-0.040	Yaw Set Point:	0.173	X_WP:	0.000	Y_WP:	0.000	Y_WP:	-0.100	X:	0.032	Y:	0.017	Z:	0.048	yaw:	-9.901	yaw rate:	-9.653	Roll:	1.701	Pitch:	1.300	Yaw:	-13.944	Thrust:	0.000
Time:	2.897	Roll Set Point:	-0.061	Pitch Set Point:	-0.040	Yaw Set Point:	0.174	X_WP:	0.000	Y_WP:	0.000	Y_WP:	-0.100	X:	0.032	Y:	0.017	Z:	0.048	yaw:	-9.984	yaw rate:	8.338	Roll:	1.583	Pitch:	1.281	Yaw:	-18.120	Thrust:	0.000
Time:	2.908	Roll Set Point:	-0.061	Pitch Set Point:	-0.040	Yaw Set Point:	0.175	X_WP:	0.000	Y_WP:	0.000	Y_WP:	-0.100	X:	0.032	Y:	0.017	Z:	0.048	yaw:	-10.005	yaw rate:	2.078	Roll:	1.618	Pitch:	1.284	Yaw:	-16.673	Thrust:	0.000
Time:	2.929	Roll Set Point:	-0.061	Pitch Set Point:	-0.040	Yaw Set Point:	0.174	X_WP:	0.000	Y_WP:	0.000	Y_WP:	-0.100	X:	0.032	Y:	0.017	Z:	0.048	yaw:	-9.972	yaw rate:	-3.343	Roll:	2.442	Pitch:	2.120	Yaw:	-17.501	Thrust:	0.000
Time:	2.941	Roll Set Point:	-0.061	Pitch Set Point:	-0.040	Yaw Set Point:	0.175	X_WP:	0.000	Y_WP:	0.000	Y_WP:	-0.100	X:	0.032	Y:	0.017	Z:	0.048	yaw:	-10.027	yaw rate:	5.524	Roll:	2.280	Pitch:	1.593	Yaw:	-17.570	Thrust:	0.000
Time:	2.952	Roll Set Point:	-0.061	Pitch Set Point:	-0.040	Yaw Set Point:	0.174	X_WP:	0.000	Y_WP:	0.000	Y_WP:	-0.100	X:	0.032	Y:	0.017	Z:	0.048	yaw:	-9.991	yaw rate:	0.113	Roll:	1.714	Pitch:	1.337	Yaw:	-15.452	Thrust:	0.000
Time:	2.963	Roll Set Point:	-0.061	Pitch Set Point:	-0.040	Yaw Set Point:	0.175	X_WP:	0.000	Y_WP:	0.000	Y_WP:	-0.100	X:	0.032	Y:	0.017	Z:	0.048	yaw:	-10.006	yaw rate:	1.496	Roll:	1.711	Pitch:	1.352	Yaw:	-16.538	Thrust:	0.000
Time:	2.976	Roll Set Point:	-0.061	Pitch Set Point:	-0.040	Yaw Set Point:	0.175	X_WP:	0.000	Y_WP:	0.000	Y_WP:	-0.100	X:	0.032	Y:	0.017	Z:	0.048	yaw:	-10.000	yaw rate:	-0.658	Roll:	1.892	Pitch:	1.601	Yaw:	-16.439	Thrust:	0.000
Time:	2.998	Roll Set Point:	-0.061	Pitch Set Point:	-0.040	Yaw Set Point:	0.173	X_WP:	0.000	Y_WP:	0.000	Y_WP:	-0.100	X:	0.032	Y:	0.017	Z:	0.048	yaw:	-9.903	yaw rate:	-9.661	Roll:	3.249	Pitch:	2.433	Yaw:	-17.134	Thrust:	0.000
Time:	3.009	Roll Set Point:	-0.061	Pitch Set Point:	-0.040	Yaw Set Point:	0.174	X_WP:	0.000	Y_WP:	0.000	Y_WP:	1.000	X:	0.032	Y:	0.017	Z:	0.048	yaw:	-9.991	yaw rate:	-0.255	Roll:	1.683	Pitch:	1.347	Yaw:	-18.238	Thrust:	100.000
Time:	3.020	Roll Set Point:	-0.061	Pitch Set Point:	-0.040	Yaw Set Point:	0.173	X_WP:	0.000	Y_WP:	0.000	Y_WP:	1.000	X:	0.032	Y:	0.017	Z:	0.048	yaw:	-9.921	yaw rate:	-6.994	Roll:	1.747	Pitch:	1.403	Yaw:	-14.219	Thrust:	53.033
Time:	3.031	Roll Set Point:	-0.061	Pitch Set Point:	-0.040	Yaw Set Point:	0.174	X_WP:	0.000	Y_WP:	0.000	Y_WP:	1.000	X:	0.032	Y:	0.017	Z:	0.048	yaw:	-9.963	yaw rate:	4.253	Roll:	1.724	Pitch:	1.374	Yaw:	-17.127	Thrust:	54.550
Time:	3.043	Roll Set Point:	-0.061	Pitch Set Point:	-0.040	Yaw Set Point:	0.174	X_WP:	0.000	Y_WP:	0.000	Y_WP:	1.000	X:	0.032	Y:	0.017	Z:	0.048	yaw:	-9.952	yaw rate:	-1.121	Roll:	1.997	Pitch:	1.483	Yaw:	-16.169	Thrust:	56.569
Time:	3.065	Roll Set Point:	-0.061	Pitch Set Point:	-0.040	Yaw Set Point:	0.174	X_WP:	0.000	Y_WP:	0.000	Y_WP:	1.000	X:	0.032	Y:	0.017	Z:	0.048	yaw:	-9.951	yaw rate:	-0.072	Roll:	3.046	Pitch:	2.437	Yaw:	-18.102	Thrust:	60.668
Time:	3.075	Roll Set Point:	-0.061	Pitch Set Point:	-0.040	Yaw Set Point:	0.172	X_WP:	0.000	Y_WP:	0.000	Y_WP:	1.000	X:	0.032	Y:	0.017	Z:	0.048	yaw:	-9.878	yaw rate:	-35.873	Roll:	1.789	Pitch:	1.333	Yaw:	-14.157	Thrust:	58.099
Time:	3.086	Roll Set Point:	-0.061	Pitch Set Point:	-0.040	Yaw Set Point:	0.173	X_WP:	0.000	Y_WP:	0.000	Y_WP:	1.000	X:	0.032	Y:	0.017	Z:	0.048	yaw:	-9.916	yaw rate:	3.729	Roll:	1.625	Pitch:	1.330	Yaw:	-16.916	Thrust:	59.363
Time:	3.097	Roll Set Point:	-0.061	Pitch Set Point:	-0.040	Yaw Set Point:	0.172	X_WP:	0.000	Y_WP:	0.000	Y_WP:	1.000	X:	0.032	Y:	0.017	Z:	0.048	yaw:	-9.876	yaw rate:	-3.929	Roll:	1.678	Pitch:	1.307	Yaw:	-14.928	Thrust:	60.067
Time:	3.109	Roll Set Point:	-0.061	Pitch Set Point:	-0.040	Yaw Set Point:	0.174	X_WP:	0.000	Y_WP:	0.000	Y_WP:	1.000	X:	0.032	Y:	0.017	Z:	0.048	yaw:	-9.973	yaw rate:	9.656	Roll:	1.864	Pitch:	1.466	Yaw:	-18.422	Thrust:	62.943
Time:	3.129	Roll Set Point:	-0.061	Pitch Set Point:	-0.040	Yaw Set Point:	0.173	X_WP:	0.000	Y_WP:	0.000	Y_WP:	1.000	X:	0.032	Y:	0.017	Z:	0.048	yaw:	-9.940	yaw rate:	-3.321	Roll:	2.867	Pitch:	2.285	Yaw:	-17.568	Thrust:	72.570
Time:	3.140	Roll Set Point:	-0.061	Pitch Set Point:	-0.040	Yaw Set Point:	0.172	X_WP:	0.000	Y_WP:	0.000	Y_WP:	1.000	X:	0.032	Y:	0.017	Z:	0.048	yaw:	-9.871	yaw rate:	-6.888	Roll:	2.086	Pitch:	1.587	Yaw:	-14.529	Thrust:	65.460
Time:	3.150	Roll Set Point:	-0.061	Pitch Set Point:	-0.040	Yaw Set Point:	0.172	X_WP:	0.000	Y_WP:	0.000	Y_WP:	1.000	X:	0.032	Y:	0.017	Z:	0.048	yaw:	-9.857	yaw rate:	-1.392	Roll:	1.640	Pitch:	1.369	Yaw:	-15.522	Thrust:	65.395
Time:	3.165	Roll Set Point:	-0.061	Pitch Set Point:	-0.040	Yaw Set Point:	0.175	X_WP:	0.000	Y_WP:	0.000	Y_WP:	1.000	X:	0.032	Y:	0.017	Z:	0.048	yaw:	-10.037	yaw rate:	-0.254	Roll:	1.766	Pitch:	1.337	Yaw:	-20.183	Thrust:	66.600
Time:	3.176	Roll Set Point:	-0.061	Pitch Set Point:	-0.040	Yaw Set Point:	0.172	X_WP:	0.000	Y_WP:	0.000	Y_WP:	1.000	X:	0.032	Y:	0.017	Z:	0.048	yaw:	-9.882	yaw rate:	-15.554	Roll:	2.171	Pitch:	1.686	Yaw:	-12.313	Thrust:	71.313
Time:	3.191	Roll Set Point:	-0.061	Pitch Set Point:	-0.040	Yaw Set Point:	0.171	X_WP:	0.000	Y_WP:	0.000	Y_WP:	1.000	X:	0.032	Y:	0.017	Z:	0.049	yaw:	-9.805	yaw rate:	-7.624	Roll:	2.022	Pitch:	1.853	Yaw:	-15.524	Thrust:	76.220
Time:	3.203	Roll Set Point:	-0.061	Pitch Set Point:	-0.040	Yaw Set Point:	0.171	X_WP:	0.000	Y_WP:	0.000	Y_WP:	1.000	X:	0.032	Y:	0.017	Z:	0.049	yaw:	-9.783	yaw rate:	-2.258	Roll:	2.381	Pitch:	1.736	Yaw:	-15.569	Thrust:	73.984
Time:	3.214	Roll Set Point:	-0.061	Pitch Set Point:	-0.040	Yaw Set Point:	0.163	X_WP:	0.000	Y_WP:	0.000	Y_WP:	1.000	X:	0.032	Y:	0.018	Z:	0.049	yaw:	-9.336	yaw rate:	-44.735	Roll:	1.906	Pitch:	1.329	Yaw:	-4.157	Thrust:	68.851
Time:	3.225	Roll Set Point:	-0.061	Pitch Set Point:	-0.040	Yaw Set Point:	0.164	X_WP:	0.000	Y_WP:	0.000	Y_WP:	1.000	X:	0.032	Y:	0.018	Z:	0.050	yaw:	-9.391	yaw rate:	5.577	Roll:	1.923	Pitch:	1.488	Yaw:	-16.691	Thrust:	73.187
Time:	3.236	Roll Set Point:	-0.061	Pitch Set Point:	-0.040	Yaw Set Point:	0.161	X_WP:	0.000	Y_WP:	0.000	Y_WP:	1.000	X:	0.032	Y:	0.018	Z:	0.050	yaw:	-9.253	yaw rate:	-13.804	Roll:	1.837	Pitch:	1.449	Yaw:	-11.622	Thrust:	70.499
Time:	3.252	Roll Set Point:	-0.061	Pitch Set Point:	-0.040	Yaw Set Point:	0.161	X_WP:	0.000	Y_WP:	0.000	Y_WP:	1.000	X:	0.032	Y:	0.018	Z:	0.051	yaw:	-9.243	yaw rate:	-1.040	Roll:	1.825	Pitch:	1.525	Yaw:	-15.525	Thrust:	77.815
Time:	3.266	Roll Set Point:	-0.062	Pitch Set Point:	-0.040	Yaw Set Point:	0.148	X_WP:	0.000	Y_WP:	0.000	Y_WP:	1.000	X:	0.032	Y:	0.018	Z:	0.055	yaw:	-8.493	yaw rate:	-45.401	Roll:	2.877	Pitch:	2.120	Yaw:	-1.818	Thrust:	75.339
Time:	3.277	Roll Set Point:	-0.061	Pitch Set Point:	-0.040	Yaw Set Point:	0.148	X_WP:	0.000	Y_WP:	0.000	Y_WP:	1.000	X:	0.032	Y:	0.018	Z:	0.058	yaw:	-8.488	yaw rate:	-0.490	Roll:	2.002	Pitch:	1.496	Yaw:	-14.050	Thrust:	70.846
Time:	3.288	Roll Set Point:	-0.062	Pitch Set Point:	-0.040	Yaw Set Point:	0.141	X_WP:	0.000	Y_WP:	0.000	Y_WP:	1.000	X:	0.032	Y:	0.018	Z:	0.060	yaw:	-8.097	yaw rate:	-39.150	Roll:	1.876	Pitch:	1.322	Yaw:	-4.208	Thrust:	66.852
Time:	3.298	Roll Set Point:	-0.062	Pitch Set Point:	-0.040	Yaw Set Point:	0.139	X_WP:	0.000	Y_WP:	0.000	Y_WP:	1.000	X:	0.032	Y:	0.018	Z:	0.063	yaw:	-7.937	yaw rate:	-15.919	Roll:	1.843	Pitch:	1.367	Yaw:	-8.930	Thrust:	67.230
Time:	3.308	Roll Set Point:	-0.062	Pitch Set Point:	-0.040	Yaw Set Point:	0.137	X_WP:	0.000	Y_WP:	0.000	Y_WP:	1.000	X:	0.032	Y:	0.018	Z:	0.066	yaw:	-7.860	yaw rate:	-7.714	Roll:	1.826	Pitch:	1.402	Yaw:	-11.046	Thrust:	66.049
Time:	3.330	Roll Set Point:	-0.062	Pitch Set Point:	-0.040	Yaw Set Point:	0.134	X_WP:	0.000	Y_WP:	0.000	Y_WP:	1.000	X:	0.032	Y:	0.018	Z:	0.069	yaw:	-7.684	yaw rate:	-17.673	Roll:	2.945	Pitch:	2.601	Yaw:	-13.045	Thrust:	100.000
Time:	3.344	Roll Set Point:	-0.061	Pitch Set Point:	-0.040	Yaw Set Point:	0.129	X_WP:	0.000	Y_WP:	0.000	Y_WP:	1.000	X:	0.032	Y:	0.018	Z:	0.077	yaw:	-7.419	yaw rate:	-28.006	Roll:	2.428	Pitch:	1.726	Yaw:	-7.354	Thrust:	63.015
Time:	3.355	Roll Set Point:	-0.061	Pitch Set Point:	-0.040	Yaw Set Point:	0.126	X_WP:	0.000	Y_WP:	0.000	Y_WP:	1.000	X:	0.032	Y:	0.018	Z:	0.081	yaw:	-7.193	yaw rate:	-22.658	Roll:	2.115	Pitch:	1.571	Yaw:	-7.824	Thrust:	70.414
Time:	3.366	Roll Set Point:	-0.061	Pitch Set Point:	-0.040	Yaw Set Point:	0.126	X_WP:	0.000	Y_WP:	0.000	Y_WP:	1.000	X:	0.032	Y:	0.018	Z:	0.086	yaw:	-7.246	yaw rate:	5.297	Roll:	1.898	Pitch:	1.431	Yaw:	-13.582	Thrust:	69.233
Time:	3.382	Roll Set Point:	-0.061	Pitch Set Point:	-0.040	Yaw Set Point:	0.112	X_WP:	0.000	Y_WP:	0.000	Y_WP:	1.000	X:	0.032	Y:	0.018	Z:	0.090	yaw:	-6.440	yaw rate:	-80.567	Roll:	1.945	Pitch:	1.507	Yaw:	3.854	Thrust:	71.656
Time:	3.397	Roll Set Point:	-0.060	Pitch Set Point:	-0.040	Yaw Set Point:	0.112	X_WP:	0.000	Y_WP:	0.000	Y_WP:	1.000	X:	0.031	Y:	0.018	Z:	0.095	yaw:	-6.420	yaw rate:	-2.022	Roll:	2.965	Pitch:	2.411	Yaw:	-12.062	Thrust:	97.666
Time:	3.409	Roll Set Point:	-0.060	Pitch Set Point:	-0.039	Yaw Set Point:	0.096	X_WP:	0.000	Y_WP:	0.000	Y_WP:	1.000	X:	0.031	Y:	0.018	Z:	0.113	yaw:	-5.472	yaw rate:	-37.048	Roll:	2.191	Pitch:	1.286	Yaw:	10.041	Thrust:	23.341
Time:	3.420	Roll Set Point:	-0.059	Pitch Set Point:	-0.039	Yaw Set Point:	0.091	X_WP:	0.000	Y_WP:	0.000	Y_WP:	1.000	X:	0.030	Y:	0.018	Z:	0.119	yaw:	-5.197	yaw rate:	-27.543	Roll:	1.824	Pitch:	1.586	Yaw:	-2.978	Thrust:	62.247
Time:	3.432	Roll Set Point:	-0.058	Pitch Set Point:	-0.039	Yaw Set Point:	0.085	X_WP:	0.000	Y_WP:	0.000	Y_WP:	1.000	X:	0.030	Y:	0.018	Z:	0.126	yaw:	-4.885	yaw rate:	-31.226	Roll:	1.885	Pitch:	1.476	Yaw:	-1.169	Thrust:	59.455
Time:	3.444	Roll Set Point:	-0.058	Pitch Set Point:	-0.039	Yaw Set Point:	0.081	X_WP:	0.000	Y_WP:	0.000	Y_WP:	1.000	X:	0.030	Y:	0.018	Z:	0.133	yaw:	-4.627	yaw rate:	-25.775	Roll:	1.906	Pitch:	1.487	Yaw:	-3.385	Thrust:	68.759
Time:	3.464	Roll Set Point:	-0.057	Pitch Set Point:	-0.039	Yaw Set Point:	0.083	X_WP:	0.000	Y_WP:	0.000	Y_WP:	1.000	X:	0.029	Y:	0.018	Z:	0.140	yaw:	-4.784	yaw rate:	15.724	Roll:	3.312	Pitch:	2.713	Yaw:	-12.902	Thrust:	100.000
Time:	3.478	Roll Set Point:	-0.055	Pitch Set Point:	-0.039	Yaw Set Point:	0.071	X_WP:	0.000	Y_WP:	0.000	Y_WP:	1.000	X:	0.028	Y:	0.018	Z:	0.162	yaw:	-4.082	yaw rate:	-42.912	Roll:	1.912	Pitch:	1.420	Yaw:	7.153	Thrust:	4.654
Time:	3.491	Roll Set Point:	-0.054	Pitch Set Point:	-0.039	Yaw Set Point:	0.063	X_WP:	0.000	Y_WP:	0.000	Y_WP:	1.000	X:	0.028	Y:	0.018	Z:	0.170	yaw:	-3.631	yaw rate:	-45.094	Roll:	2.046	Pitch:	1.748	Yaw:	0.617	Thrust:	77.489
Time:	3.503	Roll Set Point:	-0.054	Pitch Set Point:	-0.039	Yaw Set Point:	0.071	X_WP:	0.000	Y_WP:	0.000	Y_WP:	1.000	X:	0.028	Y:	0.018	Z:	0.178	yaw:	-4.092	yaw rate:	46.081	Roll:	2.094	Pitch:	1.724	Yaw:	-18.095	Thrust:	73.759
Time:	3.531	Roll Set Point:	-0.053	Pitch Set Point:	-0.038	Yaw Set Point:	0.060	X_WP:	0.000	Y_WP:	0.000	Y_WP:	1.000	X:	0.027	Y:	0.018	Z:	0.186	yaw:	-3.417	yaw rate:	-67.486	Roll:	2.549	Pitch:	2.105	Yaw:	-3.882	Thrust:	100.000
Time:	3.542	Roll Set Point:	-0.049	Pitch Set Point:	-0.038	Yaw Set Point:	0.052	X_WP:	0.000	Y_WP:	0.000	Y_WP:	1.000	X:	0.025	Y:	0.018	Z:	0.219	yaw:	-2.985	yaw rate:	-16.202	Roll:	3.539	Pitch:	2.924	Yaw:	2.700	Thrust:	0.000
