Time:	0.032	Roll Set Point:	-0.760	Pitch Set Point:	-0.121	Yaw Set Point:	-0.064	X_WP:	0.000	Y_WP:	0.000	Y_WP:	0.500	X:	0.378	Y:	0.073	Z:	0.057	yaw:	3.653	yaw rate:	0.643	Roll:	15.271	Pitch:	1.933	Yaw:	5.100	Thrust:	24.358
Time:	0.059	Roll Set Point:	-0.760	Pitch Set Point:	-0.121	Yaw Set Point:	-0.064	X_WP:	0.000	Y_WP:	0.000	Y_WP:	0.500	X:	0.378	Y:	0.073	Z:	0.057	yaw:	3.666	yaw rate:	-1.328	Roll:	15.574	Pitch:	1.760	Yaw:	5.284	Thrust:	25.813
Time:	0.071	Roll Set Point:	-0.760	Pitch Set Point:	-0.122	Yaw Set Point:	-0.062	X_WP:	0.000	Y_WP:	0.000	Y_WP:	0.500	X:	0.378	Y:	0.073	Z:	0.057	yaw:	3.557	yaw rate:	-4.728	Roll:	16.044	Pitch:	3.162	Yaw:	2.624	Thrust:	25.664
Time:	0.082	Roll Set Point:	-0.760	Pitch Set Point:	-0.122	Yaw Set Point:	-0.061	X_WP:	0.000	Y_WP:	0.000	Y_WP:	0.500	X:	0.378	Y:	0.073	Z:	0.057	yaw:	3.484	yaw rate:	7.292	Roll:	15.801	Pitch:	3.438	Yaw:	3.182	Thrust:	25.739
Time:	0.093	Roll Set Point:	-0.759	Pitch Set Point:	-0.122	Yaw Set Point:	-0.061	X_WP:	0.000	Y_WP:	0.000	Y_WP:	0.500	X:	0.378	Y:	0.073	Z:	0.057	yaw:	3.490	yaw rate:	-0.527	Roll:	15.963	Pitch:	1.829	Yaw:	5.053	Thrust:	26.739
Time:	0.106	Roll Set Point:	-0.759	Pitch Set Point:	-0.123	Yaw Set Point:	-0.060	X_WP:	0.000	Y_WP:	0.000	Y_WP:	0.500	X:	0.378	Y:	0.073	Z:	0.057	yaw:	3.428	yaw rate:	6.182	Roll:	16.306	Pitch:	3.675	Yaw:	3.626	Thrust:	28.123
Time:	0.125	Roll Set Point:	-0.760	Pitch Set Point:	-0.122	Yaw Set Point:	-0.061	X_WP:	0.000	Y_WP:	0.000	Y_WP:	0.500	X:	0.378	Y:	0.072	Z:	0.057	yaw:	3.512	yaw rate:	-8.437	Roll:	17.649	Pitch:	0.958	Yaw:	6.203	Thrust:	30.311
Time:	0.136	Roll Set Point:	-0.760	Pitch Set Point:	-0.122	Yaw Set Point:	-0.061	X_WP:	0.000	Y_WP:	0.000	Y_WP:	0.500	X:	0.378	Y:	0.072	Z:	0.057	yaw:	3.486	yaw rate:	-2.781	Roll:	16.945	Pitch:	2.670	Yaw:	4.347	Thrust:	28.466
Time:	0.146	Roll Set Point:	-0.760	Pitch Set Point:	-0.123	Yaw Set Point:	-0.058	X_WP:	0.000	Y_WP:	0.000	Y_WP:	0.500	X:	0.378	Y:	0.073	Z:	0.057	yaw:	3.352	yaw rate:	13.432	Roll:	16.636	Pitch:	5.614	Yaw:	1.272	Thrust:	29.160
Time:	0.157	Roll Set Point:	-0.760	Pitch Set Point:	-0.122	Yaw Set Point:	-0.060	X_WP:	0.000	Y_WP:	0.000	Y_WP:	0.500	X:	0.378	Y:	0.073	Z:	0.057	yaw:	3.458	yaw rate:	-10.613	Roll:	17.012	Pitch:	-0.209	Yaw:	7.472	Thrust:	28.683
Time:	0.169	Roll Set Point:	-0.760	Pitch Set Point:	-0.122	Yaw Set Point:	-0.062	X_WP:	0.000	Y_WP:	0.000	Y_WP:	0.500	X:	0.378	Y:	0.072	Z:	0.057	yaw:	3.537	yaw rate:	-7.962	Roll:	17.724	Pitch:	0.746	Yaw:	6.784	Thrust:	31.440
Time:	0.190	Roll Set Point:	-0.760	Pitch Set Point:	-0.122	Yaw Set Point:	-0.062	X_WP:	0.000	Y_WP:	0.000	Y_WP:	0.500	X:	0.378	Y:	0.073	Z:	0.057	yaw:	3.524	yaw rate:	1.284	Roll:	19.863	Pitch:	2.802	Yaw:	5.040	Thrust:	36.574
Time:	0.202	Roll Set Point:	-0.760	Pitch Set Point:	-0.122	Yaw Set Point:	-0.060	X_WP:	0.000	Y_WP:	0.000	Y_WP:	0.500	X:	0.378	Y:	0.073	Z:	0.057	yaw:	3.456	yaw rate:	11.303	Roll:	17.630	Pitch:	3.653	Yaw:	3.463	Thrust:	31.610
Time:	0.213	Roll Set Point:	-0.760	Pitch Set Point:	-0.122	Yaw Set Point:	-0.061	X_WP:	0.000	Y_WP:	0.000	Y_WP:	0.500	X:	0.378	Y:	0.073	Z:	0.057	yaw:	3.494	yaw rate:	-3.847	Roll:	18.129	Pitch:	1.518	Yaw:	5.968	Thrust:	31.709
Time:	0.224	Roll Set Point:	-0.760	Pitch Set Point:	-0.124	Yaw Set Point:	-0.057	X_WP:	0.000	Y_WP:	0.000	Y_WP:	0.500	X:	0.378	Y:	0.073	Z:	0.057	yaw:	3.268	yaw rate:	22.602	Roll:	17.954	Pitch:	7.359	Yaw:	-0.343	Thrust:	33.080
Time:	0.237	Roll Set Point:	-0.759	Pitch Set Point:	-0.122	Yaw Set Point:	-0.060	X_WP:	0.000	Y_WP:	0.000	Y_WP:	0.500	X:	0.378	Y:	0.073	Z:	0.057	yaw:	3.455	yaw rate:	-18.696	Roll:	18.846	Pitch:	-1.261	Yaw:	8.895	Thrust:	35.356
Time:	0.258	Roll Set Point:	-0.759	Pitch Set Point:	-0.122	Yaw Set Point:	-0.061	X_WP:	0.000	Y_WP:	0.000	Y_WP:	0.500	X:	0.378	Y:	0.073	Z:	0.057	yaw:	3.500	yaw rate:	-4.458	Roll:	21.863	Pitch:	2.293	Yaw:	5.851	Thrust:	41.858
Time:	0.269	Roll Set Point:	-0.759	Pitch Set Point:	-0.122	Yaw Set Point:	-0.060	X_WP:	0.000	Y_WP:	0.000	Y_WP:	0.500	X:	0.378	Y:	0.073	Z:	0.057	yaw:	3.462	yaw rate:	1.712	Roll:	18.901	Pitch:	3.384	Yaw:	4.120	Thrust:	33.858
Time:	0.280	Roll Set Point:	-0.760	Pitch Set Point:	-0.121	Yaw Set Point:	-0.062	X_WP:	0.000	Y_WP:	0.000	Y_WP:	0.500	X:	0.378	Y:	0.072	Z:	0.057	yaw:	3.540	yaw rate:	-7.811	Roll:	19.068	Pitch:	0.415	Yaw:	7.093	Thrust:	34.600
Time:	0.290	Roll Set Point:	-0.759	Pitch Set Point:	-0.122	Yaw Set Point:	-0.062	X_WP:	0.000	Y_WP:	0.000	Y_WP:	0.500	X:	0.378	Y:	0.073	Z:	0.057	yaw:	3.533	yaw rate:	0.730	Roll:	18.738	Pitch:	2.768	Yaw:	4.995	Thrust:	34.438
Time:	0.302	Roll Set Point:	-0.759	Pitch Set Point:	-0.122	Yaw Set Point:	-0.061	X_WP:	0.000	Y_WP:	0.000	Y_WP:	0.500	X:	0.378	Y:	0.072	Z:	0.057	yaw:	3.491	yaw rate:	4.182	Roll:	19.468	Pitch:	3.151	Yaw:	4.118	Thrust:	36.423
Time:	0.320	Roll Set Point:	-0.759	Pitch Set Point:	-0.122	Yaw Set Point:	-0.061	X_WP:	0.000	Y_WP:	0.000	Y_WP:	0.500	X:	0.378	Y:	0.072	Z:	0.057	yaw:	3.480	yaw rate:	1.101	Roll:	20.491	Pitch:	3.113	Yaw:	5.213	Thrust:	45.511
Time:	0.334	Roll Set Point:	-0.759	Pitch Set Point:	-0.122	Yaw Set Point:	-0.061	X_WP:	0.000	Y_WP:	0.000	Y_WP:	0.500	X:	0.378	Y:	0.072	Z:	0.057	yaw:	3.504	yaw rate:	-2.431	Roll:	23.332	Pitch:	2.327	Yaw:	5.735	Thrust:	39.715
Time:	0.344	Roll Set Point:	-0.759	Pitch Set Point:	-0.122	Yaw Set Point:	-0.060	X_WP:	0.000	Y_WP:	0.000	Y_WP:	0.500	X:	0.378	Y:	0.073	Z:	0.057	yaw:	3.439	yaw rate:	6.842	Roll:	19.888	Pitch:	4.221	Yaw:	3.567	Thrust:	38.290
Time:	0.355	Roll Set Point:	-0.759	Pitch Set Point:	-0.122	Yaw Set Point:	-0.060	X_WP:	0.000	Y_WP:	0.000	Y_WP:	0.500	X:	0.378	Y:	0.072	Z:	0.057	yaw:	3.438	yaw rate:	0.099	Roll:	20.458	Pitch:	2.488	Yaw:	5.104	Thrust:	37.760
Time:	0.368	Roll Set Point:	-0.759	Pitch Set Point:	-0.123	Yaw Set Point:	-0.057	X_WP:	0.000	Y_WP:	0.000	Y_WP:	0.500	X:	0.378	Y:	0.073	Z:	0.057	yaw:	3.284	yaw rate:	15.364	Roll:	20.713	Pitch:	5.949	Yaw:	1.787	Thrust:	41.230
Time:	0.388	Roll Set Point:	-0.759	Pitch Set Point:	-0.122	Yaw Set Point:	-0.060	X_WP:	0.000	Y_WP:	0.000	Y_WP:	0.500	X:	0.378	Y:	0.072	Z:	0.057	yaw:	3.451	yaw rate:	-16.717	Roll:	24.666	Pitch:	0.954	Yaw:	7.673	Thrust:	50.846
Time:	0.398	Roll Set Point:	-0.759	Pitch Set Point:	-0.122	Yaw Set Point:	-0.061	X_WP:	0.000	Y_WP:	0.000	Y_WP:	0.500	X:	0.378	Y:	0.072	Z:	0.057	yaw:	3.519	yaw rate:	-6.719	Roll:	21.379	Pitch:	1.436	Yaw:	6.909	Thrust:	40.080
Time:	0.409	Roll Set Point:	-0.759	Pitch Set Point:	-0.122	Yaw Set Point:	-0.061	X_WP:	0.000	Y_WP:	0.000	Y_WP:	0.500	X:	0.378	Y:	0.072	Z:	0.058	yaw:	3.476	yaw rate:	1.801	Roll:	20.908	Pitch:	3.692	Yaw:	4.211	Thrust:	40.176
Time:	0.420	Roll Set Point:	-0.759	Pitch Set Point:	-0.122	Yaw Set Point:	-0.061	X_WP:	0.000	Y_WP:	0.000	Y_WP:	0.500	X:	0.378	Y:	0.072	Z:	0.058	yaw:	3.481	yaw rate:	-0.530	Roll:	20.275	Pitch:	2.575	Yaw:	5.363	Thrust:	40.061
Time:	0.430	Roll Set Point:	-0.759	Pitch Set Point:	-0.122	Yaw Set Point:	-0.061	X_WP:	0.000	Y_WP:	0.000	Y_WP:	0.500	X:	0.377	Y:	0.072	Z:	0.058	yaw:	3.469	yaw rate:	1.227	Roll:	21.224	Pitch:	2.990	Yaw:	4.924	Thrust:	40.601
Time:	0.444	Roll Set Point:	-0.758	Pitch Set Point:	-0.122	Yaw Set Point:	-0.061	X_WP:	0.000	Y_WP:	0.000	Y_WP:	0.500	X:	0.377	Y:	0.072	Z:	0.058	yaw:	3.490	yaw rate:	-2.166	Roll:	22.160	Pitch:	2.684	Yaw:	5.801	Thrust:	45.684
Time:	0.460	Roll Set Point:	-0.758	Pitch Set Point:	-0.122	Yaw Set Point:	-0.061	X_WP:	0.000	Y_WP:	0.000	Y_WP:	0.500	X:	0.377	Y:	0.072	Z:	0.058	yaw:	3.500	yaw rate:	-0.994	Roll:	25.006	Pitch:	3.131	Yaw:	5.689	Thrust:	51.613
Time:	0.472	Roll Set Point:	-0.757	Pitch Set Point:	-0.121	Yaw Set Point:	-0.062	X_WP:	0.000	Y_WP:	0.000	Y_WP:	0.500	X:	0.377	Y:	0.072	Z:	0.058	yaw:	3.536	yaw rate:	-3.570	Roll:	21.701	Pitch:	2.079	Yaw:	6.210	Thrust:	42.761
Time:	0.484	Roll Set Point:	-0.757	Pitch Set Point:	-0.121	Yaw Set Point:	-0.062	X_WP:	0.000	Y_WP:	0.000	Y_WP:	0.500	X:	0.376	Y:	0.072	Z:	0.059	yaw:	3.555	yaw rate:	-1.862	Roll:	22.539	Pitch:	2.769	Yaw:	5.865	Thrust:	45.690
Time:	0.495	Roll Set Point:	-0.756	Pitch Set Point:	-0.122	Yaw Set Point:	-0.061	X_WP:	0.000	Y_WP:	0.000	Y_WP:	0.500	X:	0.376	Y:	0.072	Z:	0.059	yaw:	3.478	yaw rate:	7.706	Roll:	21.593	Pitch:	4.559	Yaw:	3.597	Thrust:	44.798
Time:	0.509	Roll Set Point:	-0.755	Pitch Set Point:	-0.122	Yaw Set Point:	-0.059	X_WP:	0.000	Y_WP:	0.000	Y_WP:	0.500	X:	0.376	Y:	0.072	Z:	0.059	yaw:	3.408	yaw rate:	7.014	Roll:	23.501	Pitch:	4.454	Yaw:	4.065	Thrust:	50.075
Time:	0.524	Roll Set Point:	-0.755	Pitch Set Point:	-0.121	Yaw Set Point:	-0.064	X_WP:	0.000	Y_WP:	0.000	Y_WP:	0.500	X:	0.375	Y:	0.072	Z:	0.060	yaw:	3.640	yaw rate:	-23.262	Roll:	25.220	Pitch:	-0.263	Yaw:	9.919	Thrust:	50.649
Time:	0.534	Roll Set Point:	-0.752	Pitch Set Point:	-0.121	Yaw Set Point:	-0.064	X_WP:	0.000	Y_WP:	0.000	Y_WP:	0.500	X:	0.374	Y:	0.072	Z:	0.061	yaw:	3.653	yaw rate:	-5.918	Roll:	18.935	Pitch:	2.677	Yaw:	5.911	Thrust:	42.142
Time:	0.544	Roll Set Point:	-0.751	Pitch Set Point:	-0.120	Yaw Set Point:	-0.064	X_WP:	0.000	Y_WP:	0.000	Y_WP:	0.500	X:	0.374	Y:	0.072	Z:	0.061	yaw:	3.689	yaw rate:	-3.557	Roll:	20.607	Pitch:	1.971	Yaw:	6.555	Thrust:	42.990
Time:	0.556	Roll Set Point:	-0.750	Pitch Set Point:	-0.119	Yaw Set Point:	-0.066	X_WP:	0.000	Y_WP:	0.000	Y_WP:	0.500	X:	0.373	Y:	0.072	Z:	0.062	yaw:	3.805	yaw rate:	-11.654	Roll:	21.990	Pitch:	0.494	Yaw:	8.558	Thrust:	46.355
Time:	0.567	Roll Set Point:	-0.748	Pitch Set Point:	-0.122	Yaw Set Point:	-0.061	X_WP:	0.000	Y_WP:	0.000	Y_WP:	0.500	X:	0.372	Y:	0.072	Z:	0.062	yaw:	3.496	yaw rate:	30.906	Roll:	20.419	Pitch:	9.844	Yaw:	-1.549	Thrust:	45.497
Time:	0.587	Roll Set Point:	-0.747	Pitch Set Point:	-0.121	Yaw Set Point:	-0.064	X_WP:	0.000	Y_WP:	0.000	Y_WP:	0.500	X:	0.372	Y:	0.072	Z:	0.063	yaw:	3.640	yaw rate:	-14.388	Roll:	28.276	Pitch:	2.301	Yaw:	8.037	Thrust:	66.659
Time:	0.598	Roll Set Point:	-0.745	Pitch Set Point:	-0.120	Yaw Set Point:	-0.064	X_WP:	0.000	Y_WP:	0.000	Y_WP:	0.500	X:	0.371	Y:	0.072	Z:	0.063	yaw:	3.653	yaw rate:	-1.295	Roll:	24.192	Pitch:	2.955	Yaw:	6.003	Thrust:	48.298
Time:	0.608	Roll Set Point:	-0.744	Pitch Set Point:	-0.120	Yaw Set Point:	-0.064	X_WP:	0.000	Y_WP:	0.000	Y_WP:	0.500	X:	0.370	Y:	0.072	Z:	0.064	yaw:	3.643	yaw rate:	0.990	Roll:	20.662	Pitch:	3.075	Yaw:	5.369	Thrust:	45.280
Time:	0.619	Roll Set Point:	-0.743	Pitch Set Point:	-0.119	Yaw Set Point:	-0.067	X_WP:	0.000	Y_WP:	0.000	Y_WP:	0.500	X:	0.370	Y:	0.072	Z:	0.064	yaw:	3.845	yaw rate:	-20.203	Roll:	22.989	Pitch:	-0.833	Yaw:	10.783	Thrust:	46.906
Time:	0.629	Roll Set Point:	-0.742	Pitch Set Point:	-0.117	Yaw Set Point:	-0.073	X_WP:	0.000	Y_WP:	0.000	Y_WP:	0.500	X:	0.369	Y:	0.072	Z:	0.065	yaw:	4.177	yaw rate:	-33.138	Roll:	22.123	Pitch:	-4.335	Yaw:	14.668	Thrust:	48.737
Time:	0.642	Roll Set Point:	-0.740	Pitch Set Point:	-0.117	Yaw Set Point:	-0.072	X_WP:	0.000	Y_WP:	0.000	Y_WP:	0.500	X:	0.368	Y:	0.072	Z:	0.065	yaw:	4.151	yaw rate:	2.561	Roll:	23.096	Pitch:	4.378	Yaw:	6.015	Thrust:	54.215
Time:	0.659	Roll Set Point:	-0.738	Pitch Set Point:	-0.115	Yaw Set Point:	-0.078	X_WP:	0.000	Y_WP:	0.000	Y_WP:	0.500	X:	0.367	Y:	0.072	Z:	0.066	yaw:	4.490	yaw rate:	-33.942	Roll:	29.099	Pitch:	-1.409	Yaw:	12.750	Thrust:	63.371
Time:	0.670	Roll Set Point:	-0.731	Pitch Set Point:	-0.116	Yaw Set Point:	-0.078	X_WP:	0.000	Y_WP:	0.000	Y_WP:	0.500	X:	0.363	Y:	0.072	Z:	0.067	yaw:	4.470	yaw rate:	10.652	Roll:	14.148	Pitch:	4.756	Yaw:	6.480	Thrust:	47.154
Time:	0.682	Roll Set Point:	-0.729	Pitch Set Point:	-0.115	Yaw Set Point:	-0.078	X_WP:	0.000	Y_WP:	0.000	Y_WP:	0.500	X:	0.362	Y:	0.072	Z:	0.068	yaw:	4.490	yaw rate:	-1.961	Roll:	22.030	Pitch:	3.131	Yaw:	7.447	Thrust:	54.446
Time:	0.693	Roll Set Point:	-0.725	Pitch Set Point:	-0.117	Yaw Set Point:	-0.075	X_WP:	0.000	Y_WP:	0.000	Y_WP:	0.500	X:	0.360	Y:	0.072	Z:	0.067	yaw:	4.304	yaw rate:	18.549	Roll:	19.681	Pitch:	7.536	Yaw:	2.314	Thrust:	53.741
Time:	0.704	Roll Set Point:	-0.721	Pitch Set Point:	-0.118	Yaw Set Point:	-0.072	X_WP:	0.000	Y_WP:	0.000	Y_WP:	0.500	X:	0.358	Y:	0.072	Z:	0.067	yaw:	4.110	yaw rate:	19.438	Roll:	18.827	Pitch:	7.607	Yaw:	1.747	Thrust:	53.555
Time:	0.724	Roll Set Point:	-0.716	Pitch Set Point:	-0.119	Yaw Set Point:	-0.070	X_WP:	0.000	Y_WP:	0.000	Y_WP:	0.500	X:	0.356	Y:	0.072	Z:	0.067	yaw:	3.987	yaw rate:	12.306	Roll:	28.647	Pitch:	5.783	Yaw:	5.311	Thrust:	80.775
Time:	0.735	Roll Set Point:	-0.707	Pitch Set Point:	-0.119	Yaw Set Point:	-0.070	X_WP:	0.000	Y_WP:	0.000	Y_WP:	0.500	X:	0.351	Y:	0.072	Z:	0.066	yaw:	4.027	yaw rate:	-3.991	Roll:	14.450	Pitch:	3.561	Yaw:	7.318	Thrust:	59.562
Time:	0.745	Roll Set Point:	-0.702	Pitch Set Point:	-0.117	Yaw Set Point:	-0.076	X_WP:	0.000	Y_WP:	0.000	Y_WP:	0.500	X:	0.349	Y:	0.072	Z:	0.066	yaw:	4.344	yaw rate:	-31.663	Roll:	16.323	Pitch:	-3.691	Yaw:	15.031	Thrust:	53.832
Time:	0.756	Roll Set Point:	-0.696	Pitch Set Point:	-0.120	Yaw Set Point:	-0.068	X_WP:	0.000	Y_WP:	0.000	Y_WP:	0.500	X:	0.346	Y:	0.072	Z:	0.066	yaw:	3.909	yaw rate:	43.494	Roll:	13.860	Pitch:	13.761	Yaw:	-4.606	Thrust:	56.296
Time:	0.767	Roll Set Point:	-0.690	Pitch Set Point:	-0.119	Yaw Set Point:	-0.071	X_WP:	0.000	Y_WP:	0.000	Y_WP:	0.500	X:	0.343	Y:	0.072	Z:	0.066	yaw:	4.049	yaw rate:	-14.035	Roll:	17.023	Pitch:	1.332	Yaw:	9.777	Thrust:	57.814
Time:	0.783	Roll Set Point:	-0.684	Pitch Set Point:	-0.116	Yaw Set Point:	-0.080	X_WP:	0.000	Y_WP:	0.000	Y_WP:	0.500	X:	0.340	Y:	0.071	Z:	0.066	yaw:	4.556	yaw rate:	-50.722	Roll:	20.280	Pitch:	-4.504	Yaw:	16.468	Thrust:	64.746
Time:	0.795	Roll Set Point:	-0.671	Pitch Set Point:	-0.115	Yaw Set Point:	-0.082	X_WP:	0.000	Y_WP:	0.000	Y_WP:	0.500	X:	0.333	Y:	0.071	Z:	0.066	yaw:	4.708	yaw rate:	-66.341	Roll:	16.885	Pitch:	2.638	Yaw:	10.509	Thrust:	72.055
Time:	0.806	Roll Set Point:	-0.664	Pitch Set Point:	-0.117	Yaw Set Point:	-0.077	X_WP:	0.000	Y_WP:	0.000	Y_WP:	0.500	X:	0.330	Y:	0.071	Z:	0.066	yaw:	4.417	yaw rate:	29.120	Roll:	13.756	Pitch:	9.097	Yaw:	-0.201	Thrust:	57.027
Time:	0.816	Roll Set Point:	-0.657	Pitch Set Point:	-0.112	Yaw Set Point:	-0.091	X_WP:	0.000	Y_WP:	0.000	Y_WP:	0.500	X:	0.326	Y:	0.071	Z:	0.066	yaw:	5.234	yaw rate:	-81.729	Roll:	13.814	Pitch:	-13.131	Yaw:	28.454	Thrust:	57.810
Time:	0.827	Roll Set Point:	-0.649	Pitch Set Point:	-0.112	Yaw Set Point:	-0.090	X_WP:	0.000	Y_WP:	0.000	Y_WP:	0.500	X:	0.322	Y:	0.071	Z:	0.066	yaw:	5.162	yaw rate:	7.273	Roll:	12.436	Pitch:	4.933	Yaw:	6.249	Thrust:	58.361
Time:	0.840	Roll Set Point:	-0.641	Pitch Set Point:	-0.111	Yaw Set Point:	-0.093	X_WP:	0.000	Y_WP:	0.000	Y_WP:	0.500	X:	0.318	Y:	0.070	Z:	0.065	yaw:	5.341	yaw rate:	-17.884	Roll:	13.006	Pitch:	0.680	Yaw:	12.224	Thrust:	66.280
Time:	0.856	Roll Set Point:	-0.632	Pitch Set Point:	-0.111	Yaw Set Point:	-0.092	X_WP:	0.000	Y_WP:	0.000	Y_WP:	0.500	X:	0.313	Y:	0.070	Z:	0.065	yaw:	5.271	yaw rate:	6.930	Roll:	20.965	Pitch:	4.873	Yaw:	7.510	Thrust:	76.787
Time:	0.867	Roll Set Point:	-0.612	Pitch Set Point:	-0.110	Yaw Set Point:	-0.089	X_WP:	0.000	Y_WP:	0.000	Y_WP:	0.500	X:	0.304	Y:	0.069	Z:	0.065	yaw:	5.111	yaw rate:	16.064	Roll:	2.784	Pitch:	5.415	Yaw:	4.481	Thrust:	64.980
Time:	0.877	Roll Set Point:	-0.602	Pitch Set Point:	-0.107	Yaw Set Point:	-0.097	X_WP:	0.000	Y_WP:	0.000	Y_WP:	0.500	X:	0.299	Y:	0.068	Z:	0.065	yaw:	5.566	yaw rate:	-45.506	Roll:	9.312	Pitch:	-5.262	Yaw:	19.984	Thrust:	59.910
Time:	0.888	Roll Set Point:	-0.592	Pitch Set Point:	-0.106	Yaw Set Point:	-0.097	X_WP:	0.000	Y_WP:	0.000	Y_WP:	0.500	X:	0.294	Y:	0.067	Z:	0.065	yaw:	5.577	yaw rate:	-1.140	Roll:	8.593	Pitch:	2.324	Yaw:	9.065	Thrust:	62.929
Time:	0.899	Roll Set Point:	-0.581	Pitch Set Point:	-0.105	Yaw Set Point:	-0.098	X_WP:	0.000	Y_WP:	0.000	Y_WP:	0.500	X:	0.288	Y:	0.067	Z:	0.065	yaw:	5.613	yaw rate:	-3.609	Roll:	6.192	Pitch:	2.215	Yaw:	9.702	Thrust:	60.339
Time:	0.911	Roll Set Point:	-0.569	Pitch Set Point:	-0.106	Yaw Set Point:	-0.093	X_WP:	0.000	Y_WP:	0.000	Y_WP:	0.500	X:	0.282	Y:	0.066	Z:	0.066	yaw:	5.337	yaw rate:	27.612	Roll:	6.851	Pitch:	7.698	Yaw:	2.554	Thrust:	66.805
Time:	0.926	Roll Set Point:	-0.545	Pitch Set Point:	-0.103	Yaw Set Point:	-0.094	X_WP:	0.000	Y_WP:	0.000	Y_WP:	0.500	X:	0.270	Y:	0.064	Z:	0.066	yaw:	5.394	yaw rate:	-5.691	Roll:	1.641	Pitch:	2.079	Yaw:	9.949	Thrust:	77.562
Time:	0.936	Roll Set Point:	-0.532	Pitch Set Point:	-0.105	Yaw Set Point:	-0.084	X_WP:	0.000	Y_WP:	0.000	Y_WP:	0.500	X:	0.264	Y:	0.064	Z:	0.066	yaw:	4.833	yaw rate:	56.105	Roll:	5.737	Pitch:	10.962	Yaw:	-5.287	Thrust:	65.088
Time:	0.946	Roll Set Point:	-0.518	Pitch Set Point:	-0.104	Yaw Set Point:	-0.082	X_WP:	0.000	Y_WP:	0.000	Y_WP:	0.500	X:	0.257	Y:	0.063	Z:	0.066	yaw:	4.672	yaw rate:	16.062	Roll:	0.222	Pitch:	4.513	Yaw:	3.343	Thrust:	61.626
Time:	0.958	Roll Set Point:	-0.504	Pitch Set Point:	-0.103	Yaw Set Point:	-0.081	X_WP:	0.000	Y_WP:	0.000	Y_WP:	0.500	X:	0.250	Y:	0.062	Z:	0.066	yaw:	4.618	yaw rate:	5.482	Roll:	0.654	Pitch:	2.462	Yaw:	6.130	Thrust:	64.205
Time:	0.969	Roll Set Point:	-0.490	Pitch Set Point:	-0.104	Yaw Set Point:	-0.070	X_WP:	0.000	Y_WP:	0.000	Y_WP:	0.500	X:	0.243	Y:	0.060	Z:	0.066	yaw:	4.002	yaw rate:	61.588	Roll:	0.357	Pitch:	10.276	Yaw:	-7.241	Thrust:	68.316
Time:	0.989	Roll Set Point:	-0.475	Pitch Set Point:	-0.103	Yaw Set Point:	-0.066	X_WP:	0.000	Y_WP:	0.000	Y_WP:	0.500	X:	0.236	Y:	0.059	Z:	0.066	yaw:	3.767	yaw rate:	23.449	Roll:	23.845	Pitch:	5.831	Yaw:	4.218	Thrust:	100.000
Time:	0.999	Roll Set Point:	-0.445	Pitch Set Point:	-0.103	Yaw Set Point:	-0.049	X_WP:	0.000	Y_WP:	0.000	Y_WP:	0.500	X:	0.221	Y:	0.057	Z:	0.067	yaw:	2.814	yaw rate:	95.282	Roll:	-24.801	Pitch:	11.157	Yaw:	-18.656	Thrust:	63.775
Time:	1.010	Roll Set Point:	-0.430	Pitch Set Point:	-0.102	Yaw Set Point:	-0.042	X_WP:	0.000	Y_WP:	0.000	Y_WP:	0.500	X:	0.214	Y:	0.055	Z:	0.067	yaw:	2.408	yaw rate:	40.625	Roll:	-1.532	Pitch:	5.236	Yaw:	-5.180	Thrust:	67.435
Time:	1.021	Roll Set Point:	-0.398	Pitch Set Point:	-0.097	Yaw Set Point:	-0.038	X_WP:	0.000	Y_WP:	0.000	Y_WP:	0.500	X:	0.198	Y:	0.052	Z:	0.068	yaw:	2.205	yaw rate:	9.694	Roll:	-30.000	Pitch:	-1.468	Yaw:	-0.642	Thrust:	65.635
Time:	1.033	Roll Set Point:	-0.382	Pitch Set Point:	-0.096	Yaw Set Point:	-0.031	X_WP:	0.000	Y_WP:	0.000	Y_WP:	0.500	X:	0.190	Y:	0.051	Z:	0.068	yaw:	1.797	yaw rate:	40.739	Roll:	-2.985	Pitch:	3.773	Yaw:	-6.578	Thrust:	64.893
Time:	1.051	Roll Set Point:	-0.366	Pitch Set Point:	-0.094	Yaw Set Point:	-0.023	X_WP:	0.000	Y_WP:	0.000	Y_WP:	0.500	X:	0.182	Y:	0.049	Z:	0.069	yaw:	1.323	yaw rate:	47.470	Roll:	14.260	Pitch:	5.275	Yaw:	-2.532	Thrust:	100.000
Time:	1.063	Roll Set Point:	-0.333	Pitch Set Point:	-0.089	Yaw Set Point:	-0.010	X_WP:	0.000	Y_WP:	0.000	Y_WP:	0.500	X:	0.166	Y:	0.045	Z:	0.071	yaw:	0.576	yaw rate:	74.651	Roll:	-17.230	Pitch:	0.716	Yaw:	-15.093	Thrust:	65.167
Time:	1.074	Roll Set Point:	-0.317	Pitch Set Point:	-0.086	Yaw Set Point:	-0.004	X_WP:	0.000	Y_WP:	0.000	Y_WP:	0.500	X:	0.159	Y:	0.043	Z:	0.072	yaw:	0.235	yaw rate:	34.094	Roll:	-5.050	Pitch:	0.584	Yaw:	-6.903	Thrust:	64.958
Time:	1.084	Roll Set Point:	-0.301	Pitch Set Point:	-0.083	Yaw Set Point:	0.002	X_WP:	0.000	Y_WP:	0.000	Y_WP:	0.500	X:	0.151	Y:	0.041	Z:	0.074	yaw:	-0.098	yaw rate:	33.300	Roll:	-5.708	Pitch:	0.211	Yaw:	-7.294	Thrust:	63.632
Time:	1.095	Roll Set Point:	-0.285	Pitch Set Point:	-0.079	Yaw Set Point:	0.007	X_WP:	0.000	Y_WP:	0.000	Y_WP:	0.500	X:	0.143	Y:	0.039	Z:	0.075	yaw:	-0.386	yaw rate:	28.786	Roll:	-4.240	Pitch:	-1.406	Yaw:	-6.329	Thrust:	65.572
Time:	1.111	Roll Set Point:	-0.270	Pitch Set Point:	-0.075	Yaw Set Point:	0.012	X_WP:	0.000	Y_WP:	0.000	Y_WP:	0.500	X:	0.135	Y:	0.037	Z:	0.077	yaw:	-0.678	yaw rate:	29.206	Roll:	8.649	Pitch:	0.760	Yaw:	-4.307	Thrust:	83.469
Time:	1.126	Roll Set Point:	-0.254	Pitch Set Point:	-0.071	Yaw Set Point:	0.016	X_WP:	0.000	Y_WP:	0.000	Y_WP:	0.500	X:	0.127	Y:	0.035	Z:	0.078	yaw:	-0.902	yaw rate:	22.449	Roll:	10.202	Pitch:	0.594	Yaw:	-3.486	Thrust:	90.528
Time:	1.136	Roll Set Point:	-0.239	Pitch Set Point:	-0.067	Yaw Set Point:	0.019	X_WP:	0.000	Y_WP:	0.000	Y_WP:	0.500	X:	0.120	Y:	0.032	Z:	0.080	yaw:	-1.066	yaw rate:	16.377	Roll:	-3.155	Pitch:	-3.679	Yaw:	-4.745	Thrust:	63.487
Time:	1.148	Roll Set Point:	-0.210	Pitch Set Point:	-0.057	Yaw Set Point:	0.023	X_WP:	0.000	Y_WP:	0.000	Y_WP:	0.500	X:	0.105	Y:	0.027	Z:	0.084	yaw:	-1.314	yaw rate:	24.822	Roll:	-26.671	Pitch:	-11.404	Yaw:	-6.045	Thrust:	56.776
Time:	1.159	Roll Set Point:	-0.181	Pitch Set Point:	-0.047	Yaw Set Point:	0.026	X_WP:	0.000	Y_WP:	0.000	Y_WP:	0.500	X:	0.091	Y:	0.022	Z:	0.089	yaw:	-1.464	yaw rate:	3.248	Roll:	-23.059	Pitch:	-12.476	Yaw:	-4.551	Thrust:	57.510
Time:	1.172	Roll Set Point:	-0.167	Pitch Set Point:	-0.041	Yaw Set Point:	0.026	X_WP:	0.000	Y_WP:	0.000	Y_WP:	0.500	X:	0.084	Y:	0.020	Z:	0.092	yaw:	-1.483	yaw rate:	1.980	Roll:	2.682	Pitch:	-4.224	Yaw:	-1.246	Thrust:	75.944
Time:	1.190	Roll Set Point:	-0.154	Pitch Set Point:	-0.036	Yaw Set Point:	0.027	X_WP:	0.000	Y_WP:	0.000	Y_WP:	0.500	X:	0.077	Y:	0.017	Z:	0.094	yaw:	-1.550	yaw rate:	6.650	Roll:	15.798	Pitch:	-0.519	Yaw:	-1.415	Thrust:	100.000
Time:	1.200	Roll Set Point:	-0.127	Pitch Set Point:	-0.025	Yaw Set Point:	0.028	X_WP:	0.000	Y_WP:	0.000	Y_WP:	0.500	X:	0.064	Y:	0.012	Z:	0.100	yaw:	-1.586	yaw rate:	3.581	Roll:	-24.237	Pitch:	-16.100	Yaw:	-2.121	Thrust:	45.633
Time:	1.211	Roll Set Point:	-0.114	Pitch Set Point:	-0.020	Yaw Set Point:	0.027	X_WP:	0.000	Y_WP:	0.000	Y_WP:	0.500	X:	0.057	Y:	0.009	Z:	0.103	yaw:	-1.521	yaw rate:	-6.443	Roll:	-2.278	Pitch:	-6.531	Yaw:	0.468	Thrust:	62.485
Time:	1.222	Roll Set Point:	-0.101	Pitch Set Point:	-0.014	Yaw Set Point:	0.025	X_WP:	0.000	Y_WP:	0.000	Y_WP:	0.500	X:	0.050	Y:	0.006	Z:	0.107	yaw:	-1.410	yaw rate:	-11.129	Roll:	-3.751	Pitch:	-7.281	Yaw:	1.806	Thrust:	58.834
Time:	1.233	Roll Set Point:	-0.088	Pitch Set Point:	-0.009	Yaw Set Point:	0.024	X_WP:	0.000	Y_WP:	0.000	Y_WP:	0.500	X:	0.044	Y:	0.004	Z:	0.110	yaw:	-1.380	yaw rate:	-2.954	Roll:	-3.470	Pitch:	-6.473	Yaw:	-0.156	Thrust:	64.863
Time:	1.255	Roll Set Point:	-0.075	Pitch Set Point:	-0.004	Yaw Set Point:	0.024	X_WP:	0.000	Y_WP:	0.000	Y_WP:	0.500	X:	0.038	Y:	0.001	Z:	0.114	yaw:	-1.381	yaw rate:	0.037	Roll:	20.397	Pitch:	-0.220	Yaw:	0.113	Thrust:	100.000
Time:	1.267	Roll Set Point:	-0.039	Pitch Set Point:	0.011	Yaw Set Point:	0.023	X_WP:	0.000	Y_WP:	0.000	Y_WP:	0.500	X:	0.019	Y:	-0.006	Z:	0.126	yaw:	-1.309	yaw rate:	4.086	Roll:	-23.525	Pitch:	-16.719	Yaw:	0.870	Thrust:	38.290
Time:	1.278	Roll Set Point:	-0.027	Pitch Set Point:	0.016	Yaw Set Point:	0.022	X_WP:	0.000	Y_WP:	0.000	Y_WP:	0.500	X:	0.014	Y:	-0.008	Z:	0.130	yaw:	-1.271	yaw rate:	-3.834	Roll:	-0.197	Pitch:	-5.601	Yaw:	0.170	Thrust:	59.277
Time:	1.288	Roll Set Point:	-0.016	Pitch Set Point:	0.021	Yaw Set Point:	0.019	X_WP:	0.000	Y_WP:	0.000	Y_WP:	0.500	X:	0.008	Y:	-0.010	Z:	0.134	yaw:	-1.099	yaw rate:	-17.167	Roll:	-4.529	Pitch:	-6.605	Yaw:	3.675	Thrust:	57.958
Time:	1.301	Roll Set Point:	-0.005	Pitch Set Point:	0.025	Yaw Set Point:	0.019	X_WP:	0.000	Y_WP:	0.000	Y_WP:	0.500	X:	0.002	Y:	-0.013	Z:	0.138	yaw:	-1.073	yaw rate:	-2.568	Roll:	2.269	Pitch:	-4.561	Yaw:	0.208	Thrust:	64.110
Time:	1.312	Roll Set Point:	0.006	Pitch Set Point:	0.029	Yaw Set Point:	0.020	X_WP:	0.000	Y_WP:	0.000	Y_WP:	0.500	X:	-0.003	Y:	-0.015	Z:	0.142	yaw:	-1.131	yaw rate:	5.825	Roll:	-0.821	Pitch:	-5.103	Yaw:	-1.941	Thrust:	67.019
Time:	1.327	Roll Set Point:	0.017	Pitch Set Point:	0.033	Yaw Set Point:	0.020	X_WP:	0.000	Y_WP:	0.000	Y_WP:	0.500	X:	-0.009	Y:	-0.017	Z:	0.146	yaw:	-1.148	yaw rate:	1.656	Roll:	12.295	Pitch:	-1.700	Yaw:	-0.445	Thrust:	89.527
Time:	1.338	Roll Set Point:	0.037	Pitch Set Point:	0.041	Yaw Set Point:	0.020	X_WP:	0.000	Y_WP:	0.000	Y_WP:	0.500	X:	-0.019	Y:	-0.020	Z:	0.154	yaw:	-1.144	yaw rate:	-0.432	Roll:	-15.540	Pitch:	-11.183	Yaw:	-0.514	Thrust:	40.838
Time:	1.349	Roll Set Point:	0.046	Pitch Set Point:	0.044	Yaw Set Point:	0.023	X_WP:	0.000	Y_WP:	0.000	Y_WP:	0.500	X:	-0.023	Y:	-0.022	Z:	0.158	yaw:	-1.326	yaw rate:	18.221	Roll:	-2.285	Pitch:	-4.887	Yaw:	-5.416	Thrust:	57.588
Time:	1.360	Roll Set Point:	0.055	Pitch Set Point:	0.048	Yaw Set Point:	0.023	X_WP:	0.000	Y_WP:	0.000	Y_WP:	0.500	X:	-0.028	Y:	-0.023	Z:	0.162	yaw:	-1.315	yaw rate:	-1.047	Roll:	1.334	Pitch:	-3.877	Yaw:	-0.574	Thrust:	63.185
Time:	1.371	Roll Set Point:	0.064	Pitch Set Point:	0.051	Yaw Set Point:	0.024	X_WP:	0.000	Y_WP:	0.000	Y_WP:	0.500	X:	-0.032	Y:	-0.025	Z:	0.166	yaw:	-1.374	yaw rate:	5.803	Roll:	1.300	Pitch:	-3.844	Yaw:	-2.297	Thrust:	62.630
Time:	1.390	Roll Set Point:	0.072	Pitch Set Point:	0.054	Yaw Set Point:	0.025	X_WP:	0.000	Y_WP:	0.000	Y_WP:	0.500	X:	-0.037	Y:	-0.026	Z:	0.170	yaw:	-1.418	yaw rate:	4.423	Roll:	19.359	Pitch:	-0.102	Yaw:	-0.864	Thrust:	100.000
Time:	1.401	Roll Set Point:	0.088	Pitch Set Point:	0.058	Yaw Set Point:	0.027	X_WP:	0.000	Y_WP:	0.000	Y_WP:	0.500	X:	-0.045	Y:	-0.029	Z:	0.177	yaw:	-1.574	yaw rate:	5.008	Roll:	-8.530	Pitch:	-7.171	Yaw:	-4.930	Thrust:	48.652
Time:	1.411	Roll Set Point:	0.096	Pitch Set Point:	0.061	Yaw Set Point:	0.029	X_WP:	0.000	Y_WP:	0.000	Y_WP:	0.500	X:	-0.048	Y:	-0.030	Z:	0.181	yaw:	-1.689	yaw rate:	11.485	Roll:	0.303	Pitch:	-3.626	Yaw:	-4.443	Thrust:	57.737
Time:	1.422	Roll Set Point:	0.103	Pitch Set Point:	0.063	Yaw Set Point:	0.030	X_WP:	0.000	Y_WP:	0.000	Y_WP:	0.500	X:	-0.052	Y:	-0.031	Z:	0.184	yaw:	-1.727	yaw rate:	3.729	Roll:	1.742	Pitch:	-2.709	Yaw:	-2.324	Thrust:	61.275
Time:	1.434	Roll Set Point:	0.110	Pitch Set Point:	0.064	Yaw Set Point:	0.030	X_WP:	0.000	Y_WP:	0.000	Y_WP:	0.500	X:	-0.055	Y:	-0.031	Z:	0.187	yaw:	-1.703	yaw rate:	-2.355	Roll:	4.324	Pitch:	-1.772	Yaw:	-0.854	Thrust:	68.525
Time:	1.455	Roll Set Point:	0.122	Pitch Set Point:	0.067	Yaw Set Point:	0.032	X_WP:	0.000	Y_WP:	0.000	Y_WP:	0.500	X:	-0.062	Y:	-0.033	Z:	0.194	yaw:	-1.861	yaw rate:	15.838	Roll:	18.395	Pitch:	0.191	Yaw:	-2.633	Thrust:	100.000
Time:	1.466	Roll Set Point:	0.128	Pitch Set Point:	0.068	Yaw Set Point:	0.034	X_WP:	0.000	Y_WP:	0.000	Y_WP:	0.500	X:	-0.065	Y:	-0.033	Z:	0.197	yaw:	-1.941	yaw rate:	7.950	Roll:	4.515	Pitch:	-1.456	Yaw:	-3.642	Thrust:	66.327
Time:	1.476	Roll Set Point:	0.134	Pitch Set Point:	0.069	Yaw Set Point:	0.035	X_WP:	0.000	Y_WP:	0.000	Y_WP:	0.500	X:	-0.068	Y:	-0.033	Z:	0.200	yaw:	-1.999	yaw rate:	5.821	Roll:	3.410	Pitch:	-1.210	Yaw:	-3.338	Thrust:	59.855
Time:	1.487	Roll Set Point:	0.144	Pitch Set Point:	0.070	Yaw Set Point:	0.037	X_WP:	0.000	Y_WP:	0.000	Y_WP:	0.500	X:	-0.073	Y:	-0.034	Z:	0.207	yaw:	-2.121	yaw rate:	12.240	Roll:	-3.161	Pitch:	-1.531	Yaw:	-4.989	Thrust:	57.413
Time:	1.498	Roll Set Point:	0.149	Pitch Set Point:	0.070	Yaw Set Point:	0.039	X_WP:	0.000	Y_WP:	0.000	Y_WP:	0.500	X:	-0.075	Y:	-0.034	Z:	0.210	yaw:	-2.248	yaw rate:	12.654	Roll:	5.850	Pitch:	-0.212	Yaw:	-5.345	Thrust:	65.001
Time:	1.511	Roll Set Point:	0.153	Pitch Set Point:	0.070	Yaw Set Point:	0.041	X_WP:	0.000	Y_WP:	0.000	Y_WP:	0.500	X:	-0.077	Y:	-0.034	Z:	0.213	yaw:	-2.324	yaw rate:	7.625	Roll:	8.064	Pitch:	0.452	Yaw:	-3.896	Thrust:	74.566
Time:	1.526	Roll Set Point:	0.158	Pitch Set Point:	0.070	Yaw Set Point:	0.041	X_WP:	0.000	Y_WP:	0.000	Y_WP:	0.500	X:	-0.080	Y:	-0.033	Z:	0.216	yaw:	-2.337	yaw rate:	1.306	Roll:	14.739	Pitch:	1.701	Yaw:	-2.146	Thrust:	100.000
Time:	1.537	Roll Set Point:	0.162	Pitch Set Point:	0.070	Yaw Set Point:	0.042	X_WP:	0.000	Y_WP:	0.000	Y_WP:	0.500	X:	-0.082	Y:	-0.033	Z:	0.219	yaw:	-2.400	yaw rate:	6.230	Roll:	7.470	Pitch:	0.784	Yaw:	-3.924	Thrust:	68.351
Time:	1.547	Roll Set Point:	0.169	Pitch Set Point:	0.068	Yaw Set Point:	0.046	X_WP:	0.000	Y_WP:	0.000	Y_WP:	0.500	X:	-0.085	Y:	-0.032	Z:	0.225	yaw:	-2.640	yaw rate:	23.995	Roll:	-1.075	Pitch:	2.174	Yaw:	-9.116	Thrust:	46.702
Time:	1.558	Roll Set Point:	0.172	Pitch Set Point:	0.067	Yaw Set Point:	0.047	X_WP:	0.000	Y_WP:	0.000	Y_WP:	0.500	X:	-0.087	Y:	-0.032	Z:	0.228	yaw:	-2.711	yaw rate:	7.184	Roll:	5.437	Pitch:	1.749	Yaw:	-4.685	Thrust:	65.554
Time:	1.570	Roll Set Point:	0.175	Pitch Set Point:	0.066	Yaw Set Point:	0.051	X_WP:	0.000	Y_WP:	0.000	Y_WP:	0.500	X:	-0.088	Y:	-0.031	Z:	0.232	yaw:	-2.905	yaw rate:	19.336	Roll:	10.449	Pitch:	1.695	Yaw:	-7.086	Thrust:	78.759
Time:	1.590	Roll Set Point:	0.178	Pitch Set Point:	0.065	Yaw Set Point:	0.050	X_WP:	0.000	Y_WP:	0.000	Y_WP:	0.500	X:	-0.090	Y:	-0.030	Z:	0.235	yaw:	-2.880	yaw rate:	-2.527	Roll:	21.292	Pitch:	3.256	Yaw:	-2.141	Thrust:	100.000
Time:	1.601	Roll Set Point:	0.183	Pitch Set Point:	0.062	Yaw Set Point:	0.054	X_WP:	0.000	Y_WP:	0.000	Y_WP:	0.500	X:	-0.093	Y:	-0.028	Z:	0.242	yaw:	-3.098	yaw rate:	7.388	Roll:	6.229	Pitch:	4.639	Yaw:	-8.614	Thrust:	53.667
Time:	1.611	Roll Set Point:	0.186	Pitch Set Point:	0.060	Yaw Set Point:	0.056	X_WP:	0.000	Y_WP:	0.000	Y_WP:	0.500	X:	-0.094	Y:	-0.027	Z:	0.245	yaw:	-3.184	yaw rate:	8.605	Roll:	6.529	Pitch:	3.131	Yaw:	-5.930	Thrust:	58.952
Time:	1.621	Roll Set Point:	0.188	Pitch Set Point:	0.058	Yaw Set Point:	0.058	X_WP:	0.000	Y_WP:	0.000	Y_WP:	0.500	X:	-0.095	Y:	-0.026	Z:	0.249	yaw:	-3.297	yaw rate:	11.237	Roll:	6.596	Pitch:	3.259	Yaw:	-6.791	Thrust:	58.226
Time:	1.633	Roll Set Point:	0.190	Pitch Set Point:	0.056	Yaw Set Point:	0.057	X_WP:	0.000	Y_WP:	0.000	Y_WP:	0.500	X:	-0.096	Y:	-0.025	Z:	0.253	yaw:	-3.272	yaw rate:	-2.426	Roll:	8.267	Pitch:	4.097	Yaw:	-3.150	Thrust:	65.773
Time:	1.649	Roll Set Point:	0.192	Pitch Set Point:	0.054	Yaw Set Point:	0.059	X_WP:	0.000	Y_WP:	0.000	Y_WP:	0.500	X:	-0.097	Y:	-0.024	Z:	0.257	yaw:	-3.409	yaw rate:	13.632	Roll:	15.127	Pitch:	3.413	Yaw:	-5.810	Thrust:	100.000
Time:	1.660	Roll Set Point:	0.194	Pitch Set Point:	0.052	Yaw Set Point:	0.062	X_WP:	0.000	Y_WP:	0.000	Y_WP:	0.500	X:	-0.098	Y:	-0.023	Z:	0.261	yaw:	-3.561	yaw rate:	15.248	Roll:	11.400	Pitch:	3.564	Yaw:	-7.803	Thrust:	68.971
Time:	1.671	Roll Set Point:	0.196	Pitch Set Point:	0.049	Yaw Set Point:	0.063	X_WP:	0.000	Y_WP:	0.000	Y_WP:	0.500	X:	-0.099	Y:	-0.022	Z:	0.265	yaw:	-3.615	yaw rate:	5.417	Roll:	8.507	Pitch:	4.135	Yaw:	-5.654	Thrust:	60.900
Time:	1.682	Roll Set Point:	0.198	Pitch Set Point:	0.047	Yaw Set Point:	0.065	X_WP:	0.000	Y_WP:	0.000	Y_WP:	0.500	X:	-0.100	Y:	-0.020	Z:	0.270	yaw:	-3.702	yaw rate:	8.665	Roll:	9.039	Pitch:	4.168	Yaw:	-6.273	Thrust:	70.428
Time:	1.694	Roll Set Point:	0.201	Pitch Set Point:	0.042	Yaw Set Point:	0.066	X_WP:	0.000	Y_WP:	0.000	Y_WP:	0.500	X:	-0.101	Y:	-0.018	Z:	0.278	yaw:	-3.797	yaw rate:	9.548	Roll:	6.401	Pitch:	8.364	Yaw:	-6.701	Thrust:	50.497
Time:	1.704	Roll Set Point:	0.203	Pitch Set Point:	0.039	Yaw Set Point:	0.063	X_WP:	0.000	Y_WP:	0.000	Y_WP:	0.500	X:	-0.102	Y:	-0.016	Z:	0.283	yaw:	-3.614	yaw rate:	-18.305	Roll:	7.301	Pitch:	6.060	Yaw:	0.369	Thrust:	56.682
Time:	1.724	Roll Set Point:	0.205	Pitch Set Point:	0.036	Yaw Set Point:	0.065	X_WP:	0.000	Y_WP:	0.000	Y_WP:	0.500	X:	-0.103	Y:	-0.015	Z:	0.287	yaw:	-3.735	yaw rate:	12.033	Roll:	19.176	Pitch:	4.239	Yaw:	-5.619	Thrust:	100.000
Time:	1.735	Roll Set Point:	0.208	Pitch Set Point:	0.031	Yaw Set Point:	0.065	X_WP:	0.000	Y_WP:	0.000	Y_WP:	0.500	X:	-0.104	Y:	-0.012	Z:	0.297	yaw:	-3.736	yaw rate:	-3.085	Roll:	8.440	Pitch:	9.223	Yaw:	-4.510	Thrust:	48.660
Time:	1.745	Roll Set Point:	0.210	Pitch Set Point:	0.028	Yaw Set Point:	0.067	X_WP:	0.000	Y_WP:	0.000	Y_WP:	0.500	X:	-0.105	Y:	-0.011	Z:	0.302	yaw:	-3.822	yaw rate:	8.614	Roll:	6.863	Pitch:	5.113	Yaw:	-6.942	Thrust:	54.310
Time:	1.756	Roll Set Point:	0.211	Pitch Set Point:	0.025	Yaw Set Point:	0.066	X_WP:	0.000	Y_WP:	0.000	Y_WP:	0.500	X:	-0.106	Y:	-0.009	Z:	0.306	yaw:	-3.781	yaw rate:	-4.176	Roll:	7.205	Pitch:	6.066	Yaw:	-3.608	Thrust:	57.143
Time:	1.767	Roll Set Point:	0.213	Pitch Set Point:	0.022	Yaw Set Point:	0.066	X_WP:	0.000	Y_WP:	0.000	Y_WP:	0.500	X:	-0.107	Y:	-0.008	Z:	0.311	yaw:	-3.778	yaw rate:	-0.251	Roll:	8.380	Pitch:	5.351	Yaw:	-4.553	Thrust:	65.668
Time:	1.787	Roll Set Point:	0.214	Pitch Set Point:	0.020	Yaw Set Point:	0.068	X_WP:	0.000	Y_WP:	0.000	Y_WP:	0.500	X:	-0.107	Y:	-0.006	Z:	0.316	yaw:	-3.873	yaw rate:	9.519	Roll:	16.364	Pitch:	4.745	Yaw:	-5.466	Thrust:	100.000
Time:	1.798	Roll Set Point:	0.219	Pitch Set Point:	0.011	Yaw Set Point:	0.066	X_WP:	0.000	Y_WP:	0.000	Y_WP:	0.500	X:	-0.109	Y:	-0.002	Z:	0.331	yaw:	-3.790	yaw rate:	-5.227	Roll:	10.706	Pitch:	12.278	Yaw:	-2.698	Thrust:	27.913
Time:	1.808	Roll Set Point:	0.220	Pitch Set Point:	0.008	Yaw Set Point:	0.067	X_WP:	0.000	Y_WP:	0.000	Y_WP:	0.500	X:	-0.110	Y:	-0.000	Z:	0.336	yaw:	-3.846	yaw rate:	5.535	Roll:	6.252	Pitch:	5.804	Yaw:	-6.241	Thrust:	52.914
Time:	1.818	Roll Set Point:	0.222	Pitch Set Point:	0.006	Yaw Set Point:	0.067	X_WP:	0.000	Y_WP:	0.000	Y_WP:	0.500	X:	-0.111	Y:	0.001	Z:	0.341	yaw:	-3.850	yaw rate:	0.474	Roll:	6.393	Pitch:	5.430	Yaw:	-4.921	Thrust:	56.267
Time:	1.830	Roll Set Point:	0.223	Pitch Set Point:	0.003	Yaw Set Point:	0.066	X_WP:	0.000	Y_WP:	0.000	Y_WP:	0.500	X:	-0.112	Y:	0.002	Z:	0.346	yaw:	-3.758	yaw rate:	-9.257	Roll:	7.612	Pitch:	6.388	Yaw:	-2.465	Thrust:	56.874
Time:	1.842	Roll Set Point:	0.225	Pitch Set Point:	0.000	Yaw Set Point:	0.066	X_WP:	0.000	Y_WP:	0.000	Y_WP:	0.500	X:	-0.112	Y:	0.004	Z:	0.351	yaw:	-3.783	yaw rate:	2.545	Roll:	8.525	Pitch:	5.295	Yaw:	-5.309	Thrust:	65.519
Time:	1.856	Roll Set Point:	0.226	Pitch Set Point:	-0.002	Yaw Set Point:	0.065	X_WP:	0.000	Y_WP:	0.000	Y_WP:	0.500	X:	-0.113	Y:	0.005	Z:	0.355	yaw:	-3.710	yaw rate:	-7.353	Roll:	12.183	Pitch:	5.375	Yaw:	-3.120	Thrust:	89.827
Time:	1.866	Roll Set Point:	0.228	Pitch Set Point:	-0.005	Yaw Set Point:	0.064	X_WP:	0.000	Y_WP:	0.000	Y_WP:	0.500	X:	-0.114	Y:	0.006	Z:	0.360	yaw:	-3.673	yaw rate:	-3.690	Roll:	7.484	Pitch:	5.706	Yaw:	-3.708	Thrust:	62.050
Time:	1.877	Roll Set Point:	0.229	Pitch Set Point:	-0.007	Yaw Set Point:	0.064	X_WP:	0.000	Y_WP:	0.000	Y_WP:	0.500	X:	-0.114	Y:	0.007	Z:	0.365	yaw:	-3.666	yaw rate:	-0.694	Roll:	7.322	Pitch:	5.571	Yaw:	-4.424	Thrust:	61.565
Time:	1.889	Roll Set Point:	0.232	Pitch Set Point:	-0.012	Yaw Set Point:	0.062	X_WP:	0.000	Y_WP:	0.000	Y_WP:	0.500	X:	-0.116	Y:	0.010	Z:	0.373	yaw:	-3.576	yaw rate:	-9.018	Roll:	5.946	Pitch:	9.184	Yaw:	-2.430	Thrust:	51.356
Time:	1.901	Roll Set Point:	0.234	Pitch Set Point:	-0.014	Yaw Set Point:	0.062	X_WP:	0.000	Y_WP:	0.000	Y_WP:	0.500	X:	-0.117	Y:	0.011	Z:	0.378	yaw:	-3.577	yaw rate:	0.120	Roll:	8.003	Pitch:	5.102	Yaw:	-4.468	Thrust:	71.690
Time:	1.922	Roll Set Point:	0.235	Pitch Set Point:	-0.017	Yaw Set Point:	0.061	X_WP:	0.000	Y_WP:	0.000	Y_WP:	0.500	X:	-0.117	Y:	0.012	Z:	0.382	yaw:	-3.479	yaw rate:	-9.747	Roll:	20.641	Pitch:	5.491	Yaw:	-2.706	Thrust:	100.000
Time:	1.933	Roll Set Point:	0.237	Pitch Set Point:	-0.019	Yaw Set Point:	0.061	X_WP:	0.000	Y_WP:	0.000	Y_WP:	0.500	X:	-0.118	Y:	0.013	Z:	0.386	yaw:	-3.483	yaw rate:	0.377	Roll:	9.344	Pitch:	5.048	Yaw:	-4.448	Thrust:	68.108
Time:	1.943	Roll Set Point:	0.238	Pitch Set Point:	-0.021	Yaw Set Point:	0.059	X_WP:	0.000	Y_WP:	0.000	Y_WP:	0.500	X:	-0.119	Y:	0.014	Z:	0.390	yaw:	-3.362	yaw rate:	-12.139	Roll:	5.619	Pitch:	6.251	Yaw:	-1.111	Thrust:	55.599
Time:	1.955	Roll Set Point:	0.241	Pitch Set Point:	-0.025	Yaw Set Point:	0.056	X_WP:	0.000	Y_WP:	0.000	Y_WP:	0.500	X:	-0.120	Y:	0.016	Z:	0.398	yaw:	-3.219	yaw rate:	-9.416	Roll:	4.558	Pitch:	8.847	Yaw:	-0.791	Thrust:	52.908
Time:	1.966	Roll Set Point:	0.242	Pitch Set Point:	-0.028	Yaw Set Point:	0.054	X_WP:	0.000	Y_WP:	0.000	Y_WP:	0.500	X:	-0.121	Y:	0.017	Z:	0.401	yaw:	-3.089	yaw rate:	-13.070	Roll:	6.244	Pitch:	5.877	Yaw:	-0.833	Thrust:	62.863
Time:	1.977	Roll Set Point:	0.244	Pitch Set Point:	-0.029	Yaw Set Point:	0.054	X_WP:	0.000	Y_WP:	0.000	Y_WP:	0.500	X:	-0.122	Y:	0.018	Z:	0.405	yaw:	-3.090	yaw rate:	0.092	Roll:	7.434	Pitch:	4.699	Yaw:	-3.911	Thrust:	69.224
Time:	1.990	Roll Set Point:	0.247	Pitch Set Point:	-0.033	Yaw Set Point:	0.051	X_WP:	0.000	Y_WP:	0.000	Y_WP:	0.500	X:	-0.123	Y:	0.020	Z:	0.411	yaw:	-2.917	yaw rate:	-17.288	Roll:	8.580	Pitch:	7.877	Yaw:	-0.149	Thrust:	71.216
Time:	2.001	Roll Set Point:	0.248	Pitch Set Point:	-0.034	Yaw Set Point:	0.053	X_WP:	0.000	Y_WP:	0.000	Y_WP:	0.500	X:	-0.124	Y:	0.020	Z:	0.415	yaw:	-3.011	yaw rate:	9.421	Roll:	5.525	Pitch:	4.158	Yaw:	-6.161	Thrust:	61.843
Time:	2.012	Roll Set Point:	0.250	Pitch Set Point:	-0.036	Yaw Set Point:	0.052	X_WP:	0.000	Y_WP:	0.000	Y_WP:	0.500	X:	-0.124	Y:	0.021	Z:	0.418	yaw:	-2.952	yaw rate:	-5.877	Roll:	6.738	Pitch:	4.847	Yaw:	-2.337	Thrust:	66.962
Time:	2.023	Roll Set Point:	0.251	Pitch Set Point:	-0.037	Yaw Set Point:	0.050	X_WP:	0.000	Y_WP:	0.000	Y_WP:	0.500	X:	-0.125	Y:	0.022	Z:	0.421	yaw:	-2.878	yaw rate:	-7.413	Roll:	5.136	Pitch:	4.793	Yaw:	-1.882	Thrust:	66.863
Time:	2.035	Roll Set Point:	0.252	Pitch Set Point:	-0.038	Yaw Set Point:	0.048	X_WP:	0.000	Y_WP:	0.000	Y_WP:	0.500	X:	-0.126	Y:	0.022	Z:	0.424	yaw:	-2.752	yaw rate:	-12.581	Roll:	7.559	Pitch:	4.525	Yaw:	-0.712	Thrust:	67.986
Time:	2.056	Roll Set Point:	0.254	Pitch Set Point:	-0.040	Yaw Set Point:	0.048	X_WP:	0.000	Y_WP:	0.000	Y_WP:	0.500	X:	-0.126	Y:	0.023	Z:	0.427	yaw:	-2.765	yaw rate:	1.311	Roll:	17.709	Pitch:	4.782	Yaw:	-3.380	Thrust:	100.000
Time:	2.067	Roll Set Point:	0.256	Pitch Set Point:	-0.042	Yaw Set Point:	0.047	X_WP:	0.000	Y_WP:	0.000	Y_WP:	0.500	X:	-0.128	Y:	0.024	Z:	0.432	yaw:	-2.703	yaw rate:	-9.161	Roll:	7.645	Pitch:	5.555	Yaw:	-2.018	Thrust:	66.742
Time:	2.078	Roll Set Point:	0.258	Pitch Set Point:	-0.042	Yaw Set Point:	0.047	X_WP:	0.000	Y_WP:	0.000	Y_WP:	0.500	X:	-0.128	Y:	0.024	Z:	0.435	yaw:	-2.707	yaw rate:	0.427	Roll:	5.528	Pitch:	3.378	Yaw:	-3.544	Thrust:	67.466
Time:	2.090	Roll Set Point:	0.260	Pitch Set Point:	-0.043	Yaw Set Point:	0.045	X_WP:	0.000	Y_WP:	0.000	Y_WP:	0.500	X:	-0.129	Y:	0.025	Z:	0.441	yaw:	-2.595	yaw rate:	-11.263	Roll:	6.076	Pitch:	4.533	Yaw:	-0.715	Thrust:	60.104
Time:	2.102	Roll Set Point:	0.261	Pitch Set Point:	-0.044	Yaw Set Point:	0.046	X_WP:	0.000	Y_WP:	0.000	Y_WP:	0.500	X:	-0.130	Y:	0.025	Z:	0.443	yaw:	-2.662	yaw rate:	6.698	Roll:	6.696	Pitch:	2.735	Yaw:	-4.785	Thrust:	69.167
Time:	2.123	Roll Set Point:	0.262	Pitch Set Point:	-0.044	Yaw Set Point:	0.047	X_WP:	0.000	Y_WP:	0.000	Y_WP:	0.500	X:	-0.130	Y:	0.025	Z:	0.446	yaw:	-2.674	yaw rate:	1.239	Roll:	15.953	Pitch:	4.165	Yaw:	-3.356	Thrust:	100.000
Time:	2.133	Roll Set Point:	0.264	Pitch Set Point:	-0.044	Yaw Set Point:	0.045	X_WP:	0.000	Y_WP:	0.000	Y_WP:	0.500	X:	-0.131	Y:	0.025	Z:	0.452	yaw:	-2.597	yaw rate:	-1.962	Roll:	8.415	Pitch:	3.627	Yaw:	-1.592	Thrust:	61.034
Time:	2.144	Roll Set Point:	0.265	Pitch Set Point:	-0.044	Yaw Set Point:	0.043	X_WP:	0.000	Y_WP:	0.000	Y_WP:	0.500	X:	-0.132	Y:	0.025	Z:	0.455	yaw:	-2.467	yaw rate:	-13.040	Roll:	5.297	Pitch:	3.281	Yaw:	0.220	Thrust:	58.227
Time:	2.156	Roll Set Point:	0.266	Pitch Set Point:	-0.044	Yaw Set Point:	0.048	X_WP:	0.000	Y_WP:	0.000	Y_WP:	0.500	X:	-0.132	Y:	0.025	Z:	0.458	yaw:	-2.724	yaw rate:	25.779	Roll:	7.383	Pitch:	1.089	Yaw:	-8.861	Thrust:	73.887
Time:	2.168	Roll Set Point:	0.266	Pitch Set Point:	-0.044	Yaw Set Point:	0.043	X_WP:	0.000	Y_WP:	0.000	Y_WP:	0.500	X:	-0.133	Y:	0.025	Z:	0.461	yaw:	-2.487	yaw rate:	-23.755	Roll:	6.942	Pitch:	3.760	Yaw:	1.989	Thrust:	73.369
Time:	2.189	Roll Set Point:	0.267	Pitch Set Point:	-0.044	Yaw Set Point:	0.043	X_WP:	0.000	Y_WP:	0.000	Y_WP:	0.500	X:	-0.133	Y:	0.025	Z:	0.464	yaw:	-2.478	yaw rate:	-0.903	Roll:	9.825	Pitch:	4.051	Yaw:	-2.862	Thrust:	100.000
Time:	2.201	Roll Set Point:	0.269	Pitch Set Point:	-0.043	Yaw Set Point:	0.043	X_WP:	0.000	Y_WP:	0.000	Y_WP:	0.500	X:	-0.134	Y:	0.024	Z:	0.470	yaw:	-2.488	yaw rate:	0.977	Roll:	15.767	Pitch:	1.701	Yaw:	-3.422	Thrust:	64.612
Time:	2.211	Roll Set Point:	0.269	Pitch Set Point:	-0.043	Yaw Set Point:	0.042	X_WP:	0.000	Y_WP:	0.000	Y_WP:	0.500	X:	-0.134	Y:	0.024	Z:	0.474	yaw:	-2.399	yaw rate:	-8.817	Roll:	5.988	Pitch:	2.211	Yaw:	-0.855	Thrust:	57.075
Time:	2.222	Roll Set Point:	0.270	Pitch Set Point:	-0.042	Yaw Set Point:	0.042	X_WP:	0.000	Y_WP:	0.000	Y_WP:	0.500	X:	-0.134	Y:	0.024	Z:	0.477	yaw:	-2.409	yaw rate:	0.961	Roll:	5.914	Pitch:	1.668	Yaw:	-3.354	Thrust:	66.006
Time:	2.232	Roll Set Point:	0.270	Pitch Set Point:	-0.041	Yaw Set Point:	0.046	X_WP:	0.000	Y_WP:	0.000	Y_WP:	0.500	X:	-0.135	Y:	0.024	Z:	0.480	yaw:	-2.642	yaw rate:	23.256	Roll:	5.857	Pitch:	-0.358	Yaw:	-9.521	Thrust:	56.003
Time:	2.253	Roll Set Point:	0.271	Pitch Set Point:	-0.040	Yaw Set Point:	0.042	X_WP:	0.000	Y_WP:	0.000	Y_WP:	0.500	X:	-0.135	Y:	0.023	Z:	0.487	yaw:	-2.430	yaw rate:	4.253	Roll:	12.789	Pitch:	3.360	Yaw:	-0.257	Thrust:	100.000
Time:	2.265	Roll Set Point:	0.272	Pitch Set Point:	-0.038	Yaw Set Point:	0.043	X_WP:	0.000	Y_WP:	0.000	Y_WP:	0.500	X:	-0.136	Y:	0.022	Z:	0.494	yaw:	-2.437	yaw rate:	-2.794	Roll:	10.812	Pitch:	0.949	Yaw:	-3.319	Thrust:	61.882
Time:	2.276	Roll Set Point:	0.272	Pitch Set Point:	-0.037	Yaw Set Point:	0.040	X_WP:	0.000	Y_WP:	0.000	Y_WP:	0.500	X:	-0.136	Y:	0.021	Z:	0.502	yaw:	-2.294	yaw rate:	-14.294	Roll:	6.781	Pitch:	0.643	Yaw:	0.236	Thrust:	55.094
Time:	2.288	Roll Set Point:	0.273	Pitch Set Point:	-0.036	Yaw Set Point:	0.042	X_WP:	0.000	Y_WP:	0.000	Y_WP:	0.500	X:	-0.136	Y:	0.021	Z:	0.505	yaw:	-2.413	yaw rate:	11.940	Roll:	6.736	Pitch:	0.473	Yaw:	-5.904	Thrust:	59.715
Time:	2.298	Roll Set Point:	0.273	Pitch Set Point:	-0.035	Yaw Set Point:	0.045	X_WP:	0.000	Y_WP:	0.000	Y_WP:	0.500	X:	-0.136	Y:	0.020	Z:	0.509	yaw:	-2.595	yaw rate:	18.118	Roll:	6.492	Pitch:	-0.141	Yaw:	-7.946	Thrust:	59.451
Time:	2.325	Roll Set Point:	0.273	Pitch Set Point:	-0.034	Yaw Set Point:	0.042	X_WP:	0.000	Y_WP:	0.000	Y_WP:	0.500	X:	-0.136	Y:	0.020	Z:	0.513	yaw:	-2.401	yaw rate:	-19.318	Roll:	11.723	Pitch:	4.993	Yaw:	-1.034	Thrust:	100.000
Time:	2.335	Roll Set Point:	0.273	Pitch Set Point:	-0.032	Yaw Set Point:	0.042	X_WP:	0.000	Y_WP:	0.000	Y_WP:	0.500	X:	-0.136	Y:	0.019	Z:	0.522	yaw:	-2.400	yaw rate:	-0.105	Roll:	16.729	Pitch:	-0.930	Yaw:	-3.180	Thrust:	36.558
Time:	2.346	Roll Set Point:	0.274	Pitch Set Point:	-0.031	Yaw Set Point:	0.041	X_WP:	0.000	Y_WP:	0.000	Y_WP:	0.500	X:	-0.136	Y:	0.018	Z:	0.526	yaw:	-2.340	yaw rate:	-6.002	Roll:	6.399	Pitch:	1.362	Yaw:	-1.701	Thrust:	57.817
Time:	2.358	Roll Set Point:	0.273	Pitch Set Point:	-0.029	Yaw Set Point:	0.038	X_WP:	0.000	Y_WP:	0.000	Y_WP:	0.500	X:	-0.136	Y:	0.017	Z:	0.534	yaw:	-2.178	yaw rate:	-13.216	Roll:	7.381	Pitch:	0.720	Yaw:	0.686	Thrust:	48.910
Time:	2.370	Roll Set Point:	0.273	Pitch Set Point:	-0.028	Yaw Set Point:	0.039	X_WP:	0.000	Y_WP:	0.000	Y_WP:	0.500	X:	-0.136	Y:	0.017	Z:	0.538	yaw:	-2.218	yaw rate:	3.939	Roll:	6.868	Pitch:	1.053	Yaw:	-3.814	Thrust:	65.097
Time:	2.391	Roll Set Point:	0.273	Pitch Set Point:	-0.028	Yaw Set Point:	0.039	X_WP:	0.000	Y_WP:	0.000	Y_WP:	0.500	X:	-0.136	Y:	0.016	Z:	0.542	yaw:	-2.214	yaw rate:	-0.331	Roll:	15.903	Pitch:	3.473	Yaw:	-2.827	Thrust:	100.000
Time:	2.402	Roll Set Point:	0.273	Pitch Set Point:	-0.027	Yaw Set Point:	0.039	X_WP:	0.000	Y_WP:	0.000	Y_WP:	0.500	X:	-0.136	Y:	0.016	Z:	0.546	yaw:	-2.229	yaw rate:	1.504	Roll:	8.118	Pitch:	0.952	Yaw:	-3.373	Thrust:	58.879
Time:	2.413	Roll Set Point:	0.273	Pitch Set Point:	-0.026	Yaw Set Point:	0.040	X_WP:	0.000	Y_WP:	0.000	Y_WP:	0.500	X:	-0.136	Y:	0.016	Z:	0.550	yaw:	-2.273	yaw rate:	4.345	Roll:	6.181	Pitch:	1.079	Yaw:	-4.103	Thrust:	56.313
Time:	2.423	Roll Set Point:	0.273	Pitch Set Point:	-0.026	Yaw Set Point:	0.036	X_WP:	0.000	Y_WP:	0.000	Y_WP:	0.500	X:	-0.136	Y:	0.015	Z:	0.554	yaw:	-2.058	yaw rate:	-21.463	Roll:	5.258	Pitch:	2.448	Yaw:	2.558	Thrust:	52.547
Time:	2.435	Roll Set Point:	0.272	Pitch Set Point:	-0.024	Yaw Set Point:	0.033	X_WP:	0.000	Y_WP:	0.000	Y_WP:	0.500	X:	-0.136	Y:	0.014	Z:	0.562	yaw:	-1.880	yaw rate:	-9.667	Roll:	7.074	Pitch:	1.278	Yaw:	1.464	Thrust:	37.416
Time:	2.451	Roll Set Point:	0.272	Pitch Set Point:	-0.024	Yaw Set Point:	0.030	X_WP:	0.000	Y_WP:	0.000	Y_WP:	0.500	X:	-0.136	Y:	0.014	Z:	0.565	yaw:	-1.734	yaw rate:	-14.644	Roll:	10.097	Pitch:	2.996	Yaw:	0.144	Thrust:	99.742
Time:	2.463	Roll Set Point:	0.271	Pitch Set Point:	-0.023	Yaw Set Point:	0.030	X_WP:	0.000	Y_WP:	0.000	Y_WP:	0.500	X:	-0.135	Y:	0.013	Z:	0.573	yaw:	-1.721	yaw rate:	-1.332	Roll:	9.189	Pitch:	1.264	Yaw:	-2.038	Thrust:	50.341
Time:	2.473	Roll Set Point:	0.271	Pitch Set Point:	-0.022	Yaw Set Point:	0.030	X_WP:	0.000	Y_WP:	0.000	Y_WP:	0.500	X:	-0.135	Y:	0.013	Z:	0.577	yaw:	-1.738	yaw rate:	1.681	Roll:	5.690	Pitch:	1.480	Yaw:	-2.784	Thrust:	52.198
Time:	2.484	Roll Set Point:	0.271	Pitch Set Point:	-0.022	Yaw Set Point:	0.030	X_WP:	0.000	Y_WP:	0.000	Y_WP:	0.500	X:	-0.135	Y:	0.013	Z:	0.580	yaw:	-1.738	yaw rate:	0.077	Roll:	5.629	Pitch:	1.401	Yaw:	-2.393	Thrust:	48.063
Time:	2.495	Roll Set Point:	0.270	Pitch Set Point:	-0.022	Yaw Set Point:	0.027	X_WP:	0.000	Y_WP:	0.000	Y_WP:	0.500	X:	-0.135	Y:	0.013	Z:	0.584	yaw:	-1.551	yaw rate:	-18.701	Roll:	6.185	Pitch:	2.643	Yaw:	2.599	Thrust:	55.409
Time:	2.508	Roll Set Point:	0.270	Pitch Set Point:	-0.021	Yaw Set Point:	0.026	X_WP:	0.000	Y_WP:	0.000	Y_WP:	0.500	X:	-0.135	Y:	0.012	Z:	0.587	yaw:	-1.506	yaw rate:	-4.559	Roll:	5.856	Pitch:	2.128	Yaw:	-1.108	Thrust:	69.463
Time:	2.525	Roll Set Point:	0.269	Pitch Set Point:	-0.021	Yaw Set Point:	0.024	X_WP:	0.000	Y_WP:	0.000	Y_WP:	0.500	X:	-0.135	Y:	0.012	Z:	0.590	yaw:	-1.372	yaw rate:	-13.406	Roll:	14.843	Pitch:	4.085	Yaw:	0.037	Thrust:	100.000
Time:	2.537	Roll Set Point:	0.268	Pitch Set Point:	-0.020	Yaw Set Point:	0.021	X_WP:	0.000	Y_WP:	0.000	Y_WP:	0.500	X:	-0.134	Y:	0.012	Z:	0.599	yaw:	-1.207	yaw rate:	-6.661	Roll:	8.320	Pitch:	1.555	Yaw:	2.435	Thrust:	29.985
Time:	2.548	Roll Set Point:	0.267	Pitch Set Point:	-0.020	Yaw Set Point:	0.020	X_WP:	0.000	Y_WP:	0.000	Y_WP:	0.500	X:	-0.133	Y:	0.011	Z:	0.601	yaw:	-1.131	yaw rate:	-7.577	Roll:	6.355	Pitch:	2.477	Yaw:	0.247	Thrust:	58.953
Time:	2.559	Roll Set Point:	0.266	Pitch Set Point:	-0.020	Yaw Set Point:	0.018	X_WP:	0.000	Y_WP:	0.000	Y_WP:	0.500	X:	-0.133	Y:	0.011	Z:	0.603	yaw:	-1.028	yaw rate:	-10.278	Roll:	6.523	Pitch:	2.745	Yaw:	0.920	Thrust:	63.052
Time:	2.571	Roll Set Point:	0.265	Pitch Set Point:	-0.020	Yaw Set Point:	0.015	X_WP:	0.000	Y_WP:	0.000	Y_WP:	0.500	X:	-0.133	Y:	0.011	Z:	0.606	yaw:	-0.886	yaw rate:	-14.149	Roll:	7.494	Pitch:	2.999	Yaw:	1.739	Thrust:	67.343
Time:	2.592	Roll Set Point:	0.264	Pitch Set Point:	-0.020	Yaw Set Point:	0.016	X_WP:	0.000	Y_WP:	0.000	Y_WP:	0.500	X:	-0.132	Y:	0.011	Z:	0.608	yaw:	-0.901	yaw rate:	1.447	Roll:	15.924	Pitch:	4.133	Yaw:	-1.407	Thrust:	100.000
Time:	2.603	Roll Set Point:	0.262	Pitch Set Point:	-0.020	Yaw Set Point:	0.014	X_WP:	0.000	Y_WP:	0.000	Y_WP:	0.500	X:	-0.131	Y:	0.011	Z:	0.612	yaw:	-0.785	yaw rate:	-1.248	Roll:	8.350	Pitch:	2.512	Yaw:	1.787	Thrust:	47.907
Time:	2.613	Roll Set Point:	0.261	Pitch Set Point:	-0.020	Yaw Set Point:	0.012	X_WP:	0.000	Y_WP:	0.000	Y_WP:	0.500	X:	-0.131	Y:	0.011	Z:	0.613	yaw:	-0.691	yaw rate:	-9.454	Roll:	5.999	Pitch:	2.513	Yaw:	1.512	Thrust:	53.248
Time:	2.624	Roll Set Point:	0.261	Pitch Set Point:	-0.020	Yaw Set Point:	0.012	X_WP:	0.000	Y_WP:	0.000	Y_WP:	0.500	X:	-0.130	Y:	0.011	Z:	0.615	yaw:	-0.707	yaw rate:	1.606	Roll:	6.149	Pitch:	2.433	Yaw:	-1.361	Thrust:	56.325
Time:	2.635	Roll Set Point:	0.259	Pitch Set Point:	-0.020	Yaw Set Point:	0.010	X_WP:	0.000	Y_WP:	0.000	Y_WP:	0.500	X:	-0.130	Y:	0.010	Z:	0.617	yaw:	-0.549	yaw rate:	-15.776	Roll:	7.589	Pitch:	3.228	Yaw:	2.836	Thrust:	67.454
Time:	2.656	Roll Set Point:	0.258	Pitch Set Point:	-0.020	Yaw Set Point:	0.011	X_WP:	0.000	Y_WP:	0.000	Y_WP:	0.500	X:	-0.129	Y:	0.011	Z:	0.619	yaw:	-0.618	yaw rate:	6.906	Roll:	13.690	Pitch:	4.025	Yaw:	-1.760	Thrust:	100.000
Time:	2.667	Roll Set Point:	0.256	Pitch Set Point:	-0.020	Yaw Set Point:	0.007	X_WP:	0.000	Y_WP:	0.000	Y_WP:	0.500	X:	-0.128	Y:	0.010	Z:	0.621	yaw:	-0.418	yaw rate:	-20.035	Roll:	9.209	Pitch:	3.583	Yaw:	4.020	Thrust:	57.987
Time:	2.677	Roll Set Point:	0.253	Pitch Set Point:	-0.020	Yaw Set Point:	0.007	X_WP:	0.000	Y_WP:	0.000	Y_WP:	0.500	X:	-0.127	Y:	0.010	Z:	0.624	yaw:	-0.372	yaw rate:	-6.066	Roll:	8.589	Pitch:	2.442	Yaw:	0.603	Thrust:	52.228
Time:	2.689	Roll Set Point:	0.252	Pitch Set Point:	-0.020	Yaw Set Point:	0.005	X_WP:	0.000	Y_WP:	0.000	Y_WP:	0.500	X:	-0.126	Y:	0.010	Z:	0.625	yaw:	-0.261	yaw rate:	-11.151	Roll:	7.661	Pitch:	3.242	Yaw:	2.211	Thrust:	63.189
Time:	2.700	Roll Set Point:	0.251	Pitch Set Point:	-0.020	Yaw Set Point:	0.006	X_WP:	0.000	Y_WP:	0.000	Y_WP:	0.500	X:	-0.125	Y:	0.010	Z:	0.626	yaw:	-0.321	yaw rate:	6.021	Roll:	6.446	Pitch:	2.262	Yaw:	-1.974	Thrust:	56.300
Time:	2.716	Roll Set Point:	0.249	Pitch Set Point:	-0.020	Yaw Set Point:	0.004	X_WP:	0.000	Y_WP:	0.000	Y_WP:	0.500	X:	-0.125	Y:	0.010	Z:	0.627	yaw:	-0.201	yaw rate:	-11.981	Roll:	8.612	Pitch:	3.623	Yaw:	1.795	Thrust:	88.992
Time:	2.730	Roll Set Point:	0.248	Pitch Set Point:	-0.020	Yaw Set Point:	0.003	X_WP:	0.000	Y_WP:	0.000	Y_WP:	0.500	X:	-0.124	Y:	0.010	Z:	0.628	yaw:	-0.173	yaw rate:	-2.798	Roll:	12.482	Pitch:	3.798	Yaw:	0.202	Thrust:	96.359
Time:	2.740	Roll Set Point:	0.246	Pitch Set Point:	-0.021	Yaw Set Point:	0.002	X_WP:	0.000	Y_WP:	0.000	Y_WP:	0.500	X:	-0.123	Y:	0.010	Z:	0.629	yaw:	-0.115	yaw rate:	-5.803	Roll:	6.661	Pitch:	2.888	Yaw:	1.323	Thrust:	55.376
Time:	2.751	Roll Set Point:	0.245	Pitch Set Point:	-0.021	Yaw Set Point:	0.002	X_WP:	0.000	Y_WP:	0.000	Y_WP:	0.500	X:	-0.122	Y:	0.010	Z:	0.630	yaw:	-0.097	yaw rate:	-1.817	Roll:	6.569	Pitch:	2.644	Yaw:	0.291	Thrust:	60.689
Time:	2.762	Roll Set Point:	0.241	Pitch Set Point:	-0.021	Yaw Set Point:	0.003	X_WP:	0.000	Y_WP:	0.000	Y_WP:	0.500	X:	-0.121	Y:	0.010	Z:	0.632	yaw:	-0.161	yaw rate:	6.379	Roll:	9.789	Pitch:	2.308	Yaw:	-1.820	Thrust:	53.197
Time:	2.774	Roll Set Point:	0.240	Pitch Set Point:	-0.021	Yaw Set Point:	0.004	X_WP:	0.000	Y_WP:	0.000	Y_WP:	0.500	X:	-0.120	Y:	0.011	Z:	0.633	yaw:	-0.207	yaw rate:	4.607	Roll:	7.577	Pitch:	2.611	Yaw:	-1.259	Thrust:	68.053
Time:	2.790	Roll Set Point:	0.238	Pitch Set Point:	-0.021	Yaw Set Point:	0.001	X_WP:	0.000	Y_WP:	0.000	Y_WP:	0.500	X:	-0.119	Y:	0.010	Z:	0.634	yaw:	-0.038	yaw rate:	-16.921	Roll:	11.591	Pitch:	4.261	Yaw:	2.692	Thrust:	97.309
Time:	2.802	Roll Set Point:	0.235	Pitch Set Point:	-0.021	Yaw Set Point:	-0.001	X_WP:	0.000	Y_WP:	0.000	Y_WP:	0.500	X:	-0.117	Y:	0.010	Z:	0.636	yaw:	0.057	yaw rate:	-8.462	Roll:	10.315	Pitch:	3.170	Yaw:	2.267	Thrust:	57.972
Time:	2.812	Roll Set Point:	0.233	Pitch Set Point:	-0.021	Yaw Set Point:	0.000	X_WP:	0.000	Y_WP:	0.000	Y_WP:	0.500	X:	-0.116	Y:	0.010	Z:	0.637	yaw:	-0.012	yaw rate:	6.926	Roll:	6.623	Pitch:	1.981	Yaw:	-1.834	Thrust:	52.397
Time:	2.823	Roll Set Point:	0.231	Pitch Set Point:	-0.021	Yaw Set Point:	-0.001	X_WP:	0.000	Y_WP:	0.000	Y_WP:	0.500	X:	-0.116	Y:	0.011	Z:	0.638	yaw:	0.043	yaw rate:	-5.576	Roll:	7.151	Pitch:	3.016	Yaw:	1.382	Thrust:	55.444
Time:	2.835	Roll Set Point:	0.229	Pitch Set Point:	-0.021	Yaw Set Point:	-0.000	X_WP:	0.000	Y_WP:	0.000	Y_WP:	0.500	X:	-0.115	Y:	0.011	Z:	0.639	yaw:	0.003	yaw rate:	3.999	Roll:	7.862	Pitch:	2.858	Yaw:	-0.845	Thrust:	65.730
Time:	2.852	Roll Set Point:	0.228	Pitch Set Point:	-0.021	Yaw Set Point:	0.001	X_WP:	0.000	Y_WP:	0.000	Y_WP:	0.500	X:	-0.114	Y:	0.011	Z:	0.640	yaw:	-0.058	yaw rate:	6.170	Roll:	8.526	Pitch:	2.806	Yaw:	-1.070	Thrust:	85.868
Time:	2.865	Roll Set Point:	0.224	Pitch Set Point:	-0.021	Yaw Set Point:	-0.004	X_WP:	0.000	Y_WP:	0.000	Y_WP:	0.500	X:	-0.112	Y:	0.010	Z:	0.642	yaw:	0.238	yaw rate:	-4.409	Roll:	13.511	Pitch:	4.536	Yaw:	6.309	Thrust:	85.358
Time:	2.876	Roll Set Point:	0.222	Pitch Set Point:	-0.021	Yaw Set Point:	-0.002	X_WP:	0.000	Y_WP:	0.000	Y_WP:	0.500	X:	-0.111	Y:	0.011	Z:	0.643	yaw:	0.124	yaw rate:	11.386	Roll:	7.407	Pitch:	2.360	Yaw:	-2.448	Thrust:	60.641
Time:	2.887	Roll Set Point:	0.218	Pitch Set Point:	-0.022	Yaw Set Point:	-0.001	X_WP:	0.000	Y_WP:	0.000	Y_WP:	0.500	X:	-0.109	Y:	0.011	Z:	0.645	yaw:	0.081	yaw rate:	4.375	Roll:	10.274	Pitch:	2.571	Yaw:	-0.985	Thrust:	50.858
Time:	2.897	Roll Set Point:	0.216	Pitch Set Point:	-0.022	Yaw Set Point:	-0.002	X_WP:	0.000	Y_WP:	0.000	Y_WP:	0.500	X:	-0.108	Y:	0.011	Z:	0.646	yaw:	0.121	yaw rate:	-4.022	Roll:	7.531	Pitch:	2.672	Yaw:	1.212	Thrust:	51.471
Time:	2.915	Roll Set Point:	0.214	Pitch Set Point:	-0.022	Yaw Set Point:	-0.006	X_WP:	0.000	Y_WP:	0.000	Y_WP:	0.500	X:	-0.107	Y:	0.011	Z:	0.647	yaw:	0.315	yaw rate:	-19.458	Roll:	8.909	Pitch:	3.579	Yaw:	3.802	Thrust:	78.462
Time:	2.933	Roll Set Point:	0.210	Pitch Set Point:	-0.022	Yaw Set Point:	-0.006	X_WP:	0.000	Y_WP:	0.000	Y_WP:	0.500	X:	-0.105	Y:	0.011	Z:	0.649	yaw:	0.333	yaw rate:	-2.847	Roll:	16.925	Pitch:	5.081	Yaw:	0.667	Thrust:	100.000
Time:	2.943	Roll Set Point:	0.208	Pitch Set Point:	-0.022	Yaw Set Point:	-0.006	X_WP:	0.000	Y_WP:	0.000	Y_WP:	0.500	X:	-0.104	Y:	0.011	Z:	0.649	yaw:	0.342	yaw rate:	-0.874	Roll:	7.286	Pitch:	2.598	Yaw:	0.701	Thrust:	51.108
Time:	2.954	Roll Set Point:	0.206	Pitch Set Point:	-0.022	Yaw Set Point:	-0.008	X_WP:	0.000	Y_WP:	0.000	Y_WP:	0.500	X:	-0.103	Y:	0.011	Z:	0.650	yaw:	0.441	yaw rate:	-9.873	Roll:	7.462	Pitch:	3.080	Yaw:	2.957	Thrust:	54.225
Time:	2.966	Roll Set Point:	0.204	Pitch Set Point:	-0.022	Yaw Set Point:	-0.007	X_WP:	0.000	Y_WP:	0.000	Y_WP:	0.500	X:	-0.102	Y:	0.010	Z:	0.651	yaw:	0.394	yaw rate:	4.670	Roll:	7.459	Pitch:	2.455	Yaw:	-0.517	Thrust:	60.590
Time:	2.977	Roll Set Point:	0.202	Pitch Set Point:	-0.022	Yaw Set Point:	-0.005	X_WP:	0.000	Y_WP:	0.000	Y_WP:	0.500	X:	-0.101	Y:	0.011	Z:	0.652	yaw:	0.281	yaw rate:	11.259	Roll:	7.814	Pitch:	2.451	Yaw:	-2.164	Thrust:	63.574
Time:	2.992	Roll Set Point:	0.199	Pitch Set Point:	-0.022	Yaw Set Point:	-0.006	X_WP:	0.000	Y_WP:	0.000	Y_WP:	0.500	X:	-0.099	Y:	0.010	Z:	0.653	yaw:	0.349	yaw rate:	-6.819	Roll:	11.404	Pitch:	3.408	Yaw:	1.714	Thrust:	74.575
Time:	3.003	Roll Set Point:	0.197	Pitch Set Point:	-0.021	Yaw Set Point:	-0.005	X_WP:	0.000	Y_WP:	0.000	Y_WP:	0.500	X:	-0.098	Y:	0.010	Z:	0.654	yaw:	0.308	yaw rate:	4.137	Roll:	8.002	Pitch:	2.316	Yaw:	-0.577	Thrust:	58.576
Time:	3.013	Roll Set Point:	0.195	Pitch Set Point:	-0.021	Yaw Set Point:	-0.005	X_WP:	0.000	Y_WP:	0.000	Y_WP:	0.500	X:	-0.097	Y:	0.010	Z:	0.654	yaw:	0.293	yaw rate:	1.533	Roll:	6.902	Pitch:	2.222	Yaw:	0.011	Thrust:	50.648
Time:	3.026	Roll Set Point:	0.193	Pitch Set Point:	-0.021	Yaw Set Point:	-0.006	X_WP:	0.000	Y_WP:	0.000	Y_WP:	0.500	X:	-0.096	Y:	0.010	Z:	0.655	yaw:	0.350	yaw rate:	-5.693	Roll:	7.253	Pitch:	2.768	Yaw:	1.584	Thrust:	54.719
Time:	3.039	Roll Set Point:	0.191	Pitch Set Point:	-0.021	Yaw Set Point:	-0.007	X_WP:	0.000	Y_WP:	0.000	Y_WP:	0.500	X:	-0.095	Y:	0.010	Z:	0.656	yaw:	0.383	yaw rate:	-3.361	Roll:	9.367	Pitch:	3.386	Yaw:	1.241	Thrust:	85.523
Time:	3.053	Roll Set Point:	0.189	Pitch Set Point:	-0.021	Yaw Set Point:	-0.007	X_WP:	0.000	Y_WP:	0.000	Y_WP:	0.500	X:	-0.095	Y:	0.010	Z:	0.656	yaw:	0.398	yaw rate:	-1.460	Roll:	8.109	Pitch:	2.822	Yaw:	0.856	Thrust:	63.566
Time:	3.064	Roll Set Point:	0.185	Pitch Set Point:	-0.021	Yaw Set Point:	-0.008	X_WP:	0.000	Y_WP:	0.000	Y_WP:	0.500	X:	-0.093	Y:	0.010	Z:	0.657	yaw:	0.432	yaw rate:	-3.420	Roll:	10.886	Pitch:	2.766	Yaw:	1.345	Thrust:	68.224
Time:	3.075	Roll Set Point:	0.183	Pitch Set Point:	-0.021	Yaw Set Point:	-0.008	X_WP:	0.000	Y_WP:	0.000	Y_WP:	0.500	X:	-0.092	Y:	0.010	Z:	0.657	yaw:	0.480	yaw rate:	-4.825	Roll:	7.278	Pitch:	2.518	Yaw:	1.825	Thrust:	54.404
Time:	3.086	Roll Set Point:	0.182	Pitch Set Point:	-0.020	Yaw Set Point:	-0.008	X_WP:	0.000	Y_WP:	0.000	Y_WP:	0.500	X:	-0.091	Y:	0.010	Z:	0.657	yaw:	0.442	yaw rate:	3.745	Roll:	7.146	Pitch:	2.187	Yaw:	-0.282	Thrust:	56.496
Time:	3.096	Roll Set Point:	0.178	Pitch Set Point:	-0.020	Yaw Set Point:	-0.011	X_WP:	0.000	Y_WP:	0.000	Y_WP:	0.500	X:	-0.089	Y:	0.010	Z:	0.657	yaw:	0.611	yaw rate:	-16.907	Roll:	10.696	Pitch:	2.492	Yaw:	5.068	Thrust:	58.322
Time:	3.109	Roll Set Point:	0.176	Pitch Set Point:	-0.020	Yaw Set Point:	-0.010	X_WP:	0.000	Y_WP:	0.000	Y_WP:	0.500	X:	-0.088	Y:	0.010	Z:	0.657	yaw:	0.582	yaw rate:	2.964	Roll:	7.708	Pitch:	2.698	Yaw:	0.157	Thrust:	61.486
Time:	3.123	Roll Set Point:	0.174	Pitch Set Point:	-0.020	Yaw Set Point:	-0.011	X_WP:	0.000	Y_WP:	0.000	Y_WP:	0.500	X:	-0.087	Y:	0.009	Z:	0.657	yaw:	0.620	yaw rate:	-3.832	Roll:	8.098	Pitch:	3.119	Yaw:	1.602	Thrust:	74.378
Time:	3.133	Roll Set Point:	0.172	Pitch Set Point:	-0.020	Yaw Set Point:	-0.011	X_WP:	0.000	Y_WP:	0.000	Y_WP:	0.500	X:	-0.086	Y:	0.009	Z:	0.656	yaw:	0.610	yaw rate:	1.033	Roll:	8.356	Pitch:	2.609	Yaw:	0.633	Thrust:	63.548
Time:	3.143	Roll Set Point:	0.170	Pitch Set Point:	-0.019	Yaw Set Point:	-0.010	X_WP:	0.000	Y_WP:	0.000	Y_WP:	0.500	X:	-0.085	Y:	0.009	Z:	0.656	yaw:	0.567	yaw rate:	4.269	Roll:	6.915	Pitch:	1.899	Yaw:	-0.301	Thrust:	53.092
Time:	3.154	Roll Set Point:	0.168	Pitch Set Point:	-0.019	Yaw Set Point:	-0.013	X_WP:	0.000	Y_WP:	0.000	Y_WP:	0.500	X:	-0.084	Y:	0.009	Z:	0.655	yaw:	0.722	yaw rate:	-15.476	Roll:	7.331	Pitch:	2.543	Yaw:	4.876	Thrust:	54.441
Time:	3.165	Roll Set Point:	0.166	Pitch Set Point:	-0.019	Yaw Set Point:	-0.012	X_WP:	0.000	Y_WP:	0.000	Y_WP:	0.500	X:	-0.083	Y:	0.009	Z:	0.655	yaw:	0.692	yaw rate:	2.964	Roll:	7.167	Pitch:	2.303	Yaw:	0.279	Thrust:	61.238
Time:	3.190	Roll Set Point:	0.164	Pitch Set Point:	-0.019	Yaw Set Point:	-0.013	X_WP:	0.000	Y_WP:	0.000	Y_WP:	0.500	X:	-0.082	Y:	0.009	Z:	0.654	yaw:	0.731	yaw rate:	-3.841	Roll:	8.329	Pitch:	2.912	Yaw:	1.627	Thrust:	77.321
Time:	3.202	Roll Set Point:	0.158	Pitch Set Point:	-0.018	Yaw Set Point:	-0.012	X_WP:	0.000	Y_WP:	0.000	Y_WP:	0.500	X:	-0.079	Y:	0.009	Z:	0.651	yaw:	0.665	yaw rate:	-1.581	Roll:	17.758	Pitch:	4.804	Yaw:	0.094	Thrust:	100.000
Time:	3.214	Roll Set Point:	0.156	Pitch Set Point:	-0.018	Yaw Set Point:	-0.014	X_WP:	0.000	Y_WP:	0.000	Y_WP:	0.500	X:	-0.078	Y:	0.008	Z:	0.650	yaw:	0.780	yaw rate:	-11.526	Roll:	8.125	Pitch:	2.870	Yaw:	3.638	Thrust:	61.445
Time:	3.225	Roll Set Point:	0.154	Pitch Set Point:	-0.018	Yaw Set Point:	-0.014	X_WP:	0.000	Y_WP:	0.000	Y_WP:	0.500	X:	-0.077	Y:	0.008	Z:	0.649	yaw:	0.790	yaw rate:	-0.917	Roll:	7.784	Pitch:	2.627	Yaw:	1.356	Thrust:	64.667
Time:	3.237	Roll Set Point:	0.152	Pitch Set Point:	-0.018	Yaw Set Point:	-0.015	X_WP:	0.000	Y_WP:	0.000	Y_WP:	0.500	X:	-0.076	Y:	0.008	Z:	0.647	yaw:	0.834	yaw rate:	-4.430	Roll:	7.562	Pitch:	2.656	Yaw:	2.252	Thrust:	65.099
Time:	3.258	Roll Set Point:	0.150	Pitch Set Point:	-0.017	Yaw Set Point:	-0.013	X_WP:	0.000	Y_WP:	0.000	Y_WP:	0.500	X:	-0.075	Y:	0.008	Z:	0.646	yaw:	0.772	yaw rate:	6.228	Roll:	11.530	Pitch:	4.066	Yaw:	0.370	Thrust:	100.000
Time:	3.269	Roll Set Point:	0.145	Pitch Set Point:	-0.017	Yaw Set Point:	-0.015	X_WP:	0.000	Y_WP:	0.000	Y_WP:	0.500	X:	-0.073	Y:	0.008	Z:	0.644	yaw:	0.856	yaw rate:	-4.267	Roll:	11.810	Pitch:	2.406	Yaw:	3.155	Thrust:	70.148
Time:	3.281	Roll Set Point:	0.143	Pitch Set Point:	-0.017	Yaw Set Point:	-0.014	X_WP:	0.000	Y_WP:	0.000	Y_WP:	0.500	X:	-0.072	Y:	0.008	Z:	0.642	yaw:	0.788	yaw rate:	6.801	Roll:	8.043	Pitch:	2.571	Yaw:	-0.315	Thrust:	66.795
Time:	3.293	Roll Set Point:	0.139	Pitch Set Point:	-0.016	Yaw Set Point:	-0.015	X_WP:	0.000	Y_WP:	0.000	Y_WP:	0.500	X:	-0.070	Y:	0.008	Z:	0.640	yaw:	0.856	yaw rate:	-6.821	Roll:	11.651	Pitch:	2.506	Yaw:	2.692	Thrust:	73.549
Time:	3.319	Roll Set Point:	0.137	Pitch Set Point:	-0.016	Yaw Set Point:	-0.013	X_WP:	0.000	Y_WP:	0.000	Y_WP:	0.500	X:	-0.069	Y:	0.008	Z:	0.639	yaw:	0.768	yaw rate:	8.794	Roll:	8.512	Pitch:	2.737	Yaw:	0.150	Thrust:	82.514
Time:	3.334	Roll Set Point:	0.132	Pitch Set Point:	-0.015	Yaw Set Point:	-0.015	X_WP:	0.000	Y_WP:	0.000	Y_WP:	0.500	X:	-0.066	Y:	0.007	Z:	0.636	yaw:	0.888	yaw rate:	-2.802	Roll:	17.710	Pitch:	5.623	Yaw:	3.085	Thrust:	100.000
Time:	3.345	Roll Set Point:	0.128	Pitch Set Point:	-0.015	Yaw Set Point:	-0.015	X_WP:	0.000	Y_WP:	0.000	Y_WP:	0.500	X:	-0.064	Y:	0.007	Z:	0.635	yaw:	0.842	yaw rate:	-6.984	Roll:	11.699	Pitch:	1.782	Yaw:	0.140	Thrust:	62.015
Time:	3.356	Roll Set Point:	0.126	Pitch Set Point:	-0.014	Yaw Set Point:	-0.012	X_WP:	0.000	Y_WP:	0.000	Y_WP:	0.500	X:	-0.063	Y:	0.007	Z:	0.634	yaw:	0.695	yaw rate:	14.657	Roll:	8.075	Pitch:	2.089	Yaw:	-2.101	Thrust:	62.097
Time:	3.369	Roll Set Point:	0.124	Pitch Set Point:	-0.014	Yaw Set Point:	-0.013	X_WP:	0.000	Y_WP:	0.000	Y_WP:	0.500	X:	-0.062	Y:	0.007	Z:	0.634	yaw:	0.742	yaw rate:	-4.646	Roll:	8.591	Pitch:	2.406	Yaw:	2.097	Thrust:	67.964
Time:	3.391	Roll Set Point:	0.121	Pitch Set Point:	-0.013	Yaw Set Point:	-0.014	X_WP:	0.000	Y_WP:	0.000	Y_WP:	0.500	X:	-0.061	Y:	0.006	Z:	0.633	yaw:	0.813	yaw rate:	-7.164	Roll:	12.419	Pitch:	4.765	Yaw:	2.131	Thrust:	100.000
Time:	3.403	Roll Set Point:	0.115	Pitch Set Point:	-0.012	Yaw Set Point:	-0.013	X_WP:	0.000	Y_WP:	0.000	Y_WP:	0.500	X:	-0.057	Y:	0.006	Z:	0.633	yaw:	0.724	yaw rate:	-9.977	Roll:	14.610	Pitch:	0.540	Yaw:	-1.105	Thrust:	56.557
Time:	3.414	Roll Set Point:	0.113	Pitch Set Point:	-0.012	Yaw Set Point:	-0.012	X_WP:	0.000	Y_WP:	0.000	Y_WP:	0.500	X:	-0.056	Y:	0.006	Z:	0.633	yaw:	0.704	yaw rate:	2.054	Roll:	7.995	Pitch:	2.012	Yaw:	0.571	Thrust:	53.901
