Time:	0.044	Roll Set Point:	-0.302	Pitch Set Point:	-1.303	Yaw Set Point:	-0.024	X_WP:	0.000	Y_WP:	0.000	Y_WP:	0.500	X:	0.143	Y:	0.653	Z:	0.052	yaw:	1.361	yaw rate:	2.135	Roll:	4.600	Pitch:	18.839	Yaw:	1.901	Thrust:	24.623
Time:	0.061	Roll Set Point:	-0.304	Pitch Set Point:	-1.302	Yaw Set Point:	-0.027	X_WP:	0.000	Y_WP:	0.000	Y_WP:	0.500	X:	0.143	Y:	0.653	Z:	0.052	yaw:	1.569	yaw rate:	-20.717	Roll:	7.122	Pitch:	18.255	Yaw:	5.366	Thrust:	25.653
Time:	0.080	Roll Set Point:	-0.305	Pitch Set Point:	-1.302	Yaw Set Point:	-0.028	X_WP:	0.000	Y_WP:	0.000	Y_WP:	0.500	X:	0.143	Y:	0.653	Z:	0.052	yaw:	1.602	yaw rate:	-3.381	Roll:	5.066	Pitch:	18.802	Yaw:	2.710	Thrust:	26.684
Time:	0.101	Roll Set Point:	-0.305	Pitch Set Point:	-1.302	Yaw Set Point:	-0.028	X_WP:	0.000	Y_WP:	0.000	Y_WP:	0.500	X:	0.143	Y:	0.653	Z:	0.052	yaw:	1.602	yaw rate:	0.073	Roll:	4.705	Pitch:	18.939	Yaw:	2.260	Thrust:	27.983
Time:	0.123	Roll Set Point:	-0.305	Pitch Set Point:	-1.302	Yaw Set Point:	-0.029	X_WP:	0.000	Y_WP:	0.000	Y_WP:	0.500	X:	0.143	Y:	0.653	Z:	0.052	yaw:	1.640	yaw rate:	-3.876	Roll:	5.035	Pitch:	18.874	Yaw:	2.795	Thrust:	29.347
Time:	0.141	Roll Set Point:	-0.308	Pitch Set Point:	-1.302	Yaw Set Point:	-0.033	X_WP:	0.000	Y_WP:	0.000	Y_WP:	0.500	X:	0.143	Y:	0.653	Z:	0.052	yaw:	1.894	yaw rate:	-25.337	Roll:	7.673	Pitch:	18.357	Yaw:	6.476	Thrust:	29.098
Time:	0.160	Roll Set Point:	-0.308	Pitch Set Point:	-1.302	Yaw Set Point:	-0.032	X_WP:	0.000	Y_WP:	0.000	Y_WP:	0.500	X:	0.143	Y:	0.653	Z:	0.052	yaw:	1.855	yaw rate:	3.896	Roll:	4.462	Pitch:	19.046	Yaw:	2.135	Thrust:	30.998
Time:	0.187	Roll Set Point:	-0.305	Pitch Set Point:	-1.302	Yaw Set Point:	-0.028	X_WP:	0.000	Y_WP:	0.000	Y_WP:	0.500	X:	0.143	Y:	0.653	Z:	0.052	yaw:	1.624	yaw rate:	23.107	Roll:	3.044	Pitch:	19.468	Yaw:	0.071	Thrust:	34.658
Time:	0.202	Roll Set Point:	-0.301	Pitch Set Point:	-1.303	Yaw Set Point:	-0.023	X_WP:	0.000	Y_WP:	0.000	Y_WP:	0.500	X:	0.143	Y:	0.653	Z:	0.052	yaw:	1.336	yaw rate:	28.749	Roll:	0.789	Pitch:	19.996	Yaw:	-3.069	Thrust:	31.049
Time:	0.221	Roll Set Point:	-0.298	Pitch Set Point:	-1.303	Yaw Set Point:	-0.018	X_WP:	0.000	Y_WP:	0.000	Y_WP:	0.500	X:	0.143	Y:	0.653	Z:	0.052	yaw:	1.034	yaw rate:	30.201	Roll:	1.532	Pitch:	19.759	Yaw:	-2.509	Thrust:	34.369
Time:	0.240	Roll Set Point:	-0.296	Pitch Set Point:	-1.304	Yaw Set Point:	-0.016	X_WP:	0.000	Y_WP:	0.000	Y_WP:	0.500	X:	0.143	Y:	0.653	Z:	0.052	yaw:	0.893	yaw rate:	14.092	Roll:	2.896	Pitch:	19.652	Yaw:	-0.586	Thrust:	34.663
Time:	0.261	Roll Set Point:	-0.300	Pitch Set Point:	-1.303	Yaw Set Point:	-0.022	X_WP:	0.000	Y_WP:	0.000	Y_WP:	0.500	X:	0.143	Y:	0.653	Z:	0.052	yaw:	1.251	yaw rate:	-35.743	Roll:	7.912	Pitch:	18.529	Yaw:	6.467	Thrust:	36.580
Time:	0.282	Roll Set Point:	-0.292	Pitch Set Point:	-1.306	Yaw Set Point:	-0.009	X_WP:	0.000	Y_WP:	0.000	Y_WP:	0.500	X:	0.143	Y:	0.653	Z:	0.052	yaw:	0.499	yaw rate:	75.204	Roll:	-2.387	Pitch:	20.964	Yaw:	-8.155	Thrust:	39.392
Time:	0.302	Roll Set Point:	-0.298	Pitch Set Point:	-1.304	Yaw Set Point:	-0.018	X_WP:	0.000	Y_WP:	0.000	Y_WP:	0.500	X:	0.143	Y:	0.653	Z:	0.052	yaw:	1.013	yaw rate:	-51.404	Roll:	9.885	Pitch:	17.866	Yaw:	8.422	Thrust:	38.086
Time:	0.323	Roll Set Point:	-0.299	Pitch Set Point:	-1.303	Yaw Set Point:	-0.019	X_WP:	0.000	Y_WP:	0.000	Y_WP:	0.500	X:	0.143	Y:	0.653	Z:	0.052	yaw:	1.096	yaw rate:	-8.275	Roll:	5.373	Pitch:	19.124	Yaw:	2.696	Thrust:	39.974
Time:	0.341	Roll Set Point:	-0.306	Pitch Set Point:	-1.301	Yaw Set Point:	-0.031	X_WP:	0.000	Y_WP:	0.000	Y_WP:	0.500	X:	0.143	Y:	0.653	Z:	0.052	yaw:	1.754	yaw rate:	-65.854	Roll:	11.567	Pitch:	17.215	Yaw:	12.475	Thrust:	38.162
Time:	0.360	Roll Set Point:	-0.304	Pitch Set Point:	-1.301	Yaw Set Point:	-0.028	X_WP:	0.000	Y_WP:	0.000	Y_WP:	0.500	X:	0.143	Y:	0.653	Z:	0.053	yaw:	1.594	yaw rate:	15.982	Roll:	3.206	Pitch:	19.476	Yaw:	0.261	Thrust:	40.828
Time:	0.386	Roll Set Point:	-0.314	Pitch Set Point:	-1.298	Yaw Set Point:	-0.043	X_WP:	0.000	Y_WP:	0.000	Y_WP:	0.500	X:	0.143	Y:	0.652	Z:	0.053	yaw:	2.458	yaw rate:	-86.416	Roll:	11.977	Pitch:	17.455	Yaw:	12.451	Thrust:	47.051
Time:	0.401	Roll Set Point:	-0.325	Pitch Set Point:	-1.294	Yaw Set Point:	-0.061	X_WP:	0.000	Y_WP:	0.000	Y_WP:	0.500	X:	0.143	Y:	0.652	Z:	0.054	yaw:	3.481	yaw rate:	-102.305	Roll:	17.264	Pitch:	15.344	Yaw:	22.768	Thrust:	35.767
Time:	0.420	Roll Set Point:	-0.321	Pitch Set Point:	-1.293	Yaw Set Point:	-0.056	X_WP:	0.000	Y_WP:	0.000	Y_WP:	0.500	X:	0.143	Y:	0.651	Z:	0.055	yaw:	3.200	yaw rate:	28.106	Roll:	2.485	Pitch:	19.112	Yaw:	0.760	Thrust:	41.361
Time:	0.441	Roll Set Point:	-0.307	Pitch Set Point:	-1.293	Yaw Set Point:	-0.033	X_WP:	0.000	Y_WP:	0.000	Y_WP:	0.500	X:	0.143	Y:	0.649	Z:	0.056	yaw:	1.886	yaw rate:	131.470	Roll:	-7.592	Pitch:	21.204	Yaw:	-13.496	Thrust:	45.004
Time:	0.461	Roll Set Point:	-0.293	Pitch Set Point:	-1.293	Yaw Set Point:	-0.012	X_WP:	0.000	Y_WP:	0.000	Y_WP:	0.500	X:	0.143	Y:	0.647	Z:	0.058	yaw:	0.687	yaw rate:	119.878	Roll:	-6.396	Pitch:	20.670	Yaw:	-14.516	Thrust:	43.546
Time:	0.481	Roll Set Point:	-0.294	Pitch Set Point:	-1.289	Yaw Set Point:	-0.013	X_WP:	0.000	Y_WP:	0.000	Y_WP:	0.500	X:	0.142	Y:	0.645	Z:	0.059	yaw:	0.771	yaw rate:	-8.433	Roll:	5.091	Pitch:	17.285	Yaw:	2.410	Thrust:	45.227
Time:	0.502	Roll Set Point:	-0.275	Pitch Set Point:	-1.286	Yaw Set Point:	0.016	X_WP:	0.000	Y_WP:	0.000	Y_WP:	0.500	X:	0.142	Y:	0.642	Z:	0.060	yaw:	-0.896	yaw rate:	166.768	Roll:	-10.824	Pitch:	20.164	Yaw:	-21.745	Thrust:	48.730
Time:	0.523	Roll Set Point:	-0.254	Pitch Set Point:	-1.284	Yaw Set Point:	0.048	X_WP:	0.000	Y_WP:	0.000	Y_WP:	0.500	X:	0.142	Y:	0.639	Z:	0.060	yaw:	-2.733	yaw rate:	183.623	Roll:	-13.810	Pitch:	20.170	Yaw:	-26.518	Thrust:	50.095
Time:	0.542	Roll Set Point:	-0.248	Pitch Set Point:	-1.278	Yaw Set Point:	0.059	X_WP:	0.000	Y_WP:	0.000	Y_WP:	0.500	X:	0.143	Y:	0.635	Z:	0.061	yaw:	-3.385	yaw rate:	65.253	Roll:	-2.536	Pitch:	17.292	Yaw:	-13.725	Thrust:	46.939
Time:	0.559	Roll Set Point:	-0.223	Pitch Set Point:	-1.273	Yaw Set Point:	0.097	X_WP:	0.000	Y_WP:	0.000	Y_WP:	0.500	X:	0.143	Y:	0.631	Z:	0.062	yaw:	-5.563	yaw rate:	217.739	Roll:	-20.373	Pitch:	18.682	Yaw:	-40.070	Thrust:	47.285
Time:	0.585	Roll Set Point:	-0.204	Pitch Set Point:	-1.265	Yaw Set Point:	0.128	X_WP:	0.000	Y_WP:	0.000	Y_WP:	0.500	X:	0.143	Y:	0.626	Z:	0.062	yaw:	-7.359	yaw rate:	179.688	Roll:	-12.710	Pitch:	17.356	Yaw:	-28.527	Thrust:	58.189
Time:	0.600	Roll Set Point:	-0.189	Pitch Set Point:	-1.253	Yaw Set Point:	0.153	X_WP:	0.000	Y_WP:	0.000	Y_WP:	0.500	X:	0.143	Y:	0.619	Z:	0.062	yaw:	-8.793	yaw rate:	143.331	Roll:	-12.454	Pitch:	13.852	Yaw:	-36.979	Thrust:	49.424
Time:	0.621	Roll Set Point:	-0.173	Pitch Set Point:	-1.239	Yaw Set Point:	0.181	X_WP:	0.000	Y_WP:	0.000	Y_WP:	0.500	X:	0.143	Y:	0.612	Z:	0.063	yaw:	-10.384	yaw rate:	159.132	Roll:	-12.925	Pitch:	13.762	Yaw:	-34.699	Thrust:	54.592
Time:	0.641	Roll Set Point:	-0.188	Pitch Set Point:	-1.223	Yaw Set Point:	0.159	X_WP:	0.000	Y_WP:	0.000	Y_WP:	0.500	X:	0.143	Y:	0.604	Z:	0.063	yaw:	-9.125	yaw rate:	-125.901	Roll:	13.809	Pitch:	11.240	Yaw:	3.674	Thrust:	55.590
Time:	0.662	Roll Set Point:	-0.198	Pitch Set Point:	-1.203	Yaw Set Point:	0.145	X_WP:	0.000	Y_WP:	0.000	Y_WP:	0.500	X:	0.143	Y:	0.594	Z:	0.063	yaw:	-8.310	yaw rate:	-81.514	Roll:	10.031	Pitch:	9.990	Yaw:	-1.707	Thrust:	59.236
Time:	0.682	Roll Set Point:	-0.225	Pitch Set Point:	-1.178	Yaw Set Point:	0.102	X_WP:	0.000	Y_WP:	0.000	Y_WP:	0.500	X:	0.143	Y:	0.583	Z:	0.063	yaw:	-5.859	yaw rate:	-245.114	Roll:	25.023	Pitch:	6.521	Yaw:	23.823	Thrust:	57.856
Time:	0.702	Roll Set Point:	-0.238	Pitch Set Point:	-1.152	Yaw Set Point:	0.081	X_WP:	0.000	Y_WP:	0.000	Y_WP:	0.500	X:	0.142	Y:	0.571	Z:	0.063	yaw:	-4.622	yaw rate:	-123.649	Roll:	13.959	Pitch:	5.824	Yaw:	9.438	Thrust:	60.164
Time:	0.725	Roll Set Point:	-0.249	Pitch Set Point:	-1.122	Yaw Set Point:	0.061	X_WP:	0.000	Y_WP:	0.000	Y_WP:	0.500	X:	0.141	Y:	0.557	Z:	0.062	yaw:	-3.475	yaw rate:	-114.744	Roll:	12.537	Pitch:	4.889	Yaw:	8.213	Thrust:	65.872
Time:	0.740	Roll Set Point:	-0.246	Pitch Set Point:	-1.092	Yaw Set Point:	0.065	X_WP:	0.000	Y_WP:	0.000	Y_WP:	0.500	X:	0.141	Y:	0.542	Z:	0.062	yaw:	-3.701	yaw rate:	22.617	Roll:	0.986	Pitch:	1.239	Yaw:	-9.143	Thrust:	54.045
Time:	0.761	Roll Set Point:	-0.241	Pitch Set Point:	-1.062	Yaw Set Point:	0.073	X_WP:	0.000	Y_WP:	0.000	Y_WP:	0.500	X:	0.140	Y:	0.527	Z:	0.063	yaw:	-4.172	yaw rate:	47.136	Roll:	-0.215	Pitch:	4.278	Yaw:	-12.048	Thrust:	61.809
Time:	0.785	Roll Set Point:	-0.238	Pitch Set Point:	-1.028	Yaw Set Point:	0.078	X_WP:	0.000	Y_WP:	0.000	Y_WP:	0.500	X:	0.139	Y:	0.510	Z:	0.064	yaw:	-4.445	yaw rate:	27.309	Roll:	1.612	Pitch:	3.596	Yaw:	-9.550	Thrust:	68.664
Time:	0.800	Roll Set Point:	-0.227	Pitch Set Point:	-0.993	Yaw Set Point:	0.097	X_WP:	0.000	Y_WP:	0.000	Y_WP:	0.500	X:	0.138	Y:	0.491	Z:	0.065	yaw:	-5.567	yaw rate:	112.116	Roll:	-7.233	Pitch:	-2.006	Yaw:	-26.915	Thrust:	52.125
Time:	0.821	Roll Set Point:	-0.223	Pitch Set Point:	-0.954	Yaw Set Point:	0.099	X_WP:	0.000	Y_WP:	0.000	Y_WP:	0.500	X:	0.135	Y:	0.472	Z:	0.066	yaw:	-5.697	yaw rate:	13.055	Roll:	1.501	Pitch:	-2.098	Yaw:	-9.995	Thrust:	61.608
Time:	0.841	Roll Set Point:	-0.226	Pitch Set Point:	-0.912	Yaw Set Point:	0.087	X_WP:	0.000	Y_WP:	0.000	Y_WP:	0.500	X:	0.133	Y:	0.451	Z:	0.068	yaw:	-5.004	yaw rate:	-69.294	Roll:	7.167	Pitch:	-3.657	Yaw:	1.656	Thrust:	65.354
Time:	0.861	Roll Set Point:	-0.234	Pitch Set Point:	-0.865	Yaw Set Point:	0.059	X_WP:	0.000	Y_WP:	0.000	Y_WP:	0.500	X:	0.130	Y:	0.429	Z:	0.070	yaw:	-3.375	yaw rate:	-162.942	Roll:	12.987	Pitch:	-9.283	Yaw:	17.608	Thrust:	58.988
Time:	0.881	Roll Set Point:	-0.229	Pitch Set Point:	-0.818	Yaw Set Point:	0.055	X_WP:	0.000	Y_WP:	0.000	Y_WP:	0.500	X:	0.126	Y:	0.406	Z:	0.072	yaw:	-3.127	yaw rate:	-24.748	Roll:	2.657	Pitch:	-6.307	Yaw:	-1.781	Thrust:	65.533
Time:	0.903	Roll Set Point:	-0.229	Pitch Set Point:	-0.769	Yaw Set Point:	0.032	X_WP:	0.000	Y_WP:	0.000	Y_WP:	0.500	X:	0.121	Y:	0.383	Z:	0.075	yaw:	-1.830	yaw rate:	-129.774	Roll:	7.551	Pitch:	-8.184	Yaw:	12.572	Thrust:	66.551
Time:	0.923	Roll Set Point:	-0.224	Pitch Set Point:	-0.719	Yaw Set Point:	0.024	X_WP:	0.000	Y_WP:	0.000	Y_WP:	0.500	X:	0.116	Y:	0.358	Z:	0.079	yaw:	-1.382	yaw rate:	-44.712	Roll:	2.528	Pitch:	-9.784	Yaw:	3.191	Thrust:	64.330
Time:	0.941	Roll Set Point:	-0.219	Pitch Set Point:	-0.667	Yaw Set Point:	0.007	X_WP:	0.000	Y_WP:	0.000	Y_WP:	0.500	X:	0.111	Y:	0.333	Z:	0.083	yaw:	-0.422	yaw rate:	-96.046	Roll:	4.101	Pitch:	-16.339	Yaw:	13.689	Thrust:	52.106
Time:	0.961	Roll Set Point:	-0.204	Pitch Set Point:	-0.616	Yaw Set Point:	0.019	X_WP:	0.000	Y_WP:	0.000	Y_WP:	0.500	X:	0.105	Y:	0.307	Z:	0.087	yaw:	-1.087	yaw rate:	66.528	Roll:	-5.193	Pitch:	-12.442	Yaw:	-10.664	Thrust:	62.250
Time:	0.984	Roll Set Point:	-0.197	Pitch Set Point:	-0.562	Yaw Set Point:	-0.004	X_WP:	0.000	Y_WP:	0.000	Y_WP:	0.500	X:	0.098	Y:	0.281	Z:	0.092	yaw:	0.228	yaw rate:	-131.567	Roll:	3.528	Pitch:	-11.567	Yaw:	14.521	Thrust:	72.396
Time:	1.000	Roll Set Point:	-0.183	Pitch Set Point:	-0.510	Yaw Set Point:	0.002	X_WP:	0.000	Y_WP:	0.000	Y_WP:	0.500	X:	0.092	Y:	0.255	Z:	0.098	yaw:	-0.097	yaw rate:	32.518	Roll:	-4.734	Pitch:	-16.979	Yaw:	-5.706	Thrust:	46.104
Time:	1.021	Roll Set Point:	-0.171	Pitch Set Point:	-0.456	Yaw Set Point:	-0.011	X_WP:	0.000	Y_WP:	0.000	Y_WP:	0.500	X:	0.084	Y:	0.229	Z:	0.104	yaw:	0.634	yaw rate:	-73.117	Roll:	-1.128	Pitch:	-16.508	Yaw:	9.777	Thrust:	57.654
Time:	1.040	Roll Set Point:	-0.156	Pitch Set Point:	-0.405	Yaw Set Point:	-0.013	X_WP:	0.000	Y_WP:	0.000	Y_WP:	0.500	X:	0.076	Y:	0.203	Z:	0.110	yaw:	0.745	yaw rate:	-11.029	Roll:	-3.805	Pitch:	-15.371	Yaw:	2.067	Thrust:	59.669
Time:	1.060	Roll Set Point:	-0.142	Pitch Set Point:	-0.352	Yaw Set Point:	-0.025	X_WP:	0.000	Y_WP:	0.000	Y_WP:	0.500	X:	0.069	Y:	0.177	Z:	0.117	yaw:	1.437	yaw rate:	-69.253	Roll:	-2.527	Pitch:	-16.419	Yaw:	10.443	Thrust:	60.408
Time:	1.082	Roll Set Point:	-0.127	Pitch Set Point:	-0.302	Yaw Set Point:	-0.036	X_WP:	0.000	Y_WP:	0.000	Y_WP:	0.500	X:	0.061	Y:	0.152	Z:	0.124	yaw:	2.050	yaw rate:	-61.280	Roll:	-3.499	Pitch:	-15.568	Yaw:	9.954	Thrust:	63.095
Time:	1.102	Roll Set Point:	-0.110	Pitch Set Point:	-0.252	Yaw Set Point:	-0.042	X_WP:	0.000	Y_WP:	0.000	Y_WP:	0.500	X:	0.053	Y:	0.127	Z:	0.131	yaw:	2.406	yaw rate:	-35.586	Roll:	-4.812	Pitch:	-15.389	Yaw:	7.254	Thrust:	63.216
Time:	1.122	Roll Set Point:	-0.094	Pitch Set Point:	-0.204	Yaw Set Point:	-0.060	X_WP:	0.000	Y_WP:	0.000	Y_WP:	0.500	X:	0.044	Y:	0.103	Z:	0.139	yaw:	3.444	yaw rate:	-103.808	Roll:	-4.421	Pitch:	-16.907	Yaw:	17.836	Thrust:	59.217
Time:	1.143	Roll Set Point:	-0.077	Pitch Set Point:	-0.158	Yaw Set Point:	-0.071	X_WP:	0.000	Y_WP:	0.000	Y_WP:	0.500	X:	0.036	Y:	0.080	Z:	0.145	yaw:	4.063	yaw rate:	-61.872	Roll:	-5.983	Pitch:	-16.151	Yaw:	12.901	Thrust:	66.296
Time:	1.160	Roll Set Point:	-0.060	Pitch Set Point:	-0.112	Yaw Set Point:	-0.076	X_WP:	0.000	Y_WP:	0.000	Y_WP:	0.500	X:	0.028	Y:	0.057	Z:	0.153	yaw:	4.357	yaw rate:	-29.456	Roll:	-7.880	Pitch:	-20.151	Yaw:	10.371	Thrust:	45.829
Time:	1.184	Roll Set Point:	-0.041	Pitch Set Point:	-0.069	Yaw Set Point:	-0.085	X_WP:	0.000	Y_WP:	0.000	Y_WP:	0.500	X:	0.019	Y:	0.036	Z:	0.161	yaw:	4.879	yaw rate:	-52.136	Roll:	-6.367	Pitch:	-13.169	Yaw:	12.094	Thrust:	73.834
Time:	1.200	Roll Set Point:	-0.023	Pitch Set Point:	-0.028	Yaw Set Point:	-0.079	X_WP:	0.000	Y_WP:	0.000	Y_WP:	0.500	X:	0.011	Y:	0.014	Z:	0.169	yaw:	4.547	yaw rate:	33.113	Roll:	-9.098	Pitch:	-20.322	Yaw:	0.722	Thrust:	42.822
Time:	1.221	Roll Set Point:	-0.007	Pitch Set Point:	0.011	Yaw Set Point:	-0.091	X_WP:	0.000	Y_WP:	0.000	Y_WP:	0.500	X:	0.004	Y:	-0.005	Z:	0.178	yaw:	5.190	yaw rate:	-64.305	Roll:	-7.362	Pitch:	-15.576	Yaw:	14.855	Thrust:	59.033
Time:	1.240	Roll Set Point:	0.012	Pitch Set Point:	0.048	Yaw Set Point:	-0.054	X_WP:	0.000	Y_WP:	0.000	Y_WP:	0.500	X:	-0.005	Y:	-0.024	Z:	0.186	yaw:	3.103	yaw rate:	208.789	Roll:	-8.028	Pitch:	-15.165	Yaw:	-24.628	Thrust:	61.227
Time:	1.265	Roll Set Point:	0.029	Pitch Set Point:	0.083	Yaw Set Point:	-0.057	X_WP:	0.000	Y_WP:	0.000	Y_WP:	0.500	X:	-0.013	Y:	-0.042	Z:	0.194	yaw:	3.254	yaw rate:	-15.190	Roll:	-6.830	Pitch:	-12.431	Yaw:	5.877	Thrust:	77.178
Time:	1.283	Roll Set Point:	0.046	Pitch Set Point:	0.116	Yaw Set Point:	-0.061	X_WP:	0.000	Y_WP:	0.000	Y_WP:	0.500	X:	-0.021	Y:	-0.059	Z:	0.201	yaw:	3.495	yaw rate:	-24.063	Roll:	-8.442	Pitch:	-16.001	Yaw:	7.988	Thrust:	58.113
Time:	1.301	Roll Set Point:	0.062	Pitch Set Point:	0.147	Yaw Set Point:	-0.059	X_WP:	0.000	Y_WP:	0.000	Y_WP:	0.500	X:	-0.029	Y:	-0.075	Z:	0.208	yaw:	3.395	yaw rate:	9.993	Roll:	-8.264	Pitch:	-16.018	Yaw:	3.099	Thrust:	53.786
Time:	1.325	Roll Set Point:	0.076	Pitch Set Point:	0.177	Yaw Set Point:	-0.049	X_WP:	0.000	Y_WP:	0.000	Y_WP:	0.500	X:	-0.036	Y:	-0.090	Z:	0.215	yaw:	2.813	yaw rate:	58.188	Roll:	-5.843	Pitch:	-12.154	Yaw:	-2.705	Thrust:	79.525
Time:	1.341	Roll Set Point:	0.088	Pitch Set Point:	0.206	Yaw Set Point:	-0.032	X_WP:	0.000	Y_WP:	0.000	Y_WP:	0.500	X:	-0.043	Y:	-0.103	Z:	0.223	yaw:	1.814	yaw rate:	99.953	Roll:	-7.249	Pitch:	-18.639	Yaw:	-14.417	Thrust:	43.260
Time:	1.361	Roll Set Point:	0.102	Pitch Set Point:	0.230	Yaw Set Point:	-0.032	X_WP:	0.000	Y_WP:	0.000	Y_WP:	0.500	X:	-0.049	Y:	-0.116	Z:	0.231	yaw:	1.839	yaw rate:	-2.533	Roll:	-7.332	Pitch:	-13.494	Yaw:	2.750	Thrust:	61.565
Time:	1.386	Roll Set Point:	0.116	Pitch Set Point:	0.252	Yaw Set Point:	-0.039	X_WP:	0.000	Y_WP:	0.000	Y_WP:	0.500	X:	-0.055	Y:	-0.127	Z:	0.238	yaw:	2.252	yaw rate:	-41.282	Roll:	-6.453	Pitch:	-9.387	Yaw:	7.284	Thrust:	83.627
Time:	1.401	Roll Set Point:	0.129	Pitch Set Point:	0.270	Yaw Set Point:	-0.053	X_WP:	0.000	Y_WP:	0.000	Y_WP:	0.500	X:	-0.061	Y:	-0.137	Z:	0.245	yaw:	3.059	yaw rate:	-80.694	Roll:	-10.331	Pitch:	-12.863	Yaw:	18.010	Thrust:	43.203
Time:	1.421	Roll Set Point:	0.139	Pitch Set Point:	0.289	Yaw Set Point:	-0.046	X_WP:	0.000	Y_WP:	0.000	Y_WP:	0.500	X:	-0.066	Y:	-0.146	Z:	0.253	yaw:	2.632	yaw rate:	42.731	Roll:	-5.848	Pitch:	-11.655	Yaw:	-2.009	Thrust:	63.325
Time:	1.440	Roll Set Point:	0.148	Pitch Set Point:	0.306	Yaw Set Point:	-0.032	X_WP:	0.000	Y_WP:	0.000	Y_WP:	0.500	X:	-0.072	Y:	-0.154	Z:	0.261	yaw:	1.805	yaw rate:	82.651	Roll:	-4.892	Pitch:	-11.698	Yaw:	-8.922	Thrust:	60.045
Time:	1.461	Roll Set Point:	0.157	Pitch Set Point:	0.320	Yaw Set Point:	-0.030	X_WP:	0.000	Y_WP:	0.000	Y_WP:	0.500	X:	-0.076	Y:	-0.161	Z:	0.268	yaw:	1.711	yaw rate:	9.444	Roll:	-5.722	Pitch:	-9.945	Yaw:	1.079	Thrust:	64.772
Time:	1.482	Roll Set Point:	0.163	Pitch Set Point:	0.333	Yaw Set Point:	-0.022	X_WP:	0.000	Y_WP:	0.000	Y_WP:	0.500	X:	-0.080	Y:	-0.168	Z:	0.276	yaw:	1.255	yaw rate:	45.538	Roll:	-4.230	Pitch:	-9.583	Yaw:	-3.928	Thrust:	69.879
Time:	1.501	Roll Set Point:	0.171	Pitch Set Point:	0.344	Yaw Set Point:	-0.021	X_WP:	0.000	Y_WP:	0.000	Y_WP:	0.500	X:	-0.084	Y:	-0.173	Z:	0.283	yaw:	1.189	yaw rate:	6.644	Roll:	-5.558	Pitch:	-8.831	Yaw:	0.704	Thrust:	61.546
Time:	1.525	Roll Set Point:	0.178	Pitch Set Point:	0.351	Yaw Set Point:	-0.025	X_WP:	0.000	Y_WP:	0.000	Y_WP:	0.500	X:	-0.087	Y:	-0.177	Z:	0.290	yaw:	1.448	yaw rate:	-25.916	Roll:	-5.334	Pitch:	-6.678	Yaw:	4.704	Thrust:	85.728
Time:	1.541	Roll Set Point:	0.184	Pitch Set Point:	0.358	Yaw Set Point:	-0.023	X_WP:	0.000	Y_WP:	0.000	Y_WP:	0.500	X:	-0.090	Y:	-0.180	Z:	0.297	yaw:	1.297	yaw rate:	15.095	Roll:	-5.073	Pitch:	-8.492	Yaw:	-0.763	Thrust:	44.410
Time:	1.560	Roll Set Point:	0.190	Pitch Set Point:	0.362	Yaw Set Point:	-0.027	X_WP:	0.000	Y_WP:	0.000	Y_WP:	0.500	X:	-0.093	Y:	-0.182	Z:	0.305	yaw:	1.519	yaw rate:	-22.156	Roll:	-5.613	Pitch:	-6.126	Yaw:	5.103	Thrust:	62.071
Time:	1.587	Roll Set Point:	0.194	Pitch Set Point:	0.366	Yaw Set Point:	-0.023	X_WP:	0.000	Y_WP:	0.000	Y_WP:	0.500	X:	-0.095	Y:	-0.184	Z:	0.313	yaw:	1.290	yaw rate:	22.882	Roll:	-3.551	Pitch:	-5.727	Yaw:	-0.485	Thrust:	91.577
Time:	1.600	Roll Set Point:	0.197	Pitch Set Point:	0.367	Yaw Set Point:	-0.022	X_WP:	0.000	Y_WP:	0.000	Y_WP:	0.500	X:	-0.097	Y:	-0.185	Z:	0.320	yaw:	1.234	yaw rate:	5.554	Roll:	-4.854	Pitch:	-5.845	Yaw:	0.650	Thrust:	32.651
Time:	1.621	Roll Set Point:	0.199	Pitch Set Point:	0.368	Yaw Set Point:	-0.016	X_WP:	0.000	Y_WP:	0.000	Y_WP:	0.500	X:	-0.098	Y:	-0.185	Z:	0.329	yaw:	0.897	yaw rate:	33.709	Roll:	-3.018	Pitch:	-5.398	Yaw:	-3.030	Thrust:	66.446
Time:	1.640	Roll Set Point:	0.202	Pitch Set Point:	0.367	Yaw Set Point:	-0.019	X_WP:	0.000	Y_WP:	0.000	Y_WP:	0.500	X:	-0.099	Y:	-0.185	Z:	0.337	yaw:	1.096	yaw rate:	-19.856	Roll:	-4.288	Pitch:	-3.914	Yaw:	4.265	Thrust:	58.916
Time:	1.660	Roll Set Point:	0.204	Pitch Set Point:	0.365	Yaw Set Point:	-0.019	X_WP:	0.000	Y_WP:	0.000	Y_WP:	0.500	X:	-0.100	Y:	-0.184	Z:	0.345	yaw:	1.100	yaw rate:	-0.438	Roll:	-3.360	Pitch:	-3.818	Yaw:	1.607	Thrust:	65.764
Time:	1.680	Roll Set Point:	0.211	Pitch Set Point:	0.358	Yaw Set Point:	-0.053	X_WP:	0.000	Y_WP:	0.000	Y_WP:	0.500	X:	-0.101	Y:	-0.182	Z:	0.354	yaw:	3.043	yaw rate:	-194.313	Roll:	-8.532	Pitch:	-0.047	Yaw:	30.433	Thrust:	59.410
Time:	1.705	Roll Set Point:	0.207	Pitch Set Point:	0.357	Yaw Set Point:	-0.024	X_WP:	0.000	Y_WP:	0.000	Y_WP:	0.500	X:	-0.101	Y:	-0.180	Z:	0.362	yaw:	1.368	yaw rate:	167.544	Roll:	0.501	Pitch:	-5.025	Yaw:	-15.254	Thrust:	87.423
Time:	1.724	Roll Set Point:	0.207	Pitch Set Point:	0.352	Yaw Set Point:	-0.026	X_WP:	0.000	Y_WP:	0.000	Y_WP:	0.500	X:	-0.101	Y:	-0.177	Z:	0.370	yaw:	1.517	yaw rate:	-14.906	Roll:	-3.215	Pitch:	-1.968	Yaw:	4.259	Thrust:	52.433
Time:	1.741	Roll Set Point:	0.205	Pitch Set Point:	0.347	Yaw Set Point:	-0.021	X_WP:	0.000	Y_WP:	0.000	Y_WP:	0.500	X:	-0.101	Y:	-0.175	Z:	0.378	yaw:	1.222	yaw rate:	29.497	Roll:	-1.553	Pitch:	-2.320	Yaw:	-2.665	Thrust:	53.191
Time:	1.760	Roll Set Point:	0.208	Pitch Set Point:	0.339	Yaw Set Point:	-0.047	X_WP:	0.000	Y_WP:	0.000	Y_WP:	0.500	X:	-0.100	Y:	-0.172	Z:	0.386	yaw:	2.716	yaw rate:	-149.419	Roll:	-5.998	Pitch:	0.666	Yaw:	24.852	Thrust:	59.524
Time:	1.787	Roll Set Point:	0.198	Pitch Set Point:	0.337	Yaw Set Point:	0.010	X_WP:	0.000	Y_WP:	0.000	Y_WP:	0.500	X:	-0.100	Y:	-0.168	Z:	0.394	yaw:	-0.554	yaw rate:	327.003	Roll:	3.869	Pitch:	-5.627	Yaw:	-32.533	Thrust:	93.324
Time:	1.800	Roll Set Point:	0.195	Pitch Set Point:	0.330	Yaw Set Point:	0.012	X_WP:	0.000	Y_WP:	0.000	Y_WP:	0.500	X:	-0.099	Y:	-0.164	Z:	0.402	yaw:	-0.700	yaw rate:	14.608	Roll:	-0.880	Pitch:	-0.179	Yaw:	-3.741	Thrust:	29.426
Time:	1.820	Roll Set Point:	0.191	Pitch Set Point:	0.323	Yaw Set Point:	0.017	X_WP:	0.000	Y_WP:	0.000	Y_WP:	0.500	X:	-0.097	Y:	-0.161	Z:	0.410	yaw:	-0.996	yaw rate:	29.616	Roll:	-0.417	Pitch:	-1.522	Yaw:	-5.182	Thrust:	61.924
Time:	1.840	Roll Set Point:	0.187	Pitch Set Point:	0.316	Yaw Set Point:	0.022	X_WP:	0.000	Y_WP:	0.000	Y_WP:	0.500	X:	-0.095	Y:	-0.157	Z:	0.418	yaw:	-1.249	yaw rate:	25.233	Roll:	-0.366	Pitch:	-1.036	Yaw:	-4.962	Thrust:	62.265
Time:	1.860	Roll Set Point:	0.182	Pitch Set Point:	0.308	Yaw Set Point:	0.024	X_WP:	0.000	Y_WP:	0.000	Y_WP:	0.500	X:	-0.093	Y:	-0.153	Z:	0.427	yaw:	-1.371	yaw rate:	12.225	Roll:	-0.268	Pitch:	-0.729	Yaw:	-3.454	Thrust:	60.525
Time:	1.881	Roll Set Point:	0.179	Pitch Set Point:	0.299	Yaw Set Point:	0.009	X_WP:	0.000	Y_WP:	0.000	Y_WP:	0.500	X:	-0.090	Y:	-0.149	Z:	0.435	yaw:	-0.529	yaw rate:	-84.179	Roll:	-2.005	Pitch:	0.467	Yaw:	10.041	Thrust:	60.980
Time:	1.902	Roll Set Point:	0.178	Pitch Set Point:	0.288	Yaw Set Point:	-0.019	X_WP:	0.000	Y_WP:	0.000	Y_WP:	0.500	X:	-0.087	Y:	-0.145	Z:	0.444	yaw:	1.115	yaw rate:	-164.430	Roll:	-3.488	Pitch:	1.846	Yaw:	21.872	Thrust:	68.229
Time:	1.924	Roll Set Point:	0.172	Pitch Set Point:	0.279	Yaw Set Point:	-0.022	X_WP:	0.000	Y_WP:	0.000	Y_WP:	0.500	X:	-0.085	Y:	-0.141	Z:	0.452	yaw:	1.275	yaw rate:	-16.019	Roll:	-0.375	Pitch:	0.033	Yaw:	3.760	Thrust:	69.182
Time:	1.941	Roll Set Point:	0.166	Pitch Set Point:	0.272	Yaw Set Point:	-0.020	X_WP:	0.000	Y_WP:	0.000	Y_WP:	0.500	X:	-0.082	Y:	-0.137	Z:	0.461	yaw:	1.135	yaw rate:	13.993	Roll:	1.070	Pitch:	0.257	Yaw:	-0.558	Thrust:	40.518
Time:	1.960	Roll Set Point:	0.159	Pitch Set Point:	0.264	Yaw Set Point:	-0.015	X_WP:	0.000	Y_WP:	0.000	Y_WP:	0.500	X:	-0.079	Y:	-0.132	Z:	0.469	yaw:	0.884	yaw rate:	25.133	Roll:	1.006	Pitch:	-0.211	Yaw:	-2.048	Thrust:	59.686
Time:	1.985	Roll Set Point:	0.152	Pitch Set Point:	0.256	Yaw Set Point:	-0.010	X_WP:	0.000	Y_WP:	0.000	Y_WP:	0.500	X:	-0.075	Y:	-0.128	Z:	0.478	yaw:	0.546	yaw rate:	33.859	Roll:	1.075	Pitch:	-0.572	Yaw:	-2.755	Thrust:	74.900
Time:	2.001	Roll Set Point:	0.145	Pitch Set Point:	0.248	Yaw Set Point:	-0.011	X_WP:	0.000	Y_WP:	0.000	Y_WP:	0.500	X:	-0.072	Y:	-0.125	Z:	0.486	yaw:	0.645	yaw rate:	-9.964	Roll:	0.977	Pitch:	0.798	Yaw:	2.604	Thrust:	42.845
Time:	2.022	Roll Set Point:	0.139	Pitch Set Point:	0.241	Yaw Set Point:	-0.016	X_WP:	0.000	Y_WP:	0.000	Y_WP:	0.500	X:	-0.069	Y:	-0.121	Z:	0.495	yaw:	0.944	yaw rate:	-29.839	Roll:	0.424	Pitch:	0.347	Yaw:	5.149	Thrust:	62.347
Time:	2.042	Roll Set Point:	0.131	Pitch Set Point:	0.233	Yaw Set Point:	-0.005	X_WP:	0.000	Y_WP:	0.000	Y_WP:	0.500	X:	-0.065	Y:	-0.117	Z:	0.504	yaw:	0.290	yaw rate:	65.372	Roll:	2.229	Pitch:	-0.240	Yaw:	-8.030	Thrust:	57.223
Time:	2.060	Roll Set Point:	0.125	Pitch Set Point:	0.226	Yaw Set Point:	-0.012	X_WP:	0.000	Y_WP:	0.000	Y_WP:	0.500	X:	-0.062	Y:	-0.113	Z:	0.512	yaw:	0.673	yaw rate:	-38.277	Roll:	0.908	Pitch:	0.784	Yaw:	6.476	Thrust:	50.219
Time:	2.082	Roll Set Point:	0.118	Pitch Set Point:	0.219	Yaw Set Point:	-0.006	X_WP:	0.000	Y_WP:	0.000	Y_WP:	0.500	X:	-0.059	Y:	-0.110	Z:	0.520	yaw:	0.321	yaw rate:	35.117	Roll:	1.495	Pitch:	-0.093	Yaw:	-3.586	Thrust:	67.755
Time:	2.104	Roll Set Point:	0.111	Pitch Set Point:	0.212	Yaw Set Point:	-0.020	X_WP:	0.000	Y_WP:	0.000	Y_WP:	0.500	X:	-0.055	Y:	-0.107	Z:	0.527	yaw:	1.155	yaw rate:	-83.387	Roll:	0.491	Pitch:	0.512	Yaw:	11.618	Thrust:	63.676
Time:	2.131	Roll Set Point:	0.104	Pitch Set Point:	0.205	Yaw Set Point:	-0.008	X_WP:	0.000	Y_WP:	0.000	Y_WP:	0.500	X:	-0.052	Y:	-0.103	Z:	0.534	yaw:	0.440	yaw rate:	71.551	Roll:	1.490	Pitch:	-0.392	Yaw:	-6.499	Thrust:	88.525
Time:	2.143	Roll Set Point:	0.099	Pitch Set Point:	0.198	Yaw Set Point:	-0.019	X_WP:	0.000	Y_WP:	0.000	Y_WP:	0.500	X:	-0.048	Y:	-0.100	Z:	0.541	yaw:	1.070	yaw rate:	-63.062	Roll:	1.356	Pitch:	2.310	Yaw:	14.737	Thrust:	18.445
Time:	2.160	Roll Set Point:	0.092	Pitch Set Point:	0.192	Yaw Set Point:	-0.016	X_WP:	0.000	Y_WP:	0.000	Y_WP:	0.500	X:	-0.045	Y:	-0.096	Z:	0.548	yaw:	0.945	yaw rate:	12.560	Roll:	1.941	Pitch:	0.520	Yaw:	-0.478	Thrust:	47.845
Time:	2.190	Roll Set Point:	0.087	Pitch Set Point:	0.186	Yaw Set Point:	-0.017	X_WP:	0.000	Y_WP:	0.000	Y_WP:	0.500	X:	-0.042	Y:	-0.093	Z:	0.555	yaw:	0.972	yaw rate:	-2.673	Roll:	0.713	Pitch:	-0.300	Yaw:	1.790	Thrust:	98.962
Time:	2.202	Roll Set Point:	0.081	Pitch Set Point:	0.179	Yaw Set Point:	-0.016	X_WP:	0.000	Y_WP:	0.000	Y_WP:	0.500	X:	-0.040	Y:	-0.090	Z:	0.562	yaw:	0.943	yaw rate:	2.835	Roll:	2.475	Pitch:	2.665	Yaw:	0.754	Thrust:	12.547
Time:	2.220	Roll Set Point:	0.075	Pitch Set Point:	0.174	Yaw Set Point:	-0.017	X_WP:	0.000	Y_WP:	0.000	Y_WP:	0.500	X:	-0.037	Y:	-0.088	Z:	0.568	yaw:	0.981	yaw rate:	-3.760	Roll:	1.784	Pitch:	-0.126	Yaw:	2.026	Thrust:	54.371
Time:	2.240	Roll Set Point:	0.070	Pitch Set Point:	0.169	Yaw Set Point:	-0.016	X_WP:	0.000	Y_WP:	0.000	Y_WP:	0.500	X:	-0.034	Y:	-0.085	Z:	0.575	yaw:	0.943	yaw rate:	3.766	Roll:	1.400	Pitch:	0.339	Yaw:	0.979	Thrust:	57.931
Time:	2.262	Roll Set Point:	0.064	Pitch Set Point:	0.164	Yaw Set Point:	-0.011	X_WP:	0.000	Y_WP:	0.000	Y_WP:	0.500	X:	-0.032	Y:	-0.082	Z:	0.581	yaw:	0.634	yaw rate:	30.969	Roll:	1.647	Pitch:	-0.028	Yaw:	-2.744	Thrust:	63.072
Time:	2.287	Roll Set Point:	0.059	Pitch Set Point:	0.159	Yaw Set Point:	-0.005	X_WP:	0.000	Y_WP:	0.000	Y_WP:	0.500	X:	-0.029	Y:	-0.080	Z:	0.587	yaw:	0.265	yaw rate:	36.801	Roll:	1.387	Pitch:	-0.282	Yaw:	-3.272	Thrust:	75.174
Time:	2.302	Roll Set Point:	0.056	Pitch Set Point:	0.154	Yaw Set Point:	-0.019	X_WP:	0.000	Y_WP:	0.000	Y_WP:	0.500	X:	-0.027	Y:	-0.077	Z:	0.592	yaw:	1.101	yaw rate:	-83.544	Roll:	0.384	Pitch:	0.946	Yaw:	15.629	Thrust:	44.647
Time:	2.324	Roll Set Point:	0.051	Pitch Set Point:	0.149	Yaw Set Point:	-0.012	X_WP:	0.000	Y_WP:	0.000	Y_WP:	0.500	X:	-0.025	Y:	-0.075	Z:	0.597	yaw:	0.681	yaw rate:	41.993	Roll:	1.340	Pitch:	-0.043	Yaw:	-3.893	Thrust:	66.329
Time:	2.341	Roll Set Point:	0.047	Pitch Set Point:	0.145	Yaw Set Point:	-0.009	X_WP:	0.000	Y_WP:	0.000	Y_WP:	0.500	X:	-0.023	Y:	-0.073	Z:	0.602	yaw:	0.524	yaw rate:	15.708	Roll:	1.629	Pitch:	0.288	Yaw:	-1.532	Thrust:	45.503
Time:	2.361	Roll Set Point:	0.044	Pitch Set Point:	0.141	Yaw Set Point:	-0.009	X_WP:	0.000	Y_WP:	0.000	Y_WP:	0.500	X:	-0.021	Y:	-0.071	Z:	0.606	yaw:	0.536	yaw rate:	-1.176	Roll:	0.933	Pitch:	0.068	Yaw:	1.085	Thrust:	58.867
Time:	2.388	Roll Set Point:	0.040	Pitch Set Point:	0.138	Yaw Set Point:	-0.007	X_WP:	0.000	Y_WP:	0.000	Y_WP:	0.500	X:	-0.020	Y:	-0.069	Z:	0.611	yaw:	0.378	yaw rate:	15.773	Roll:	1.064	Pitch:	-0.388	Yaw:	-0.846	Thrust:	80.596
Time:	2.402	Roll Set Point:	0.038	Pitch Set Point:	0.134	Yaw Set Point:	-0.010	X_WP:	0.000	Y_WP:	0.000	Y_WP:	0.500	X:	-0.018	Y:	-0.067	Z:	0.617	yaw:	0.591	yaw rate:	-21.335	Roll:	0.522	Pitch:	0.647	Yaw:	4.784	Thrust:	31.713
Time:	2.422	Roll Set Point:	0.035	Pitch Set Point:	0.130	Yaw Set Point:	-0.015	X_WP:	0.000	Y_WP:	0.000	Y_WP:	0.500	X:	-0.017	Y:	-0.065	Z:	0.621	yaw:	0.847	yaw rate:	-25.558	Roll:	0.514	Pitch:	-0.017	Yaw:	4.672	Thrust:	57.500
Time:	2.441	Roll Set Point:	0.033	Pitch Set Point:	0.127	Yaw Set Point:	-0.017	X_WP:	0.000	Y_WP:	0.000	Y_WP:	0.500	X:	-0.016	Y:	-0.064	Z:	0.626	yaw:	0.980	yaw rate:	-13.261	Roll:	0.501	Pitch:	0.134	Yaw:	3.474	Thrust:	47.034
Time:	2.461	Roll Set Point:	0.031	Pitch Set Point:	0.124	Yaw Set Point:	-0.018	X_WP:	0.000	Y_WP:	0.000	Y_WP:	0.500	X:	-0.015	Y:	-0.062	Z:	0.631	yaw:	1.032	yaw rate:	-5.226	Roll:	0.377	Pitch:	-0.182	Yaw:	2.298	Thrust:	61.445
Time:	2.483	Roll Set Point:	0.030	Pitch Set Point:	0.121	Yaw Set Point:	-0.026	X_WP:	0.000	Y_WP:	0.000	Y_WP:	0.500	X:	-0.014	Y:	-0.061	Z:	0.636	yaw:	1.482	yaw rate:	-44.996	Roll:	0.033	Pitch:	-0.216	Yaw:	7.759	Thrust:	61.852
Time:	2.503	Roll Set Point:	0.028	Pitch Set Point:	0.118	Yaw Set Point:	-0.015	X_WP:	0.000	Y_WP:	0.000	Y_WP:	0.500	X:	-0.014	Y:	-0.059	Z:	0.640	yaw:	0.832	yaw rate:	65.005	Roll:	0.763	Pitch:	-0.123	Yaw:	-6.989	Thrust:	56.008
Time:	2.526	Roll Set Point:	0.028	Pitch Set Point:	0.115	Yaw Set Point:	-0.025	X_WP:	0.000	Y_WP:	0.000	Y_WP:	0.500	X:	-0.013	Y:	-0.058	Z:	0.644	yaw:	1.416	yaw rate:	-58.461	Roll:	-0.241	Pitch:	-0.251	Yaw:	8.893	Thrust:	67.291
Time:	2.541	Roll Set Point:	0.027	Pitch Set Point:	0.113	Yaw Set Point:	-0.027	X_WP:	0.000	Y_WP:	0.000	Y_WP:	0.500	X:	-0.013	Y:	-0.057	Z:	0.648	yaw:	1.526	yaw rate:	-11.005	Roll:	0.235	Pitch:	0.116	Yaw:	4.286	Thrust:	32.256
Time:	2.562	Roll Set Point:	0.025	Pitch Set Point:	0.111	Yaw Set Point:	-0.004	X_WP:	0.000	Y_WP:	0.000	Y_WP:	0.500	X:	-0.012	Y:	-0.055	Z:	0.652	yaw:	0.257	yaw rate:	126.900	Roll:	1.036	Pitch:	-0.382	Yaw:	-15.078	Thrust:	59.297
Time:	2.595	Roll Set Point:	0.024	Pitch Set Point:	0.108	Yaw Set Point:	-0.019	X_WP:	0.000	Y_WP:	0.000	Y_WP:	0.500	X:	-0.012	Y:	-0.054	Z:	0.656	yaw:	1.103	yaw rate:	-84.553	Roll:	-0.290	Pitch:	-0.387	Yaw:	8.732	Thrust:	100.000
Time:	2.606	Roll Set Point:	0.025	Pitch Set Point:	0.106	Yaw Set Point:	-0.029	X_WP:	0.000	Y_WP:	0.000	Y_WP:	0.500	X:	-0.012	Y:	-0.053	Z:	0.659	yaw:	1.663	yaw rate:	-56.021	Roll:	-1.063	Pitch:	0.564	Yaw:	15.764	Thrust:	17.369
Time:	2.621	Roll Set Point:	0.026	Pitch Set Point:	0.103	Yaw Set Point:	-0.025	X_WP:	0.000	Y_WP:	0.000	Y_WP:	0.500	X:	-0.012	Y:	-0.052	Z:	0.662	yaw:	1.426	yaw rate:	23.737	Roll:	-0.574	Pitch:	0.402	Yaw:	-1.788	Thrust:	36.652
Time:	2.640	Roll Set Point:	0.026	Pitch Set Point:	0.101	Yaw Set Point:	-0.028	X_WP:	0.000	Y_WP:	0.000	Y_WP:	0.500	X:	-0.012	Y:	-0.051	Z:	0.665	yaw:	1.581	yaw rate:	-15.550	Roll:	-0.431	Pitch:	-0.237	Yaw:	4.612	Thrust:	51.367
Time:	2.662	Roll Set Point:	0.026	Pitch Set Point:	0.099	Yaw Set Point:	-0.026	X_WP:	0.000	Y_WP:	0.000	Y_WP:	0.500	X:	-0.012	Y:	-0.050	Z:	0.667	yaw:	1.495	yaw rate:	8.576	Roll:	-0.223	Pitch:	-0.285	Yaw:	1.347	Thrust:	59.913
Time:	2.683	Roll Set Point:	0.027	Pitch Set Point:	0.097	Yaw Set Point:	-0.023	X_WP:	0.000	Y_WP:	0.000	Y_WP:	0.500	X:	-0.013	Y:	-0.049	Z:	0.670	yaw:	1.312	yaw rate:	18.301	Roll:	-0.640	Pitch:	-0.103	Yaw:	-0.027	Thrust:	62.090
Time:	2.703	Roll Set Point:	0.027	Pitch Set Point:	0.095	Yaw Set Point:	-0.003	X_WP:	0.000	Y_WP:	0.000	Y_WP:	0.500	X:	-0.014	Y:	-0.048	Z:	0.671	yaw:	0.174	yaw rate:	113.805	Roll:	0.022	Pitch:	-0.637	Yaw:	-15.056	Thrust:	54.026
Time:	2.726	Roll Set Point:	0.028	Pitch Set Point:	0.094	Yaw Set Point:	-0.004	X_WP:	0.000	Y_WP:	0.000	Y_WP:	0.500	X:	-0.014	Y:	-0.047	Z:	0.671	yaw:	0.254	yaw rate:	-8.010	Roll:	-0.502	Pitch:	-0.402	Yaw:	1.616	Thrust:	69.356
Time:	2.741	Roll Set Point:	0.029	Pitch Set Point:	0.092	Yaw Set Point:	0.002	X_WP:	0.000	Y_WP:	0.000	Y_WP:	0.500	X:	-0.015	Y:	-0.046	Z:	0.672	yaw:	-0.133	yaw rate:	38.763	Roll:	-0.908	Pitch:	0.246	Yaw:	-6.831	Thrust:	40.283
Time:	2.762	Roll Set Point:	0.030	Pitch Set Point:	0.090	Yaw Set Point:	-0.009	X_WP:	0.000	Y_WP:	0.000	Y_WP:	0.500	X:	-0.015	Y:	-0.045	Z:	0.671	yaw:	0.489	yaw rate:	-62.248	Roll:	-0.936	Pitch:	-0.291	Yaw:	9.251	Thrust:	58.227
Time:	2.785	Roll Set Point:	0.032	Pitch Set Point:	0.088	Yaw Set Point:	-0.003	X_WP:	0.000	Y_WP:	0.000	Y_WP:	0.500	X:	-0.016	Y:	-0.044	Z:	0.671	yaw:	0.155	yaw rate:	33.470	Roll:	-0.841	Pitch:	-0.116	Yaw:	-2.999	Thrust:	72.637
Time:	2.802	Roll Set Point:	0.033	Pitch Set Point:	0.086	Yaw Set Point:	-0.010	X_WP:	0.000	Y_WP:	0.000	Y_WP:	0.500	X:	-0.016	Y:	-0.043	Z:	0.670	yaw:	0.560	yaw rate:	-40.490	Roll:	-1.326	Pitch:	-0.140	Yaw:	7.392	Thrust:	48.783
Time:	2.821	Roll Set Point:	0.035	Pitch Set Point:	0.085	Yaw Set Point:	-0.002	X_WP:	0.000	Y_WP:	0.000	Y_WP:	0.500	X:	-0.017	Y:	-0.042	Z:	0.669	yaw:	0.117	yaw rate:	44.255	Roll:	-0.812	Pitch:	-0.193	Yaw:	-5.402	Thrust:	57.992
Time:	2.841	Roll Set Point:	0.036	Pitch Set Point:	0.083	Yaw Set Point:	-0.012	X_WP:	0.000	Y_WP:	0.000	Y_WP:	0.500	X:	-0.018	Y:	-0.042	Z:	0.668	yaw:	0.698	yaw rate:	-58.102	Roll:	-1.253	Pitch:	-0.149	Yaw:	8.884	Thrust:	60.184
Time:	2.871	Roll Set Point:	0.038	Pitch Set Point:	0.081	Yaw Set Point:	-0.007	X_WP:	0.000	Y_WP:	0.000	Y_WP:	0.500	X:	-0.019	Y:	-0.041	Z:	0.667	yaw:	0.422	yaw rate:	27.560	Roll:	-0.780	Pitch:	-0.148	Yaw:	-1.344	Thrust:	90.595
Time:	2.882	Roll Set Point:	0.039	Pitch Set Point:	0.080	Yaw Set Point:	-0.008	X_WP:	0.000	Y_WP:	0.000	Y_WP:	0.500	X:	-0.019	Y:	-0.040	Z:	0.665	yaw:	0.466	yaw rate:	-4.319	Roll:	-1.513	Pitch:	-0.105	Yaw:	1.898	Thrust:	33.608
Time:	2.903	Roll Set Point:	0.041	Pitch Set Point:	0.078	Yaw Set Point:	0.001	X_WP:	0.000	Y_WP:	0.000	Y_WP:	0.500	X:	-0.020	Y:	-0.039	Z:	0.663	yaw:	-0.085	yaw rate:	55.064	Roll:	-0.886	Pitch:	-0.235	Yaw:	-6.684	Thrust:	62.276
Time:	2.927	Roll Set Point:	0.042	Pitch Set Point:	0.077	Yaw Set Point:	0.023	X_WP:	0.000	Y_WP:	0.000	Y_WP:	0.500	X:	-0.021	Y:	-0.038	Z:	0.661	yaw:	-1.327	yaw rate:	124.180	Roll:	-0.710	Pitch:	-0.319	Yaw:	-14.681	Thrust:	71.131
Time:	2.941	Roll Set Point:	0.044	Pitch Set Point:	0.076	Yaw Set Point:	-0.002	X_WP:	0.000	Y_WP:	0.000	Y_WP:	0.500	X:	-0.022	Y:	-0.038	Z:	0.659	yaw:	0.090	yaw rate:	-141.668	Roll:	-2.128	Pitch:	0.070	Yaw:	27.954	Thrust:	42.131
Time:	2.960	Roll Set Point:	0.045	Pitch Set Point:	0.074	Yaw Set Point:	0.003	X_WP:	0.000	Y_WP:	0.000	Y_WP:	0.500	X:	-0.023	Y:	-0.037	Z:	0.658	yaw:	-0.182	yaw rate:	27.202	Roll:	-1.123	Pitch:	-0.105	Yaw:	-3.540	Thrust:	56.096
Time:	2.989	Roll Set Point:	0.047	Pitch Set Point:	0.073	Yaw Set Point:	-0.003	X_WP:	0.000	Y_WP:	0.000	Y_WP:	0.500	X:	-0.023	Y:	-0.036	Z:	0.658	yaw:	0.187	yaw rate:	-36.885	Roll:	-1.060	Pitch:	-0.214	Yaw:	4.135	Thrust:	80.234
Time:	3.004	Roll Set Point:	0.048	Pitch Set Point:	0.072	Yaw Set Point:	0.000	X_WP:	0.000	Y_WP:	0.000	Y_WP:	0.500	X:	-0.024	Y:	-0.036	Z:	0.658	yaw:	-0.002	yaw rate:	18.828	Roll:	-1.170	Pitch:	-0.299	Yaw:	-2.965	Thrust:	41.888
Time:	3.021	Roll Set Point:	0.049	Pitch Set Point:	0.070	Yaw Set Point:	-0.003	X_WP:	0.000	Y_WP:	0.000	Y_WP:	0.500	X:	-0.025	Y:	-0.035	Z:	0.657	yaw:	0.181	yaw rate:	-18.265	Roll:	-1.437	Pitch:	0.078	Yaw:	3.329	Thrust:	45.515
Time:	3.041	Roll Set Point:	0.050	Pitch Set Point:	0.070	Yaw Set Point:	0.002	X_WP:	0.000	Y_WP:	0.000	Y_WP:	0.500	X:	-0.025	Y:	-0.035	Z:	0.657	yaw:	-0.088	yaw rate:	26.920	Roll:	-0.680	Pitch:	-0.534	Yaw:	-3.311	Thrust:	53.262
Time:	3.063	Roll Set Point:	0.051	Pitch Set Point:	0.068	Yaw Set Point:	0.006	X_WP:	0.000	Y_WP:	0.000	Y_WP:	0.500	X:	-0.026	Y:	-0.034	Z:	0.657	yaw:	-0.328	yaw rate:	24.008	Roll:	-1.170	Pitch:	-0.173	Yaw:	-3.101	Thrust:	57.573
Time:	3.085	Roll Set Point:	0.052	Pitch Set Point:	0.067	Yaw Set Point:	0.006	X_WP:	0.000	Y_WP:	0.000	Y_WP:	0.500	X:	-0.026	Y:	-0.033	Z:	0.656	yaw:	-0.348	yaw rate:	1.936	Roll:	-1.098	Pitch:	-0.171	Yaw:	-0.372	Thrust:	59.591
Time:	3.103	Roll Set Point:	0.053	Pitch Set Point:	0.066	Yaw Set Point:	0.029	X_WP:	0.000	Y_WP:	0.000	Y_WP:	0.500	X:	-0.027	Y:	-0.033	Z:	0.654	yaw:	-1.650	yaw rate:	130.247	Roll:	-0.784	Pitch:	-0.513	Yaw:	-19.394	Thrust:	55.153
Time:	3.126	Roll Set Point:	0.054	Pitch Set Point:	0.065	Yaw Set Point:	-0.003	X_WP:	0.000	Y_WP:	0.000	Y_WP:	0.500	X:	-0.027	Y:	-0.033	Z:	0.652	yaw:	0.172	yaw rate:	-182.212	Roll:	-1.334	Pitch:	0.119	Yaw:	21.288	Thrust:	65.166
Time:	3.141	Roll Set Point:	0.055	Pitch Set Point:	0.064	Yaw Set Point:	-0.004	X_WP:	0.000	Y_WP:	0.000	Y_WP:	0.500	X:	-0.028	Y:	-0.032	Z:	0.650	yaw:	0.222	yaw rate:	-4.955	Roll:	-1.378	Pitch:	0.067	Yaw:	1.439	Thrust:	41.495
Time:	3.162	Roll Set Point:	0.056	Pitch Set Point:	0.063	Yaw Set Point:	0.002	X_WP:	0.000	Y_WP:	0.000	Y_WP:	0.500	X:	-0.028	Y:	-0.031	Z:	0.648	yaw:	-0.086	yaw rate:	30.773	Roll:	-0.817	Pitch:	-0.263	Yaw:	-3.617	Thrust:	59.898
Time:	3.188	Roll Set Point:	0.056	Pitch Set Point:	0.062	Yaw Set Point:	-0.006	X_WP:	0.000	Y_WP:	0.000	Y_WP:	0.500	X:	-0.028	Y:	-0.031	Z:	0.645	yaw:	0.327	yaw rate:	-41.327	Roll:	-1.035	Pitch:	-0.102	Yaw:	5.012	Thrust:	74.810
Time:	3.202	Roll Set Point:	0.057	Pitch Set Point:	0.060	Yaw Set Point:	-0.004	X_WP:	0.000	Y_WP:	0.000	Y_WP:	0.500	X:	-0.028	Y:	-0.030	Z:	0.642	yaw:	0.254	yaw rate:	7.290	Roll:	-0.970	Pitch:	0.118	Yaw:	-0.730	Thrust:	43.717
Time:	3.222	Roll Set Point:	0.057	Pitch Set Point:	0.059	Yaw Set Point:	0.002	X_WP:	0.000	Y_WP:	0.000	Y_WP:	0.500	X:	-0.029	Y:	-0.030	Z:	0.639	yaw:	-0.087	yaw rate:	34.163	Roll:	-0.773	Pitch:	-0.278	Yaw:	-4.265	Thrust:	58.624
Time:	3.240	Roll Set Point:	0.057	Pitch Set Point:	0.058	Yaw Set Point:	-0.003	X_WP:	0.000	Y_WP:	0.000	Y_WP:	0.500	X:	-0.029	Y:	-0.029	Z:	0.636	yaw:	0.161	yaw rate:	-24.855	Roll:	-0.939	Pitch:	-0.086	Yaw:	4.108	Thrust:	54.010
Time:	3.262	Roll Set Point:	0.058	Pitch Set Point:	0.057	Yaw Set Point:	-0.006	X_WP:	0.000	Y_WP:	0.000	Y_WP:	0.500	X:	-0.029	Y:	-0.029	Z:	0.632	yaw:	0.369	yaw rate:	-20.805	Roll:	-0.857	Pitch:	-0.025	Yaw:	3.333	Thrust:	64.368
Time:	3.286	Roll Set Point:	0.058	Pitch Set Point:	0.056	Yaw Set Point:	-0.004	X_WP:	0.000	Y_WP:	0.000	Y_WP:	0.500	X:	-0.029	Y:	-0.028	Z:	0.629	yaw:	0.227	yaw rate:	14.207	Roll:	-0.750	Pitch:	-0.093	Yaw:	-0.922	Thrust:	66.515
Time:	3.301	Roll Set Point:	0.058	Pitch Set Point:	0.054	Yaw Set Point:	-0.029	X_WP:	0.000	Y_WP:	0.000	Y_WP:	0.500	X:	-0.028	Y:	-0.028	Z:	0.625	yaw:	1.680	yaw rate:	-145.254	Roll:	-1.014	Pitch:	0.834	Yaw:	27.015	Thrust:	48.685
Time:	3.326	Roll Set Point:	0.058	Pitch Set Point:	0.054	Yaw Set Point:	-0.005	X_WP:	0.000	Y_WP:	0.000	Y_WP:	0.500	X:	-0.029	Y:	-0.027	Z:	0.621	yaw:	0.313	yaw rate:	136.648	Roll:	-0.523	Pitch:	-0.583	Yaw:	-13.511	Thrust:	72.031
Time:	3.341	Roll Set Point:	0.057	Pitch Set Point:	0.053	Yaw Set Point:	-0.005	X_WP:	0.000	Y_WP:	0.000	Y_WP:	0.500	X:	-0.029	Y:	-0.027	Z:	0.617	yaw:	0.305	yaw rate:	0.864	Roll:	-0.553	Pitch:	-0.186	Yaw:	0.512	Thrust:	47.450
Time:	3.362	Roll Set Point:	0.057	Pitch Set Point:	0.052	Yaw Set Point:	0.021	X_WP:	0.000	Y_WP:	0.000	Y_WP:	0.500	X:	-0.029	Y:	-0.026	Z:	0.613	yaw:	-1.223	yaw rate:	152.789	Roll:	-0.414	Pitch:	-0.388	Yaw:	-21.329	Thrust:	60.158
Time:	3.384	Roll Set Point:	0.057	Pitch Set Point:	0.051	Yaw Set Point:	-0.006	X_WP:	0.000	Y_WP:	0.000	Y_WP:	0.500	X:	-0.028	Y:	-0.026	Z:	0.608	yaw:	0.362	yaw rate:	-158.580	Roll:	-0.768	Pitch:	0.278	Yaw:	18.358	Thrust:	68.733
Time:	3.402	Roll Set Point:	0.056	Pitch Set Point:	0.051	Yaw Set Point:	-0.001	X_WP:	0.000	Y_WP:	0.000	Y_WP:	0.500	X:	-0.028	Y:	-0.025	Z:	0.604	yaw:	0.034	yaw rate:	32.807	Roll:	-0.292	Pitch:	-0.223	Yaw:	-4.419	Thrust:	55.481
Time:	3.422	Roll Set Point:	0.055	Pitch Set Point:	0.049	Yaw Set Point:	-0.004	X_WP:	0.000	Y_WP:	0.000	Y_WP:	0.500	X:	-0.028	Y:	-0.025	Z:	0.599	yaw:	0.252	yaw rate:	-21.809	Roll:	-0.513	Pitch:	0.059	Yaw:	3.593	Thrust:	61.042
Time:	3.441	Roll Set Point:	0.054	Pitch Set Point:	0.049	Yaw Set Point:	-0.007	X_WP:	0.000	Y_WP:	0.000	Y_WP:	0.500	X:	-0.027	Y:	-0.024	Z:	0.594	yaw:	0.421	yaw rate:	-16.895	Roll:	-0.396	Pitch:	-0.084	Yaw:	3.227	Thrust:	57.179
Time:	3.461	Roll Set Point:	0.054	Pitch Set Point:	0.048	Yaw Set Point:	-0.009	X_WP:	0.000	Y_WP:	0.000	Y_WP:	0.500	X:	-0.027	Y:	-0.024	Z:	0.590	yaw:	0.490	yaw rate:	-6.880	Roll:	-0.360	Pitch:	-0.070	Yaw:	1.915	Thrust:	63.938
Time:	3.482	Roll Set Point:	0.053	Pitch Set Point:	0.047	Yaw Set Point:	-0.006	X_WP:	0.000	Y_WP:	0.000	Y_WP:	0.500	X:	-0.026	Y:	-0.024	Z:	0.585	yaw:	0.348	yaw rate:	14.181	Roll:	-0.298	Pitch:	-0.129	Yaw:	-1.025	Thrust:	61.113
Time:	3.506	Roll Set Point:	0.052	Pitch Set Point:	0.046	Yaw Set Point:	-0.007	X_WP:	0.000	Y_WP:	0.000	Y_WP:	0.500	X:	-0.026	Y:	-0.023	Z:	0.580	yaw:	0.429	yaw rate:	-8.082	Roll:	-0.426	Pitch:	0.081	Yaw:	1.884	Thrust:	71.009
Time:	3.522	Roll Set Point:	0.051	Pitch Set Point:	0.046	Yaw Set Point:	0.024	X_WP:	0.000	Y_WP:	0.000	Y_WP:	0.500	X:	-0.026	Y:	-0.023	Z:	0.576	yaw:	-1.376	yaw rate:	180.538	Roll:	0.137	Pitch:	-0.691	Yaw:	-30.071	Thrust:	53.485
Time:	3.542	Roll Set Point:	0.050	Pitch Set Point:	0.044	Yaw Set Point:	-0.022	X_WP:	0.000	Y_WP:	0.000	Y_WP:	0.500	X:	-0.025	Y:	-0.022	Z:	0.572	yaw:	1.279	yaw rate:	-265.523	Roll:	-0.591	Pitch:	0.759	Yaw:	36.812	Thrust:	60.327
Time:	3.561	Roll Set Point:	0.049	Pitch Set Point:	0.044	Yaw Set Point:	-0.026	X_WP:	0.000	Y_WP:	0.000	Y_WP:	0.500	X:	-0.024	Y:	-0.022	Z:	0.567	yaw:	1.473	yaw rate:	-19.365	Roll:	-0.251	Pitch:	-0.022	Yaw:	5.022	Thrust:	58.477
Time:	3.589	Roll Set Point:	0.048	Pitch Set Point:	0.043	Yaw Set Point:	-0.026	X_WP:	0.000	Y_WP:	0.000	Y_WP:	0.500	X:	-0.024	Y:	-0.022	Z:	0.563	yaw:	1.488	yaw rate:	-1.541	Roll:	-0.313	Pitch:	-0.025	Yaw:	2.701	Thrust:	76.064
Time:	3.601	Roll Set Point:	0.047	Pitch Set Point:	0.042	Yaw Set Point:	-0.020	X_WP:	0.000	Y_WP:	0.000	Y_WP:	0.500	X:	-0.023	Y:	-0.021	Z:	0.560	yaw:	1.120	yaw rate:	36.792	Roll:	0.062	Pitch:	-0.232	Yaw:	-5.893	Thrust:	44.366
Time:	3.626	Roll Set Point:	0.046	Pitch Set Point:	0.042	Yaw Set Point:	-0.016	X_WP:	0.000	Y_WP:	0.000	Y_WP:	0.500	X:	-0.023	Y:	-0.021	Z:	0.556	yaw:	0.890	yaw rate:	23.070	Roll:	-0.137	Pitch:	-0.189	Yaw:	-0.759	Thrust:	69.966
Time:	3.643	Roll Set Point:	0.045	Pitch Set Point:	0.042	Yaw Set Point:	0.005	X_WP:	0.000	Y_WP:	0.000	Y_WP:	0.500	X:	-0.022	Y:	-0.021	Z:	0.552	yaw:	-0.313	yaw rate:	120.279	Roll:	0.065	Pitch:	-0.702	Yaw:	-17.542	Thrust:	55.164
Time:	3.662	Roll Set Point:	0.044	Pitch Set Point:	0.042	Yaw Set Point:	0.004	X_WP:	0.000	Y_WP:	0.000	Y_WP:	0.500	X:	-0.022	Y:	-0.021	Z:	0.549	yaw:	-0.242	yaw rate:	-7.079	Roll:	-0.084	Pitch:	-0.146	Yaw:	1.001	Thrust:	55.572
Time:	3.681	Roll Set Point:	0.043	Pitch Set Point:	0.041	Yaw Set Point:	0.006	X_WP:	0.000	Y_WP:	0.000	Y_WP:	0.500	X:	-0.021	Y:	-0.021	Z:	0.546	yaw:	-0.327	yaw rate:	8.428	Roll:	-0.079	Pitch:	-0.182	Yaw:	-1.299	Thrust:	55.185
Time:	3.703	Roll Set Point:	0.042	Pitch Set Point:	0.041	Yaw Set Point:	-0.001	X_WP:	0.000	Y_WP:	0.000	Y_WP:	0.500	X:	-0.021	Y:	-0.021	Z:	0.543	yaw:	0.067	yaw rate:	-39.390	Roll:	-0.189	Pitch:	-0.210	Yaw:	5.081	Thrust:	64.291
Time:	3.722	Roll Set Point:	0.040	Pitch Set Point:	0.041	Yaw Set Point:	-0.019	X_WP:	0.000	Y_WP:	0.000	Y_WP:	0.500	X:	-0.020	Y:	-0.020	Z:	0.540	yaw:	1.077	yaw rate:	-100.990	Roll:	-0.146	Pitch:	0.140	Yaw:	15.963	Thrust:	54.118
Time:	3.742	Roll Set Point:	0.039	Pitch Set Point:	0.040	Yaw Set Point:	-0.006	X_WP:	0.000	Y_WP:	0.000	Y_WP:	0.500	X:	-0.020	Y:	-0.020	Z:	0.538	yaw:	0.343	yaw rate:	73.378	Roll:	0.163	Pitch:	-0.334	Yaw:	-8.720	Thrust:	56.925
Time:	3.761	Roll Set Point:	0.039	Pitch Set Point:	0.040	Yaw Set Point:	-0.008	X_WP:	0.000	Y_WP:	0.000	Y_WP:	0.500	X:	-0.019	Y:	-0.020	Z:	0.535	yaw:	0.443	yaw rate:	-9.951	Roll:	-0.264	Pitch:	-0.210	Yaw:	2.349	Thrust:	53.201
Time:	3.786	Roll Set Point:	0.038	Pitch Set Point:	0.040	Yaw Set Point:	-0.004	X_WP:	0.000	Y_WP:	0.000	Y_WP:	0.500	X:	-0.019	Y:	-0.020	Z:	0.532	yaw:	0.207	yaw rate:	23.540	Roll:	-0.110	Pitch:	-0.334	Yaw:	-1.734	Thrust:	71.253
Time:	3.802	Roll Set Point:	0.037	Pitch Set Point:	0.041	Yaw Set Point:	0.007	X_WP:	0.000	Y_WP:	0.000	Y_WP:	0.500	X:	-0.018	Y:	-0.020	Z:	0.529	yaw:	-0.391	yaw rate:	59.817	Roll:	0.017	Pitch:	-0.754	Yaw:	-9.992	Thrust:	49.223
Time:	3.821	Roll Set Point:	0.036	Pitch Set Point:	0.041	Yaw Set Point:	0.003	X_WP:	0.000	Y_WP:	0.000	Y_WP:	0.500	X:	-0.018	Y:	-0.020	Z:	0.526	yaw:	-0.172	yaw rate:	-21.883	Roll:	-0.129	Pitch:	-0.301	Yaw:	3.051	Thrust:	56.923
Time:	3.841	Roll Set Point:	0.035	Pitch Set Point:	0.040	Yaw Set Point:	-0.015	X_WP:	0.000	Y_WP:	0.000	Y_WP:	0.500	X:	-0.017	Y:	-0.020	Z:	0.524	yaw:	0.868	yaw rate:	-103.990	Roll:	-0.211	Pitch:	0.056	Yaw:	15.866	Thrust:	54.899
Time:	3.866	Roll Set Point:	0.034	Pitch Set Point:	0.040	Yaw Set Point:	-0.011	X_WP:	0.000	Y_WP:	0.000	Y_WP:	0.500	X:	-0.017	Y:	-0.020	Z:	0.522	yaw:	0.629	yaw rate:	23.929	Roll:	-0.158	Pitch:	-0.274	Yaw:	-1.124	Thrust:	67.266
Time:	3.882	Roll Set Point:	0.033	Pitch Set Point:	0.040	Yaw Set Point:	-0.006	X_WP:	0.000	Y_WP:	0.000	Y_WP:	0.500	X:	-0.017	Y:	-0.020	Z:	0.519	yaw:	0.372	yaw rate:	25.667	Roll:	0.137	Pitch:	-0.539	Yaw:	-3.351	Thrust:	50.162
Time:	3.905	Roll Set Point:	0.033	Pitch Set Point:	0.041	Yaw Set Point:	0.024	X_WP:	0.000	Y_WP:	0.000	Y_WP:	0.500	X:	-0.017	Y:	-0.020	Z:	0.517	yaw:	-1.366	yaw rate:	173.760	Roll:	-0.088	Pitch:	-0.663	Yaw:	-22.085	Thrust:	62.458
Time:	3.927	Roll Set Point:	0.032	Pitch Set Point:	0.041	Yaw Set Point:	-0.016	X_WP:	0.000	Y_WP:	0.000	Y_WP:	0.500	X:	-0.016	Y:	-0.020	Z:	0.515	yaw:	0.938	yaw rate:	-230.379	Roll:	-0.326	Pitch:	-0.027	Yaw:	27.401	Thrust:	64.625
Time:	3.941	Roll Set Point:	0.031	Pitch Set Point:	0.041	Yaw Set Point:	-0.011	X_WP:	0.000	Y_WP:	0.000	Y_WP:	0.500	X:	-0.016	Y:	-0.020	Z:	0.513	yaw:	0.653	yaw rate:	28.504	Roll:	-0.049	Pitch:	-0.497	Yaw:	-4.111	Thrust:	41.299
Time:	3.965	Roll Set Point:	0.031	Pitch Set Point:	0.041	Yaw Set Point:	-0.003	X_WP:	0.000	Y_WP:	0.000	Y_WP:	0.500	X:	-0.015	Y:	-0.020	Z:	0.512	yaw:	0.167	yaw rate:	48.596	Roll:	-0.045	Pitch:	-0.422	Yaw:	-4.573	Thrust:	65.371
Time:	3.986	Roll Set Point:	0.030	Pitch Set Point:	0.041	Yaw Set Point:	-0.015	X_WP:	0.000	Y_WP:	0.000	Y_WP:	0.500	X:	-0.015	Y:	-0.021	Z:	0.511	yaw:	0.843	yaw rate:	-67.577	Roll:	-0.322	Pitch:	-0.370	Yaw:	10.068	Thrust:	53.531
Time:	4.003	Roll Set Point:	0.030	Pitch Set Point:	0.041	Yaw Set Point:	-0.007	X_WP:	0.000	Y_WP:	0.000	Y_WP:	0.500	X:	-0.015	Y:	-0.021	Z:	0.510	yaw:	0.418	yaw rate:	42.531	Roll:	-0.207	Pitch:	-0.378	Yaw:	-5.812	Thrust:	49.571
Time:	4.025	Roll Set Point:	0.029	Pitch Set Point:	0.042	Yaw Set Point:	-0.001	X_WP:	0.000	Y_WP:	0.000	Y_WP:	0.500	X:	-0.015	Y:	-0.021	Z:	0.509	yaw:	0.055	yaw rate:	36.231	Roll:	-0.053	Pitch:	-0.568	Yaw:	-3.773	Thrust:	59.785
Time:	4.041	Roll Set Point:	0.029	Pitch Set Point:	0.042	Yaw Set Point:	-0.004	X_WP:	0.000	Y_WP:	0.000	Y_WP:	0.500	X:	-0.015	Y:	-0.021	Z:	0.508	yaw:	0.201	yaw rate:	-14.589	Roll:	-0.337	Pitch:	-0.402	Yaw:	2.989	Thrust:	44.992
Time:	4.065	Roll Set Point:	0.029	Pitch Set Point:	0.042	Yaw Set Point:	-0.008	X_WP:	0.000	Y_WP:	0.000	Y_WP:	0.500	X:	-0.014	Y:	-0.021	Z:	0.506	yaw:	0.448	yaw rate:	-24.660	Roll:	-0.300	Pitch:	-0.337	Yaw:	3.847	Thrust:	63.717
Time:	4.086	Roll Set Point:	0.028	Pitch Set Point:	0.042	Yaw Set Point:	-0.007	X_WP:	0.000	Y_WP:	0.000	Y_WP:	0.500	X:	-0.014	Y:	-0.021	Z:	0.505	yaw:	0.386	yaw rate:	6.153	Roll:	-0.121	Pitch:	-0.591	Yaw:	0.208	Thrust:	57.939
Time:	4.103	Roll Set Point:	0.028	Pitch Set Point:	0.043	Yaw Set Point:	-0.013	X_WP:	0.000	Y_WP:	0.000	Y_WP:	0.500	X:	-0.014	Y:	-0.021	Z:	0.504	yaw:	0.726	yaw rate:	-33.970	Roll:	-0.291	Pitch:	-0.548	Yaw:	6.581	Thrust:	48.785
Time:	4.127	Roll Set Point:	0.028	Pitch Set Point:	0.043	Yaw Set Point:	-0.003	X_WP:	0.000	Y_WP:	0.000	Y_WP:	0.500	X:	-0.014	Y:	-0.021	Z:	0.502	yaw:	0.197	yaw rate:	52.849	Roll:	-0.234	Pitch:	-0.329	Yaw:	-4.791	Thrust:	67.359
Time:	4.141	Roll Set Point:	0.028	Pitch Set Point:	0.043	Yaw Set Point:	-0.009	X_WP:	0.000	Y_WP:	0.000	Y_WP:	0.500	X:	-0.014	Y:	-0.021	Z:	0.500	yaw:	0.544	yaw rate:	-34.628	Roll:	-0.421	Pitch:	-0.603	Yaw:	7.740	Thrust:	41.479
Time:	4.161	Roll Set Point:	0.028	Pitch Set Point:	0.043	Yaw Set Point:	-0.012	X_WP:	0.000	Y_WP:	0.000	Y_WP:	0.500	X:	-0.014	Y:	-0.022	Z:	0.499	yaw:	0.666	yaw rate:	-12.267	Roll:	-0.235	Pitch:	-0.692	Yaw:	2.988	Thrust:	52.766
Time:	4.187	Roll Set Point:	0.028	Pitch Set Point:	0.043	Yaw Set Point:	-0.004	X_WP:	0.000	Y_WP:	0.000	Y_WP:	0.500	X:	-0.014	Y:	-0.022	Z:	0.497	yaw:	0.225	yaw rate:	44.128	Roll:	-0.368	Pitch:	-0.319	Yaw:	-3.491	Thrust:	74.199
Time:	4.203	Roll Set Point:	0.028	Pitch Set Point:	0.044	Yaw Set Point:	-0.015	X_WP:	0.000	Y_WP:	0.000	Y_WP:	0.500	X:	-0.014	Y:	-0.022	Z:	0.494	yaw:	0.861	yaw rate:	-63.603	Roll:	-0.395	Pitch:	-0.443	Yaw:	12.251	Thrust:	49.771
Time:	4.223	Roll Set Point:	0.027	Pitch Set Point:	0.044	Yaw Set Point:	-0.006	X_WP:	0.000	Y_WP:	0.000	Y_WP:	0.500	X:	-0.014	Y:	-0.022	Z:	0.491	yaw:	0.323	yaw rate:	53.836	Roll:	-0.240	Pitch:	-0.614	Yaw:	-6.139	Thrust:	59.557
Time:	4.241	Roll Set Point:	0.028	Pitch Set Point:	0.044	Yaw Set Point:	-0.004	X_WP:	0.000	Y_WP:	0.000	Y_WP:	0.500	X:	-0.014	Y:	-0.022	Z:	0.488	yaw:	0.232	yaw rate:	9.108	Roll:	-0.377	Pitch:	-0.492	Yaw:	-0.601	Thrust:	56.097
Time:	4.265	Roll Set Point:	0.027	Pitch Set Point:	0.044	Yaw Set Point:	-0.010	X_WP:	0.000	Y_WP:	0.000	Y_WP:	0.500	X:	-0.014	Y:	-0.022	Z:	0.484	yaw:	0.568	yaw rate:	-33.598	Roll:	-0.362	Pitch:	-0.501	Yaw:	4.976	Thrust:	71.259
Time:	4.284	Roll Set Point:	0.028	Pitch Set Point:	0.045	Yaw Set Point:	0.017	X_WP:	0.000	Y_WP:	0.000	Y_WP:	0.500	X:	-0.014	Y:	-0.022	Z:	0.481	yaw:	-0.976	yaw rate:	154.384	Roll:	-0.167	Pitch:	-0.789	Yaw:	-22.732	Thrust:	58.320
Time:	4.306	Roll Set Point:	0.028	Pitch Set Point:	0.045	Yaw Set Point:	-0.002	X_WP:	0.000	Y_WP:	0.000	Y_WP:	0.500	X:	-0.014	Y:	-0.022	Z:	0.477	yaw:	0.129	yaw rate:	-110.559	Roll:	-0.487	Pitch:	-0.247	Yaw:	13.500	Thrust:	69.424
Time:	4.325	Roll Set Point:	0.028	Pitch Set Point:	0.045	Yaw Set Point:	-0.007	X_WP:	0.000	Y_WP:	0.000	Y_WP:	0.500	X:	-0.014	Y:	-0.023	Z:	0.473	yaw:	0.403	yaw rate:	-27.403	Roll:	-0.481	Pitch:	-0.522	Yaw:	4.673	Thrust:	62.632
Time:	4.343	Roll Set Point:	0.028	Pitch Set Point:	0.045	Yaw Set Point:	-0.000	X_WP:	0.000	Y_WP:	0.000	Y_WP:	0.500	X:	-0.014	Y:	-0.023	Z:	0.469	yaw:	0.020	yaw rate:	38.383	Roll:	-0.278	Pitch:	-0.609	Yaw:	-5.308	Thrust:	58.545
Time:	4.361	Roll Set Point:	0.028	Pitch Set Point:	0.045	Yaw Set Point:	0.000	X_WP:	0.000	Y_WP:	0.000	Y_WP:	0.500	X:	-0.014	Y:	-0.023	Z:	0.465	yaw:	-0.004	yaw rate:	2.330	Roll:	-0.544	Pitch:	-0.460	Yaw:	0.077	Thrust:	60.722
Time:	4.387	Roll Set Point:	0.028	Pitch Set Point:	0.045	Yaw Set Point:	-0.002	X_WP:	0.000	Y_WP:	0.000	Y_WP:	0.500	X:	-0.014	Y:	-0.023	Z:	0.461	yaw:	0.088	yaw rate:	-9.185	Roll:	-0.378	Pitch:	-0.398	Yaw:	1.628	Thrust:	77.024
Time:	4.401	Roll Set Point:	0.028	Pitch Set Point:	0.046	Yaw Set Point:	-0.001	X_WP:	0.000	Y_WP:	0.000	Y_WP:	0.500	X:	-0.014	Y:	-0.023	Z:	0.457	yaw:	0.080	yaw rate:	0.821	Roll:	-0.483	Pitch:	-0.655	Yaw:	0.235	Thrust:	50.850
Time:	4.422	Roll Set Point:	0.028	Pitch Set Point:	0.046	Yaw Set Point:	-0.002	X_WP:	0.000	Y_WP:	0.000	Y_WP:	0.500	X:	-0.014	Y:	-0.023	Z:	0.453	yaw:	0.131	yaw rate:	-5.118	Roll:	-0.447	Pitch:	-0.522	Yaw:	1.282	Thrust:	68.026
Time:	4.441	Roll Set Point:	0.029	Pitch Set Point:	0.046	Yaw Set Point:	-0.003	X_WP:	0.000	Y_WP:	0.000	Y_WP:	0.500	X:	-0.014	Y:	-0.023	Z:	0.449	yaw:	0.150	yaw rate:	-1.867	Roll:	-0.541	Pitch:	-0.441	Yaw:	0.885	Thrust:	61.224
Time:	4.463	Roll Set Point:	0.029	Pitch Set Point:	0.046	Yaw Set Point:	-0.000	X_WP:	0.000	Y_WP:	0.000	Y_WP:	0.500	X:	-0.014	Y:	-0.023	Z:	0.446	yaw:	0.008	yaw rate:	14.173	Roll:	-0.408	Pitch:	-0.438	Yaw:	-1.167	Thrust:	66.941
Time:	4.485	Roll Set Point:	0.029	Pitch Set Point:	0.046	Yaw Set Point:	-0.012	X_WP:	0.000	Y_WP:	0.000	Y_WP:	0.500	X:	-0.014	Y:	-0.023	Z:	0.442	yaw:	0.709	yaw rate:	-70.083	Roll:	-0.576	Pitch:	-0.409	Yaw:	9.610	Thrust:	70.316
Time:	4.501	Roll Set Point:	0.029	Pitch Set Point:	0.046	Yaw Set Point:	-0.006	X_WP:	0.000	Y_WP:	0.000	Y_WP:	0.500	X:	-0.015	Y:	-0.023	Z:	0.440	yaw:	0.323	yaw rate:	38.625	Roll:	-0.431	Pitch:	-0.607	Yaw:	-5.492	Thrust:	56.385
Time:	4.525	Roll Set Point:	0.029	Pitch Set Point:	0.046	Yaw Set Point:	-0.001	X_WP:	0.000	Y_WP:	0.000	Y_WP:	0.500	X:	-0.015	Y:	-0.023	Z:	0.437	yaw:	0.073	yaw rate:	25.007	Roll:	-0.437	Pitch:	-0.363	Yaw:	-2.088	Thrust:	72.501
Time:	4.542	Roll Set Point:	0.030	Pitch Set Point:	0.046	Yaw Set Point:	-0.011	X_WP:	0.000	Y_WP:	0.000	Y_WP:	0.500	X:	-0.015	Y:	-0.023	Z:	0.435	yaw:	0.650	yaw rate:	-57.763	Roll:	-0.563	Pitch:	-0.530	Yaw:	10.422	Thrust:	54.392
Time:	4.562	Roll Set Point:	0.030	Pitch Set Point:	0.046	Yaw Set Point:	-0.006	X_WP:	0.000	Y_WP:	0.000	Y_WP:	0.500	X:	-0.015	Y:	-0.023	Z:	0.433	yaw:	0.321	yaw rate:	32.948	Roll:	-0.494	Pitch:	-0.426	Yaw:	-3.607	Thrust:	59.426
Time:	4.586	Roll Set Point:	0.030	Pitch Set Point:	0.046	Yaw Set Point:	-0.002	X_WP:	0.000	Y_WP:	0.000	Y_WP:	0.500	X:	-0.015	Y:	-0.023	Z:	0.432	yaw:	0.115	yaw rate:	20.622	Roll:	-0.405	Pitch:	-0.468	Yaw:	-1.552	Thrust:	71.348
Time:	4.602	Roll Set Point:	0.030	Pitch Set Point:	0.046	Yaw Set Point:	-0.004	X_WP:	0.000	Y_WP:	0.000	Y_WP:	0.500	X:	-0.015	Y:	-0.023	Z:	0.431	yaw:	0.239	yaw rate:	-12.416	Roll:	-0.583	Pitch:	-0.371	Yaw:	2.637	Thrust:	51.961
Time:	4.621	Roll Set Point:	0.030	Pitch Set Point:	0.047	Yaw Set Point:	0.013	X_WP:	0.000	Y_WP:	0.000	Y_WP:	0.500	X:	-0.015	Y:	-0.023	Z:	0.429	yaw:	-0.750	yaw rate:	98.909	Roll:	-0.246	Pitch:	-0.880	Yaw:	-14.823	Thrust:	58.823
Time:	4.642	Roll Set Point:	0.031	Pitch Set Point:	0.046	Yaw Set Point:	-0.002	X_WP:	0.000	Y_WP:	0.000	Y_WP:	0.500	X:	-0.015	Y:	-0.023	Z:	0.428	yaw:	0.125	yaw rate:	-87.501	Roll:	-0.721	Pitch:	-0.234	Yaw:	11.062	Thrust:	65.762
Time:	4.661	Roll Set Point:	0.031	Pitch Set Point:	0.046	Yaw Set Point:	0.001	X_WP:	0.000	Y_WP:	0.000	Y_WP:	0.500	X:	-0.015	Y:	-0.023	Z:	0.428	yaw:	-0.085	yaw rate:	20.971	Roll:	-0.362	Pitch:	-0.570	Yaw:	-2.608	Thrust:	57.827
Time:	4.683	Roll Set Point:	0.031	Pitch Set Point:	0.046	Yaw Set Point:	-0.003	X_WP:	0.000	Y_WP:	0.000	Y_WP:	0.500	X:	-0.015	Y:	-0.023	Z:	0.427	yaw:	0.189	yaw rate:	-27.419	Roll:	-0.540	Pitch:	-0.330	Yaw:	4.086	Thrust:	65.295
Time:	4.707	Roll Set Point:	0.031	Pitch Set Point:	0.046	Yaw Set Point:	-0.006	X_WP:	0.000	Y_WP:	0.000	Y_WP:	0.500	X:	-0.015	Y:	-0.023	Z:	0.426	yaw:	0.328	yaw rate:	-13.918	Roll:	-0.528	Pitch:	-0.260	Yaw:	2.516	Thrust:	70.549
Time:	4.727	Roll Set Point:	0.031	Pitch Set Point:	0.046	Yaw Set Point:	-0.001	X_WP:	0.000	Y_WP:	0.000	Y_WP:	0.500	X:	-0.015	Y:	-0.023	Z:	0.425	yaw:	0.055	yaw rate:	27.311	Roll:	-0.369	Pitch:	-0.731	Yaw:	-3.012	Thrust:	63.831
Time:	4.741	Roll Set Point:	0.031	Pitch Set Point:	0.046	Yaw Set Point:	-0.005	X_WP:	0.000	Y_WP:	0.000	Y_WP:	0.500	X:	-0.016	Y:	-0.023	Z:	0.424	yaw:	0.267	yaw rate:	-21.197	Roll:	-0.684	Pitch:	-0.360	Yaw:	4.648	Thrust:	45.276
Time:	4.770	Roll Set Point:	0.032	Pitch Set Point:	0.045	Yaw Set Point:	-0.006	X_WP:	0.000	Y_WP:	0.000	Y_WP:	0.500	X:	-0.016	Y:	-0.023	Z:	0.424	yaw:	0.364	yaw rate:	-9.733	Roll:	-0.625	Pitch:	-0.091	Yaw:	2.057	Thrust:	62.252
Time:	4.788	Roll Set Point:	0.032	Pitch Set Point:	0.046	Yaw Set Point:	-0.015	X_WP:	0.000	Y_WP:	0.000	Y_WP:	0.500	X:	-0.016	Y:	-0.023	Z:	0.423	yaw:	0.873	yaw rate:	-50.819	Roll:	-0.534	Pitch:	-0.420	Yaw:	9.420	Thrust:	76.633
Time:	4.800	Roll Set Point:	0.032	Pitch Set Point:	0.046	Yaw Set Point:	-0.010	X_WP:	0.000	Y_WP:	0.000	Y_WP:	0.500	X:	-0.016	Y:	-0.023	Z:	0.423	yaw:	0.599	yaw rate:	27.383	Roll:	-0.415	Pitch:	-0.754	Yaw:	-4.342	Thrust:	42.459
Time:	4.822	Roll Set Point:	0.032	Pitch Set Point:	0.046	Yaw Set Point:	0.001	X_WP:	0.000	Y_WP:	0.000	Y_WP:	0.500	X:	-0.016	Y:	-0.023	Z:	0.423	yaw:	-0.064	yaw rate:	66.322	Roll:	-0.291	Pitch:	-0.642	Yaw:	-7.652	Thrust:	65.045
Time:	4.842	Roll Set Point:	0.032	Pitch Set Point:	0.046	Yaw Set Point:	0.004	X_WP:	0.000	Y_WP:	0.000	Y_WP:	0.500	X:	-0.016	Y:	-0.023	Z:	0.423	yaw:	-0.247	yaw rate:	18.293	Roll:	-0.655	Pitch:	-0.330	Yaw:	-2.189	Thrust:	62.711
Time:	4.860	Roll Set Point:	0.033	Pitch Set Point:	0.045	Yaw Set Point:	-0.008	X_WP:	0.000	Y_WP:	0.000	Y_WP:	0.500	X:	-0.016	Y:	-0.023	Z:	0.422	yaw:	0.458	yaw rate:	-70.580	Roll:	-0.801	Pitch:	-0.207	Yaw:	11.432	Thrust:	56.466
Time:	4.882	Roll Set Point:	0.033	Pitch Set Point:	0.045	Yaw Set Point:	-0.015	X_WP:	0.000	Y_WP:	0.000	Y_WP:	0.500	X:	-0.016	Y:	-0.023	Z:	0.422	yaw:	0.834	yaw rate:	-37.556	Roll:	-0.554	Pitch:	-0.465	Yaw:	6.236	Thrust:	67.593
Time:	4.904	Roll Set Point:	0.033	Pitch Set Point:	0.045	Yaw Set Point:	-0.008	X_WP:	0.000	Y_WP:	0.000	Y_WP:	0.500	X:	-0.017	Y:	-0.023	Z:	0.421	yaw:	0.467	yaw rate:	36.721	Roll:	-0.558	Pitch:	-0.267	Yaw:	-3.047	Thrust:	70.110
Time:	4.926	Roll Set Point:	0.034	Pitch Set Point:	0.045	Yaw Set Point:	-0.009	X_WP:	0.000	Y_WP:	0.000	Y_WP:	0.500	X:	-0.017	Y:	-0.023	Z:	0.420	yaw:	0.536	yaw rate:	-6.958	Roll:	-0.596	Pitch:	-0.484	Yaw:	2.109	Thrust:	68.672
Time:	4.941	Roll Set Point:	0.033	Pitch Set Point:	0.045	Yaw Set Point:	-0.003	X_WP:	0.000	Y_WP:	0.000	Y_WP:	0.500	X:	-0.017	Y:	-0.023	Z:	0.419	yaw:	0.144	yaw rate:	39.275	Roll:	-0.370	Pitch:	-0.747	Yaw:	-6.516	Thrust:	50.722
Time:	4.962	Roll Set Point:	0.034	Pitch Set Point:	0.045	Yaw Set Point:	-0.019	X_WP:	0.000	Y_WP:	0.000	Y_WP:	0.500	X:	-0.017	Y:	-0.023	Z:	0.418	yaw:	1.112	yaw rate:	-96.819	Roll:	-0.827	Pitch:	-0.334	Yaw:	14.119	Thrust:	67.423
Time:	4.987	Roll Set Point:	0.034	Pitch Set Point:	0.045	Yaw Set Point:	-0.009	X_WP:	0.000	Y_WP:	0.000	Y_WP:	0.500	X:	-0.017	Y:	-0.023	Z:	0.418	yaw:	0.495	yaw rate:	61.705	Roll:	-0.457	Pitch:	-0.453	Yaw:	-5.251	Thrust:	73.917
Time:	5.002	Roll Set Point:	0.034	Pitch Set Point:	0.045	Yaw Set Point:	-0.006	X_WP:	0.000	Y_WP:	0.000	Y_WP:	0.500	X:	-0.017	Y:	-0.023	Z:	0.418	yaw:	0.342	yaw rate:	15.255	Roll:	-0.454	Pitch:	-0.576	Yaw:	-1.799	Thrust:	49.499
Time:	5.021	Roll Set Point:	0.035	Pitch Set Point:	0.046	Yaw Set Point:	-0.016	X_WP:	0.000	Y_WP:	0.000	Y_WP:	0.500	X:	-0.017	Y:	-0.023	Z:	0.417	yaw:	0.938	yaw rate:	-59.584	Roll:	-0.774	Pitch:	-0.567	Yaw:	9.686	Thrust:	64.697
Time:	5.041	Roll Set Point:	0.035	Pitch Set Point:	0.046	Yaw Set Point:	-0.010	X_WP:	0.000	Y_WP:	0.000	Y_WP:	0.500	X:	-0.017	Y:	-0.023	Z:	0.418	yaw:	0.585	yaw rate:	35.306	Roll:	-0.541	Pitch:	-0.532	Yaw:	-3.411	Thrust:	59.298
Time:	5.063	Roll Set Point:	0.035	Pitch Set Point:	0.046	Yaw Set Point:	0.009	X_WP:	0.000	Y_WP:	0.000	Y_WP:	0.500	X:	-0.018	Y:	-0.023	Z:	0.418	yaw:	-0.531	yaw rate:	111.583	Roll:	-0.436	Pitch:	-0.699	Yaw:	-13.734	Thrust:	67.146
Time:	5.084	Roll Set Point:	0.035	Pitch Set Point:	0.046	Yaw Set Point:	-0.007	X_WP:	0.000	Y_WP:	0.000	Y_WP:	0.500	X:	-0.018	Y:	-0.023	Z:	0.419	yaw:	0.425	yaw rate:	-95.534	Roll:	-0.737	Pitch:	-0.422	Yaw:	13.019	Thrust:	65.735
Time:	5.107	Roll Set Point:	0.035	Pitch Set Point:	0.046	Yaw Set Point:	-0.001	X_WP:	0.000	Y_WP:	0.000	Y_WP:	0.500	X:	-0.018	Y:	-0.023	Z:	0.420	yaw:	0.083	yaw rate:	34.108	Roll:	-0.529	Pitch:	-0.567	Yaw:	-3.363	Thrust:	67.100
Time:	5.123	Roll Set Point:	0.036	Pitch Set Point:	0.047	Yaw Set Point:	-0.007	X_WP:	0.000	Y_WP:	0.000	Y_WP:	0.500	X:	-0.018	Y:	-0.023	Z:	0.422	yaw:	0.423	yaw rate:	-33.992	Roll:	-0.662	Pitch:	-0.575	Yaw:	6.184	Thrust:	50.373
Time:	5.142	Roll Set Point:	0.036	Pitch Set Point:	0.047	Yaw Set Point:	0.001	X_WP:	0.000	Y_WP:	0.000	Y_WP:	0.500	X:	-0.018	Y:	-0.024	Z:	0.424	yaw:	-0.085	yaw rate:	50.859	Roll:	-0.568	Pitch:	-0.801	Yaw:	-6.686	Thrust:	56.679
Time:	5.164	Roll Set Point:	0.036	Pitch Set Point:	0.047	Yaw Set Point:	-0.006	X_WP:	0.000	Y_WP:	0.000	Y_WP:	0.500	X:	-0.018	Y:	-0.024	Z:	0.426	yaw:	0.344	yaw rate:	-42.920	Roll:	-0.711	Pitch:	-0.444	Yaw:	6.410	Thrust:	62.461
Time:	5.189	Roll Set Point:	0.037	Pitch Set Point:	0.048	Yaw Set Point:	0.011	X_WP:	0.000	Y_WP:	0.000	Y_WP:	0.500	X:	-0.018	Y:	-0.024	Z:	0.428	yaw:	-0.657	yaw rate:	100.104	Roll:	-0.503	Pitch:	-0.819	Yaw:	-10.190	Thrust:	74.355
Time:	5.203	Roll Set Point:	0.037	Pitch Set Point:	0.047	Yaw Set Point:	-0.000	X_WP:	0.000	Y_WP:	0.000	Y_WP:	0.500	X:	-0.018	Y:	-0.024	Z:	0.430	yaw:	0.024	yaw rate:	-68.152	Roll:	-0.735	Pitch:	-0.288	Yaw:	13.562	Thrust:	37.652
Time:	5.222	Roll Set Point:	0.037	Pitch Set Point:	0.048	Yaw Set Point:	-0.001	X_WP:	0.000	Y_WP:	0.000	Y_WP:	0.500	X:	-0.018	Y:	-0.024	Z:	0.433	yaw:	0.036	yaw rate:	-1.150	Roll:	-0.672	Pitch:	-0.637	Yaw:	0.704	Thrust:	54.812
Time:	5.242	Roll Set Point:	0.037	Pitch Set Point:	0.048	Yaw Set Point:	-0.001	X_WP:	0.000	Y_WP:	0.000	Y_WP:	0.500	X:	-0.019	Y:	-0.024	Z:	0.435	yaw:	0.066	yaw rate:	-2.965	Roll:	-0.684	Pitch:	-0.702	Yaw:	0.999	Thrust:	63.245
Time:	5.263	Roll Set Point:	0.038	Pitch Set Point:	0.048	Yaw Set Point:	0.010	X_WP:	0.000	Y_WP:	0.000	Y_WP:	0.500	X:	-0.019	Y:	-0.024	Z:	0.438	yaw:	-0.571	yaw rate:	63.705	Roll:	-0.562	Pitch:	-0.710	Yaw:	-8.794	Thrust:	55.709
Time:	5.282	Roll Set Point:	0.038	Pitch Set Point:	0.049	Yaw Set Point:	-0.009	X_WP:	0.000	Y_WP:	0.000	Y_WP:	0.500	X:	-0.019	Y:	-0.024	Z:	0.440	yaw:	0.527	yaw rate:	-109.795	Roll:	-0.778	Pitch:	-0.513	Yaw:	15.581	Thrust:	58.109
Time:	5.302	Roll Set Point:	0.038	Pitch Set Point:	0.048	Yaw Set Point:	-0.007	X_WP:	0.000	Y_WP:	0.000	Y_WP:	0.500	X:	-0.019	Y:	-0.024	Z:	0.443	yaw:	0.385	yaw rate:	14.192	Roll:	-0.743	Pitch:	-0.403	Yaw:	-0.781	Thrust:	61.153
Time:	5.329	Roll Set Point:	0.038	Pitch Set Point:	0.049	Yaw Set Point:	-0.003	X_WP:	0.000	Y_WP:	0.000	Y_WP:	0.500	X:	-0.019	Y:	-0.024	Z:	0.445	yaw:	0.167	yaw rate:	21.804	Roll:	-0.564	Pitch:	-0.588	Yaw:	-1.206	Thrust:	80.173
