Time:	0.051	Roll Set Point:	-0.015	Pitch Set Point:	0.004	Yaw Set Point:	0.026	X_WP:	0.000	Y_WP:	0.000	Y_WP:	0.750	X:	0.007	Y:	-0.002	Z:	0.052	yaw:	-1.485	yaw rate:	23.521	Roll:	0.211	Pitch:	-0.061	Yaw:	-2.073	Thrust:	38.363
Time:	0.069	Roll Set Point:	-0.014	Pitch Set Point:	0.004	Yaw Set Point:	0.022	X_WP:	0.000	Y_WP:	0.000	Y_WP:	0.750	X:	0.007	Y:	-0.002	Z:	0.053	yaw:	-1.238	yaw rate:	-24.666	Roll:	0.131	Pitch:	-0.007	Yaw:	1.753	Thrust:	39.893
Time:	0.094	Roll Set Point:	-0.014	Pitch Set Point:	0.004	Yaw Set Point:	0.020	X_WP:	0.000	Y_WP:	0.000	Y_WP:	0.750	X:	0.007	Y:	-0.002	Z:	0.053	yaw:	-1.157	yaw rate:	-8.097	Roll:	0.111	Pitch:	0.044	Yaw:	-0.629	Thrust:	41.367
Time:	0.111	Roll Set Point:	-0.014	Pitch Set Point:	0.004	Yaw Set Point:	0.005	X_WP:	0.000	Y_WP:	0.000	Y_WP:	0.750	X:	0.007	Y:	-0.002	Z:	0.052	yaw:	-0.287	yaw rate:	-86.991	Roll:	0.309	Pitch:	-0.232	Yaw:	11.270	Thrust:	43.996
Time:	0.130	Roll Set Point:	-0.013	Pitch Set Point:	0.003	Yaw Set Point:	0.026	X_WP:	0.000	Y_WP:	0.000	Y_WP:	0.750	X:	0.006	Y:	-0.002	Z:	0.051	yaw:	-1.467	yaw rate:	117.985	Roll:	-0.437	Pitch:	0.366	Yaw:	-17.999	Thrust:	48.466
Time:	0.149	Roll Set Point:	-0.014	Pitch Set Point:	0.004	Yaw Set Point:	0.016	X_WP:	0.000	Y_WP:	0.000	Y_WP:	0.750	X:	0.007	Y:	-0.002	Z:	0.053	yaw:	-0.896	yaw rate:	-57.092	Roll:	0.797	Pitch:	-0.444	Yaw:	6.140	Thrust:	43.217
Time:	0.170	Roll Set Point:	-0.014	Pitch Set Point:	0.004	Yaw Set Point:	0.024	X_WP:	0.000	Y_WP:	0.000	Y_WP:	0.750	X:	0.007	Y:	-0.002	Z:	0.053	yaw:	-1.358	yaw rate:	46.148	Roll:	0.093	Pitch:	0.110	Yaw:	-7.629	Thrust:	48.079
Time:	0.190	Roll Set Point:	-0.014	Pitch Set Point:	0.004	Yaw Set Point:	0.030	X_WP:	0.000	Y_WP:	0.000	Y_WP:	0.750	X:	0.007	Y:	-0.002	Z:	0.053	yaw:	-1.699	yaw rate:	34.094	Roll:	0.266	Pitch:	-0.191	Yaw:	-7.099	Thrust:	50.609
Time:	0.209	Roll Set Point:	-0.014	Pitch Set Point:	0.004	Yaw Set Point:	0.036	X_WP:	0.000	Y_WP:	0.000	Y_WP:	0.750	X:	0.007	Y:	-0.002	Z:	0.053	yaw:	-2.089	yaw rate:	39.009	Roll:	0.076	Pitch:	0.326	Yaw:	-8.085	Thrust:	51.690
Time:	0.230	Roll Set Point:	-0.014	Pitch Set Point:	0.004	Yaw Set Point:	0.022	X_WP:	0.000	Y_WP:	0.000	Y_WP:	0.750	X:	0.007	Y:	-0.002	Z:	0.053	yaw:	-1.241	yaw rate:	-84.783	Roll:	0.429	Pitch:	-0.328	Yaw:	9.012	Thrust:	53.710
Time:	0.250	Roll Set Point:	-0.015	Pitch Set Point:	0.004	Yaw Set Point:	0.017	X_WP:	0.000	Y_WP:	0.000	Y_WP:	0.750	X:	0.007	Y:	-0.002	Z:	0.053	yaw:	-0.960	yaw rate:	-28.074	Roll:	0.271	Pitch:	0.035	Yaw:	2.283	Thrust:	54.605
Time:	0.269	Roll Set Point:	-0.015	Pitch Set Point:	0.004	Yaw Set Point:	0.009	X_WP:	0.000	Y_WP:	0.000	Y_WP:	0.750	X:	0.008	Y:	-0.002	Z:	0.053	yaw:	-0.513	yaw rate:	-44.734	Roll:	0.450	Pitch:	-0.019	Yaw:	5.193	Thrust:	56.514
Time:	0.289	Roll Set Point:	-0.015	Pitch Set Point:	0.003	Yaw Set Point:	0.015	X_WP:	0.000	Y_WP:	0.000	Y_WP:	0.750	X:	0.008	Y:	-0.002	Z:	0.053	yaw:	-0.856	yaw rate:	34.326	Roll:	0.340	Pitch:	0.264	Yaw:	-5.777	Thrust:	58.264
Time:	0.310	Roll Set Point:	-0.016	Pitch Set Point:	0.003	Yaw Set Point:	0.019	X_WP:	0.000	Y_WP:	0.000	Y_WP:	0.750	X:	0.008	Y:	-0.002	Z:	0.053	yaw:	-1.106	yaw rate:	24.963	Roll:	0.524	Pitch:	-0.023	Yaw:	-4.788	Thrust:	61.309
Time:	0.330	Roll Set Point:	-0.016	Pitch Set Point:	0.003	Yaw Set Point:	0.017	X_WP:	0.000	Y_WP:	0.000	Y_WP:	0.750	X:	0.008	Y:	-0.001	Z:	0.053	yaw:	-0.986	yaw rate:	-11.992	Roll:	0.335	Pitch:	0.154	Yaw:	0.134	Thrust:	60.256
Time:	0.350	Roll Set Point:	-0.016	Pitch Set Point:	0.002	Yaw Set Point:	0.012	X_WP:	0.000	Y_WP:	0.000	Y_WP:	0.750	X:	0.008	Y:	-0.001	Z:	0.053	yaw:	-0.666	yaw rate:	-31.996	Roll:	0.345	Pitch:	0.010	Yaw:	3.126	Thrust:	63.089
Time:	0.370	Roll Set Point:	-0.016	Pitch Set Point:	0.002	Yaw Set Point:	0.016	X_WP:	0.000	Y_WP:	0.000	Y_WP:	0.750	X:	0.008	Y:	-0.001	Z:	0.054	yaw:	-0.890	yaw rate:	22.445	Roll:	0.251	Pitch:	0.143	Yaw:	-4.274	Thrust:	64.181
Time:	0.390	Roll Set Point:	-0.016	Pitch Set Point:	0.001	Yaw Set Point:	0.017	X_WP:	0.000	Y_WP:	0.000	Y_WP:	0.750	X:	0.008	Y:	-0.001	Z:	0.055	yaw:	-0.969	yaw rate:	7.922	Roll:	0.008	Pitch:	0.323	Yaw:	-2.556	Thrust:	62.973
Time:	0.409	Roll Set Point:	-0.016	Pitch Set Point:	0.002	Yaw Set Point:	0.025	X_WP:	0.000	Y_WP:	0.000	Y_WP:	0.750	X:	0.008	Y:	-0.001	Z:	0.057	yaw:	-1.435	yaw rate:	46.555	Roll:	0.211	Pitch:	-0.138	Yaw:	-8.256	Thrust:	64.206
Time:	0.429	Roll Set Point:	-0.015	Pitch Set Point:	0.001	Yaw Set Point:	0.025	X_WP:	0.000	Y_WP:	0.000	Y_WP:	0.750	X:	0.008	Y:	-0.001	Z:	0.059	yaw:	-1.405	yaw rate:	-2.961	Roll:	-0.127	Pitch:	0.182	Yaw:	-1.735	Thrust:	64.205
Time:	0.450	Roll Set Point:	-0.015	Pitch Set Point:	0.001	Yaw Set Point:	0.024	X_WP:	0.000	Y_WP:	0.000	Y_WP:	0.750	X:	0.007	Y:	-0.001	Z:	0.063	yaw:	-1.386	yaw rate:	-1.889	Roll:	0.017	Pitch:	-0.089	Yaw:	-1.849	Thrust:	63.205
Time:	0.469	Roll Set Point:	-0.014	Pitch Set Point:	0.002	Yaw Set Point:	0.023	X_WP:	0.000	Y_WP:	0.000	Y_WP:	0.750	X:	0.007	Y:	-0.001	Z:	0.068	yaw:	-1.314	yaw rate:	-7.241	Roll:	0.007	Pitch:	-0.190	Yaw:	-1.040	Thrust:	59.761
Time:	0.490	Roll Set Point:	-0.013	Pitch Set Point:	0.002	Yaw Set Point:	0.029	X_WP:	0.000	Y_WP:	0.000	Y_WP:	0.750	X:	0.007	Y:	-0.001	Z:	0.073	yaw:	-1.654	yaw rate:	33.991	Roll:	-0.055	Pitch:	-0.119	Yaw:	-6.925	Thrust:	64.197
Time:	0.510	Roll Set Point:	-0.013	Pitch Set Point:	0.003	Yaw Set Point:	0.027	X_WP:	0.000	Y_WP:	0.000	Y_WP:	0.750	X:	0.006	Y:	-0.001	Z:	0.079	yaw:	-1.545	yaw rate:	-10.899	Roll:	-0.056	Pitch:	-0.389	Yaw:	-0.928	Thrust:	61.535
Time:	0.530	Roll Set Point:	-0.012	Pitch Set Point:	0.003	Yaw Set Point:	0.028	X_WP:	0.000	Y_WP:	0.000	Y_WP:	0.750	X:	0.006	Y:	-0.002	Z:	0.086	yaw:	-1.619	yaw rate:	7.439	Roll:	-0.144	Pitch:	-0.373	Yaw:	-3.414	Thrust:	62.396
Time:	0.551	Roll Set Point:	-0.012	Pitch Set Point:	0.005	Yaw Set Point:	0.041	X_WP:	0.000	Y_WP:	0.000	Y_WP:	0.750	X:	0.006	Y:	-0.003	Z:	0.093	yaw:	-2.334	yaw rate:	71.440	Roll:	-0.003	Pitch:	-0.605	Yaw:	-12.363	Thrust:	64.618
Time:	0.570	Roll Set Point:	-0.011	Pitch Set Point:	0.005	Yaw Set Point:	0.024	X_WP:	0.000	Y_WP:	0.000	Y_WP:	0.750	X:	0.005	Y:	-0.003	Z:	0.102	yaw:	-1.398	yaw rate:	-93.558	Roll:	-0.125	Pitch:	-0.313	Yaw:	10.967	Thrust:	55.406
Time:	0.590	Roll Set Point:	-0.010	Pitch Set Point:	0.006	Yaw Set Point:	0.041	X_WP:	0.000	Y_WP:	0.000	Y_WP:	0.750	X:	0.005	Y:	-0.003	Z:	0.111	yaw:	-2.337	yaw rate:	93.908	Roll:	-0.089	Pitch:	-0.335	Yaw:	-15.750	Thrust:	58.644
Time:	0.610	Roll Set Point:	-0.009	Pitch Set Point:	0.007	Yaw Set Point:	0.027	X_WP:	0.000	Y_WP:	0.000	Y_WP:	0.750	X:	0.005	Y:	-0.004	Z:	0.120	yaw:	-1.526	yaw rate:	-81.156	Roll:	-0.271	Pitch:	-0.576	Yaw:	8.103	Thrust:	62.208
Time:	0.630	Roll Set Point:	-0.009	Pitch Set Point:	0.008	Yaw Set Point:	0.035	X_WP:	0.000	Y_WP:	0.000	Y_WP:	0.750	X:	0.004	Y:	-0.004	Z:	0.130	yaw:	-2.020	yaw rate:	49.460	Roll:	-0.205	Pitch:	-0.455	Yaw:	-9.453	Thrust:	59.472
Time:	0.650	Roll Set Point:	-0.008	Pitch Set Point:	0.009	Yaw Set Point:	0.038	X_WP:	0.000	Y_WP:	0.000	Y_WP:	0.750	X:	0.004	Y:	-0.005	Z:	0.140	yaw:	-2.193	yaw rate:	17.246	Roll:	-0.137	Pitch:	-0.769	Yaw:	-5.683	Thrust:	59.213
Time:	0.669	Roll Set Point:	-0.007	Pitch Set Point:	0.010	Yaw Set Point:	0.024	X_WP:	0.000	Y_WP:	0.000	Y_WP:	0.750	X:	0.003	Y:	-0.005	Z:	0.150	yaw:	-1.371	yaw rate:	-82.199	Roll:	-0.268	Pitch:	-0.292	Yaw:	8.758	Thrust:	59.113
Time:	0.690	Roll Set Point:	-0.006	Pitch Set Point:	0.011	Yaw Set Point:	0.047	X_WP:	0.000	Y_WP:	0.000	Y_WP:	0.750	X:	0.003	Y:	-0.005	Z:	0.161	yaw:	-2.708	yaw rate:	133.698	Roll:	-0.347	Pitch:	-0.603	Yaw:	-21.539	Thrust:	60.818
Time:	0.709	Roll Set Point:	-0.004	Pitch Set Point:	0.011	Yaw Set Point:	0.018	X_WP:	0.000	Y_WP:	0.000	Y_WP:	0.750	X:	0.002	Y:	-0.006	Z:	0.172	yaw:	-1.017	yaw rate:	-169.122	Roll:	-0.609	Pitch:	-0.502	Yaw:	20.959	Thrust:	58.891
Time:	0.730	Roll Set Point:	-0.003	Pitch Set Point:	0.012	Yaw Set Point:	0.024	X_WP:	0.000	Y_WP:	0.000	Y_WP:	0.750	X:	0.002	Y:	-0.006	Z:	0.183	yaw:	-1.386	yaw rate:	36.991	Roll:	-0.314	Pitch:	-0.507	Yaw:	-7.062	Thrust:	62.134
Time:	0.749	Roll Set Point:	-0.003	Pitch Set Point:	0.013	Yaw Set Point:	0.028	X_WP:	0.000	Y_WP:	0.000	Y_WP:	0.750	X:	0.001	Y:	-0.007	Z:	0.194	yaw:	-1.594	yaw rate:	20.733	Roll:	-0.165	Pitch:	-0.723	Yaw:	-5.265	Thrust:	62.495
Time:	0.769	Roll Set Point:	-0.002	Pitch Set Point:	0.015	Yaw Set Point:	0.040	X_WP:	0.000	Y_WP:	0.000	Y_WP:	0.750	X:	0.001	Y:	-0.007	Z:	0.205	yaw:	-2.279	yaw rate:	68.481	Roll:	-0.198	Pitch:	-0.746	Yaw:	-12.339	Thrust:	63.968
Time:	0.790	Roll Set Point:	-0.001	Pitch Set Point:	0.016	Yaw Set Point:	0.021	X_WP:	0.000	Y_WP:	0.000	Y_WP:	0.750	X:	0.001	Y:	-0.008	Z:	0.216	yaw:	-1.221	yaw rate:	-105.710	Roll:	-0.453	Pitch:	-0.607	Yaw:	11.819	Thrust:	62.003
Time:	0.810	Roll Set Point:	-0.000	Pitch Set Point:	0.017	Yaw Set Point:	0.037	X_WP:	0.000	Y_WP:	0.000	Y_WP:	0.750	X:	-0.000	Y:	-0.008	Z:	0.228	yaw:	-2.135	yaw rate:	91.338	Roll:	-0.406	Pitch:	-0.836	Yaw:	-15.045	Thrust:	64.662
Time:	0.830	Roll Set Point:	0.001	Pitch Set Point:	0.018	Yaw Set Point:	0.030	X_WP:	0.000	Y_WP:	0.000	Y_WP:	0.750	X:	-0.000	Y:	-0.009	Z:	0.240	yaw:	-1.729	yaw rate:	-40.578	Roll:	-0.348	Pitch:	-0.559	Yaw:	2.792	Thrust:	57.772
Time:	0.849	Roll Set Point:	0.002	Pitch Set Point:	0.018	Yaw Set Point:	0.024	X_WP:	0.000	Y_WP:	0.000	Y_WP:	0.750	X:	-0.001	Y:	-0.009	Z:	0.253	yaw:	-1.385	yaw rate:	-34.441	Roll:	-0.471	Pitch:	-0.620	Yaw:	2.083	Thrust:	63.393
Time:	0.869	Roll Set Point:	0.003	Pitch Set Point:	0.020	Yaw Set Point:	0.018	X_WP:	0.000	Y_WP:	0.000	Y_WP:	0.750	X:	-0.001	Y:	-0.010	Z:	0.265	yaw:	-1.043	yaw rate:	-34.204	Roll:	-0.471	Pitch:	-0.831	Yaw:	2.675	Thrust:	60.846
Time:	0.889	Roll Set Point:	0.004	Pitch Set Point:	0.020	Yaw Set Point:	0.026	X_WP:	0.000	Y_WP:	0.000	Y_WP:	0.750	X:	-0.002	Y:	-0.010	Z:	0.279	yaw:	-1.471	yaw rate:	42.880	Roll:	-0.435	Pitch:	-0.636	Yaw:	-8.072	Thrust:	60.712
Time:	0.910	Roll Set Point:	0.005	Pitch Set Point:	0.022	Yaw Set Point:	0.030	X_WP:	0.000	Y_WP:	0.000	Y_WP:	0.750	X:	-0.002	Y:	-0.011	Z:	0.292	yaw:	-1.728	yaw rate:	25.655	Roll:	-0.384	Pitch:	-0.859	Yaw:	-6.047	Thrust:	66.853
Time:	0.929	Roll Set Point:	0.006	Pitch Set Point:	0.022	Yaw Set Point:	0.025	X_WP:	0.000	Y_WP:	0.000	Y_WP:	0.750	X:	-0.003	Y:	-0.011	Z:	0.307	yaw:	-1.439	yaw rate:	-28.938	Roll:	-0.638	Pitch:	-0.486	Yaw:	1.653	Thrust:	52.294
Time:	0.949	Roll Set Point:	0.007	Pitch Set Point:	0.023	Yaw Set Point:	0.018	X_WP:	0.000	Y_WP:	0.000	Y_WP:	0.750	X:	-0.003	Y:	-0.012	Z:	0.321	yaw:	-1.043	yaw rate:	-39.568	Roll:	-0.483	Pitch:	-0.855	Yaw:	3.197	Thrust:	61.176
Time:	0.970	Roll Set Point:	0.008	Pitch Set Point:	0.024	Yaw Set Point:	0.012	X_WP:	0.000	Y_WP:	0.000	Y_WP:	0.750	X:	-0.004	Y:	-0.012	Z:	0.335	yaw:	-0.703	yaw rate:	-33.940	Roll:	-0.505	Pitch:	-0.805	Yaw:	2.930	Thrust:	61.081
Time:	0.990	Roll Set Point:	0.009	Pitch Set Point:	0.025	Yaw Set Point:	0.017	X_WP:	0.000	Y_WP:	0.000	Y_WP:	0.750	X:	-0.005	Y:	-0.012	Z:	0.351	yaw:	-0.972	yaw rate:	26.818	Roll:	-0.631	Pitch:	-0.632	Yaw:	-5.285	Thrust:	59.760
Time:	1.011	Roll Set Point:	-0.403	Pitch Set Point:	0.325	Yaw Set Point:	0.016	X_WP:	-0.408	Y_WP:	0.306	Y_WP:	0.750	X:	-0.005	Y:	-0.013	Z:	0.366	yaw:	-0.936	yaw rate:	-3.600	Roll:	30.000	Pitch:	-30.000	Yaw:	-1.344	Thrust:	56.729
Time:	1.029	Roll Set Point:	-0.399	Pitch Set Point:	0.329	Yaw Set Point:	0.009	X_WP:	-0.408	Y_WP:	0.306	Y_WP:	0.750	X:	-0.006	Y:	-0.013	Z:	0.381	yaw:	-0.506	yaw rate:	-43.000	Roll:	9.300	Pitch:	-12.307	Yaw:	4.974	Thrust:	55.718
Time:	1.050	Roll Set Point:	-0.406	Pitch Set Point:	0.320	Yaw Set Point:	0.034	X_WP:	-0.408	Y_WP:	0.306	Y_WP:	0.750	X:	-0.007	Y:	-0.014	Z:	0.397	yaw:	-1.951	yaw rate:	144.486	Roll:	17.937	Pitch:	-0.914	Yaw:	-21.498	Thrust:	61.240
Time:	1.069	Roll Set Point:	-0.396	Pitch Set Point:	0.331	Yaw Set Point:	0.007	X_WP:	-0.408	Y_WP:	0.306	Y_WP:	0.750	X:	-0.007	Y:	-0.014	Z:	0.412	yaw:	-0.408	yaw rate:	-154.227	Roll:	4.328	Pitch:	-18.795	Yaw:	19.510	Thrust:	55.282
Time:	1.089	Roll Set Point:	-0.394	Pitch Set Point:	0.332	Yaw Set Point:	0.005	X_WP:	-0.408	Y_WP:	0.306	Y_WP:	0.750	X:	-0.008	Y:	-0.014	Z:	0.428	yaw:	-0.263	yaw rate:	-14.501	Roll:	10.374	Pitch:	-10.255	Yaw:	1.028	Thrust:	56.716
Time:	1.110	Roll Set Point:	-0.392	Pitch Set Point:	0.333	Yaw Set Point:	0.003	X_WP:	-0.408	Y_WP:	0.306	Y_WP:	0.750	X:	-0.009	Y:	-0.014	Z:	0.444	yaw:	-0.171	yaw rate:	-9.262	Roll:	10.421	Pitch:	-9.987	Yaw:	0.454	Thrust:	57.561
Time:	1.130	Roll Set Point:	-0.395	Pitch Set Point:	0.323	Yaw Set Point:	0.027	X_WP:	-0.408	Y_WP:	0.306	Y_WP:	0.750	X:	-0.011	Y:	-0.014	Z:	0.461	yaw:	-1.576	yaw rate:	140.488	Roll:	16.679	Pitch:	-0.289	Yaw:	-21.103	Thrust:	54.984
Time:	1.150	Roll Set Point:	-0.384	Pitch Set Point:	0.331	Yaw Set Point:	0.002	X_WP:	-0.408	Y_WP:	0.306	Y_WP:	0.750	X:	-0.012	Y:	-0.013	Z:	0.477	yaw:	-0.109	yaw rate:	-146.692	Roll:	3.335	Pitch:	-17.816	Yaw:	19.454	Thrust:	51.018
Time:	1.171	Roll Set Point:	-0.382	Pitch Set Point:	0.325	Yaw Set Point:	0.011	X_WP:	-0.408	Y_WP:	0.306	Y_WP:	0.750	X:	-0.015	Y:	-0.012	Z:	0.493	yaw:	-0.634	yaw rate:	52.560	Roll:	11.964	Pitch:	-5.442	Yaw:	-7.520	Thrust:	70.138
Time:	1.189	Roll Set Point:	-0.376	Pitch Set Point:	0.324	Yaw Set Point:	0.009	X_WP:	-0.408	Y_WP:	0.306	Y_WP:	0.750	X:	-0.018	Y:	-0.010	Z:	0.509	yaw:	-0.518	yaw rate:	-11.606	Roll:	8.413	Pitch:	-8.770	Yaw:	0.555	Thrust:	41.167
Time:	1.213	Roll Set Point:	-0.369	Pitch Set Point:	0.320	Yaw Set Point:	0.008	X_WP:	-0.408	Y_WP:	0.306	Y_WP:	0.750	X:	-0.021	Y:	-0.009	Z:	0.525	yaw:	-0.474	yaw rate:	-4.453	Roll:	8.784	Pitch:	-8.208	Yaw:	-0.793	Thrust:	76.432
Time:	1.230	Roll Set Point:	-0.362	Pitch Set Point:	0.315	Yaw Set Point:	0.011	X_WP:	-0.408	Y_WP:	0.306	Y_WP:	0.750	X:	-0.025	Y:	-0.006	Z:	0.541	yaw:	-0.645	yaw rate:	17.169	Roll:	8.397	Pitch:	-5.703	Yaw:	-3.986	Thrust:	29.200
Time:	1.249	Roll Set Point:	-0.349	Pitch Set Point:	0.312	Yaw Set Point:	0.003	X_WP:	-0.408	Y_WP:	0.306	Y_WP:	0.750	X:	-0.030	Y:	-0.003	Z:	0.557	yaw:	-0.187	yaw rate:	-45.855	Roll:	4.859	Pitch:	-9.274	Yaw:	5.365	Thrust:	59.503
Time:	1.269	Roll Set Point:	-0.340	Pitch Set Point:	0.304	Yaw Set Point:	0.009	X_WP:	-0.408	Y_WP:	0.306	Y_WP:	0.750	X:	-0.035	Y:	-0.001	Z:	0.573	yaw:	-0.494	yaw rate:	30.752	Roll:	8.000	Pitch:	-4.708	Yaw:	-5.317	Thrust:	51.170
Time:	1.290	Roll Set Point:	-0.327	Pitch Set Point:	0.299	Yaw Set Point:	0.003	X_WP:	-0.408	Y_WP:	0.306	Y_WP:	0.750	X:	-0.041	Y:	0.003	Z:	0.587	yaw:	-0.185	yaw rate:	-30.926	Roll:	4.575	Pitch:	-7.684	Yaw:	3.246	Thrust:	58.117
Time:	1.309	Roll Set Point:	-0.313	Pitch Set Point:	0.292	Yaw Set Point:	0.000	X_WP:	-0.408	Y_WP:	0.306	Y_WP:	0.750	X:	-0.048	Y:	0.007	Z:	0.602	yaw:	-0.014	yaw rate:	-17.123	Roll:	4.637	Pitch:	-6.562	Yaw:	1.636	Thrust:	58.212
Time:	1.330	Roll Set Point:	-0.298	Pitch Set Point:	0.284	Yaw Set Point:	-0.003	X_WP:	-0.408	Y_WP:	0.306	Y_WP:	0.750	X:	-0.055	Y:	0.011	Z:	0.616	yaw:	0.170	yaw rate:	-18.333	Roll:	3.570	Pitch:	-5.924	Yaw:	2.232	Thrust:	51.679
Time:	1.349	Roll Set Point:	-0.285	Pitch Set Point:	0.273	Yaw Set Point:	0.002	X_WP:	-0.408	Y_WP:	0.306	Y_WP:	0.750	X:	-0.062	Y:	0.016	Z:	0.630	yaw:	-0.136	yaw rate:	30.517	Roll:	5.711	Pitch:	-3.149	Yaw:	-4.692	Thrust:	57.566
Time:	1.369	Roll Set Point:	-0.267	Pitch Set Point:	0.264	Yaw Set Point:	-0.002	X_WP:	-0.408	Y_WP:	0.306	Y_WP:	0.750	X:	-0.070	Y:	0.022	Z:	0.644	yaw:	0.115	yaw rate:	-25.039	Roll:	2.190	Pitch:	-5.201	Yaw:	2.790	Thrust:	60.541
Time:	1.390	Roll Set Point:	-0.252	Pitch Set Point:	0.251	Yaw Set Point:	0.003	X_WP:	-0.408	Y_WP:	0.306	Y_WP:	0.750	X:	-0.079	Y:	0.027	Z:	0.657	yaw:	-0.164	yaw rate:	27.884	Roll:	4.081	Pitch:	-2.472	Yaw:	-4.322	Thrust:	60.723
Time:	1.410	Roll Set Point:	-0.233	Pitch Set Point:	0.240	Yaw Set Point:	-0.001	X_WP:	-0.408	Y_WP:	0.306	Y_WP:	0.750	X:	-0.087	Y:	0.033	Z:	0.671	yaw:	0.081	yaw rate:	-24.457	Roll:	1.351	Pitch:	-4.199	Yaw:	2.860	Thrust:	53.228
Time:	1.429	Roll Set Point:	-0.214	Pitch Set Point:	0.228	Yaw Set Point:	-0.003	X_WP:	-0.408	Y_WP:	0.306	Y_WP:	0.750	X:	-0.097	Y:	0.040	Z:	0.684	yaw:	0.182	yaw rate:	-10.160	Roll:	1.075	Pitch:	-2.947	Yaw:	1.071	Thrust:	56.366
Time:	1.449	Roll Set Point:	-0.196	Pitch Set Point:	0.214	Yaw Set Point:	-0.001	X_WP:	-0.408	Y_WP:	0.306	Y_WP:	0.750	X:	-0.106	Y:	0.047	Z:	0.697	yaw:	0.079	yaw rate:	10.336	Roll:	1.378	Pitch:	-1.635	Yaw:	-1.771	Thrust:	57.307
Time:	1.470	Roll Set Point:	-0.175	Pitch Set Point:	0.199	Yaw Set Point:	-0.002	X_WP:	-0.408	Y_WP:	0.306	Y_WP:	0.750	X:	-0.116	Y:	0.054	Z:	0.710	yaw:	0.104	yaw rate:	-2.530	Roll:	0.070	Pitch:	-1.472	Yaw:	-0.076	Thrust:	53.925
Time:	1.489	Roll Set Point:	-0.155	Pitch Set Point:	0.184	Yaw Set Point:	-0.003	X_WP:	-0.408	Y_WP:	0.306	Y_WP:	0.750	X:	-0.127	Y:	0.061	Z:	0.722	yaw:	0.162	yaw rate:	-5.797	Roll:	-0.300	Pitch:	-1.368	Yaw:	0.518	Thrust:	56.324
Time:	1.510	Roll Set Point:	-0.133	Pitch Set Point:	0.169	Yaw Set Point:	-0.002	X_WP:	-0.408	Y_WP:	0.306	Y_WP:	0.750	X:	-0.137	Y:	0.069	Z:	0.735	yaw:	0.140	yaw rate:	2.158	Roll:	-0.616	Pitch:	-0.757	Yaw:	-0.623	Thrust:	59.329
Time:	1.530	Roll Set Point:	-0.112	Pitch Set Point:	0.152	Yaw Set Point:	0.001	X_WP:	-0.408	Y_WP:	0.306	Y_WP:	0.750	X:	-0.148	Y:	0.077	Z:	0.748	yaw:	-0.067	yaw rate:	20.739	Roll:	-0.736	Pitch:	1.098	Yaw:	-3.339	Thrust:	55.008
Time:	1.550	Roll Set Point:	-0.090	Pitch Set Point:	0.136	Yaw Set Point:	-0.002	X_WP:	-0.408	Y_WP:	0.306	Y_WP:	0.750	X:	-0.159	Y:	0.085	Z:	0.760	yaw:	0.132	yaw rate:	-19.880	Roll:	-2.165	Pitch:	-0.737	Yaw:	2.250	Thrust:	54.635
Time:	1.570	Roll Set Point:	-0.069	Pitch Set Point:	0.116	Yaw Set Point:	0.009	X_WP:	-0.408	Y_WP:	0.306	Y_WP:	0.750	X:	-0.171	Y:	0.094	Z:	0.772	yaw:	-0.495	yaw rate:	62.696	Roll:	-0.410	Pitch:	3.087	Yaw:	-9.410	Thrust:	55.609
Time:	1.591	Roll Set Point:	-0.046	Pitch Set Point:	0.100	Yaw Set Point:	0.007	X_WP:	-0.408	Y_WP:	0.306	Y_WP:	0.750	X:	-0.182	Y:	0.103	Z:	0.784	yaw:	-0.426	yaw rate:	-6.883	Roll:	-1.759	Pitch:	-0.094	Yaw:	-0.310	Thrust:	60.643
Time:	1.610	Roll Set Point:	-0.023	Pitch Set Point:	0.082	Yaw Set Point:	0.009	X_WP:	-0.408	Y_WP:	0.306	Y_WP:	0.750	X:	-0.194	Y:	0.111	Z:	0.796	yaw:	-0.514	yaw rate:	8.810	Roll:	-3.441	Pitch:	2.010	Yaw:	-2.447	Thrust:	46.969
Time:	1.630	Roll Set Point:	0.000	Pitch Set Point:	0.065	Yaw Set Point:	0.008	X_WP:	-0.408	Y_WP:	0.306	Y_WP:	0.750	X:	-0.205	Y:	0.120	Z:	0.808	yaw:	-0.454	yaw rate:	-5.996	Roll:	-3.783	Pitch:	1.018	Yaw:	-0.425	Thrust:	56.233
Time:	1.650	Roll Set Point:	0.023	Pitch Set Point:	0.047	Yaw Set Point:	0.009	X_WP:	-0.408	Y_WP:	0.306	Y_WP:	0.750	X:	-0.217	Y:	0.129	Z:	0.820	yaw:	-0.526	yaw rate:	7.143	Roll:	-3.606	Pitch:	2.564	Yaw:	-2.218	Thrust:	50.048
Time:	1.669	Roll Set Point:	0.047	Pitch Set Point:	0.031	Yaw Set Point:	0.003	X_WP:	-0.408	Y_WP:	0.306	Y_WP:	0.750	X:	-0.228	Y:	0.137	Z:	0.832	yaw:	-0.194	yaw rate:	-33.234	Roll:	-5.324	Pitch:	1.310	Yaw:	3.938	Thrust:	42.860
Time:	1.690	Roll Set Point:	0.070	Pitch Set Point:	0.013	Yaw Set Point:	0.009	X_WP:	-0.408	Y_WP:	0.306	Y_WP:	0.750	X:	-0.240	Y:	0.146	Z:	0.844	yaw:	-0.513	yaw rate:	31.939	Roll:	-3.217	Pitch:	2.533	Yaw:	-5.108	Thrust:	62.157
Time:	1.710	Roll Set Point:	0.093	Pitch Set Point:	-0.004	Yaw Set Point:	0.007	X_WP:	-0.408	Y_WP:	0.306	Y_WP:	0.750	X:	-0.251	Y:	0.155	Z:	0.855	yaw:	-0.383	yaw rate:	-12.967	Roll:	-4.682	Pitch:	2.110	Yaw:	0.678	Thrust:	48.495
Time:	1.730	Roll Set Point:	0.116	Pitch Set Point:	-0.021	Yaw Set Point:	0.003	X_WP:	-0.408	Y_WP:	0.306	Y_WP:	0.750	X:	-0.263	Y:	0.163	Z:	0.866	yaw:	-0.188	yaw rate:	-19.556	Roll:	-6.011	Pitch:	2.833	Yaw:	1.955	Thrust:	44.316
Time:	1.750	Roll Set Point:	0.139	Pitch Set Point:	-0.039	Yaw Set Point:	0.007	X_WP:	-0.408	Y_WP:	0.306	Y_WP:	0.750	X:	-0.274	Y:	0.172	Z:	0.876	yaw:	-0.388	yaw rate:	20.070	Roll:	-4.778	Pitch:	3.288	Yaw:	-3.619	Thrust:	51.819
Time:	1.769	Roll Set Point:	0.161	Pitch Set Point:	-0.056	Yaw Set Point:	0.006	X_WP:	-0.408	Y_WP:	0.306	Y_WP:	0.750	X:	-0.285	Y:	0.181	Z:	0.886	yaw:	-0.346	yaw rate:	-4.265	Roll:	-5.001	Pitch:	2.702	Yaw:	-0.468	Thrust:	55.839
Time:	1.790	Roll Set Point:	0.183	Pitch Set Point:	-0.072	Yaw Set Point:	0.004	X_WP:	-0.408	Y_WP:	0.306	Y_WP:	0.750	X:	-0.296	Y:	0.189	Z:	0.895	yaw:	-0.206	yaw rate:	-14.006	Roll:	-5.683	Pitch:	2.914	Yaw:	0.979	Thrust:	52.055
Time:	1.810	Roll Set Point:	0.205	Pitch Set Point:	-0.088	Yaw Set Point:	0.003	X_WP:	-0.408	Y_WP:	0.306	Y_WP:	0.750	X:	-0.307	Y:	0.197	Z:	0.904	yaw:	-0.149	yaw rate:	-5.692	Roll:	-5.470	Pitch:	2.926	Yaw:	-0.068	Thrust:	52.727
Time:	1.829	Roll Set Point:	0.225	Pitch Set Point:	-0.104	Yaw Set Point:	0.009	X_WP:	-0.408	Y_WP:	0.306	Y_WP:	0.750	X:	-0.317	Y:	0.205	Z:	0.913	yaw:	-0.517	yaw rate:	36.838	Roll:	-5.663	Pitch:	4.186	Yaw:	-6.305	Thrust:	50.667
Time:	1.850	Roll Set Point:	0.246	Pitch Set Point:	-0.119	Yaw Set Point:	0.004	X_WP:	-0.408	Y_WP:	0.306	Y_WP:	0.750	X:	-0.327	Y:	0.213	Z:	0.921	yaw:	-0.207	yaw rate:	-31.038	Roll:	-5.708	Pitch:	2.582	Yaw:	3.117	Thrust:	54.522
Time:	1.870	Roll Set Point:	0.267	Pitch Set Point:	-0.135	Yaw Set Point:	0.004	X_WP:	-0.408	Y_WP:	0.306	Y_WP:	0.750	X:	-0.338	Y:	0.221	Z:	0.928	yaw:	-0.225	yaw rate:	1.829	Roll:	-6.405	Pitch:	3.641	Yaw:	-1.121	Thrust:	53.414
Time:	1.890	Roll Set Point:	0.287	Pitch Set Point:	-0.149	Yaw Set Point:	-0.009	X_WP:	-0.408	Y_WP:	0.306	Y_WP:	0.750	X:	-0.347	Y:	0.228	Z:	0.936	yaw:	0.526	yaw rate:	-75.133	Roll:	-6.587	Pitch:	2.978	Yaw:	10.519	Thrust:	48.297
Time:	1.910	Roll Set Point:	0.305	Pitch Set Point:	-0.163	Yaw Set Point:	-0.003	X_WP:	-0.408	Y_WP:	0.306	Y_WP:	0.750	X:	-0.357	Y:	0.235	Z:	0.942	yaw:	0.159	yaw rate:	36.742	Roll:	-5.559	Pitch:	3.593	Yaw:	-5.065	Thrust:	55.101
Time:	1.930	Roll Set Point:	0.324	Pitch Set Point:	-0.178	Yaw Set Point:	-0.003	X_WP:	-0.408	Y_WP:	0.306	Y_WP:	0.750	X:	-0.366	Y:	0.242	Z:	0.948	yaw:	0.178	yaw rate:	-1.880	Roll:	-5.737	Pitch:	3.549	Yaw:	-0.079	Thrust:	54.643
Time:	1.950	Roll Set Point:	0.341	Pitch Set Point:	-0.191	Yaw Set Point:	-0.007	X_WP:	-0.408	Y_WP:	0.306	Y_WP:	0.750	X:	-0.375	Y:	0.249	Z:	0.955	yaw:	0.425	yaw rate:	-24.728	Roll:	-5.845	Pitch:	3.219	Yaw:	3.259	Thrust:	52.487
Time:	1.969	Roll Set Point:	0.358	Pitch Set Point:	-0.203	Yaw Set Point:	-0.006	X_WP:	-0.408	Y_WP:	0.306	Y_WP:	0.750	X:	-0.383	Y:	0.255	Z:	0.960	yaw:	0.325	yaw rate:	10.023	Roll:	-5.970	Pitch:	3.576	Yaw:	-1.429	Thrust:	52.253
Time:	1.990	Roll Set Point:	0.375	Pitch Set Point:	-0.216	Yaw Set Point:	-0.011	X_WP:	-0.408	Y_WP:	0.306	Y_WP:	0.750	X:	-0.391	Y:	0.261	Z:	0.966	yaw:	0.603	yaw rate:	-27.790	Roll:	-6.086	Pitch:	3.429	Yaw:	3.989	Thrust:	51.475
Time:	2.010	Roll Set Point:	0.390	Pitch Set Point:	-0.227	Yaw Set Point:	-0.005	X_WP:	-0.408	Y_WP:	0.306	Y_WP:	0.750	X:	-0.399	Y:	0.267	Z:	0.970	yaw:	0.309	yaw rate:	29.388	Roll:	-5.467	Pitch:	3.304	Yaw:	-3.849	Thrust:	56.615
Time:	2.032	Roll Set Point:	0.404	Pitch Set Point:	-0.238	Yaw Set Point:	0.019	X_WP:	-0.408	Y_WP:	0.306	Y_WP:	0.750	X:	-0.406	Y:	0.272	Z:	0.975	yaw:	-1.115	yaw rate:	142.350	Roll:	-4.134	Pitch:	2.384	Yaw:	-19.422	Thrust:	58.900
Time:	2.050	Roll Set Point:	0.418	Pitch Set Point:	-0.248	Yaw Set Point:	0.021	X_WP:	-0.408	Y_WP:	0.306	Y_WP:	0.750	X:	-0.414	Y:	0.277	Z:	0.980	yaw:	-1.226	yaw rate:	11.078	Roll:	-6.188	Pitch:	3.375	Yaw:	-3.786	Thrust:	46.252
Time:	2.069	Roll Set Point:	0.432	Pitch Set Point:	-0.258	Yaw Set Point:	0.021	X_WP:	-0.408	Y_WP:	0.306	Y_WP:	0.750	X:	-0.420	Y:	0.282	Z:	0.984	yaw:	-1.230	yaw rate:	0.413	Roll:	-5.975	Pitch:	3.012	Yaw:	-2.318	Thrust:	50.306
Time:	2.090	Roll Set Point:	0.445	Pitch Set Point:	-0.268	Yaw Set Point:	0.021	X_WP:	-0.408	Y_WP:	0.306	Y_WP:	0.750	X:	-0.427	Y:	0.287	Z:	0.987	yaw:	-1.224	yaw rate:	-0.592	Roll:	-5.294	Pitch:	2.998	Yaw:	-2.207	Thrust:	53.236
Time:	2.112	Roll Set Point:	0.457	Pitch Set Point:	-0.276	Yaw Set Point:	0.023	X_WP:	-0.408	Y_WP:	0.306	Y_WP:	0.750	X:	-0.433	Y:	0.292	Z:	0.990	yaw:	-1.310	yaw rate:	8.646	Roll:	-4.840	Pitch:	2.224	Yaw:	-3.508	Thrust:	59.191
Time:	2.129	Roll Set Point:	0.469	Pitch Set Point:	-0.285	Yaw Set Point:	0.021	X_WP:	-0.408	Y_WP:	0.306	Y_WP:	0.750	X:	-0.439	Y:	0.296	Z:	0.993	yaw:	-1.181	yaw rate:	-12.893	Roll:	-5.942	Pitch:	3.272	Yaw:	-0.288	Thrust:	45.171
Time:	2.149	Roll Set Point:	0.480	Pitch Set Point:	-0.292	Yaw Set Point:	0.019	X_WP:	-0.408	Y_WP:	0.306	Y_WP:	0.750	X:	-0.444	Y:	0.300	Z:	0.996	yaw:	-1.088	yaw rate:	-9.310	Roll:	-4.905	Pitch:	2.245	Yaw:	-0.919	Thrust:	54.057
Time:	2.170	Roll Set Point:	0.490	Pitch Set Point:	-0.299	Yaw Set Point:	0.019	X_WP:	-0.408	Y_WP:	0.306	Y_WP:	0.750	X:	-0.449	Y:	0.303	Z:	0.998	yaw:	-1.076	yaw rate:	-1.168	Roll:	-4.950	Pitch:	2.410	Yaw:	-1.989	Thrust:	56.454
Time:	2.190	Roll Set Point:	0.500	Pitch Set Point:	-0.306	Yaw Set Point:	0.018	X_WP:	-0.408	Y_WP:	0.306	Y_WP:	0.750	X:	-0.454	Y:	0.307	Z:	0.999	yaw:	-1.013	yaw rate:	-6.304	Roll:	-4.713	Pitch:	2.217	Yaw:	-1.183	Thrust:	53.071
Time:	2.210	Roll Set Point:	0.508	Pitch Set Point:	-0.313	Yaw Set Point:	0.015	X_WP:	-0.408	Y_WP:	0.306	Y_WP:	0.750	X:	-0.458	Y:	0.310	Z:	1.000	yaw:	-0.856	yaw rate:	-15.759	Roll:	-4.473	Pitch:	2.117	Yaw:	0.196	Thrust:	55.329
Time:	2.231	Roll Set Point:	0.517	Pitch Set Point:	-0.319	Yaw Set Point:	0.013	X_WP:	-0.408	Y_WP:	0.306	Y_WP:	0.750	X:	-0.463	Y:	0.313	Z:	1.001	yaw:	-0.746	yaw rate:	-10.959	Roll:	-4.431	Pitch:	2.115	Yaw:	-0.336	Thrust:	57.635
Time:	2.250	Roll Set Point:	0.525	Pitch Set Point:	-0.323	Yaw Set Point:	0.019	X_WP:	-0.408	Y_WP:	0.306	Y_WP:	0.750	X:	-0.466	Y:	0.315	Z:	1.002	yaw:	-1.081	yaw rate:	33.437	Roll:	-4.545	Pitch:	1.531	Yaw:	-6.676	Thrust:	51.856
Time:	2.270	Roll Set Point:	0.532	Pitch Set Point:	-0.328	Yaw Set Point:	0.015	X_WP:	-0.408	Y_WP:	0.306	Y_WP:	0.750	X:	-0.470	Y:	0.318	Z:	1.002	yaw:	-0.882	yaw rate:	-19.870	Roll:	-4.226	Pitch:	2.048	Yaw:	0.877	Thrust:	51.310
Time:	2.290	Roll Set Point:	0.538	Pitch Set Point:	-0.333	Yaw Set Point:	0.016	X_WP:	-0.408	Y_WP:	0.306	Y_WP:	0.750	X:	-0.473	Y:	0.320	Z:	1.002	yaw:	-0.930	yaw rate:	4.777	Roll:	-4.088	Pitch:	1.622	Yaw:	-2.571	Thrust:	54.704
Time:	2.310	Roll Set Point:	0.544	Pitch Set Point:	-0.336	Yaw Set Point:	0.014	X_WP:	-0.408	Y_WP:	0.306	Y_WP:	0.750	X:	-0.476	Y:	0.322	Z:	1.002	yaw:	-0.780	yaw rate:	-14.936	Roll:	-3.708	Pitch:	1.529	Yaw:	0.159	Thrust:	55.663
Time:	2.330	Roll Set Point:	0.549	Pitch Set Point:	-0.340	Yaw Set Point:	0.017	X_WP:	-0.408	Y_WP:	0.306	Y_WP:	0.750	X:	-0.479	Y:	0.324	Z:	1.001	yaw:	-0.953	yaw rate:	17.292	Roll:	-3.882	Pitch:	1.196	Yaw:	-4.240	Thrust:	55.097
Time:	2.350	Roll Set Point:	0.554	Pitch Set Point:	-0.343	Yaw Set Point:	0.010	X_WP:	-0.408	Y_WP:	0.306	Y_WP:	0.750	X:	-0.481	Y:	0.325	Z:	1.000	yaw:	-0.574	yaw rate:	-37.945	Roll:	-3.312	Pitch:	1.748	Yaw:	3.485	Thrust:	51.793
Time:	2.370	Roll Set Point:	0.558	Pitch Set Point:	-0.346	Yaw Set Point:	0.012	X_WP:	-0.408	Y_WP:	0.306	Y_WP:	0.750	X:	-0.483	Y:	0.327	Z:	0.999	yaw:	-0.697	yaw rate:	12.295	Roll:	-3.445	Pitch:	1.018	Yaw:	-3.296	Thrust:	54.875
Time:	2.389	Roll Set Point:	0.562	Pitch Set Point:	-0.348	Yaw Set Point:	0.011	X_WP:	-0.408	Y_WP:	0.306	Y_WP:	0.750	X:	-0.485	Y:	0.328	Z:	0.997	yaw:	-0.626	yaw rate:	-7.086	Roll:	-3.164	Pitch:	0.968	Yaw:	-0.621	Thrust:	55.050
Time:	2.410	Roll Set Point:	0.565	Pitch Set Point:	-0.350	Yaw Set Point:	0.016	X_WP:	-0.408	Y_WP:	0.306	Y_WP:	0.750	X:	-0.487	Y:	0.329	Z:	0.996	yaw:	-0.902	yaw rate:	27.639	Roll:	-3.099	Pitch:	0.500	Yaw:	-5.464	Thrust:	56.796
Time:	2.430	Roll Set Point:	0.568	Pitch Set Point:	-0.352	Yaw Set Point:	0.010	X_WP:	-0.408	Y_WP:	0.306	Y_WP:	0.750	X:	-0.488	Y:	0.329	Z:	0.994	yaw:	-0.572	yaw rate:	-32.997	Roll:	-2.831	Pitch:	1.170	Yaw:	3.058	Thrust:	52.615
Time:	2.449	Roll Set Point:	0.570	Pitch Set Point:	-0.353	Yaw Set Point:	0.011	X_WP:	-0.408	Y_WP:	0.306	Y_WP:	0.750	X:	-0.489	Y:	0.330	Z:	0.992	yaw:	-0.648	yaw rate:	7.517	Roll:	-2.828	Pitch:	0.557	Yaw:	-2.568	Thrust:	57.360
Time:	2.469	Roll Set Point:	0.572	Pitch Set Point:	-0.354	Yaw Set Point:	0.008	X_WP:	-0.408	Y_WP:	0.306	Y_WP:	0.750	X:	-0.490	Y:	0.330	Z:	0.989	yaw:	-0.459	yaw rate:	-18.805	Roll:	-2.444	Pitch:	0.718	Yaw:	1.181	Thrust:	53.995
Time:	2.491	Roll Set Point:	0.573	Pitch Set Point:	-0.354	Yaw Set Point:	0.008	X_WP:	-0.408	Y_WP:	0.306	Y_WP:	0.750	X:	-0.491	Y:	0.331	Z:	0.986	yaw:	-0.484	yaw rate:	2.462	Roll:	-2.524	Pitch:	0.365	Yaw:	-1.711	Thrust:	57.797
Time:	2.510	Roll Set Point:	0.575	Pitch Set Point:	-0.356	Yaw Set Point:	0.003	X_WP:	-0.408	Y_WP:	0.306	Y_WP:	0.750	X:	-0.492	Y:	0.331	Z:	0.983	yaw:	-0.148	yaw rate:	-33.653	Roll:	-2.634	Pitch:	1.147	Yaw:	3.614	Thrust:	54.141
Time:	2.530	Roll Set Point:	0.575	Pitch Set Point:	-0.359	Yaw Set Point:	-0.023	X_WP:	-0.408	Y_WP:	0.306	Y_WP:	0.750	X:	-0.492	Y:	0.331	Z:	0.980	yaw:	1.307	yaw rate:	-145.462	Roll:	-1.330	Pitch:	2.188	Yaw:	20.884	Thrust:	54.839
Time:	2.549	Roll Set Point:	0.575	Pitch Set Point:	-0.358	Yaw Set Point:	-0.023	X_WP:	-0.408	Y_WP:	0.306	Y_WP:	0.750	X:	-0.492	Y:	0.331	Z:	0.976	yaw:	1.297	yaw rate:	0.973	Roll:	-2.051	Pitch:	0.118	Yaw:	0.983	Thrust:	56.395
Time:	2.569	Roll Set Point:	0.576	Pitch Set Point:	-0.358	Yaw Set Point:	-0.021	X_WP:	-0.408	Y_WP:	0.306	Y_WP:	0.750	X:	-0.492	Y:	0.331	Z:	0.973	yaw:	1.214	yaw rate:	8.344	Roll:	-2.071	Pitch:	0.062	Yaw:	-0.076	Thrust:	56.141
Time:	2.590	Roll Set Point:	0.576	Pitch Set Point:	-0.358	Yaw Set Point:	-0.025	X_WP:	-0.408	Y_WP:	0.306	Y_WP:	0.750	X:	-0.492	Y:	0.331	Z:	0.970	yaw:	1.446	yaw rate:	-23.200	Roll:	-1.701	Pitch:	0.293	Yaw:	4.278	Thrust:	56.717
Time:	2.610	Roll Set Point:	0.576	Pitch Set Point:	-0.357	Yaw Set Point:	-0.025	X_WP:	-0.408	Y_WP:	0.306	Y_WP:	0.750	X:	-0.492	Y:	0.331	Z:	0.966	yaw:	1.417	yaw rate:	2.933	Roll:	-1.810	Pitch:	-0.169	Yaw:	0.932	Thrust:	55.017
Time:	2.629	Roll Set Point:	0.575	Pitch Set Point:	-0.356	Yaw Set Point:	-0.024	X_WP:	-0.408	Y_WP:	0.306	Y_WP:	0.750	X:	-0.492	Y:	0.330	Z:	0.962	yaw:	1.400	yaw rate:	1.673	Roll:	-1.641	Pitch:	-0.281	Yaw:	1.100	Thrust:	52.913
Time:	2.650	Roll Set Point:	0.574	Pitch Set Point:	-0.354	Yaw Set Point:	-0.022	X_WP:	-0.408	Y_WP:	0.306	Y_WP:	0.750	X:	-0.492	Y:	0.329	Z:	0.958	yaw:	1.269	yaw rate:	13.074	Roll:	-1.626	Pitch:	-0.497	Yaw:	-0.529	Thrust:	58.216
Time:	2.669	Roll Set Point:	0.573	Pitch Set Point:	-0.353	Yaw Set Point:	-0.024	X_WP:	-0.408	Y_WP:	0.306	Y_WP:	0.750	X:	-0.491	Y:	0.329	Z:	0.954	yaw:	1.362	yaw rate:	-9.296	Roll:	-1.435	Pitch:	-0.285	Yaw:	2.553	Thrust:	53.411
Time:	2.690	Roll Set Point:	0.573	Pitch Set Point:	-0.350	Yaw Set Point:	-0.004	X_WP:	-0.408	Y_WP:	0.306	Y_WP:	0.750	X:	-0.491	Y:	0.328	Z:	0.950	yaw:	0.211	yaw rate:	115.079	Roll:	-1.966	Pitch:	-1.973	Yaw:	-15.359	Thrust:	54.760
Time:	2.710	Roll Set Point:	0.572	Pitch Set Point:	-0.349	Yaw Set Point:	-0.011	X_WP:	-0.408	Y_WP:	0.306	Y_WP:	0.750	X:	-0.490	Y:	0.327	Z:	0.946	yaw:	0.627	yaw rate:	-41.621	Roll:	-1.084	Pitch:	-0.139	Yaw:	5.535	Thrust:	56.468
Time:	2.729	Roll Set Point:	0.570	Pitch Set Point:	-0.347	Yaw Set Point:	-0.010	X_WP:	-0.408	Y_WP:	0.306	Y_WP:	0.750	X:	-0.490	Y:	0.326	Z:	0.942	yaw:	0.595	yaw rate:	3.201	Roll:	-1.307	Pitch:	-0.742	Yaw:	-0.200	Thrust:	53.437
Time:	2.750	Roll Set Point:	0.569	Pitch Set Point:	-0.345	Yaw Set Point:	-0.010	X_WP:	-0.408	Y_WP:	0.306	Y_WP:	0.750	X:	-0.489	Y:	0.325	Z:	0.937	yaw:	0.551	yaw rate:	4.425	Roll:	-1.162	Pitch:	-0.892	Yaw:	-0.427	Thrust:	55.612
Time:	2.769	Roll Set Point:	0.567	Pitch Set Point:	-0.343	Yaw Set Point:	-0.010	X_WP:	-0.408	Y_WP:	0.306	Y_WP:	0.750	X:	-0.488	Y:	0.324	Z:	0.932	yaw:	0.578	yaw rate:	-2.663	Roll:	-1.140	Pitch:	-0.670	Yaw:	0.524	Thrust:	56.411
Time:	2.789	Roll Set Point:	0.566	Pitch Set Point:	-0.341	Yaw Set Point:	-0.010	X_WP:	-0.408	Y_WP:	0.306	Y_WP:	0.750	X:	-0.487	Y:	0.323	Z:	0.928	yaw:	0.587	yaw rate:	-0.959	Roll:	-0.980	Pitch:	-0.849	Yaw:	0.350	Thrust:	54.770
Time:	2.810	Roll Set Point:	0.564	Pitch Set Point:	-0.339	Yaw Set Point:	-0.013	X_WP:	-0.408	Y_WP:	0.306	Y_WP:	0.750	X:	-0.486	Y:	0.322	Z:	0.922	yaw:	0.733	yaw rate:	-14.591	Roll:	-0.978	Pitch:	-0.798	Yaw:	2.244	Thrust:	57.658
Time:	2.830	Roll Set Point:	0.562	Pitch Set Point:	-0.337	Yaw Set Point:	-0.011	X_WP:	-0.408	Y_WP:	0.306	Y_WP:	0.750	X:	-0.485	Y:	0.321	Z:	0.917	yaw:	0.607	yaw rate:	12.609	Roll:	-0.937	Pitch:	-1.154	Yaw:	-1.450	Thrust:	54.319
Time:	2.852	Roll Set Point:	0.560	Pitch Set Point:	-0.335	Yaw Set Point:	-0.013	X_WP:	-0.408	Y_WP:	0.306	Y_WP:	0.750	X:	-0.484	Y:	0.320	Z:	0.912	yaw:	0.736	yaw rate:	-12.835	Roll:	-0.875	Pitch:	-0.813	Yaw:	1.749	Thrust:	62.936
Time:	2.870	Roll Set Point:	0.558	Pitch Set Point:	-0.333	Yaw Set Point:	-0.010	X_WP:	-0.408	Y_WP:	0.306	Y_WP:	0.750	X:	-0.483	Y:	0.319	Z:	0.907	yaw:	0.601	yaw rate:	13.485	Roll:	-0.858	Pitch:	-1.295	Yaw:	-1.822	Thrust:	50.051
Time:	2.890	Roll Set Point:	0.556	Pitch Set Point:	-0.331	Yaw Set Point:	-0.010	X_WP:	-0.408	Y_WP:	0.306	Y_WP:	0.750	X:	-0.482	Y:	0.318	Z:	0.901	yaw:	0.579	yaw rate:	2.192	Roll:	-0.729	Pitch:	-0.994	Yaw:	-0.081	Thrust:	58.351
Time:	2.911	Roll Set Point:	0.554	Pitch Set Point:	-0.329	Yaw Set Point:	-0.014	X_WP:	-0.408	Y_WP:	0.306	Y_WP:	0.750	X:	-0.481	Y:	0.317	Z:	0.896	yaw:	0.804	yaw rate:	-22.500	Roll:	-0.729	Pitch:	-0.851	Yaw:	3.309	Thrust:	59.113
Time:	2.930	Roll Set Point:	0.552	Pitch Set Point:	-0.327	Yaw Set Point:	-0.014	X_WP:	-0.408	Y_WP:	0.306	Y_WP:	0.750	X:	-0.480	Y:	0.316	Z:	0.890	yaw:	0.831	yaw rate:	-2.687	Roll:	-0.733	Pitch:	-1.204	Yaw:	0.977	Thrust:	53.486
Time:	2.949	Roll Set Point:	0.550	Pitch Set Point:	-0.325	Yaw Set Point:	-0.013	X_WP:	-0.408	Y_WP:	0.306	Y_WP:	0.750	X:	-0.479	Y:	0.315	Z:	0.884	yaw:	0.739	yaw rate:	9.210	Roll:	-0.758	Pitch:	-1.148	Yaw:	-0.778	Thrust:	57.966
Time:	2.969	Roll Set Point:	0.548	Pitch Set Point:	-0.323	Yaw Set Point:	-0.010	X_WP:	-0.408	Y_WP:	0.306	Y_WP:	0.750	X:	-0.478	Y:	0.314	Z:	0.878	yaw:	0.579	yaw rate:	16.001	Roll:	-0.662	Pitch:	-1.311	Yaw:	-1.817	Thrust:	58.716
Time:	2.990	Roll Set Point:	0.547	Pitch Set Point:	-0.320	Yaw Set Point:	0.008	X_WP:	-0.408	Y_WP:	0.306	Y_WP:	0.750	X:	-0.478	Y:	0.313	Z:	0.872	yaw:	-0.432	yaw rate:	101.033	Roll:	-1.044	Pitch:	-1.945	Yaw:	-13.831	Thrust:	58.342
Time:	3.011	Roll Set Point:	0.544	Pitch Set Point:	-0.319	Yaw Set Point:	-0.015	X_WP:	-0.408	Y_WP:	0.306	Y_WP:	0.750	X:	-0.476	Y:	0.312	Z:	0.866	yaw:	0.860	yaw rate:	-129.211	Roll:	-0.268	Pitch:	0.060	Yaw:	17.357	Thrust:	58.566
Time:	3.029	Roll Set Point:	0.542	Pitch Set Point:	-0.317	Yaw Set Point:	-0.010	X_WP:	-0.408	Y_WP:	0.306	Y_WP:	0.750	X:	-0.475	Y:	0.311	Z:	0.860	yaw:	0.600	yaw rate:	25.995	Roll:	-0.730	Pitch:	-1.498	Yaw:	-3.286	Thrust:	57.252
Time:	3.050	Roll Set Point:	0.540	Pitch Set Point:	-0.315	Yaw Set Point:	-0.013	X_WP:	-0.408	Y_WP:	0.306	Y_WP:	0.750	X:	-0.474	Y:	0.310	Z:	0.854	yaw:	0.753	yaw rate:	-15.255	Roll:	-0.587	Pitch:	-0.956	Yaw:	2.479	Thrust:	58.394
Time:	3.069	Roll Set Point:	0.539	Pitch Set Point:	-0.313	Yaw Set Point:	-0.009	X_WP:	-0.408	Y_WP:	0.306	Y_WP:	0.750	X:	-0.473	Y:	0.310	Z:	0.847	yaw:	0.506	yaw rate:	24.689	Roll:	-0.717	Pitch:	-1.456	Yaw:	-3.138	Thrust:	57.513
Time:	3.089	Roll Set Point:	0.537	Pitch Set Point:	-0.312	Yaw Set Point:	-0.010	X_WP:	-0.408	Y_WP:	0.306	Y_WP:	0.750	X:	-0.473	Y:	0.309	Z:	0.841	yaw:	0.565	yaw rate:	-5.912	Roll:	-0.588	Pitch:	-1.123	Yaw:	1.014	Thrust:	58.765
Time:	3.110	Roll Set Point:	0.535	Pitch Set Point:	-0.310	Yaw Set Point:	-0.013	X_WP:	-0.408	Y_WP:	0.306	Y_WP:	0.750	X:	-0.472	Y:	0.308	Z:	0.835	yaw:	0.749	yaw rate:	-18.389	Roll:	-0.675	Pitch:	-0.997	Yaw:	2.755	Thrust:	59.368
Time:	3.129	Roll Set Point:	0.533	Pitch Set Point:	-0.308	Yaw Set Point:	-0.011	X_WP:	-0.408	Y_WP:	0.306	Y_WP:	0.750	X:	-0.471	Y:	0.307	Z:	0.829	yaw:	0.616	yaw rate:	13.331	Roll:	-0.573	Pitch:	-1.350	Yaw:	-1.503	Thrust:	56.987
Time:	3.150	Roll Set Point:	0.532	Pitch Set Point:	-0.307	Yaw Set Point:	-0.012	X_WP:	-0.408	Y_WP:	0.306	Y_WP:	0.750	X:	-0.470	Y:	0.306	Z:	0.823	yaw:	0.667	yaw rate:	-5.169	Roll:	-0.658	Pitch:	-1.135	Yaw:	1.013	Thrust:	59.996
Time:	3.170	Roll Set Point:	0.530	Pitch Set Point:	-0.305	Yaw Set Point:	-0.007	X_WP:	-0.408	Y_WP:	0.306	Y_WP:	0.750	X:	-0.469	Y:	0.306	Z:	0.818	yaw:	0.419	yaw rate:	24.827	Roll:	-0.543	Pitch:	-1.325	Yaw:	-3.395	Thrust:	55.952
Time:	3.189	Roll Set Point:	0.528	Pitch Set Point:	-0.304	Yaw Set Point:	-0.008	X_WP:	-0.408	Y_WP:	0.306	Y_WP:	0.750	X:	-0.468	Y:	0.305	Z:	0.812	yaw:	0.481	yaw rate:	-6.149	Roll:	-0.727	Pitch:	-1.152	Yaw:	0.911	Thrust:	59.048
Time:	3.210	Roll Set Point:	0.527	Pitch Set Point:	-0.303	Yaw Set Point:	-0.010	X_WP:	-0.408	Y_WP:	0.306	Y_WP:	0.750	X:	-0.468	Y:	0.304	Z:	0.806	yaw:	0.576	yaw rate:	-9.533	Roll:	-0.707	Pitch:	-0.933	Yaw:	1.455	Thrust:	59.868
Time:	3.230	Roll Set Point:	0.526	Pitch Set Point:	-0.302	Yaw Set Point:	-0.010	X_WP:	-0.408	Y_WP:	0.306	Y_WP:	0.750	X:	-0.467	Y:	0.304	Z:	0.801	yaw:	0.559	yaw rate:	1.740	Roll:	-0.670	Pitch:	-1.135	Yaw:	0.052	Thrust:	55.042
Time:	3.249	Roll Set Point:	0.525	Pitch Set Point:	-0.300	Yaw Set Point:	0.012	X_WP:	-0.408	Y_WP:	0.306	Y_WP:	0.750	X:	-0.467	Y:	0.303	Z:	0.796	yaw:	-0.703	yaw rate:	126.185	Roll:	-1.019	Pitch:	-1.853	Yaw:	-17.714	Thrust:	58.952
Time:	3.269	Roll Set Point:	0.523	Pitch Set Point:	-0.299	Yaw Set Point:	-0.003	X_WP:	-0.408	Y_WP:	0.306	Y_WP:	0.750	X:	-0.466	Y:	0.302	Z:	0.790	yaw:	0.200	yaw rate:	-90.369	Roll:	-0.302	Pitch:	-0.776	Yaw:	11.729	Thrust:	57.398
Time:	3.290	Roll Set Point:	0.522	Pitch Set Point:	-0.298	Yaw Set Point:	-0.005	X_WP:	-0.408	Y_WP:	0.306	Y_WP:	0.750	X:	-0.465	Y:	0.302	Z:	0.785	yaw:	0.310	yaw rate:	-10.913	Roll:	-0.577	Pitch:	-0.805	Yaw:	1.264	Thrust:	58.241
Time:	3.310	Roll Set Point:	0.521	Pitch Set Point:	-0.298	Yaw Set Point:	-0.013	X_WP:	-0.408	Y_WP:	0.306	Y_WP:	0.750	X:	-0.464	Y:	0.302	Z:	0.780	yaw:	0.720	yaw rate:	-41.026	Roll:	-0.777	Pitch:	-0.792	Yaw:	5.920	Thrust:	58.421
Time:	3.330	Roll Set Point:	0.519	Pitch Set Point:	-0.297	Yaw Set Point:	-0.014	X_WP:	-0.408	Y_WP:	0.306	Y_WP:	0.750	X:	-0.464	Y:	0.301	Z:	0.775	yaw:	0.785	yaw rate:	-6.533	Roll:	-0.720	Pitch:	-0.924	Yaw:	1.438	Thrust:	57.917
Time:	3.349	Roll Set Point:	0.518	Pitch Set Point:	-0.296	Yaw Set Point:	-0.014	X_WP:	-0.408	Y_WP:	0.306	Y_WP:	0.750	X:	-0.463	Y:	0.301	Z:	0.770	yaw:	0.803	yaw rate:	-1.756	Roll:	-0.711	Pitch:	-0.871	Yaw:	0.882	Thrust:	56.252
Time:	3.369	Roll Set Point:	0.517	Pitch Set Point:	-0.295	Yaw Set Point:	-0.011	X_WP:	-0.408	Y_WP:	0.306	Y_WP:	0.750	X:	-0.463	Y:	0.301	Z:	0.765	yaw:	0.635	yaw rate:	16.781	Roll:	-0.700	Pitch:	-1.119	Yaw:	-1.774	Thrust:	58.615
Time:	3.390	Roll Set Point:	0.516	Pitch Set Point:	-0.295	Yaw Set Point:	-0.007	X_WP:	-0.408	Y_WP:	0.306	Y_WP:	0.750	X:	-0.462	Y:	0.300	Z:	0.760	yaw:	0.429	yaw rate:	20.565	Roll:	-0.720	Pitch:	-1.024	Yaw:	-2.523	Thrust:	59.341
Time:	3.410	Roll Set Point:	0.516	Pitch Set Point:	-0.294	Yaw Set Point:	-0.009	X_WP:	-0.408	Y_WP:	0.306	Y_WP:	0.750	X:	-0.462	Y:	0.300	Z:	0.756	yaw:	0.529	yaw rate:	-10.006	Roll:	-0.796	Pitch:	-0.828	Yaw:	1.547	Thrust:	58.272
Time:	3.429	Roll Set Point:	0.515	Pitch Set Point:	-0.294	Yaw Set Point:	-0.007	X_WP:	-0.408	Y_WP:	0.306	Y_WP:	0.750	X:	-0.461	Y:	0.300	Z:	0.751	yaw:	0.424	yaw rate:	10.530	Roll:	-0.694	Pitch:	-0.858	Yaw:	-1.304	Thrust:	57.476
Time:	3.450	Roll Set Point:	0.514	Pitch Set Point:	-0.294	Yaw Set Point:	-0.011	X_WP:	-0.408	Y_WP:	0.306	Y_WP:	0.750	X:	-0.461	Y:	0.300	Z:	0.746	yaw:	0.637	yaw rate:	-21.319	Roll:	-0.779	Pitch:	-0.759	Yaw:	3.176	Thrust:	58.348
Time:	3.469	Roll Set Point:	0.513	Pitch Set Point:	-0.293	Yaw Set Point:	-0.005	X_WP:	-0.408	Y_WP:	0.306	Y_WP:	0.750	X:	-0.461	Y:	0.300	Z:	0.742	yaw:	0.270	yaw rate:	36.714	Roll:	-0.802	Pitch:	-1.023	Yaw:	-4.904	Thrust:	58.856
Time:	3.490	Roll Set Point:	0.513	Pitch Set Point:	-0.293	Yaw Set Point:	0.011	X_WP:	-0.408	Y_WP:	0.306	Y_WP:	0.750	X:	-0.461	Y:	0.300	Z:	0.737	yaw:	-0.625	yaw rate:	89.542	Roll:	-0.998	Pitch:	-1.381	Yaw:	-13.044	Thrust:	58.825
Time:	3.510	Roll Set Point:	0.512	Pitch Set Point:	-0.293	Yaw Set Point:	-0.007	X_WP:	-0.408	Y_WP:	0.306	Y_WP:	0.750	X:	-0.460	Y:	0.299	Z:	0.732	yaw:	0.413	yaw rate:	-103.807	Roll:	-0.622	Pitch:	-0.206	Yaw:	13.437	Thrust:	59.927
Time:	3.529	Roll Set Point:	0.511	Pitch Set Point:	-0.293	Yaw Set Point:	-0.010	X_WP:	-0.408	Y_WP:	0.306	Y_WP:	0.750	X:	-0.460	Y:	0.299	Z:	0.728	yaw:	0.590	yaw rate:	-17.731	Roll:	-0.804	Pitch:	-0.568	Yaw:	2.839	Thrust:	56.964
Time:	3.549	Roll Set Point:	0.510	Pitch Set Point:	-0.293	Yaw Set Point:	-0.012	X_WP:	-0.408	Y_WP:	0.306	Y_WP:	0.750	X:	-0.459	Y:	0.299	Z:	0.723	yaw:	0.675	yaw rate:	-8.472	Roll:	-0.693	Pitch:	-0.597	Yaw:	1.563	Thrust:	59.591
Time:	3.569	Roll Set Point:	0.509	Pitch Set Point:	-0.293	Yaw Set Point:	-0.010	X_WP:	-0.408	Y_WP:	0.306	Y_WP:	0.750	X:	-0.459	Y:	0.299	Z:	0.719	yaw:	0.561	yaw rate:	11.359	Roll:	-0.804	Pitch:	-0.847	Yaw:	-1.186	Thrust:	58.897
Time:	3.589	Roll Set Point:	0.509	Pitch Set Point:	-0.293	Yaw Set Point:	-0.008	X_WP:	-0.408	Y_WP:	0.306	Y_WP:	0.750	X:	-0.459	Y:	0.300	Z:	0.715	yaw:	0.456	yaw rate:	10.526	Roll:	-0.802	Pitch:	-0.715	Yaw:	-1.181	Thrust:	60.550
Time:	3.610	Roll Set Point:	0.508	Pitch Set Point:	-0.293	Yaw Set Point:	-0.010	X_WP:	-0.408	Y_WP:	0.306	Y_WP:	0.750	X:	-0.458	Y:	0.300	Z:	0.711	yaw:	0.554	yaw rate:	-9.783	Roll:	-0.809	Pitch:	-0.541	Yaw:	1.560	Thrust:	59.986
Time:	3.629	Roll Set Point:	0.508	Pitch Set Point:	-0.293	Yaw Set Point:	-0.003	X_WP:	-0.408	Y_WP:	0.306	Y_WP:	0.750	X:	-0.458	Y:	0.300	Z:	0.707	yaw:	0.193	yaw rate:	36.126	Roll:	-0.781	Pitch:	-0.906	Yaw:	-5.007	Thrust:	57.701
Time:	3.649	Roll Set Point:	0.507	Pitch Set Point:	-0.294	Yaw Set Point:	-0.001	X_WP:	-0.408	Y_WP:	0.306	Y_WP:	0.750	X:	-0.458	Y:	0.300	Z:	0.703	yaw:	0.048	yaw rate:	14.451	Roll:	-0.768	Pitch:	-0.645	Yaw:	-2.315	Thrust:	59.591
Time:	3.669	Roll Set Point:	0.507	Pitch Set Point:	-0.294	Yaw Set Point:	-0.003	X_WP:	-0.408	Y_WP:	0.306	Y_WP:	0.750	X:	-0.457	Y:	0.300	Z:	0.700	yaw:	0.184	yaw rate:	-13.563	Roll:	-0.821	Pitch:	-0.519	Yaw:	1.517	Thrust:	60.169
Time:	3.689	Roll Set Point:	0.506	Pitch Set Point:	-0.294	Yaw Set Point:	-0.001	X_WP:	-0.408	Y_WP:	0.306	Y_WP:	0.750	X:	-0.457	Y:	0.300	Z:	0.696	yaw:	0.070	yaw rate:	11.337	Roll:	-0.792	Pitch:	-0.571	Yaw:	-1.840	Thrust:	60.240
Time:	3.710	Roll Set Point:	0.505	Pitch Set Point:	-0.295	Yaw Set Point:	0.000	X_WP:	-0.408	Y_WP:	0.306	Y_WP:	0.750	X:	-0.457	Y:	0.300	Z:	0.692	yaw:	-0.026	yaw rate:	9.654	Roll:	-0.807	Pitch:	-0.663	Yaw:	-1.736	Thrust:	60.933
Time:	3.729	Roll Set Point:	0.505	Pitch Set Point:	-0.295	Yaw Set Point:	-0.002	X_WP:	-0.408	Y_WP:	0.306	Y_WP:	0.750	X:	-0.457	Y:	0.301	Z:	0.689	yaw:	0.104	yaw rate:	-13.040	Roll:	-0.788	Pitch:	-0.394	Yaw:	1.532	Thrust:	57.716
Time:	3.749	Roll Set Point:	0.504	Pitch Set Point:	-0.296	Yaw Set Point:	-0.006	X_WP:	-0.408	Y_WP:	0.306	Y_WP:	0.750	X:	-0.456	Y:	0.301	Z:	0.685	yaw:	0.327	yaw rate:	-22.243	Roll:	-0.743	Pitch:	-0.383	Yaw:	3.038	Thrust:	58.286
Time:	3.770	Roll Set Point:	0.504	Pitch Set Point:	-0.296	Yaw Set Point:	-0.007	X_WP:	-0.408	Y_WP:	0.306	Y_WP:	0.750	X:	-0.456	Y:	0.301	Z:	0.682	yaw:	0.394	yaw rate:	-6.727	Roll:	-0.797	Pitch:	-0.479	Yaw:	0.888	Thrust:	62.631
Time:	3.790	Roll Set Point:	0.503	Pitch Set Point:	-0.296	Yaw Set Point:	-0.006	X_WP:	-0.408	Y_WP:	0.306	Y_WP:	0.750	X:	-0.456	Y:	0.301	Z:	0.680	yaw:	0.342	yaw rate:	5.188	Roll:	-0.816	Pitch:	-0.565	Yaw:	-0.648	Thrust:	60.111
Time:	3.810	Roll Set Point:	0.503	Pitch Set Point:	-0.297	Yaw Set Point:	-0.003	X_WP:	-0.408	Y_WP:	0.306	Y_WP:	0.750	X:	-0.456	Y:	0.301	Z:	0.677	yaw:	0.153	yaw rate:	18.851	Roll:	-0.737	Pitch:	-0.580	Yaw:	-2.648	Thrust:	61.250
Time:	3.829	Roll Set Point:	0.502	Pitch Set Point:	-0.297	Yaw Set Point:	-0.004	X_WP:	-0.408	Y_WP:	0.306	Y_WP:	0.750	X:	-0.455	Y:	0.302	Z:	0.674	yaw:	0.227	yaw rate:	-7.319	Roll:	-0.796	Pitch:	-0.320	Yaw:	0.937	Thrust:	56.395
Time:	3.850	Roll Set Point:	0.502	Pitch Set Point:	-0.298	Yaw Set Point:	-0.000	X_WP:	-0.408	Y_WP:	0.306	Y_WP:	0.750	X:	-0.455	Y:	0.302	Z:	0.672	yaw:	0.010	yaw rate:	21.635	Roll:	-0.807	Pitch:	-0.668	Yaw:	-3.143	Thrust:	62.298
Time:	3.870	Roll Set Point:	0.501	Pitch Set Point:	-0.298	Yaw Set Point:	-0.003	X_WP:	-0.408	Y_WP:	0.306	Y_WP:	0.750	X:	-0.455	Y:	0.302	Z:	0.669	yaw:	0.143	yaw rate:	-13.321	Roll:	-0.713	Pitch:	-0.492	Yaw:	1.583	Thrust:	58.237
Time:	3.889	Roll Set Point:	0.501	Pitch Set Point:	-0.298	Yaw Set Point:	-0.004	X_WP:	-0.408	Y_WP:	0.306	Y_WP:	0.750	X:	-0.455	Y:	0.302	Z:	0.667	yaw:	0.220	yaw rate:	-7.663	Roll:	-0.825	Pitch:	-0.457	Yaw:	0.866	Thrust:	59.228
Time:	3.909	Roll Set Point:	0.500	Pitch Set Point:	-0.299	Yaw Set Point:	-0.002	X_WP:	-0.408	Y_WP:	0.306	Y_WP:	0.750	X:	-0.454	Y:	0.302	Z:	0.665	yaw:	0.104	yaw rate:	11.629	Roll:	-0.826	Pitch:	-0.515	Yaw:	-1.801	Thrust:	60.461
Time:	3.930	Roll Set Point:	0.500	Pitch Set Point:	-0.299	Yaw Set Point:	-0.003	X_WP:	-0.408	Y_WP:	0.306	Y_WP:	0.750	X:	-0.454	Y:	0.303	Z:	0.663	yaw:	0.157	yaw rate:	-5.327	Roll:	-0.799	Pitch:	-0.463	Yaw:	0.468	Thrust:	59.556
Time:	3.950	Roll Set Point:	0.500	Pitch Set Point:	-0.299	Yaw Set Point:	-0.001	X_WP:	-0.408	Y_WP:	0.306	Y_WP:	0.750	X:	-0.454	Y:	0.303	Z:	0.662	yaw:	0.051	yaw rate:	10.569	Roll:	-0.822	Pitch:	-0.546	Yaw:	-1.751	Thrust:	59.551
Time:	3.970	Roll Set Point:	0.500	Pitch Set Point:	-0.299	Yaw Set Point:	0.019	X_WP:	-0.408	Y_WP:	0.306	Y_WP:	0.750	X:	-0.454	Y:	0.303	Z:	0.660	yaw:	-1.093	yaw rate:	114.441	Roll:	-1.122	Pitch:	-1.078	Yaw:	-16.725	Thrust:	60.546
Time:	3.989	Roll Set Point:	0.499	Pitch Set Point:	-0.300	Yaw Set Point:	-0.005	X_WP:	-0.408	Y_WP:	0.306	Y_WP:	0.750	X:	-0.454	Y:	0.303	Z:	0.658	yaw:	0.274	yaw rate:	-136.651	Roll:	-0.479	Pitch:	0.040	Yaw:	18.482	Thrust:	58.410
Time:	4.009	Roll Set Point:	0.499	Pitch Set Point:	-0.300	Yaw Set Point:	-0.004	X_WP:	-0.408	Y_WP:	0.306	Y_WP:	0.750	X:	-0.453	Y:	0.303	Z:	0.657	yaw:	0.235	yaw rate:	3.846	Roll:	-0.821	Pitch:	-0.614	Yaw:	-0.621	Thrust:	60.181
Time:	4.030	Roll Set Point:	0.498	Pitch Set Point:	-0.300	Yaw Set Point:	-0.003	X_WP:	-0.408	Y_WP:	0.306	Y_WP:	0.750	X:	-0.453	Y:	0.303	Z:	0.656	yaw:	0.188	yaw rate:	4.742	Roll:	-0.883	Pitch:	-0.649	Yaw:	-0.802	Thrust:	59.909
Time:	4.050	Roll Set Point:	0.498	Pitch Set Point:	-0.300	Yaw Set Point:	-0.002	X_WP:	-0.408	Y_WP:	0.306	Y_WP:	0.750	X:	-0.453	Y:	0.303	Z:	0.655	yaw:	0.103	yaw rate:	8.507	Roll:	-0.652	Pitch:	-0.614	Yaw:	-1.416	Thrust:	59.885
Time:	4.070	Roll Set Point:	0.498	Pitch Set Point:	-0.300	Yaw Set Point:	-0.003	X_WP:	-0.408	Y_WP:	0.306	Y_WP:	0.750	X:	-0.453	Y:	0.303	Z:	0.654	yaw:	0.154	yaw rate:	-5.106	Roll:	-1.077	Pitch:	-0.579	Yaw:	0.444	Thrust:	58.639
Time:	4.090	Roll Set Point:	0.498	Pitch Set Point:	-0.300	Yaw Set Point:	-0.003	X_WP:	-0.408	Y_WP:	0.306	Y_WP:	0.750	X:	-0.453	Y:	0.303	Z:	0.653	yaw:	0.180	yaw rate:	-2.668	Roll:	-0.828	Pitch:	-0.623	Yaw:	0.197	Thrust:	58.274
Time:	4.110	Roll Set Point:	0.497	Pitch Set Point:	-0.300	Yaw Set Point:	-0.006	X_WP:	-0.408	Y_WP:	0.306	Y_WP:	0.750	X:	-0.453	Y:	0.303	Z:	0.652	yaw:	0.333	yaw rate:	-15.234	Roll:	-0.820	Pitch:	-0.561	Yaw:	1.901	Thrust:	62.076
Time:	4.129	Roll Set Point:	0.497	Pitch Set Point:	-0.300	Yaw Set Point:	-0.003	X_WP:	-0.408	Y_WP:	0.306	Y_WP:	0.750	X:	-0.453	Y:	0.303	Z:	0.652	yaw:	0.163	yaw rate:	16.998	Roll:	-0.893	Pitch:	-0.753	Yaw:	-2.503	Thrust:	57.520
Time:	4.149	Roll Set Point:	0.497	Pitch Set Point:	-0.300	Yaw Set Point:	-0.004	X_WP:	-0.408	Y_WP:	0.306	Y_WP:	0.750	X:	-0.453	Y:	0.303	Z:	0.651	yaw:	0.203	yaw rate:	-3.998	Roll:	-0.943	Pitch:	-0.589	Yaw:	0.401	Thrust:	57.746
Time:	4.170	Roll Set Point:	0.497	Pitch Set Point:	-0.300	Yaw Set Point:	-0.003	X_WP:	-0.408	Y_WP:	0.306	Y_WP:	0.750	X:	-0.453	Y:	0.303	Z:	0.651	yaw:	0.166	yaw rate:	3.707	Roll:	-0.932	Pitch:	-0.722	Yaw:	-0.689	Thrust:	63.919
Time:	4.190	Roll Set Point:	0.497	Pitch Set Point:	-0.299	Yaw Set Point:	-0.004	X_WP:	-0.408	Y_WP:	0.306	Y_WP:	0.750	X:	-0.453	Y:	0.303	Z:	0.651	yaw:	0.216	yaw rate:	-5.041	Roll:	-0.997	Pitch:	-0.715	Yaw:	0.574	Thrust:	57.388
Time:	4.211	Roll Set Point:	0.497	Pitch Set Point:	-0.299	Yaw Set Point:	-0.004	X_WP:	-0.408	Y_WP:	0.306	Y_WP:	0.750	X:	-0.453	Y:	0.303	Z:	0.650	yaw:	0.247	yaw rate:	-3.074	Roll:	-0.870	Pitch:	-0.827	Yaw:	0.264	Thrust:	63.450
Time:	4.231	Roll Set Point:	0.497	Pitch Set Point:	-0.299	Yaw Set Point:	-0.008	X_WP:	-0.408	Y_WP:	0.306	Y_WP:	0.750	X:	-0.453	Y:	0.302	Z:	0.650	yaw:	0.470	yaw rate:	-22.349	Roll:	-0.925	Pitch:	-0.606	Yaw:	3.119	Thrust:	60.554
Time:	4.250	Roll Set Point:	0.497	Pitch Set Point:	-0.299	Yaw Set Point:	-0.008	X_WP:	-0.408	Y_WP:	0.306	Y_WP:	0.750	X:	-0.453	Y:	0.302	Z:	0.650	yaw:	0.467	yaw rate:	0.313	Roll:	-0.903	Pitch:	-0.726	Yaw:	0.201	Thrust:	57.820
Time:	4.270	Roll Set Point:	0.497	Pitch Set Point:	-0.298	Yaw Set Point:	-0.005	X_WP:	-0.408	Y_WP:	0.306	Y_WP:	0.750	X:	-0.453	Y:	0.302	Z:	0.650	yaw:	0.260	yaw rate:	20.702	Roll:	-1.007	Pitch:	-0.856	Yaw:	-2.759	Thrust:	60.121
Time:	4.292	Roll Set Point:	0.497	Pitch Set Point:	-0.298	Yaw Set Point:	-0.006	X_WP:	-0.408	Y_WP:	0.306	Y_WP:	0.750	X:	-0.453	Y:	0.302	Z:	0.650	yaw:	0.324	yaw rate:	-6.419	Roll:	-0.994	Pitch:	-0.796	Yaw:	0.790	Thrust:	61.434
Time:	4.309	Roll Set Point:	0.497	Pitch Set Point:	-0.297	Yaw Set Point:	-0.004	X_WP:	-0.408	Y_WP:	0.306	Y_WP:	0.750	X:	-0.453	Y:	0.302	Z:	0.650	yaw:	0.207	yaw rate:	11.753	Roll:	-0.973	Pitch:	-0.946	Yaw:	-1.791	Thrust:	56.873
Time:	4.329	Roll Set Point:	0.497	Pitch Set Point:	-0.297	Yaw Set Point:	-0.005	X_WP:	-0.408	Y_WP:	0.306	Y_WP:	0.750	X:	-0.453	Y:	0.302	Z:	0.651	yaw:	0.311	yaw rate:	-10.470	Roll:	-0.956	Pitch:	-0.794	Yaw:	1.416	Thrust:	58.774
Time:	4.349	Roll Set Point:	0.497	Pitch Set Point:	-0.297	Yaw Set Point:	-0.002	X_WP:	-0.408	Y_WP:	0.306	Y_WP:	0.750	X:	-0.453	Y:	0.301	Z:	0.651	yaw:	0.135	yaw rate:	17.677	Roll:	-1.018	Pitch:	-0.939	Yaw:	-2.528	Thrust:	59.813
Time:	4.369	Roll Set Point:	0.497	Pitch Set Point:	-0.296	Yaw Set Point:	-0.001	X_WP:	-0.408	Y_WP:	0.306	Y_WP:	0.750	X:	-0.453	Y:	0.301	Z:	0.652	yaw:	0.062	yaw rate:	7.273	Roll:	-1.035	Pitch:	-0.842	Yaw:	-1.269	Thrust:	57.908
Time:	4.389	Roll Set Point:	0.497	Pitch Set Point:	-0.296	Yaw Set Point:	-0.001	X_WP:	-0.408	Y_WP:	0.306	Y_WP:	0.750	X:	-0.453	Y:	0.301	Z:	0.653	yaw:	0.049	yaw rate:	1.291	Roll:	-1.064	Pitch:	-0.876	Yaw:	-0.512	Thrust:	61.348
Time:	4.410	Roll Set Point:	0.497	Pitch Set Point:	-0.295	Yaw Set Point:	-0.002	X_WP:	-0.408	Y_WP:	0.306	Y_WP:	0.750	X:	-0.453	Y:	0.301	Z:	0.653	yaw:	0.113	yaw rate:	-6.431	Roll:	-1.006	Pitch:	-0.995	Yaw:	0.536	Thrust:	62.181
Time:	4.432	Roll Set Point:	0.497	Pitch Set Point:	-0.295	Yaw Set Point:	-0.004	X_WP:	-0.408	Y_WP:	0.306	Y_WP:	0.750	X:	-0.453	Y:	0.300	Z:	0.654	yaw:	0.251	yaw rate:	-13.749	Roll:	-1.010	Pitch:	-0.869	Yaw:	1.569	Thrust:	64.373
Time:	4.451	Roll Set Point:	0.498	Pitch Set Point:	-0.294	Yaw Set Point:	-0.008	X_WP:	-0.408	Y_WP:	0.306	Y_WP:	0.750	X:	-0.453	Y:	0.300	Z:	0.655	yaw:	0.434	yaw rate:	-18.365	Roll:	-1.050	Pitch:	-0.762	Yaw:	2.649	Thrust:	58.293
Time:	4.470	Roll Set Point:	0.498	Pitch Set Point:	-0.294	Yaw Set Point:	-0.005	X_WP:	-0.408	Y_WP:	0.306	Y_WP:	0.750	X:	-0.453	Y:	0.300	Z:	0.657	yaw:	0.280	yaw rate:	15.404	Roll:	-1.138	Pitch:	-0.970	Yaw:	-2.255	Thrust:	52.205
Time:	4.490	Roll Set Point:	0.498	Pitch Set Point:	-0.293	Yaw Set Point:	-0.004	X_WP:	-0.408	Y_WP:	0.306	Y_WP:	0.750	X:	-0.453	Y:	0.300	Z:	0.658	yaw:	0.256	yaw rate:	2.488	Roll:	-1.087	Pitch:	-0.920	Yaw:	-0.383	Thrust:	62.351
Time:	4.511	Roll Set Point:	0.498	Pitch Set Point:	-0.293	Yaw Set Point:	-0.008	X_WP:	-0.408	Y_WP:	0.306	Y_WP:	0.750	X:	-0.453	Y:	0.299	Z:	0.659	yaw:	0.474	yaw rate:	-21.863	Roll:	-1.046	Pitch:	-0.862	Yaw:	3.019	Thrust:	61.203
Time:	4.529	Roll Set Point:	0.498	Pitch Set Point:	-0.292	Yaw Set Point:	-0.008	X_WP:	-0.408	Y_WP:	0.306	Y_WP:	0.750	X:	-0.453	Y:	0.299	Z:	0.661	yaw:	0.478	yaw rate:	-0.429	Roll:	-1.103	Pitch:	-0.945	Yaw:	0.364	Thrust:	52.862
Time:	4.549	Roll Set Point:	0.498	Pitch Set Point:	-0.292	Yaw Set Point:	-0.001	X_WP:	-0.408	Y_WP:	0.306	Y_WP:	0.750	X:	-0.453	Y:	0.299	Z:	0.663	yaw:	0.058	yaw rate:	42.071	Roll:	-1.108	Pitch:	-1.192	Yaw:	-5.773	Thrust:	59.126
Time:	4.569	Roll Set Point:	0.499	Pitch Set Point:	-0.292	Yaw Set Point:	-0.004	X_WP:	-0.408	Y_WP:	0.306	Y_WP:	0.750	X:	-0.454	Y:	0.299	Z:	0.665	yaw:	0.217	yaw rate:	-15.965	Roll:	-1.107	Pitch:	-0.778	Yaw:	1.933	Thrust:	59.911
Time:	4.590	Roll Set Point:	0.499	Pitch Set Point:	-0.291	Yaw Set Point:	-0.001	X_WP:	-0.408	Y_WP:	0.306	Y_WP:	0.750	X:	-0.454	Y:	0.299	Z:	0.667	yaw:	0.038	yaw rate:	17.968	Roll:	-1.142	Pitch:	-1.078	Yaw:	-2.685	Thrust:	59.112
Time:	4.612	Roll Set Point:	0.499	Pitch Set Point:	-0.290	Yaw Set Point:	0.000	X_WP:	-0.408	Y_WP:	0.306	Y_WP:	0.750	X:	-0.454	Y:	0.298	Z:	0.668	yaw:	-0.011	yaw rate:	4.854	Roll:	-1.121	Pitch:	-1.037	Yaw:	-1.033	Thrust:	62.041
Time:	4.632	Roll Set Point:	0.499	Pitch Set Point:	-0.290	Yaw Set Point:	-0.004	X_WP:	-0.408	Y_WP:	0.306	Y_WP:	0.750	X:	-0.454	Y:	0.298	Z:	0.670	yaw:	0.239	yaw rate:	-24.959	Roll:	-1.093	Pitch:	-0.830	Yaw:	3.101	Thrust:	60.262
Time:	4.649	Roll Set Point:	0.500	Pitch Set Point:	-0.290	Yaw Set Point:	-0.005	X_WP:	-0.408	Y_WP:	0.306	Y_WP:	0.750	X:	-0.454	Y:	0.298	Z:	0.672	yaw:	0.303	yaw rate:	-6.474	Roll:	-1.189	Pitch:	-0.929	Yaw:	1.025	Thrust:	52.938
Time:	4.677	Roll Set Point:	0.500	Pitch Set Point:	-0.290	Yaw Set Point:	-0.008	X_WP:	-0.408	Y_WP:	0.306	Y_WP:	0.750	X:	-0.454	Y:	0.298	Z:	0.674	yaw:	0.485	yaw rate:	-18.128	Roll:	-0.969	Pitch:	-0.959	Yaw:	1.850	Thrust:	82.816
Time:	4.690	Roll Set Point:	0.500	Pitch Set Point:	-0.289	Yaw Set Point:	-0.008	X_WP:	-0.408	Y_WP:	0.306	Y_WP:	0.750	X:	-0.454	Y:	0.298	Z:	0.676	yaw:	0.470	yaw rate:	1.493	Roll:	-1.468	Pitch:	-0.704	Yaw:	0.096	Thrust:	31.681
Time:	4.711	Roll Set Point:	0.500	Pitch Set Point:	-0.289	Yaw Set Point:	-0.010	X_WP:	-0.408	Y_WP:	0.306	Y_WP:	0.750	X:	-0.454	Y:	0.297	Z:	0.678	yaw:	0.575	yaw rate:	-10.513	Roll:	-1.104	Pitch:	-0.889	Yaw:	1.661	Thrust:	63.602
Time:	4.730	Roll Set Point:	0.501	Pitch Set Point:	-0.289	Yaw Set Point:	-0.009	X_WP:	-0.408	Y_WP:	0.306	Y_WP:	0.750	X:	-0.454	Y:	0.297	Z:	0.680	yaw:	0.516	yaw rate:	5.864	Roll:	-1.265	Pitch:	-0.870	Yaw:	-0.448	Thrust:	55.326
Time:	4.750	Roll Set Point:	0.501	Pitch Set Point:	-0.289	Yaw Set Point:	-0.010	X_WP:	-0.408	Y_WP:	0.306	Y_WP:	0.750	X:	-0.454	Y:	0.297	Z:	0.683	yaw:	0.591	yaw rate:	-7.447	Roll:	-1.094	Pitch:	-0.874	Yaw:	1.487	Thrust:	55.245
Time:	4.770	Roll Set Point:	0.501	Pitch Set Point:	-0.288	Yaw Set Point:	-0.004	X_WP:	-0.408	Y_WP:	0.306	Y_WP:	0.750	X:	-0.455	Y:	0.297	Z:	0.685	yaw:	0.239	yaw rate:	35.143	Roll:	-1.243	Pitch:	-1.050	Yaw:	-4.463	Thrust:	61.377
Time:	4.792	Roll Set Point:	0.501	Pitch Set Point:	-0.288	Yaw Set Point:	-0.003	X_WP:	-0.408	Y_WP:	0.306	Y_WP:	0.750	X:	-0.455	Y:	0.297	Z:	0.687	yaw:	0.197	yaw rate:	4.213	Roll:	-1.071	Pitch:	-0.988	Yaw:	-0.638	Thrust:	56.534
Time:	4.810	Roll Set Point:	0.501	Pitch Set Point:	-0.288	Yaw Set Point:	-0.009	X_WP:	-0.408	Y_WP:	0.306	Y_WP:	0.750	X:	-0.455	Y:	0.297	Z:	0.689	yaw:	0.495	yaw rate:	-29.797	Roll:	-1.193	Pitch:	-0.694	Yaw:	4.714	Thrust:	59.404
Time:	4.830	Roll Set Point:	0.502	Pitch Set Point:	-0.288	Yaw Set Point:	-0.011	X_WP:	-0.408	Y_WP:	0.306	Y_WP:	0.750	X:	-0.455	Y:	0.297	Z:	0.692	yaw:	0.626	yaw rate:	-13.106	Roll:	-1.315	Pitch:	-0.788	Yaw:	2.199	Thrust:	56.832
Time:	4.851	Roll Set Point:	0.502	Pitch Set Point:	-0.288	Yaw Set Point:	-0.011	X_WP:	-0.408	Y_WP:	0.306	Y_WP:	0.750	X:	-0.455	Y:	0.297	Z:	0.694	yaw:	0.642	yaw rate:	-1.537	Roll:	-1.154	Pitch:	-0.858	Yaw:	0.715	Thrust:	61.786
Time:	4.870	Roll Set Point:	0.502	Pitch Set Point:	-0.288	Yaw Set Point:	-0.012	X_WP:	-0.408	Y_WP:	0.306	Y_WP:	0.750	X:	-0.455	Y:	0.297	Z:	0.697	yaw:	0.666	yaw rate:	-2.408	Roll:	-1.214	Pitch:	-0.761	Yaw:	0.949	Thrust:	52.103
Time:	4.890	Roll Set Point:	0.502	Pitch Set Point:	-0.288	Yaw Set Point:	-0.009	X_WP:	-0.408	Y_WP:	0.306	Y_WP:	0.750	X:	-0.455	Y:	0.297	Z:	0.699	yaw:	0.499	yaw rate:	16.634	Roll:	-1.115	Pitch:	-0.957	Yaw:	-1.723	Thrust:	61.896
Time:	4.910	Roll Set Point:	0.502	Pitch Set Point:	-0.288	Yaw Set Point:	-0.009	X_WP:	-0.408	Y_WP:	0.306	Y_WP:	0.750	X:	-0.455	Y:	0.297	Z:	0.701	yaw:	0.496	yaw rate:	0.297	Roll:	-1.253	Pitch:	-0.777	Yaw:	0.309	Thrust:	57.540
Time:	4.929	Roll Set Point:	0.503	Pitch Set Point:	-0.288	Yaw Set Point:	-0.010	X_WP:	-0.408	Y_WP:	0.306	Y_WP:	0.750	X:	-0.456	Y:	0.297	Z:	0.704	yaw:	0.592	yaw rate:	-9.588	Roll:	-1.320	Pitch:	-0.709	Yaw:	1.796	Thrust:	55.323
Time:	4.950	Roll Set Point:	0.503	Pitch Set Point:	-0.288	Yaw Set Point:	-0.011	X_WP:	-0.408	Y_WP:	0.306	Y_WP:	0.750	X:	-0.456	Y:	0.297	Z:	0.706	yaw:	0.620	yaw rate:	-2.803	Roll:	-1.114	Pitch:	-0.762	Yaw:	0.847	Thrust:	59.282
Time:	4.970	Roll Set Point:	0.503	Pitch Set Point:	-0.288	Yaw Set Point:	-0.010	X_WP:	-0.408	Y_WP:	0.306	Y_WP:	0.750	X:	-0.456	Y:	0.297	Z:	0.708	yaw:	0.592	yaw rate:	2.832	Roll:	-1.245	Pitch:	-0.781	Yaw:	0.116	Thrust:	60.856
Time:	4.990	Roll Set Point:	0.503	Pitch Set Point:	-0.288	Yaw Set Point:	-0.009	X_WP:	-0.408	Y_WP:	0.306	Y_WP:	0.750	X:	-0.456	Y:	0.297	Z:	0.710	yaw:	0.527	yaw rate:	6.457	Roll:	-1.195	Pitch:	-0.822	Yaw:	-0.449	Thrust:	57.977
Time:	5.010	Roll Set Point:	0.504	Pitch Set Point:	-0.288	Yaw Set Point:	-0.010	X_WP:	-0.408	Y_WP:	0.306	Y_WP:	0.750	X:	-0.456	Y:	0.297	Z:	0.712	yaw:	0.598	yaw rate:	-7.093	Roll:	-1.329	Pitch:	-0.723	Yaw:	1.398	Thrust:	58.582
Time:	5.030	Roll Set Point:	0.504	Pitch Set Point:	-0.288	Yaw Set Point:	-0.013	X_WP:	-0.408	Y_WP:	0.306	Y_WP:	0.750	X:	-0.456	Y:	0.297	Z:	0.714	yaw:	0.760	yaw rate:	-16.189	Roll:	-1.218	Pitch:	-0.627	Yaw:	2.899	Thrust:	59.107
Time:	5.050	Roll Set Point:	0.504	Pitch Set Point:	-0.289	Yaw Set Point:	-0.013	X_WP:	-0.408	Y_WP:	0.306	Y_WP:	0.750	X:	-0.456	Y:	0.297	Z:	0.716	yaw:	0.724	yaw rate:	3.614	Roll:	-1.131	Pitch:	-0.761	Yaw:	0.217	Thrust:	59.927
Time:	5.070	Roll Set Point:	0.504	Pitch Set Point:	-0.289	Yaw Set Point:	-0.011	X_WP:	-0.408	Y_WP:	0.306	Y_WP:	0.750	X:	-0.456	Y:	0.297	Z:	0.718	yaw:	0.608	yaw rate:	11.634	Roll:	-1.253	Pitch:	-0.729	Yaw:	-0.986	Thrust:	58.925
Time:	5.091	Roll Set Point:	0.504	Pitch Set Point:	-0.289	Yaw Set Point:	-0.012	X_WP:	-0.408	Y_WP:	0.306	Y_WP:	0.750	X:	-0.456	Y:	0.297	Z:	0.720	yaw:	0.709	yaw rate:	-10.074	Roll:	-1.241	Pitch:	-0.700	Yaw:	1.959	Thrust:	58.000
Time:	5.111	Roll Set Point:	0.504	Pitch Set Point:	-0.289	Yaw Set Point:	-0.010	X_WP:	-0.408	Y_WP:	0.306	Y_WP:	0.750	X:	-0.456	Y:	0.298	Z:	0.722	yaw:	0.573	yaw rate:	13.590	Roll:	-1.172	Pitch:	-0.812	Yaw:	-1.228	Thrust:	61.594
Time:	5.130	Roll Set Point:	0.504	Pitch Set Point:	-0.290	Yaw Set Point:	-0.010	X_WP:	-0.408	Y_WP:	0.306	Y_WP:	0.750	X:	-0.456	Y:	0.298	Z:	0.725	yaw:	0.587	yaw rate:	-1.399	Roll:	-1.218	Pitch:	-0.592	Yaw:	0.740	Thrust:	54.301
Time:	5.150	Roll Set Point:	0.504	Pitch Set Point:	-0.290	Yaw Set Point:	-0.010	X_WP:	-0.408	Y_WP:	0.306	Y_WP:	0.750	X:	-0.456	Y:	0.298	Z:	0.727	yaw:	0.587	yaw rate:	-0.048	Roll:	-1.205	Pitch:	-0.652	Yaw:	0.525	Thrust:	58.248
Time:	5.170	Roll Set Point:	0.504	Pitch Set Point:	-0.290	Yaw Set Point:	-0.011	X_WP:	-0.408	Y_WP:	0.306	Y_WP:	0.750	X:	-0.456	Y:	0.298	Z:	0.729	yaw:	0.634	yaw rate:	-4.675	Roll:	-1.189	Pitch:	-0.720	Yaw:	1.194	Thrust:	58.018
Time:	5.190	Roll Set Point:	0.504	Pitch Set Point:	-0.290	Yaw Set Point:	-0.009	X_WP:	-0.408	Y_WP:	0.306	Y_WP:	0.750	X:	-0.456	Y:	0.298	Z:	0.731	yaw:	0.514	yaw rate:	11.956	Roll:	-1.197	Pitch:	-0.671	Yaw:	-1.136	Thrust:	56.640
Time:	5.212	Roll Set Point:	0.504	Pitch Set Point:	-0.290	Yaw Set Point:	-0.010	X_WP:	-0.408	Y_WP:	0.306	Y_WP:	0.750	X:	-0.456	Y:	0.298	Z:	0.734	yaw:	0.593	yaw rate:	-7.840	Roll:	-1.163	Pitch:	-0.768	Yaw:	1.475	Thrust:	64.112
Time:	5.230	Roll Set Point:	0.504	Pitch Set Point:	-0.291	Yaw Set Point:	-0.011	X_WP:	-0.408	Y_WP:	0.306	Y_WP:	0.750	X:	-0.456	Y:	0.298	Z:	0.736	yaw:	0.623	yaw rate:	-3.011	Roll:	-1.161	Pitch:	-0.622	Yaw:	1.041	Thrust:	52.124
Time:	5.250	Roll Set Point:	0.504	Pitch Set Point:	-0.291	Yaw Set Point:	-0.012	X_WP:	-0.408	Y_WP:	0.306	Y_WP:	0.750	X:	-0.456	Y:	0.298	Z:	0.738	yaw:	0.660	yaw rate:	-3.757	Roll:	-1.169	Pitch:	-0.642	Yaw:	1.113	Thrust:	58.162
Time:	5.270	Roll Set Point:	0.504	Pitch Set Point:	-0.291	Yaw Set Point:	-0.011	X_WP:	-0.408	Y_WP:	0.306	Y_WP:	0.750	X:	-0.456	Y:	0.298	Z:	0.740	yaw:	0.647	yaw rate:	1.314	Roll:	-1.162	Pitch:	-0.631	Yaw:	0.461	Thrust:	56.078
Time:	5.295	Roll Set Point:	0.504	Pitch Set Point:	-0.291	Yaw Set Point:	-0.010	X_WP:	-0.408	Y_WP:	0.306	Y_WP:	0.750	X:	-0.456	Y:	0.298	Z:	0.742	yaw:	0.549	yaw rate:	9.805	Roll:	-1.128	Pitch:	-0.841	Yaw:	-0.606	Thrust:	70.283
Time:	5.310	Roll Set Point:	0.504	Pitch Set Point:	-0.291	Yaw Set Point:	-0.011	X_WP:	-0.408	Y_WP:	0.306	Y_WP:	0.750	X:	-0.456	Y:	0.299	Z:	0.744	yaw:	0.652	yaw rate:	-10.270	Roll:	-1.132	Pitch:	-0.599	Yaw:	2.375	Thrust:	47.630
Time:	5.330	Roll Set Point:	0.504	Pitch Set Point:	-0.292	Yaw Set Point:	-0.011	X_WP:	-0.408	Y_WP:	0.306	Y_WP:	0.750	X:	-0.456	Y:	0.299	Z:	0.746	yaw:	0.655	yaw rate:	-0.325	Roll:	-1.098	Pitch:	-0.611	Yaw:	0.694	Thrust:	58.242
