Time:	0.039	Roll Set Point:	-0.018	Pitch Set Point:	-0.023	Yaw Set Point:	0.015	X_WP:	0.000	Y_WP:	0.000	Y_WP:	0.750	X:	0.009	Y:	0.012	Z:	0.046	yaw:	-0.882	yaw rate:	2.731	Roll:	0.253	Pitch:	0.338	Yaw:	-1.231	Thrust:	38.699
Time:	0.053	Roll Set Point:	-0.018	Pitch Set Point:	-0.023	Yaw Set Point:	0.014	X_WP:	0.000	Y_WP:	0.000	Y_WP:	0.750	X:	0.009	Y:	0.012	Z:	0.046	yaw:	-0.792	yaw rate:	-8.936	Roll:	0.250	Pitch:	0.500	Yaw:	0.557	Thrust:	40.501
Time:	0.073	Roll Set Point:	-0.018	Pitch Set Point:	-0.023	Yaw Set Point:	0.015	X_WP:	0.000	Y_WP:	0.000	Y_WP:	0.750	X:	0.009	Y:	0.012	Z:	0.046	yaw:	-0.847	yaw rate:	5.430	Roll:	0.270	Pitch:	0.236	Yaw:	-1.894	Thrust:	41.836
Time:	0.094	Roll Set Point:	-0.018	Pitch Set Point:	-0.024	Yaw Set Point:	0.014	X_WP:	0.000	Y_WP:	0.000	Y_WP:	0.750	X:	0.009	Y:	0.012	Z:	0.046	yaw:	-0.793	yaw rate:	-5.359	Roll:	0.217	Pitch:	0.471	Yaw:	-0.443	Thrust:	44.253
Time:	0.114	Roll Set Point:	-0.018	Pitch Set Point:	-0.023	Yaw Set Point:	0.015	X_WP:	0.000	Y_WP:	0.000	Y_WP:	0.750	X:	0.009	Y:	0.011	Z:	0.046	yaw:	-0.874	yaw rate:	8.103	Roll:	0.299	Pitch:	0.175	Yaw:	-2.301	Thrust:	44.962
Time:	0.136	Roll Set Point:	-0.018	Pitch Set Point:	-0.023	Yaw Set Point:	0.015	X_WP:	0.000	Y_WP:	0.000	Y_WP:	0.750	X:	0.009	Y:	0.012	Z:	0.046	yaw:	-0.880	yaw rate:	0.550	Roll:	0.236	Pitch:	0.362	Yaw:	-1.327	Thrust:	47.338
Time:	0.153	Roll Set Point:	-0.018	Pitch Set Point:	-0.023	Yaw Set Point:	0.015	X_WP:	0.000	Y_WP:	0.000	Y_WP:	0.750	X:	0.009	Y:	0.012	Z:	0.046	yaw:	-0.831	yaw rate:	-4.839	Roll:	0.310	Pitch:	0.329	Yaw:	-0.491	Thrust:	48.333
Time:	0.174	Roll Set Point:	-0.018	Pitch Set Point:	-0.023	Yaw Set Point:	0.015	X_WP:	0.000	Y_WP:	0.000	Y_WP:	0.750	X:	0.009	Y:	0.012	Z:	0.046	yaw:	-0.845	yaw rate:	1.410	Roll:	0.231	Pitch:	0.354	Yaw:	-1.406	Thrust:	50.497
Time:	0.194	Roll Set Point:	-0.018	Pitch Set Point:	-0.023	Yaw Set Point:	0.016	X_WP:	0.000	Y_WP:	0.000	Y_WP:	0.750	X:	0.009	Y:	0.012	Z:	0.046	yaw:	-0.890	yaw rate:	4.467	Roll:	0.265	Pitch:	0.342	Yaw:	-1.872	Thrust:	52.274
Time:	0.214	Roll Set Point:	-0.018	Pitch Set Point:	-0.023	Yaw Set Point:	0.016	X_WP:	0.000	Y_WP:	0.000	Y_WP:	0.750	X:	0.009	Y:	0.011	Z:	0.046	yaw:	-0.901	yaw rate:	1.092	Roll:	0.252	Pitch:	0.323	Yaw:	-1.454	Thrust:	53.926
Time:	0.236	Roll Set Point:	-0.018	Pitch Set Point:	-0.023	Yaw Set Point:	0.015	X_WP:	0.000	Y_WP:	0.000	Y_WP:	0.750	X:	0.009	Y:	0.012	Z:	0.046	yaw:	-0.878	yaw rate:	-2.259	Roll:	0.253	Pitch:	0.369	Yaw:	-1.034	Thrust:	57.109
Time:	0.253	Roll Set Point:	-0.018	Pitch Set Point:	-0.023	Yaw Set Point:	0.016	X_WP:	0.000	Y_WP:	0.000	Y_WP:	0.750	X:	0.009	Y:	0.012	Z:	0.046	yaw:	-0.893	yaw rate:	1.522	Roll:	0.229	Pitch:	0.367	Yaw:	-1.540	Thrust:	55.251
Time:	0.274	Roll Set Point:	-0.018	Pitch Set Point:	-0.023	Yaw Set Point:	0.015	X_WP:	0.000	Y_WP:	0.000	Y_WP:	0.750	X:	0.009	Y:	0.012	Z:	0.046	yaw:	-0.860	yaw rate:	-3.333	Roll:	0.283	Pitch:	0.326	Yaw:	-0.860	Thrust:	59.462
Time:	0.293	Roll Set Point:	-0.018	Pitch Set Point:	-0.023	Yaw Set Point:	0.016	X_WP:	0.000	Y_WP:	0.000	Y_WP:	0.750	X:	0.009	Y:	0.012	Z:	0.046	yaw:	-0.929	yaw rate:	6.931	Roll:	0.226	Pitch:	0.348	Yaw:	-2.335	Thrust:	59.836
Time:	0.314	Roll Set Point:	-0.018	Pitch Set Point:	-0.023	Yaw Set Point:	0.015	X_WP:	0.000	Y_WP:	0.000	Y_WP:	0.750	X:	0.009	Y:	0.012	Z:	0.046	yaw:	-0.864	yaw rate:	-6.524	Roll:	0.312	Pitch:	0.344	Yaw:	-0.487	Thrust:	63.662
Time:	0.335	Roll Set Point:	-0.018	Pitch Set Point:	-0.024	Yaw Set Point:	0.014	X_WP:	0.000	Y_WP:	0.000	Y_WP:	0.750	X:	0.009	Y:	0.012	Z:	0.046	yaw:	-0.812	yaw rate:	-5.235	Roll:	0.198	Pitch:	0.492	Yaw:	-0.545	Thrust:	64.720
Time:	0.354	Roll Set Point:	-0.018	Pitch Set Point:	-0.023	Yaw Set Point:	0.015	X_WP:	0.000	Y_WP:	0.000	Y_WP:	0.750	X:	0.009	Y:	0.012	Z:	0.046	yaw:	-0.886	yaw rate:	7.435	Roll:	0.305	Pitch:	0.195	Yaw:	-2.332	Thrust:	64.528
Time:	0.374	Roll Set Point:	-0.018	Pitch Set Point:	-0.023	Yaw Set Point:	0.016	X_WP:	0.000	Y_WP:	0.000	Y_WP:	0.750	X:	0.009	Y:	0.012	Z:	0.046	yaw:	-0.905	yaw rate:	1.896	Roll:	0.235	Pitch:	0.343	Yaw:	-1.613	Thrust:	67.566
Time:	0.393	Roll Set Point:	-0.018	Pitch Set Point:	-0.023	Yaw Set Point:	0.015	X_WP:	0.000	Y_WP:	0.000	Y_WP:	0.750	X:	0.009	Y:	0.012	Z:	0.046	yaw:	-0.878	yaw rate:	-2.712	Roll:	0.307	Pitch:	0.376	Yaw:	-0.971	Thrust:	68.595
Time:	0.414	Roll Set Point:	-0.018	Pitch Set Point:	-0.023	Yaw Set Point:	0.015	X_WP:	0.000	Y_WP:	0.000	Y_WP:	0.750	X:	0.009	Y:	0.012	Z:	0.046	yaw:	-0.865	yaw rate:	-1.305	Roll:	0.237	Pitch:	0.316	Yaw:	-1.161	Thrust:	71.074
Time:	0.436	Roll Set Point:	-0.018	Pitch Set Point:	-0.023	Yaw Set Point:	0.015	X_WP:	0.000	Y_WP:	0.000	Y_WP:	0.750	X:	0.009	Y:	0.012	Z:	0.046	yaw:	-0.886	yaw rate:	2.088	Roll:	0.277	Pitch:	0.364	Yaw:	-1.628	Thrust:	74.157
Time:	0.453	Roll Set Point:	-0.018	Pitch Set Point:	-0.023	Yaw Set Point:	0.016	X_WP:	0.000	Y_WP:	0.000	Y_WP:	0.750	X:	0.009	Y:	0.012	Z:	0.046	yaw:	-0.903	yaw rate:	1.745	Roll:	0.211	Pitch:	0.376	Yaw:	-1.625	Thrust:	71.754
Time:	0.474	Roll Set Point:	-0.018	Pitch Set Point:	-0.024	Yaw Set Point:	0.013	X_WP:	0.000	Y_WP:	0.000	Y_WP:	0.750	X:	0.009	Y:	0.012	Z:	0.046	yaw:	-0.757	yaw rate:	-14.638	Roll:	0.237	Pitch:	0.530	Yaw:	0.692	Thrust:	77.140
Time:	0.494	Roll Set Point:	-0.018	Pitch Set Point:	-0.023	Yaw Set Point:	0.015	X_WP:	0.000	Y_WP:	0.000	Y_WP:	0.750	X:	0.009	Y:	0.012	Z:	0.046	yaw:	-0.842	yaw rate:	8.469	Roll:	0.316	Pitch:	0.153	Yaw:	-2.415	Thrust:	77.169
Time:	0.514	Roll Set Point:	-0.018	Pitch Set Point:	-0.023	Yaw Set Point:	0.015	X_WP:	0.000	Y_WP:	0.000	Y_WP:	0.750	X:	0.009	Y:	0.011	Z:	0.046	yaw:	-0.876	yaw rate:	3.462	Roll:	0.273	Pitch:	0.332	Yaw:	-1.813	Thrust:	80.264
Time:	0.536	Roll Set Point:	-0.018	Pitch Set Point:	-0.023	Yaw Set Point:	0.015	X_WP:	0.000	Y_WP:	0.000	Y_WP:	0.750	X:	0.009	Y:	0.012	Z:	0.046	yaw:	-0.872	yaw rate:	-0.458	Roll:	0.223	Pitch:	0.371	Yaw:	-1.324	Thrust:	84.369
Time:	0.553	Roll Set Point:	-0.018	Pitch Set Point:	-0.023	Yaw Set Point:	0.015	X_WP:	0.000	Y_WP:	0.000	Y_WP:	0.750	X:	0.009	Y:	0.011	Z:	0.046	yaw:	-0.864	yaw rate:	-0.802	Roll:	0.310	Pitch:	0.335	Yaw:	-1.222	Thrust:	76.831
Time:	0.574	Roll Set Point:	-0.018	Pitch Set Point:	-0.023	Yaw Set Point:	0.016	X_WP:	0.000	Y_WP:	0.000	Y_WP:	0.750	X:	0.009	Y:	0.012	Z:	0.046	yaw:	-0.902	yaw rate:	3.804	Roll:	0.264	Pitch:	0.368	Yaw:	-1.915	Thrust:	84.940
Time:	0.594	Roll Set Point:	-0.018	Pitch Set Point:	-0.023	Yaw Set Point:	0.015	X_WP:	0.000	Y_WP:	0.000	Y_WP:	0.750	X:	0.009	Y:	0.012	Z:	0.046	yaw:	-0.888	yaw rate:	-1.403	Roll:	0.276	Pitch:	0.349	Yaw:	-1.228	Thrust:	86.311
Time:	0.614	Roll Set Point:	-0.018	Pitch Set Point:	-0.023	Yaw Set Point:	0.014	X_WP:	0.000	Y_WP:	0.000	Y_WP:	0.750	X:	0.009	Y:	0.012	Z:	0.046	yaw:	-0.831	yaw rate:	-5.699	Roll:	0.267	Pitch:	0.386	Yaw:	-0.592	Thrust:	87.954
Time:	0.637	Roll Set Point:	-0.018	Pitch Set Point:	-0.024	Yaw Set Point:	0.014	X_WP:	0.000	Y_WP:	0.000	Y_WP:	0.750	X:	0.009	Y:	0.012	Z:	0.046	yaw:	-0.782	yaw rate:	-4.842	Roll:	0.223	Pitch:	0.469	Yaw:	-0.704	Thrust:	91.597
Time:	0.653	Roll Set Point:	-0.018	Pitch Set Point:	-0.023	Yaw Set Point:	0.015	X_WP:	0.000	Y_WP:	0.000	Y_WP:	0.750	X:	0.009	Y:	0.012	Z:	0.046	yaw:	-0.860	yaw rate:	7.787	Roll:	0.303	Pitch:	0.208	Yaw:	-2.502	Thrust:	87.830
Time:	0.674	Roll Set Point:	-0.018	Pitch Set Point:	-0.023	Yaw Set Point:	0.015	X_WP:	0.000	Y_WP:	0.000	Y_WP:	0.750	X:	0.009	Y:	0.011	Z:	0.046	yaw:	-0.840	yaw rate:	-2.018	Roll:	0.292	Pitch:	0.337	Yaw:	-1.108	Thrust:	93.548
Time:	0.694	Roll Set Point:	-0.018	Pitch Set Point:	-0.024	Yaw Set Point:	0.014	X_WP:	0.000	Y_WP:	0.000	Y_WP:	0.750	X:	0.009	Y:	0.012	Z:	0.046	yaw:	-0.792	yaw rate:	-4.838	Roll:	0.208	Pitch:	0.514	Yaw:	-0.671	Thrust:	95.030
Time:	0.713	Roll Set Point:	-0.018	Pitch Set Point:	-0.023	Yaw Set Point:	0.016	X_WP:	0.000	Y_WP:	0.000	Y_WP:	0.750	X:	0.009	Y:	0.012	Z:	0.046	yaw:	-0.915	yaw rate:	12.372	Roll:	0.293	Pitch:	0.223	Yaw:	-3.129	Thrust:	94.497
Time:	0.734	Roll Set Point:	-0.018	Pitch Set Point:	-0.023	Yaw Set Point:	0.015	X_WP:	0.000	Y_WP:	0.000	Y_WP:	0.750	X:	0.009	Y:	0.012	Z:	0.046	yaw:	-0.870	yaw rate:	-4.495	Roll:	0.289	Pitch:	0.347	Yaw:	-0.876	Thrust:	100.000
Time:	0.753	Roll Set Point:	-0.018	Pitch Set Point:	-0.023	Yaw Set Point:	0.015	X_WP:	0.000	Y_WP:	0.000	Y_WP:	0.750	X:	0.009	Y:	0.012	Z:	0.046	yaw:	-0.847	yaw rate:	-2.322	Roll:	0.265	Pitch:	0.388	Yaw:	-1.062	Thrust:	95.867
Time:	0.774	Roll Set Point:	-0.018	Pitch Set Point:	-0.023	Yaw Set Point:	0.015	X_WP:	0.000	Y_WP:	0.000	Y_WP:	0.750	X:	0.009	Y:	0.012	Z:	0.046	yaw:	-0.876	yaw rate:	2.903	Roll:	0.286	Pitch:	0.374	Yaw:	-1.822	Thrust:	100.000
Time:	0.794	Roll Set Point:	-0.018	Pitch Set Point:	-0.023	Yaw Set Point:	0.016	X_WP:	0.000	Y_WP:	0.000	Y_WP:	0.750	X:	0.009	Y:	0.012	Z:	0.046	yaw:	-0.897	yaw rate:	2.108	Roll:	0.244	Pitch:	0.341	Yaw:	-1.757	Thrust:	100.000
Time:	0.814	Roll Set Point:	-0.018	Pitch Set Point:	-0.023	Yaw Set Point:	0.014	X_WP:	0.000	Y_WP:	0.000	Y_WP:	0.750	X:	0.009	Y:	0.012	Z:	0.046	yaw:	-0.807	yaw rate:	-8.990	Roll:	0.282	Pitch:	0.345	Yaw:	-0.188	Thrust:	100.000
Time:	0.835	Roll Set Point:	-0.018	Pitch Set Point:	-0.023	Yaw Set Point:	0.016	X_WP:	0.000	Y_WP:	0.000	Y_WP:	0.750	X:	0.009	Y:	0.012	Z:	0.046	yaw:	-0.894	yaw rate:	8.708	Roll:	0.246	Pitch:	0.386	Yaw:	-2.561	Thrust:	100.000
Time:	0.853	Roll Set Point:	-0.018	Pitch Set Point:	-0.023	Yaw Set Point:	0.016	X_WP:	0.000	Y_WP:	0.000	Y_WP:	0.750	X:	0.009	Y:	0.012	Z:	0.046	yaw:	-0.898	yaw rate:	0.335	Roll:	0.287	Pitch:	0.340	Yaw:	-1.522	Thrust:	100.000
Time:	0.873	Roll Set Point:	-0.018	Pitch Set Point:	-0.023	Yaw Set Point:	0.015	X_WP:	0.000	Y_WP:	0.000	Y_WP:	0.750	X:	0.009	Y:	0.011	Z:	0.046	yaw:	-0.865	yaw rate:	-3.252	Roll:	0.258	Pitch:	0.343	Yaw:	-1.036	Thrust:	100.000
Time:	0.894	Roll Set Point:	-0.018	Pitch Set Point:	-0.023	Yaw Set Point:	0.015	X_WP:	0.000	Y_WP:	0.000	Y_WP:	0.750	X:	0.009	Y:	0.012	Z:	0.046	yaw:	-0.873	yaw rate:	0.773	Roll:	0.295	Pitch:	0.387	Yaw:	-1.582	Thrust:	100.000
Time:	0.914	Roll Set Point:	-0.018	Pitch Set Point:	-0.023	Yaw Set Point:	0.015	X_WP:	0.000	Y_WP:	0.000	Y_WP:	0.750	X:	0.009	Y:	0.012	Z:	0.046	yaw:	-0.853	yaw rate:	-2.022	Roll:	0.266	Pitch:	0.343	Yaw:	-1.194	Thrust:	100.000
Time:	0.936	Roll Set Point:	-0.018	Pitch Set Point:	-0.023	Yaw Set Point:	0.015	X_WP:	0.000	Y_WP:	0.000	Y_WP:	0.750	X:	0.009	Y:	0.012	Z:	0.046	yaw:	-0.879	yaw rate:	2.656	Roll:	0.275	Pitch:	0.386	Yaw:	-1.842	Thrust:	100.000
Time:	0.953	Roll Set Point:	-0.018	Pitch Set Point:	-0.023	Yaw Set Point:	0.015	X_WP:	0.000	Y_WP:	0.000	Y_WP:	0.750	X:	0.009	Y:	0.011	Z:	0.046	yaw:	-0.859	yaw rate:	-2.039	Roll:	0.255	Pitch:	0.314	Yaw:	-1.137	Thrust:	100.000
Time:	0.973	Roll Set Point:	-0.018	Pitch Set Point:	-0.024	Yaw Set Point:	0.014	X_WP:	0.000	Y_WP:	0.000	Y_WP:	0.750	X:	0.009	Y:	0.012	Z:	0.046	yaw:	-0.793	yaw rate:	-6.592	Roll:	0.256	Pitch:	0.553	Yaw:	-0.552	Thrust:	100.000
Time:	0.994	Roll Set Point:	-0.018	Pitch Set Point:	-0.023	Yaw Set Point:	0.016	X_WP:	0.000	Y_WP:	0.000	Y_WP:	0.750	X:	0.009	Y:	0.012	Z:	0.046	yaw:	-0.930	yaw rate:	13.737	Roll:	0.271	Pitch:	0.213	Yaw:	-3.354	Thrust:	100.000
Time:	1.014	Roll Set Point:	-0.018	Pitch Set Point:	-0.024	Yaw Set Point:	0.014	X_WP:	0.000	Y_WP:	0.000	Y_WP:	0.750	X:	0.009	Y:	0.012	Z:	0.046	yaw:	-0.786	yaw rate:	-14.427	Roll:	0.279	Pitch:	0.515	Yaw:	0.533	Thrust:	100.000
Time:	1.035	Roll Set Point:	-0.018	Pitch Set Point:	-0.023	Yaw Set Point:	0.015	X_WP:	0.000	Y_WP:	0.000	Y_WP:	0.750	X:	0.009	Y:	0.012	Z:	0.046	yaw:	-0.857	yaw rate:	7.072	Roll:	0.311	Pitch:	0.218	Yaw:	-2.387	Thrust:	100.000
Time:	1.053	Roll Set Point:	-0.018	Pitch Set Point:	-0.023	Yaw Set Point:	0.015	X_WP:	0.000	Y_WP:	0.000	Y_WP:	0.750	X:	0.009	Y:	0.012	Z:	0.046	yaw:	-0.845	yaw rate:	-1.225	Roll:	0.285	Pitch:	0.375	Yaw:	-1.283	Thrust:	100.000
Time:	1.074	Roll Set Point:	-0.018	Pitch Set Point:	-0.023	Yaw Set Point:	0.015	X_WP:	0.000	Y_WP:	0.000	Y_WP:	0.750	X:	0.009	Y:	0.012	Z:	0.046	yaw:	-0.856	yaw rate:	1.169	Roll:	0.258	Pitch:	0.409	Yaw:	-1.668	Thrust:	100.000
Time:	1.094	Roll Set Point:	-0.018	Pitch Set Point:	-0.023	Yaw Set Point:	0.015	X_WP:	0.000	Y_WP:	0.000	Y_WP:	0.750	X:	0.009	Y:	0.012	Z:	0.046	yaw:	-0.873	yaw rate:	1.721	Roll:	0.281	Pitch:	0.331	Yaw:	-1.762	Thrust:	100.000
Time:	1.114	Roll Set Point:	-0.018	Pitch Set Point:	-0.023	Yaw Set Point:	0.015	X_WP:	0.000	Y_WP:	0.000	Y_WP:	0.750	X:	0.009	Y:	0.012	Z:	0.046	yaw:	-0.872	yaw rate:	-0.156	Roll:	0.285	Pitch:	0.367	Yaw:	-1.523	Thrust:	100.000
Time:	1.136	Roll Set Point:	-0.018	Pitch Set Point:	-0.023	Yaw Set Point:	0.015	X_WP:	0.000	Y_WP:	0.000	Y_WP:	0.750	X:	0.009	Y:	0.011	Z:	0.046	yaw:	-0.847	yaw rate:	-2.506	Roll:	0.280	Pitch:	0.356	Yaw:	-1.250	Thrust:	100.000
Time:	1.153	Roll Set Point:	-0.018	Pitch Set Point:	-0.023	Yaw Set Point:	0.015	X_WP:	0.000	Y_WP:	0.000	Y_WP:	0.750	X:	0.009	Y:	0.012	Z:	0.046	yaw:	-0.878	yaw rate:	3.112	Roll:	0.260	Pitch:	0.377	Yaw:	-1.987	Thrust:	100.000
Time:	1.174	Roll Set Point:	-0.018	Pitch Set Point:	-0.023	Yaw Set Point:	0.015	X_WP:	0.000	Y_WP:	0.000	Y_WP:	0.750	X:	0.009	Y:	0.012	Z:	0.046	yaw:	-0.885	yaw rate:	0.720	Roll:	0.271	Pitch:	0.390	Yaw:	-1.680	Thrust:	100.000
Time:	1.194	Roll Set Point:	-0.018	Pitch Set Point:	-0.023	Yaw Set Point:	0.015	X_WP:	0.000	Y_WP:	0.000	Y_WP:	0.750	X:	0.009	Y:	0.012	Z:	0.046	yaw:	-0.839	yaw rate:	-4.627	Roll:	0.323	Pitch:	0.364	Yaw:	-0.902	Thrust:	100.000
Time:	1.214	Roll Set Point:	-0.018	Pitch Set Point:	-0.023	Yaw Set Point:	0.015	X_WP:	0.000	Y_WP:	0.000	Y_WP:	0.750	X:	0.009	Y:	0.012	Z:	0.046	yaw:	-0.875	yaw rate:	3.589	Roll:	0.222	Pitch:	0.403	Yaw:	-2.045	Thrust:	100.000
Time:	1.235	Roll Set Point:	-0.018	Pitch Set Point:	-0.023	Yaw Set Point:	0.015	X_WP:	0.000	Y_WP:	0.000	Y_WP:	0.750	X:	0.009	Y:	0.012	Z:	0.046	yaw:	-0.857	yaw rate:	-1.737	Roll:	0.326	Pitch:	0.353	Yaw:	-1.371	Thrust:	100.000
Time:	1.253	Roll Set Point:	-0.018	Pitch Set Point:	-0.023	Yaw Set Point:	0.016	X_WP:	0.000	Y_WP:	0.000	Y_WP:	0.750	X:	0.009	Y:	0.012	Z:	0.046	yaw:	-0.891	yaw rate:	3.348	Roll:	0.258	Pitch:	0.371	Yaw:	-2.059	Thrust:	100.000
Time:	1.274	Roll Set Point:	-0.018	Pitch Set Point:	-0.023	Yaw Set Point:	0.016	X_WP:	0.000	Y_WP:	0.000	Y_WP:	0.750	X:	0.009	Y:	0.012	Z:	0.046	yaw:	-0.907	yaw rate:	1.654	Roll:	0.270	Pitch:	0.408	Yaw:	-1.857	Thrust:	100.000
Time:	1.293	Roll Set Point:	-0.018	Pitch Set Point:	-0.023	Yaw Set Point:	0.015	X_WP:	0.000	Y_WP:	0.000	Y_WP:	0.750	X:	0.009	Y:	0.012	Z:	0.046	yaw:	-0.856	yaw rate:	-5.110	Roll:	0.279	Pitch:	0.318	Yaw:	-0.887	Thrust:	100.000
Time:	1.314	Roll Set Point:	-0.018	Pitch Set Point:	-0.023	Yaw Set Point:	0.015	X_WP:	0.000	Y_WP:	0.000	Y_WP:	0.750	X:	0.009	Y:	0.012	Z:	0.046	yaw:	-0.844	yaw rate:	-1.244	Roll:	0.301	Pitch:	0.386	Yaw:	-1.417	Thrust:	100.000
Time:	1.336	Roll Set Point:	-0.018	Pitch Set Point:	-0.023	Yaw Set Point:	0.015	X_WP:	0.000	Y_WP:	0.000	Y_WP:	0.750	X:	0.009	Y:	0.012	Z:	0.046	yaw:	-0.876	yaw rate:	3.235	Roll:	0.281	Pitch:	0.401	Yaw:	-2.039	Thrust:	100.000
Time:	1.353	Roll Set Point:	-0.018	Pitch Set Point:	-0.023	Yaw Set Point:	0.015	X_WP:	0.000	Y_WP:	0.000	Y_WP:	0.750	X:	0.009	Y:	0.012	Z:	0.046	yaw:	-0.865	yaw rate:	-1.120	Roll:	0.272	Pitch:	0.339	Yaw:	-1.378	Thrust:	100.000
Time:	1.374	Roll Set Point:	-0.018	Pitch Set Point:	-0.024	Yaw Set Point:	0.014	X_WP:	0.000	Y_WP:	0.000	Y_WP:	0.750	X:	0.009	Y:	0.012	Z:	0.046	yaw:	-0.780	yaw rate:	-8.468	Roll:	0.234	Pitch:	0.533	Yaw:	-0.417	Thrust:	100.000
Time:	1.394	Roll Set Point:	-0.018	Pitch Set Point:	-0.023	Yaw Set Point:	0.016	X_WP:	0.000	Y_WP:	0.000	Y_WP:	0.750	X:	0.009	Y:	0.012	Z:	0.046	yaw:	-0.928	yaw rate:	14.717	Roll:	0.307	Pitch:	0.277	Yaw:	-3.596	Thrust:	100.000
Time:	1.414	Roll Set Point:	-0.018	Pitch Set Point:	-0.024	Yaw Set Point:	0.014	X_WP:	0.000	Y_WP:	0.000	Y_WP:	0.750	X:	0.009	Y:	0.012	Z:	0.046	yaw:	-0.824	yaw rate:	-10.397	Roll:	0.268	Pitch:	0.518	Yaw:	-0.169	Thrust:	100.000
Time:	1.434	Roll Set Point:	-0.018	Pitch Set Point:	-0.023	Yaw Set Point:	0.015	X_WP:	0.000	Y_WP:	0.000	Y_WP:	0.750	X:	0.009	Y:	0.012	Z:	0.046	yaw:	-0.846	yaw rate:	2.198	Roll:	0.330	Pitch:	0.204	Yaw:	-1.895	Thrust:	100.000
Time:	1.453	Roll Set Point:	-0.018	Pitch Set Point:	-0.023	Yaw Set Point:	0.015	X_WP:	0.000	Y_WP:	0.000	Y_WP:	0.750	X:	0.009	Y:	0.012	Z:	0.046	yaw:	-0.858	yaw rate:	1.291	Roll:	0.263	Pitch:	0.366	Yaw:	-1.782	Thrust:	100.000
Time:	1.474	Roll Set Point:	-0.018	Pitch Set Point:	-0.023	Yaw Set Point:	0.016	X_WP:	0.000	Y_WP:	0.000	Y_WP:	0.750	X:	0.009	Y:	0.012	Z:	0.046	yaw:	-0.894	yaw rate:	3.519	Roll:	0.304	Pitch:	0.412	Yaw:	-2.141	Thrust:	100.000
Time:	1.493	Roll Set Point:	-0.018	Pitch Set Point:	-0.023	Yaw Set Point:	0.015	X_WP:	0.000	Y_WP:	0.000	Y_WP:	0.750	X:	0.009	Y:	0.012	Z:	0.046	yaw:	-0.863	yaw rate:	-3.067	Roll:	0.276	Pitch:	0.371	Yaw:	-1.207	Thrust:	100.000
Time:	1.513	Roll Set Point:	-0.018	Pitch Set Point:	-0.023	Yaw Set Point:	0.015	X_WP:	0.000	Y_WP:	0.000	Y_WP:	0.750	X:	0.009	Y:	0.012	Z:	0.046	yaw:	-0.834	yaw rate:	-2.915	Roll:	0.292	Pitch:	0.364	Yaw:	-1.239	Thrust:	100.000
Time:	1.536	Roll Set Point:	-0.018	Pitch Set Point:	-0.023	Yaw Set Point:	0.015	X_WP:	0.000	Y_WP:	0.000	Y_WP:	0.750	X:	0.009	Y:	0.012	Z:	0.046	yaw:	-0.843	yaw rate:	0.932	Roll:	0.311	Pitch:	0.398	Yaw:	-1.779	Thrust:	100.000
Time:	1.553	Roll Set Point:	-0.018	Pitch Set Point:	-0.023	Yaw Set Point:	0.015	X_WP:	0.000	Y_WP:	0.000	Y_WP:	0.750	X:	0.009	Y:	0.012	Z:	0.046	yaw:	-0.852	yaw rate:	0.854	Roll:	0.259	Pitch:	0.385	Yaw:	-1.728	Thrust:	100.000
Time:	1.573	Roll Set Point:	-0.018	Pitch Set Point:	-0.023	Yaw Set Point:	0.015	X_WP:	0.000	Y_WP:	0.000	Y_WP:	0.750	X:	0.009	Y:	0.011	Z:	0.046	yaw:	-0.850	yaw rate:	-0.125	Roll:	0.294	Pitch:	0.356	Yaw:	-1.640	Thrust:	100.000
Time:	1.594	Roll Set Point:	-0.018	Pitch Set Point:	-0.023	Yaw Set Point:	0.014	X_WP:	0.000	Y_WP:	0.000	Y_WP:	0.750	X:	0.009	Y:	0.012	Z:	0.046	yaw:	-0.782	yaw rate:	-6.801	Roll:	0.246	Pitch:	0.522	Yaw:	-0.642	Thrust:	100.000
Time:	1.613	Roll Set Point:	-0.018	Pitch Set Point:	-0.023	Yaw Set Point:	0.015	X_WP:	0.000	Y_WP:	0.000	Y_WP:	0.750	X:	0.009	Y:	0.012	Z:	0.046	yaw:	-0.873	yaw rate:	9.041	Roll:	0.340	Pitch:	0.280	Yaw:	-2.863	Thrust:	100.000
Time:	1.636	Roll Set Point:	-0.018	Pitch Set Point:	-0.024	Yaw Set Point:	0.014	X_WP:	0.000	Y_WP:	0.000	Y_WP:	0.750	X:	0.009	Y:	0.012	Z:	0.046	yaw:	-0.787	yaw rate:	-8.573	Roll:	0.229	Pitch:	0.530	Yaw:	-0.613	Thrust:	100.000
Time:	1.653	Roll Set Point:	-0.018	Pitch Set Point:	-0.023	Yaw Set Point:	0.015	X_WP:	0.000	Y_WP:	0.000	Y_WP:	0.750	X:	0.009	Y:	0.012	Z:	0.046	yaw:	-0.864	yaw rate:	7.703	Roll:	0.331	Pitch:	0.229	Yaw:	-2.779	Thrust:	100.000
Time:	1.673	Roll Set Point:	-0.018	Pitch Set Point:	-0.023	Yaw Set Point:	0.016	X_WP:	0.000	Y_WP:	0.000	Y_WP:	0.750	X:	0.009	Y:	0.012	Z:	0.046	yaw:	-0.895	yaw rate:	3.052	Roll:	0.287	Pitch:	0.371	Yaw:	-2.140	Thrust:	100.000
Time:	1.694	Roll Set Point:	-0.018	Pitch Set Point:	-0.023	Yaw Set Point:	0.015	X_WP:	0.000	Y_WP:	0.000	Y_WP:	0.750	X:	0.009	Y:	0.012	Z:	0.046	yaw:	-0.880	yaw rate:	-1.503	Roll:	0.298	Pitch:	0.423	Yaw:	-1.552	Thrust:	100.000
Time:	1.716	Roll Set Point:	-0.018	Pitch Set Point:	-0.023	Yaw Set Point:	0.015	X_WP:	0.000	Y_WP:	0.000	Y_WP:	0.750	X:	0.009	Y:	0.011	Z:	0.046	yaw:	-0.844	yaw rate:	-3.541	Roll:	0.257	Pitch:	0.336	Yaw:	-1.286	Thrust:	100.000
Time:	1.737	Roll Set Point:	-0.018	Pitch Set Point:	-0.023	Yaw Set Point:	0.015	X_WP:	0.000	Y_WP:	0.000	Y_WP:	0.750	X:	0.009	Y:	0.012	Z:	0.046	yaw:	-0.852	yaw rate:	0.794	Roll:	0.299	Pitch:	0.403	Yaw:	-1.836	Thrust:	100.000
Time:	1.755	Roll Set Point:	-0.018	Pitch Set Point:	-0.023	Yaw Set Point:	0.015	X_WP:	0.000	Y_WP:	0.000	Y_WP:	0.750	X:	0.009	Y:	0.012	Z:	0.046	yaw:	-0.855	yaw rate:	0.293	Roll:	0.304	Pitch:	0.404	Yaw:	-1.697	Thrust:	100.000
Time:	1.775	Roll Set Point:	-0.018	Pitch Set Point:	-0.023	Yaw Set Point:	0.015	X_WP:	0.000	Y_WP:	0.000	Y_WP:	0.750	X:	0.009	Y:	0.012	Z:	0.046	yaw:	-0.888	yaw rate:	3.294	Roll:	0.294	Pitch:	0.395	Yaw:	-2.194	Thrust:	100.000
Time:	1.795	Roll Set Point:	-0.018	Pitch Set Point:	-0.023	Yaw Set Point:	0.015	X_WP:	0.000	Y_WP:	0.000	Y_WP:	0.750	X:	0.009	Y:	0.012	Z:	0.046	yaw:	-0.877	yaw rate:	-1.098	Roll:	0.286	Pitch:	0.383	Yaw:	-1.615	Thrust:	100.000
Time:	1.814	Roll Set Point:	-0.018	Pitch Set Point:	-0.023	Yaw Set Point:	0.015	X_WP:	0.000	Y_WP:	0.000	Y_WP:	0.750	X:	0.009	Y:	0.012	Z:	0.046	yaw:	-0.888	yaw rate:	1.056	Roll:	0.272	Pitch:	0.386	Yaw:	-1.904	Thrust:	100.000
Time:	1.837	Roll Set Point:	-0.018	Pitch Set Point:	-0.024	Yaw Set Point:	0.014	X_WP:	0.000	Y_WP:	0.000	Y_WP:	0.750	X:	0.009	Y:	0.012	Z:	0.046	yaw:	-0.812	yaw rate:	-7.523	Roll:	0.292	Pitch:	0.528	Yaw:	-0.771	Thrust:	100.000
Time:	1.854	Roll Set Point:	-0.018	Pitch Set Point:	-0.023	Yaw Set Point:	0.015	X_WP:	0.000	Y_WP:	0.000	Y_WP:	0.750	X:	0.009	Y:	0.012	Z:	0.046	yaw:	-0.871	yaw rate:	5.904	Roll:	0.333	Pitch:	0.244	Yaw:	-2.558	Thrust:	100.000
Time:	1.875	Roll Set Point:	-0.018	Pitch Set Point:	-0.023	Yaw Set Point:	0.016	X_WP:	0.000	Y_WP:	0.000	Y_WP:	0.750	X:	0.009	Y:	0.012	Z:	0.046	yaw:	-0.923	yaw rate:	5.128	Roll:	0.277	Pitch:	0.396	Yaw:	-2.507	Thrust:	100.000
Time:	1.895	Roll Set Point:	-0.018	Pitch Set Point:	-0.023	Yaw Set Point:	0.015	X_WP:	0.000	Y_WP:	0.000	Y_WP:	0.750	X:	0.009	Y:	0.012	Z:	0.046	yaw:	-0.837	yaw rate:	-8.524	Roll:	0.299	Pitch:	0.384	Yaw:	-0.565	Thrust:	100.000
Time:	1.915	Roll Set Point:	-0.018	Pitch Set Point:	-0.023	Yaw Set Point:	0.014	X_WP:	0.000	Y_WP:	0.000	Y_WP:	0.750	X:	0.009	Y:	0.011	Z:	0.046	yaw:	-0.828	yaw rate:	-0.939	Roll:	0.301	Pitch:	0.358	Yaw:	-1.604	Thrust:	100.000
Time:	1.937	Roll Set Point:	-0.018	Pitch Set Point:	-0.023	Yaw Set Point:	0.015	X_WP:	0.000	Y_WP:	0.000	Y_WP:	0.750	X:	0.009	Y:	0.012	Z:	0.046	yaw:	-0.853	yaw rate:	2.525	Roll:	0.290	Pitch:	0.429	Yaw:	-2.119	Thrust:	100.000
Time:	1.955	Roll Set Point:	-0.018	Pitch Set Point:	-0.023	Yaw Set Point:	0.015	X_WP:	0.000	Y_WP:	0.000	Y_WP:	0.750	X:	0.009	Y:	0.012	Z:	0.046	yaw:	-0.866	yaw rate:	1.304	Roll:	0.287	Pitch:	0.378	Yaw:	-1.915	Thrust:	100.000
Time:	1.975	Roll Set Point:	-0.018	Pitch Set Point:	-0.023	Yaw Set Point:	0.015	X_WP:	0.000	Y_WP:	0.000	Y_WP:	0.750	X:	0.009	Y:	0.011	Z:	0.046	yaw:	-0.887	yaw rate:	2.043	Roll:	0.289	Pitch:	0.370	Yaw:	-2.089	Thrust:	100.000
Time:	1.995	Roll Set Point:	-0.018	Pitch Set Point:	-0.023	Yaw Set Point:	0.015	X_WP:	0.000	Y_WP:	0.000	Y_WP:	0.750	X:	0.009	Y:	0.011	Z:	0.046	yaw:	-0.850	yaw rate:	-3.670	Roll:	0.321	Pitch:	0.399	Yaw:	-1.255	Thrust:	100.000
Time:	2.015	Roll Set Point:	-0.018	Pitch Set Point:	-0.023	Yaw Set Point:	0.015	X_WP:	0.000	Y_WP:	0.000	Y_WP:	0.750	X:	0.009	Y:	0.012	Z:	0.046	yaw:	-0.860	yaw rate:	1.034	Roll:	0.320	Pitch:	0.455	Yaw:	-1.947	Thrust:	100.000
Time:	2.037	Roll Set Point:	-0.018	Pitch Set Point:	-0.023	Yaw Set Point:	0.015	X_WP:	0.000	Y_WP:	0.000	Y_WP:	0.750	X:	0.009	Y:	0.012	Z:	0.046	yaw:	-0.854	yaw rate:	-0.626	Roll:	0.260	Pitch:	0.360	Yaw:	-1.750	Thrust:	100.000
Time:	2.055	Roll Set Point:	-0.018	Pitch Set Point:	-0.023	Yaw Set Point:	0.015	X_WP:	0.000	Y_WP:	0.000	Y_WP:	0.750	X:	0.009	Y:	0.012	Z:	0.046	yaw:	-0.869	yaw rate:	1.487	Roll:	0.305	Pitch:	0.391	Yaw:	-1.996	Thrust:	100.000
Time:	2.075	Roll Set Point:	-0.018	Pitch Set Point:	-0.023	Yaw Set Point:	0.015	X_WP:	0.000	Y_WP:	0.000	Y_WP:	0.750	X:	0.009	Y:	0.012	Z:	0.046	yaw:	-0.888	yaw rate:	1.897	Roll:	0.293	Pitch:	0.443	Yaw:	-2.103	Thrust:	100.000
Time:	2.095	Roll Set Point:	-0.018	Pitch Set Point:	-0.023	Yaw Set Point:	0.016	X_WP:	0.000	Y_WP:	0.000	Y_WP:	0.750	X:	0.009	Y:	0.012	Z:	0.046	yaw:	-0.889	yaw rate:	0.144	Roll:	0.319	Pitch:	0.400	Yaw:	-1.868	Thrust:	100.000
Time:	2.115	Roll Set Point:	-0.018	Pitch Set Point:	-0.023	Yaw Set Point:	0.015	X_WP:	0.000	Y_WP:	0.000	Y_WP:	0.750	X:	0.009	Y:	0.012	Z:	0.046	yaw:	-0.864	yaw rate:	-2.577	Roll:	0.272	Pitch:	0.365	Yaw:	-1.523	Thrust:	100.000
Time:	2.137	Roll Set Point:	-0.018	Pitch Set Point:	-0.023	Yaw Set Point:	0.013	X_WP:	0.000	Y_WP:	0.000	Y_WP:	0.750	X:	0.009	Y:	0.012	Z:	0.046	yaw:	-0.772	yaw rate:	-9.166	Roll:	0.289	Pitch:	0.520	Yaw:	-0.578	Thrust:	100.000
Time:	2.155	Roll Set Point:	-0.018	Pitch Set Point:	-0.023	Yaw Set Point:	0.015	X_WP:	0.000	Y_WP:	0.000	Y_WP:	0.750	X:	0.009	Y:	0.012	Z:	0.046	yaw:	-0.865	yaw rate:	9.342	Roll:	0.330	Pitch:	0.293	Yaw:	-3.161	Thrust:	100.000
Time:	2.175	Roll Set Point:	-0.018	Pitch Set Point:	-0.023	Yaw Set Point:	0.015	X_WP:	0.000	Y_WP:	0.000	Y_WP:	0.750	X:	0.009	Y:	0.011	Z:	0.046	yaw:	-0.844	yaw rate:	-2.102	Roll:	0.290	Pitch:	0.352	Yaw:	-1.613	Thrust:	100.000
Time:	2.195	Roll Set Point:	-0.018	Pitch Set Point:	-0.023	Yaw Set Point:	0.016	X_WP:	0.000	Y_WP:	0.000	Y_WP:	0.750	X:	0.009	Y:	0.011	Z:	0.046	yaw:	-0.890	yaw rate:	4.590	Roll:	0.331	Pitch:	0.393	Yaw:	-2.492	Thrust:	100.000
Time:	2.215	Roll Set Point:	-0.018	Pitch Set Point:	-0.023	Yaw Set Point:	0.015	X_WP:	0.000	Y_WP:	0.000	Y_WP:	0.750	X:	0.009	Y:	0.012	Z:	0.046	yaw:	-0.850	yaw rate:	-4.044	Roll:	0.274	Pitch:	0.440	Yaw:	-1.320	Thrust:	100.000
Time:	2.236	Roll Set Point:	-0.018	Pitch Set Point:	-0.023	Yaw Set Point:	0.016	X_WP:	0.000	Y_WP:	0.000	Y_WP:	0.750	X:	0.009	Y:	0.012	Z:	0.046	yaw:	-0.890	yaw rate:	4.033	Roll:	0.312	Pitch:	0.412	Yaw:	-2.445	Thrust:	100.000
Time:	2.254	Roll Set Point:	-0.018	Pitch Set Point:	-0.023	Yaw Set Point:	0.014	X_WP:	0.000	Y_WP:	0.000	Y_WP:	0.750	X:	0.009	Y:	0.012	Z:	0.046	yaw:	-0.780	yaw rate:	-11.054	Roll:	0.253	Pitch:	0.535	Yaw:	-0.062	Thrust:	100.000
Time:	2.274	Roll Set Point:	-0.018	Pitch Set Point:	-0.023	Yaw Set Point:	0.015	X_WP:	0.000	Y_WP:	0.000	Y_WP:	0.750	X:	0.009	Y:	0.012	Z:	0.046	yaw:	-0.866	yaw rate:	8.639	Roll:	0.333	Pitch:	0.275	Yaw:	-3.011	Thrust:	100.000
Time:	2.294	Roll Set Point:	-0.018	Pitch Set Point:	-0.023	Yaw Set Point:	0.015	X_WP:	0.000	Y_WP:	0.000	Y_WP:	0.750	X:	0.009	Y:	0.012	Z:	0.046	yaw:	-0.884	yaw rate:	1.810	Roll:	0.316	Pitch:	0.420	Yaw:	-2.152	Thrust:	100.000
Time:	2.316	Roll Set Point:	-0.018	Pitch Set Point:	-0.023	Yaw Set Point:	0.015	X_WP:	0.000	Y_WP:	0.000	Y_WP:	0.750	X:	0.009	Y:	0.012	Z:	0.046	yaw:	-0.841	yaw rate:	-4.344	Roll:	0.292	Pitch:	0.383	Yaw:	-1.356	Thrust:	100.000
Time:	2.337	Roll Set Point:	-0.018	Pitch Set Point:	-0.023	Yaw Set Point:	0.014	X_WP:	0.000	Y_WP:	0.000	Y_WP:	0.750	X:	0.009	Y:	0.012	Z:	0.046	yaw:	-0.813	yaw rate:	-2.813	Roll:	0.332	Pitch:	0.413	Yaw:	-1.518	Thrust:	100.000
Time:	2.354	Roll Set Point:	-0.018	Pitch Set Point:	-0.023	Yaw Set Point:	0.015	X_WP:	0.000	Y_WP:	0.000	Y_WP:	0.750	X:	0.009	Y:	0.012	Z:	0.046	yaw:	-0.881	yaw rate:	6.793	Roll:	0.254	Pitch:	0.431	Yaw:	-2.849	Thrust:	100.000
Time:	2.375	Roll Set Point:	-0.018	Pitch Set Point:	-0.023	Yaw Set Point:	0.015	X_WP:	0.000	Y_WP:	0.000	Y_WP:	0.750	X:	0.009	Y:	0.012	Z:	0.046	yaw:	-0.834	yaw rate:	-4.667	Roll:	0.376	Pitch:	0.394	Yaw:	-1.262	Thrust:	100.000
Time:	2.394	Roll Set Point:	-0.018	Pitch Set Point:	-0.023	Yaw Set Point:	0.015	X_WP:	0.000	Y_WP:	0.000	Y_WP:	0.750	X:	0.009	Y:	0.012	Z:	0.046	yaw:	-0.870	yaw rate:	3.575	Roll:	0.262	Pitch:	0.392	Yaw:	-2.385	Thrust:	100.000
Time:	2.416	Roll Set Point:	-0.018	Pitch Set Point:	-0.023	Yaw Set Point:	0.015	X_WP:	0.000	Y_WP:	0.000	Y_WP:	0.750	X:	0.009	Y:	0.012	Z:	0.046	yaw:	-0.873	yaw rate:	0.340	Roll:	0.291	Pitch:	0.417	Yaw:	-2.014	Thrust:	100.000
Time:	2.436	Roll Set Point:	-0.018	Pitch Set Point:	-0.023	Yaw Set Point:	0.016	X_WP:	0.000	Y_WP:	0.000	Y_WP:	0.750	X:	0.009	Y:	0.012	Z:	0.046	yaw:	-0.890	yaw rate:	1.717	Roll:	0.318	Pitch:	0.404	Yaw:	-2.205	Thrust:	100.000
Time:	2.455	Roll Set Point:	-0.018	Pitch Set Point:	-0.023	Yaw Set Point:	0.015	X_WP:	0.000	Y_WP:	0.000	Y_WP:	0.750	X:	0.009	Y:	0.012	Z:	0.046	yaw:	-0.842	yaw rate:	-4.830	Roll:	0.305	Pitch:	0.388	Yaw:	-1.189	Thrust:	100.000
Time:	2.475	Roll Set Point:	-0.018	Pitch Set Point:	-0.023	Yaw Set Point:	0.015	X_WP:	0.000	Y_WP:	0.000	Y_WP:	0.750	X:	0.009	Y:	0.012	Z:	0.046	yaw:	-0.882	yaw rate:	4.002	Roll:	0.302	Pitch:	0.418	Yaw:	-2.488	Thrust:	100.000
Time:	2.495	Roll Set Point:	-0.018	Pitch Set Point:	-0.024	Yaw Set Point:	0.014	X_WP:	0.000	Y_WP:	0.000	Y_WP:	0.750	X:	0.009	Y:	0.012	Z:	0.046	yaw:	-0.829	yaw rate:	-5.288	Roll:	0.278	Pitch:	0.559	Yaw:	-1.133	Thrust:	100.000
Time:	2.515	Roll Set Point:	-0.018	Pitch Set Point:	-0.024	Yaw Set Point:	0.014	X_WP:	0.000	Y_WP:	0.000	Y_WP:	0.750	X:	0.009	Y:	0.012	Z:	0.046	yaw:	-0.795	yaw rate:	-3.396	Roll:	0.305	Pitch:	0.405	Yaw:	-1.451	Thrust:	100.000
Time:	2.537	Roll Set Point:	-0.018	Pitch Set Point:	-0.023	Yaw Set Point:	0.015	X_WP:	0.000	Y_WP:	0.000	Y_WP:	0.750	X:	0.009	Y:	0.012	Z:	0.046	yaw:	-0.864	yaw rate:	6.906	Roll:	0.355	Pitch:	0.291	Yaw:	-2.853	Thrust:	100.000
Time:	2.555	Roll Set Point:	-0.018	Pitch Set Point:	-0.023	Yaw Set Point:	0.015	X_WP:	0.000	Y_WP:	0.000	Y_WP:	0.750	X:	0.009	Y:	0.012	Z:	0.046	yaw:	-0.885	yaw rate:	2.068	Roll:	0.265	Pitch:	0.410	Yaw:	-2.213	Thrust:	100.000
Time:	2.574	Roll Set Point:	-0.018	Pitch Set Point:	-0.023	Yaw Set Point:	0.014	X_WP:	0.000	Y_WP:	0.000	Y_WP:	0.750	X:	0.009	Y:	0.012	Z:	0.046	yaw:	-0.775	yaw rate:	-11.008	Roll:	0.307	Pitch:	0.541	Yaw:	-0.349	Thrust:	100.000
Time:	2.595	Roll Set Point:	-0.018	Pitch Set Point:	-0.024	Yaw Set Point:	0.014	X_WP:	0.000	Y_WP:	0.000	Y_WP:	0.750	X:	0.009	Y:	0.012	Z:	0.046	yaw:	-0.822	yaw rate:	4.717	Roll:	0.293	Pitch:	0.463	Yaw:	-2.538	Thrust:	100.000
Time:	2.615	Roll Set Point:	-0.018	Pitch Set Point:	-0.023	Yaw Set Point:	0.016	X_WP:	0.000	Y_WP:	0.000	Y_WP:	0.750	X:	0.009	Y:	0.012	Z:	0.046	yaw:	-0.902	yaw rate:	7.997	Roll:	0.304	Pitch:	0.264	Yaw:	-3.084	Thrust:	100.000
Time:	2.636	Roll Set Point:	-0.018	Pitch Set Point:	-0.023	Yaw Set Point:	0.015	X_WP:	0.000	Y_WP:	0.000	Y_WP:	0.750	X:	0.009	Y:	0.012	Z:	0.046	yaw:	-0.867	yaw rate:	-3.502	Roll:	0.355	Pitch:	0.418	Yaw:	-1.614	Thrust:	100.000
Time:	2.655	Roll Set Point:	-0.018	Pitch Set Point:	-0.023	Yaw Set Point:	0.015	X_WP:	0.000	Y_WP:	0.000	Y_WP:	0.750	X:	0.009	Y:	0.012	Z:	0.046	yaw:	-0.870	yaw rate:	0.347	Roll:	0.306	Pitch:	0.408	Yaw:	-1.975	Thrust:	100.000
Time:	2.675	Roll Set Point:	-0.018	Pitch Set Point:	-0.023	Yaw Set Point:	0.015	X_WP:	0.000	Y_WP:	0.000	Y_WP:	0.750	X:	0.009	Y:	0.011	Z:	0.046	yaw:	-0.854	yaw rate:	-1.615	Roll:	0.300	Pitch:	0.377	Yaw:	-1.803	Thrust:	100.000
Time:	2.695	Roll Set Point:	-0.018	Pitch Set Point:	-0.023	Yaw Set Point:	0.015	X_WP:	0.000	Y_WP:	0.000	Y_WP:	0.750	X:	0.009	Y:	0.012	Z:	0.046	yaw:	-0.887	yaw rate:	3.240	Roll:	0.328	Pitch:	0.453	Yaw:	-2.443	Thrust:	100.000
Time:	2.715	Roll Set Point:	-0.018	Pitch Set Point:	-0.023	Yaw Set Point:	0.015	X_WP:	0.000	Y_WP:	0.000	Y_WP:	0.750	X:	0.009	Y:	0.012	Z:	0.046	yaw:	-0.880	yaw rate:	-0.707	Roll:	0.292	Pitch:	0.412	Yaw:	-1.991	Thrust:	100.000
Time:	2.739	Roll Set Point:	-0.018	Pitch Set Point:	-0.023	Yaw Set Point:	0.015	X_WP:	0.000	Y_WP:	0.000	Y_WP:	0.750	X:	0.009	Y:	0.011	Z:	0.046	yaw:	-0.857	yaw rate:	-2.294	Roll:	0.339	Pitch:	0.388	Yaw:	-1.893	Thrust:	100.000
Time:	2.755	Roll Set Point:	-0.018	Pitch Set Point:	-0.023	Yaw Set Point:	0.016	X_WP:	0.000	Y_WP:	0.000	Y_WP:	0.750	X:	0.009	Y:	0.012	Z:	0.046	yaw:	-0.890	yaw rate:	3.370	Roll:	0.286	Pitch:	0.479	Yaw:	-2.446	Thrust:	100.000
Time:	2.775	Roll Set Point:	-0.018	Pitch Set Point:	-0.023	Yaw Set Point:	0.016	X_WP:	0.000	Y_WP:	0.000	Y_WP:	0.750	X:	0.009	Y:	0.012	Z:	0.046	yaw:	-0.898	yaw rate:	0.815	Roll:	0.302	Pitch:	0.446	Yaw:	-2.187	Thrust:	100.000
Time:	2.795	Roll Set Point:	-0.017	Pitch Set Point:	-0.023	Yaw Set Point:	0.014	X_WP:	0.000	Y_WP:	0.000	Y_WP:	0.750	X:	0.009	Y:	0.011	Z:	0.047	yaw:	-0.818	yaw rate:	-8.069	Roll:	0.267	Pitch:	0.167	Yaw:	-0.940	Thrust:	100.000
Time:	2.815	Roll Set Point:	-0.017	Pitch Set Point:	-0.023	Yaw Set Point:	0.013	X_WP:	0.000	Y_WP:	0.000	Y_WP:	0.750	X:	0.009	Y:	0.011	Z:	0.047	yaw:	-0.735	yaw rate:	-8.313	Roll:	0.320	Pitch:	0.521	Yaw:	-0.781	Thrust:	100.000
Time:	2.837	Roll Set Point:	-0.018	Pitch Set Point:	-0.023	Yaw Set Point:	0.015	X_WP:	0.000	Y_WP:	0.000	Y_WP:	0.750	X:	0.009	Y:	0.012	Z:	0.046	yaw:	-0.887	yaw rate:	15.289	Roll:	0.364	Pitch:	0.524	Yaw:	-4.003	Thrust:	100.000
Time:	2.855	Roll Set Point:	-0.018	Pitch Set Point:	-0.023	Yaw Set Point:	0.015	X_WP:	0.000	Y_WP:	0.000	Y_WP:	0.750	X:	0.009	Y:	0.011	Z:	0.046	yaw:	-0.859	yaw rate:	-2.896	Roll:	0.323	Pitch:	0.357	Yaw:	-1.570	Thrust:	100.000
Time:	2.875	Roll Set Point:	-0.018	Pitch Set Point:	-0.023	Yaw Set Point:	0.016	X_WP:	0.000	Y_WP:	0.000	Y_WP:	0.750	X:	0.009	Y:	0.012	Z:	0.046	yaw:	-0.894	yaw rate:	3.552	Roll:	0.293	Pitch:	0.471	Yaw:	-2.557	Thrust:	100.000
Time:	2.895	Roll Set Point:	-0.018	Pitch Set Point:	-0.023	Yaw Set Point:	0.015	X_WP:	0.000	Y_WP:	0.000	Y_WP:	0.750	X:	0.009	Y:	0.012	Z:	0.046	yaw:	-0.864	yaw rate:	-2.957	Roll:	0.350	Pitch:	0.437	Yaw:	-1.690	Thrust:	100.000
Time:	2.916	Roll Set Point:	-0.018	Pitch Set Point:	-0.023	Yaw Set Point:	0.015	X_WP:	0.000	Y_WP:	0.000	Y_WP:	0.750	X:	0.009	Y:	0.011	Z:	0.046	yaw:	-0.837	yaw rate:	-2.734	Roll:	0.321	Pitch:	0.351	Yaw:	-1.719	Thrust:	100.000
Time:	2.938	Roll Set Point:	-0.018	Pitch Set Point:	-0.023	Yaw Set Point:	0.016	X_WP:	0.000	Y_WP:	0.000	Y_WP:	0.750	X:	0.009	Y:	0.012	Z:	0.046	yaw:	-0.895	yaw rate:	5.785	Roll:	0.281	Pitch:	0.467	Yaw:	-2.889	Thrust:	100.000
Time:	2.954	Roll Set Point:	-0.018	Pitch Set Point:	-0.023	Yaw Set Point:	0.015	X_WP:	0.000	Y_WP:	0.000	Y_WP:	0.750	X:	0.009	Y:	0.012	Z:	0.046	yaw:	-0.839	yaw rate:	-5.605	Roll:	0.329	Pitch:	0.429	Yaw:	-1.027	Thrust:	100.000
Time:	2.975	Roll Set Point:	-0.018	Pitch Set Point:	-0.023	Yaw Set Point:	0.015	X_WP:	0.000	Y_WP:	0.000	Y_WP:	0.750	X:	0.009	Y:	0.012	Z:	0.046	yaw:	-0.852	yaw rate:	1.273	Roll:	0.294	Pitch:	0.432	Yaw:	-2.278	Thrust:	100.000
Time:	2.995	Roll Set Point:	-0.018	Pitch Set Point:	-0.023	Yaw Set Point:	0.015	X_WP:	0.000	Y_WP:	0.000	Y_WP:	0.750	X:	0.009	Y:	0.012	Z:	0.046	yaw:	-0.863	yaw rate:	1.154	Roll:	0.363	Pitch:	0.406	Yaw:	-2.246	Thrust:	100.000
Time:	3.015	Roll Set Point:	-0.018	Pitch Set Point:	-0.023	Yaw Set Point:	0.015	X_WP:	0.000	Y_WP:	0.000	Y_WP:	0.750	X:	0.009	Y:	0.011	Z:	0.046	yaw:	-0.860	yaw rate:	-0.289	Roll:	0.323	Pitch:	0.410	Yaw:	-2.039	Thrust:	100.000
Time:	3.037	Roll Set Point:	-0.018	Pitch Set Point:	-0.024	Yaw Set Point:	0.013	X_WP:	0.000	Y_WP:	0.000	Y_WP:	0.750	X:	0.009	Y:	0.012	Z:	0.046	yaw:	-0.767	yaw rate:	-9.308	Roll:	0.275	Pitch:	0.587	Yaw:	-1.000	Thrust:	100.000
Time:	3.055	Roll Set Point:	-0.018	Pitch Set Point:	-0.023	Yaw Set Point:	0.015	X_WP:	0.000	Y_WP:	0.000	Y_WP:	0.750	X:	0.009	Y:	0.011	Z:	0.046	yaw:	-0.845	yaw rate:	7.743	Roll:	0.343	Pitch:	0.224	Yaw:	-3.123	Thrust:	100.000
Time:	3.075	Roll Set Point:	-0.018	Pitch Set Point:	-0.023	Yaw Set Point:	0.015	X_WP:	0.000	Y_WP:	0.000	Y_WP:	0.750	X:	0.009	Y:	0.012	Z:	0.046	yaw:	-0.874	yaw rate:	2.972	Roll:	0.374	Pitch:	0.463	Yaw:	-2.518	Thrust:	100.000
Time:	3.095	Roll Set Point:	-0.018	Pitch Set Point:	-0.023	Yaw Set Point:	0.015	X_WP:	0.000	Y_WP:	0.000	Y_WP:	0.750	X:	0.009	Y:	0.011	Z:	0.046	yaw:	-0.874	yaw rate:	0.013	Roll:	0.294	Pitch:	0.395	Yaw:	-2.127	Thrust:	100.000
Time:	3.116	Roll Set Point:	-0.018	Pitch Set Point:	-0.023	Yaw Set Point:	0.015	X_WP:	0.000	Y_WP:	0.000	Y_WP:	0.750	X:	0.009	Y:	0.012	Z:	0.046	yaw:	-0.879	yaw rate:	0.457	Roll:	0.291	Pitch:	0.446	Yaw:	-2.254	Thrust:	100.000
Time:	3.136	Roll Set Point:	-0.018	Pitch Set Point:	-0.023	Yaw Set Point:	0.015	X_WP:	0.000	Y_WP:	0.000	Y_WP:	0.750	X:	0.009	Y:	0.012	Z:	0.046	yaw:	-0.883	yaw rate:	0.443	Roll:	0.332	Pitch:	0.428	Yaw:	-2.248	Thrust:	100.000
Time:	3.154	Roll Set Point:	-0.018	Pitch Set Point:	-0.023	Yaw Set Point:	0.014	X_WP:	0.000	Y_WP:	0.000	Y_WP:	0.750	X:	0.009	Y:	0.012	Z:	0.046	yaw:	-0.828	yaw rate:	-5.525	Roll:	0.324	Pitch:	0.437	Yaw:	-1.192	Thrust:	100.000
Time:	3.175	Roll Set Point:	-0.018	Pitch Set Point:	-0.023	Yaw Set Point:	0.015	X_WP:	0.000	Y_WP:	0.000	Y_WP:	0.750	X:	0.009	Y:	0.011	Z:	0.046	yaw:	-0.841	yaw rate:	1.272	Roll:	0.338	Pitch:	0.400	Yaw:	-2.306	Thrust:	100.000
Time:	3.194	Roll Set Point:	-0.018	Pitch Set Point:	-0.023	Yaw Set Point:	0.015	X_WP:	0.000	Y_WP:	0.000	Y_WP:	0.750	X:	0.009	Y:	0.012	Z:	0.046	yaw:	-0.888	yaw rate:	4.666	Roll:	0.282	Pitch:	0.485	Yaw:	-2.780	Thrust:	100.000
Time:	3.214	Roll Set Point:	-0.018	Pitch Set Point:	-0.023	Yaw Set Point:	0.016	X_WP:	0.000	Y_WP:	0.000	Y_WP:	0.750	X:	0.009	Y:	0.012	Z:	0.046	yaw:	-0.894	yaw rate:	0.590	Roll:	0.334	Pitch:	0.406	Yaw:	-2.289	Thrust:	100.000
Time:	3.236	Roll Set Point:	-0.018	Pitch Set Point:	-0.023	Yaw Set Point:	0.015	X_WP:	0.000	Y_WP:	0.000	Y_WP:	0.750	X:	0.009	Y:	0.011	Z:	0.046	yaw:	-0.871	yaw rate:	-2.298	Roll:	0.341	Pitch:	0.409	Yaw:	-1.952	Thrust:	100.000
Time:	3.254	Roll Set Point:	-0.018	Pitch Set Point:	-0.023	Yaw Set Point:	0.015	X_WP:	0.000	Y_WP:	0.000	Y_WP:	0.750	X:	0.009	Y:	0.012	Z:	0.046	yaw:	-0.857	yaw rate:	-1.313	Roll:	0.315	Pitch:	0.444	Yaw:	-1.905	Thrust:	100.000
Time:	3.274	Roll Set Point:	-0.018	Pitch Set Point:	-0.023	Yaw Set Point:	0.015	X_WP:	0.000	Y_WP:	0.000	Y_WP:	0.750	X:	0.009	Y:	0.012	Z:	0.046	yaw:	-0.861	yaw rate:	0.311	Roll:	0.321	Pitch:	0.419	Yaw:	-2.218	Thrust:	100.000
Time:	3.294	Roll Set Point:	-0.018	Pitch Set Point:	-0.023	Yaw Set Point:	0.015	X_WP:	0.000	Y_WP:	0.000	Y_WP:	0.750	X:	0.009	Y:	0.011	Z:	0.046	yaw:	-0.876	yaw rate:	1.548	Roll:	0.327	Pitch:	0.432	Yaw:	-2.392	Thrust:	100.000
Time:	3.315	Roll Set Point:	-0.018	Pitch Set Point:	-0.023	Yaw Set Point:	0.014	X_WP:	0.000	Y_WP:	0.000	Y_WP:	0.750	X:	0.009	Y:	0.012	Z:	0.046	yaw:	-0.799	yaw rate:	-7.682	Roll:	0.307	Pitch:	0.583	Yaw:	-1.210	Thrust:	100.000
Time:	3.337	Roll Set Point:	-0.018	Pitch Set Point:	-0.023	Yaw Set Point:	0.015	X_WP:	0.000	Y_WP:	0.000	Y_WP:	0.750	X:	0.009	Y:	0.012	Z:	0.046	yaw:	-0.855	yaw rate:	5.542	Roll:	0.366	Pitch:	0.332	Yaw:	-2.920	Thrust:	100.000
Time:	3.355	Roll Set Point:	-0.018	Pitch Set Point:	-0.023	Yaw Set Point:	0.014	X_WP:	0.000	Y_WP:	0.000	Y_WP:	0.750	X:	0.009	Y:	0.012	Z:	0.046	yaw:	-0.795	yaw rate:	-5.990	Roll:	0.279	Pitch:	0.547	Yaw:	-1.262	Thrust:	100.000
Time:	3.374	Roll Set Point:	-0.018	Pitch Set Point:	-0.023	Yaw Set Point:	0.015	X_WP:	0.000	Y_WP:	0.000	Y_WP:	0.750	X:	0.009	Y:	0.012	Z:	0.046	yaw:	-0.866	yaw rate:	7.133	Roll:	0.331	Pitch:	0.290	Yaw:	-3.142	Thrust:	100.000
Time:	3.394	Roll Set Point:	-0.018	Pitch Set Point:	-0.023	Yaw Set Point:	0.015	X_WP:	0.000	Y_WP:	0.000	Y_WP:	0.750	X:	0.009	Y:	0.012	Z:	0.046	yaw:	-0.878	yaw rate:	1.176	Roll:	0.325	Pitch:	0.471	Yaw:	-2.381	Thrust:	100.000
Time:	3.414	Roll Set Point:	-0.018	Pitch Set Point:	-0.023	Yaw Set Point:	0.015	X_WP:	0.000	Y_WP:	0.000	Y_WP:	0.750	X:	0.009	Y:	0.012	Z:	0.046	yaw:	-0.867	yaw rate:	-1.064	Roll:	0.364	Pitch:	0.431	Yaw:	-2.114	Thrust:	100.000
Time:	3.436	Roll Set Point:	-0.018	Pitch Set Point:	-0.023	Yaw Set Point:	0.016	X_WP:	0.000	Y_WP:	0.000	Y_WP:	0.750	X:	0.009	Y:	0.012	Z:	0.046	yaw:	-0.897	yaw rate:	2.965	Roll:	0.313	Pitch:	0.446	Yaw:	-2.713	Thrust:	100.000
Time:	3.465	Roll Set Point:	-0.018	Pitch Set Point:	-0.023	Yaw Set Point:	0.015	X_WP:	0.000	Y_WP:	0.000	Y_WP:	0.750	X:	0.009	Y:	0.012	Z:	0.046	yaw:	-0.868	yaw rate:	-2.891	Roll:	0.359	Pitch:	0.463	Yaw:	-2.413	Thrust:	100.000
Time:	3.487	Roll Set Point:	-0.018	Pitch Set Point:	-0.023	Yaw Set Point:	0.015	X_WP:	0.000	Y_WP:	0.000	Y_WP:	0.750	X:	0.009	Y:	0.012	Z:	0.046	yaw:	-0.854	yaw rate:	-1.340	Roll:	0.359	Pitch:	0.446	Yaw:	-2.177	Thrust:	100.000
Time:	3.503	Roll Set Point:	-0.018	Pitch Set Point:	-0.024	Yaw Set Point:	0.014	X_WP:	0.000	Y_WP:	0.000	Y_WP:	0.750	X:	0.009	Y:	0.012	Z:	0.046	yaw:	-0.794	yaw rate:	-6.091	Roll:	0.262	Pitch:	0.614	Yaw:	-1.006	Thrust:	100.000
Time:	3.524	Roll Set Point:	-0.018	Pitch Set Point:	-0.023	Yaw Set Point:	0.014	X_WP:	0.000	Y_WP:	0.000	Y_WP:	0.750	X:	0.009	Y:	0.012	Z:	0.046	yaw:	-0.783	yaw rate:	-1.043	Roll:	0.323	Pitch:	0.431	Yaw:	-2.012	Thrust:	100.000
Time:	3.544	Roll Set Point:	-0.018	Pitch Set Point:	-0.023	Yaw Set Point:	0.015	X_WP:	0.000	Y_WP:	0.000	Y_WP:	0.750	X:	0.009	Y:	0.011	Z:	0.046	yaw:	-0.875	yaw rate:	9.216	Roll:	0.379	Pitch:	0.269	Yaw:	-3.479	Thrust:	100.000
Time:	3.563	Roll Set Point:	-0.018	Pitch Set Point:	-0.023	Yaw Set Point:	0.015	X_WP:	0.000	Y_WP:	0.000	Y_WP:	0.750	X:	0.009	Y:	0.012	Z:	0.046	yaw:	-0.886	yaw rate:	1.118	Roll:	0.297	Pitch:	0.470	Yaw:	-2.444	Thrust:	100.000
Time:	3.583	Roll Set Point:	-0.018	Pitch Set Point:	-0.023	Yaw Set Point:	0.016	X_WP:	0.000	Y_WP:	0.000	Y_WP:	0.750	X:	0.009	Y:	0.012	Z:	0.046	yaw:	-0.893	yaw rate:	0.640	Roll:	0.366	Pitch:	0.475	Yaw:	-2.379	Thrust:	100.000
Time:	3.604	Roll Set Point:	-0.018	Pitch Set Point:	-0.023	Yaw Set Point:	0.015	X_WP:	0.000	Y_WP:	0.000	Y_WP:	0.750	X:	0.009	Y:	0.011	Z:	0.046	yaw:	-0.838	yaw rate:	-5.533	Roll:	0.345	Pitch:	0.385	Yaw:	-1.536	Thrust:	100.000
Time:	3.623	Roll Set Point:	-0.018	Pitch Set Point:	-0.023	Yaw Set Point:	0.014	X_WP:	0.000	Y_WP:	0.000	Y_WP:	0.750	X:	0.009	Y:	0.012	Z:	0.046	yaw:	-0.812	yaw rate:	-2.561	Roll:	0.313	Pitch:	0.483	Yaw:	-1.853	Thrust:	100.000
Time:	3.644	Roll Set Point:	-0.018	Pitch Set Point:	-0.023	Yaw Set Point:	0.015	X_WP:	0.000	Y_WP:	0.000	Y_WP:	0.750	X:	0.009	Y:	0.012	Z:	0.046	yaw:	-0.882	yaw rate:	7.005	Roll:	0.309	Pitch:	0.446	Yaw:	-3.230	Thrust:	100.000
Time:	3.664	Roll Set Point:	-0.018	Pitch Set Point:	-0.024	Yaw Set Point:	0.014	X_WP:	0.000	Y_WP:	0.000	Y_WP:	0.750	X:	0.009	Y:	0.012	Z:	0.046	yaw:	-0.809	yaw rate:	-7.278	Roll:	0.309	Pitch:	0.590	Yaw:	-1.286	Thrust:	100.000
Time:	3.684	Roll Set Point:	-0.018	Pitch Set Point:	-0.023	Yaw Set Point:	0.015	X_WP:	0.000	Y_WP:	0.000	Y_WP:	0.750	X:	0.009	Y:	0.011	Z:	0.046	yaw:	-0.843	yaw rate:	3.328	Roll:	0.391	Pitch:	0.265	Yaw:	-2.691	Thrust:	100.000
Time:	3.706	Roll Set Point:	-0.018	Pitch Set Point:	-0.024	Yaw Set Point:	0.015	X_WP:	0.000	Y_WP:	0.000	Y_WP:	0.750	X:	0.009	Y:	0.012	Z:	0.046	yaw:	-0.848	yaw rate:	0.584	Roll:	0.283	Pitch:	0.645	Yaw:	-2.477	Thrust:	100.000
Time:	3.724	Roll Set Point:	-0.018	Pitch Set Point:	-0.023	Yaw Set Point:	0.015	X_WP:	0.000	Y_WP:	0.000	Y_WP:	0.750	X:	0.009	Y:	0.012	Z:	0.046	yaw:	-0.867	yaw rate:	1.914	Roll:	0.346	Pitch:	0.245	Yaw:	-2.500	Thrust:	100.000
Time:	3.744	Roll Set Point:	-0.018	Pitch Set Point:	-0.023	Yaw Set Point:	0.015	X_WP:	0.000	Y_WP:	0.000	Y_WP:	0.750	X:	0.009	Y:	0.012	Z:	0.046	yaw:	-0.860	yaw rate:	-0.699	Roll:	0.367	Pitch:	0.449	Yaw:	-2.192	Thrust:	100.000
Time:	3.763	Roll Set Point:	-0.018	Pitch Set Point:	-0.023	Yaw Set Point:	0.015	X_WP:	0.000	Y_WP:	0.000	Y_WP:	0.750	X:	0.009	Y:	0.012	Z:	0.046	yaw:	-0.853	yaw rate:	-0.753	Roll:	0.347	Pitch:	0.484	Yaw:	-2.178	Thrust:	100.000
Time:	3.784	Roll Set Point:	-0.018	Pitch Set Point:	-0.023	Yaw Set Point:	0.016	X_WP:	0.000	Y_WP:	0.000	Y_WP:	0.750	X:	0.009	Y:	0.012	Z:	0.046	yaw:	-0.910	yaw rate:	5.720	Roll:	0.300	Pitch:	0.436	Yaw:	-3.142	Thrust:	100.000
Time:	3.805	Roll Set Point:	-0.018	Pitch Set Point:	-0.023	Yaw Set Point:	0.015	X_WP:	0.000	Y_WP:	0.000	Y_WP:	0.750	X:	0.009	Y:	0.012	Z:	0.046	yaw:	-0.849	yaw rate:	-6.067	Roll:	0.351	Pitch:	0.429	Yaw:	-1.567	Thrust:	100.000
Time:	3.825	Roll Set Point:	-0.018	Pitch Set Point:	-0.023	Yaw Set Point:	0.015	X_WP:	0.000	Y_WP:	0.000	Y_WP:	0.750	X:	0.009	Y:	0.012	Z:	0.046	yaw:	-0.875	yaw rate:	2.528	Roll:	0.334	Pitch:	0.445	Yaw:	-2.703	Thrust:	100.000
Time:	3.844	Roll Set Point:	-0.018	Pitch Set Point:	-0.023	Yaw Set Point:	0.015	X_WP:	0.000	Y_WP:	0.000	Y_WP:	0.750	X:	0.009	Y:	0.012	Z:	0.046	yaw:	-0.865	yaw rate:	-1.019	Roll:	0.318	Pitch:	0.488	Yaw:	-2.165	Thrust:	100.000
Time:	3.864	Roll Set Point:	-0.018	Pitch Set Point:	-0.023	Yaw Set Point:	0.016	X_WP:	0.000	Y_WP:	0.000	Y_WP:	0.750	X:	0.009	Y:	0.012	Z:	0.046	yaw:	-0.895	yaw rate:	3.014	Roll:	0.341	Pitch:	0.418	Yaw:	-2.787	Thrust:	100.000
Time:	3.886	Roll Set Point:	-0.018	Pitch Set Point:	-0.023	Yaw Set Point:	0.015	X_WP:	0.000	Y_WP:	0.000	Y_WP:	0.750	X:	0.009	Y:	0.012	Z:	0.046	yaw:	-0.886	yaw rate:	-0.855	Roll:	0.348	Pitch:	0.450	Yaw:	-2.378	Thrust:	100.000
Time:	3.907	Roll Set Point:	-0.018	Pitch Set Point:	-0.023	Yaw Set Point:	0.015	X_WP:	0.000	Y_WP:	0.000	Y_WP:	0.750	X:	0.009	Y:	0.012	Z:	0.046	yaw:	-0.838	yaw rate:	-4.817	Roll:	0.336	Pitch:	0.469	Yaw:	-1.746	Thrust:	100.000
Time:	3.926	Roll Set Point:	-0.018	Pitch Set Point:	-0.023	Yaw Set Point:	0.015	X_WP:	0.000	Y_WP:	0.000	Y_WP:	0.750	X:	0.009	Y:	0.011	Z:	0.046	yaw:	-0.861	yaw rate:	2.264	Roll:	0.349	Pitch:	0.403	Yaw:	-2.640	Thrust:	100.000
Time:	3.946	Roll Set Point:	-0.018	Pitch Set Point:	-0.023	Yaw Set Point:	0.015	X_WP:	0.000	Y_WP:	0.000	Y_WP:	0.750	X:	0.009	Y:	0.012	Z:	0.046	yaw:	-0.883	yaw rate:	2.253	Roll:	0.335	Pitch:	0.492	Yaw:	-2.696	Thrust:	100.000
Time:	3.966	Roll Set Point:	-0.018	Pitch Set Point:	-0.023	Yaw Set Point:	0.016	X_WP:	0.000	Y_WP:	0.000	Y_WP:	0.750	X:	0.009	Y:	0.012	Z:	0.046	yaw:	-0.913	yaw rate:	2.935	Roll:	0.341	Pitch:	0.452	Yaw:	-2.836	Thrust:	100.000
Time:	3.986	Roll Set Point:	-0.018	Pitch Set Point:	-0.023	Yaw Set Point:	0.015	X_WP:	0.000	Y_WP:	0.000	Y_WP:	0.750	X:	0.009	Y:	0.012	Z:	0.046	yaw:	-0.877	yaw rate:	-3.588	Roll:	0.305	Pitch:	0.434	Yaw:	-1.924	Thrust:	100.000
Time:	4.007	Roll Set Point:	-0.018	Pitch Set Point:	-0.023	Yaw Set Point:	0.016	X_WP:	0.000	Y_WP:	0.000	Y_WP:	0.750	X:	0.009	Y:	0.012	Z:	0.046	yaw:	-0.903	yaw rate:	2.643	Roll:	0.358	Pitch:	0.485	Yaw:	-2.866	Thrust:	100.000
Time:	4.026	Roll Set Point:	-0.018	Pitch Set Point:	-0.023	Yaw Set Point:	0.015	X_WP:	0.000	Y_WP:	0.000	Y_WP:	0.750	X:	0.009	Y:	0.012	Z:	0.046	yaw:	-0.848	yaw rate:	-5.503	Roll:	0.361	Pitch:	0.443	Yaw:	-1.446	Thrust:	100.000
Time:	4.046	Roll Set Point:	-0.018	Pitch Set Point:	-0.023	Yaw Set Point:	0.014	X_WP:	0.000	Y_WP:	0.000	Y_WP:	0.750	X:	0.009	Y:	0.012	Z:	0.046	yaw:	-0.801	yaw rate:	-4.722	Roll:	0.318	Pitch:	0.584	Yaw:	-1.773	Thrust:	100.000
Time:	4.067	Roll Set Point:	-0.018	Pitch Set Point:	-0.023	Yaw Set Point:	0.015	X_WP:	0.000	Y_WP:	0.000	Y_WP:	0.750	X:	0.009	Y:	0.011	Z:	0.046	yaw:	-0.835	yaw rate:	3.387	Roll:	0.357	Pitch:	0.286	Yaw:	-2.816	Thrust:	100.000
Time:	4.085	Roll Set Point:	-0.018	Pitch Set Point:	-0.023	Yaw Set Point:	0.015	X_WP:	0.000	Y_WP:	0.000	Y_WP:	0.750	X:	0.009	Y:	0.012	Z:	0.046	yaw:	-0.870	yaw rate:	3.548	Roll:	0.341	Pitch:	0.491	Yaw:	-2.865	Thrust:	100.000
Time:	4.106	Roll Set Point:	-0.018	Pitch Set Point:	-0.023	Yaw Set Point:	0.015	X_WP:	0.000	Y_WP:	0.000	Y_WP:	0.750	X:	0.009	Y:	0.011	Z:	0.046	yaw:	-0.831	yaw rate:	-3.911	Roll:	0.383	Pitch:	0.416	Yaw:	-1.881	Thrust:	100.000
Time:	4.126	Roll Set Point:	-0.018	Pitch Set Point:	-0.023	Yaw Set Point:	0.016	X_WP:	0.000	Y_WP:	0.000	Y_WP:	0.750	X:	0.009	Y:	0.012	Z:	0.046	yaw:	-0.900	yaw rate:	6.876	Roll:	0.284	Pitch:	0.509	Yaw:	-3.385	Thrust:	100.000
Time:	4.146	Roll Set Point:	-0.018	Pitch Set Point:	-0.023	Yaw Set Point:	0.015	X_WP:	0.000	Y_WP:	0.000	Y_WP:	0.750	X:	0.009	Y:	0.012	Z:	0.046	yaw:	-0.860	yaw rate:	-3.964	Roll:	0.382	Pitch:	0.436	Yaw:	-1.929	Thrust:	100.000
Time:	4.165	Roll Set Point:	-0.018	Pitch Set Point:	-0.023	Yaw Set Point:	0.016	X_WP:	0.000	Y_WP:	0.000	Y_WP:	0.750	X:	0.009	Y:	0.012	Z:	0.046	yaw:	-0.891	yaw rate:	3.090	Roll:	0.302	Pitch:	0.489	Yaw:	-2.845	Thrust:	100.000
Time:	4.186	Roll Set Point:	-0.018	Pitch Set Point:	-0.023	Yaw Set Point:	0.015	X_WP:	0.000	Y_WP:	0.000	Y_WP:	0.750	X:	0.009	Y:	0.012	Z:	0.046	yaw:	-0.878	yaw rate:	-1.328	Roll:	0.344	Pitch:	0.443	Yaw:	-2.297	Thrust:	100.000
Time:	4.207	Roll Set Point:	-0.018	Pitch Set Point:	-0.023	Yaw Set Point:	0.016	X_WP:	0.000	Y_WP:	0.000	Y_WP:	0.750	X:	0.009	Y:	0.012	Z:	0.046	yaw:	-0.900	yaw rate:	2.216	Roll:	0.356	Pitch:	0.442	Yaw:	-2.845	Thrust:	100.000
Time:	4.226	Roll Set Point:	-0.018	Pitch Set Point:	-0.023	Yaw Set Point:	0.016	X_WP:	0.000	Y_WP:	0.000	Y_WP:	0.750	X:	0.009	Y:	0.012	Z:	0.046	yaw:	-0.889	yaw rate:	-1.086	Roll:	0.351	Pitch:	0.518	Yaw:	-2.316	Thrust:	100.000
Time:	4.246	Roll Set Point:	-0.018	Pitch Set Point:	-0.023	Yaw Set Point:	0.015	X_WP:	0.000	Y_WP:	0.000	Y_WP:	0.750	X:	0.009	Y:	0.012	Z:	0.046	yaw:	-0.872	yaw rate:	-1.714	Roll:	0.322	Pitch:	0.441	Yaw:	-2.223	Thrust:	100.000
Time:	4.268	Roll Set Point:	-0.018	Pitch Set Point:	-0.023	Yaw Set Point:	0.015	X_WP:	0.000	Y_WP:	0.000	Y_WP:	0.750	X:	0.009	Y:	0.012	Z:	0.046	yaw:	-0.862	yaw rate:	-1.019	Roll:	0.350	Pitch:	0.451	Yaw:	-2.425	Thrust:	100.000
Time:	4.285	Roll Set Point:	-0.018	Pitch Set Point:	-0.023	Yaw Set Point:	0.015	X_WP:	0.000	Y_WP:	0.000	Y_WP:	0.750	X:	0.009	Y:	0.012	Z:	0.046	yaw:	-0.854	yaw rate:	-0.824	Roll:	0.374	Pitch:	0.433	Yaw:	-2.271	Thrust:	100.000
Time:	4.307	Roll Set Point:	-0.018	Pitch Set Point:	-0.023	Yaw Set Point:	0.016	X_WP:	0.000	Y_WP:	0.000	Y_WP:	0.750	X:	0.009	Y:	0.012	Z:	0.046	yaw:	-0.894	yaw rate:	4.043	Roll:	0.324	Pitch:	0.513	Yaw:	-3.104	Thrust:	100.000
Time:	4.326	Roll Set Point:	-0.018	Pitch Set Point:	-0.023	Yaw Set Point:	0.015	X_WP:	0.000	Y_WP:	0.000	Y_WP:	0.750	X:	0.009	Y:	0.012	Z:	0.046	yaw:	-0.869	yaw rate:	-2.542	Roll:	0.360	Pitch:	0.437	Yaw:	-2.081	Thrust:	100.000
Time:	4.346	Roll Set Point:	-0.018	Pitch Set Point:	-0.023	Yaw Set Point:	0.015	X_WP:	0.000	Y_WP:	0.000	Y_WP:	0.750	X:	0.009	Y:	0.012	Z:	0.046	yaw:	-0.873	yaw rate:	0.478	Roll:	0.329	Pitch:	0.458	Yaw:	-2.610	Thrust:	100.000
Time:	4.365	Roll Set Point:	-0.018	Pitch Set Point:	-0.023	Yaw Set Point:	0.015	X_WP:	0.000	Y_WP:	0.000	Y_WP:	0.750	X:	0.009	Y:	0.012	Z:	0.046	yaw:	-0.881	yaw rate:	0.723	Roll:	0.368	Pitch:	0.452	Yaw:	-2.559	Thrust:	100.000
Time:	4.386	Roll Set Point:	-0.018	Pitch Set Point:	-0.023	Yaw Set Point:	0.016	X_WP:	0.000	Y_WP:	0.000	Y_WP:	0.750	X:	0.009	Y:	0.012	Z:	0.046	yaw:	-0.893	yaw rate:	1.282	Roll:	0.333	Pitch:	0.487	Yaw:	-2.751	Thrust:	100.000
Time:	4.406	Roll Set Point:	-0.018	Pitch Set Point:	-0.024	Yaw Set Point:	0.014	X_WP:	0.000	Y_WP:	0.000	Y_WP:	0.750	X:	0.009	Y:	0.012	Z:	0.046	yaw:	-0.787	yaw rate:	-10.611	Roll:	0.341	Pitch:	0.591	Yaw:	-1.028	Thrust:	100.000
Time:	4.426	Roll Set Point:	-0.018	Pitch Set Point:	-0.023	Yaw Set Point:	0.015	X_WP:	0.000	Y_WP:	0.000	Y_WP:	0.750	X:	0.009	Y:	0.011	Z:	0.046	yaw:	-0.868	yaw rate:	8.039	Roll:	0.354	Pitch:	0.284	Yaw:	-3.572	Thrust:	100.000
Time:	4.447	Roll Set Point:	-0.018	Pitch Set Point:	-0.023	Yaw Set Point:	0.014	X_WP:	0.000	Y_WP:	0.000	Y_WP:	0.750	X:	0.009	Y:	0.012	Z:	0.046	yaw:	-0.831	yaw rate:	-3.688	Roll:	0.384	Pitch:	0.491	Yaw:	-2.098	Thrust:	100.000
Time:	4.466	Roll Set Point:	-0.018	Pitch Set Point:	-0.023	Yaw Set Point:	0.015	X_WP:	0.000	Y_WP:	0.000	Y_WP:	0.750	X:	0.009	Y:	0.012	Z:	0.046	yaw:	-0.871	yaw rate:	3.988	Roll:	0.322	Pitch:	0.494	Yaw:	-3.039	Thrust:	100.000
Time:	4.487	Roll Set Point:	-0.018	Pitch Set Point:	-0.023	Yaw Set Point:	0.015	X_WP:	0.000	Y_WP:	0.000	Y_WP:	0.750	X:	0.009	Y:	0.011	Z:	0.046	yaw:	-0.884	yaw rate:	1.334	Roll:	0.368	Pitch:	0.445	Yaw:	-2.776	Thrust:	100.000
Time:	4.506	Roll Set Point:	-0.018	Pitch Set Point:	-0.023	Yaw Set Point:	0.015	X_WP:	0.000	Y_WP:	0.000	Y_WP:	0.750	X:	0.009	Y:	0.011	Z:	0.046	yaw:	-0.851	yaw rate:	-3.332	Roll:	0.367	Pitch:	0.440	Yaw:	-2.052	Thrust:	100.000
Time:	4.525	Roll Set Point:	-0.018	Pitch Set Point:	-0.023	Yaw Set Point:	0.016	X_WP:	0.000	Y_WP:	0.000	Y_WP:	0.750	X:	0.009	Y:	0.012	Z:	0.046	yaw:	-0.904	yaw rate:	5.288	Roll:	0.323	Pitch:	0.521	Yaw:	-3.283	Thrust:	100.000
Time:	4.546	Roll Set Point:	-0.018	Pitch Set Point:	-0.023	Yaw Set Point:	0.015	X_WP:	0.000	Y_WP:	0.000	Y_WP:	0.750	X:	0.009	Y:	0.012	Z:	0.046	yaw:	-0.876	yaw rate:	-2.704	Roll:	0.369	Pitch:	0.479	Yaw:	-2.262	Thrust:	100.000
Time:	4.566	Roll Set Point:	-0.018	Pitch Set Point:	-0.023	Yaw Set Point:	0.015	X_WP:	0.000	Y_WP:	0.000	Y_WP:	0.750	X:	0.009	Y:	0.012	Z:	0.046	yaw:	-0.864	yaw rate:	-1.295	Roll:	0.370	Pitch:	0.456	Yaw:	-2.371	Thrust:	100.000
Time:	4.586	Roll Set Point:	-0.018	Pitch Set Point:	-0.023	Yaw Set Point:	0.015	X_WP:	0.000	Y_WP:	0.000	Y_WP:	0.750	X:	0.009	Y:	0.012	Z:	0.046	yaw:	-0.874	yaw rate:	1.087	Roll:	0.350	Pitch:	0.461	Yaw:	-2.731	Thrust:	100.000
Time:	4.608	Roll Set Point:	-0.018	Pitch Set Point:	-0.023	Yaw Set Point:	0.015	X_WP:	0.000	Y_WP:	0.000	Y_WP:	0.750	X:	0.009	Y:	0.012	Z:	0.046	yaw:	-0.869	yaw rate:	-0.559	Roll:	0.356	Pitch:	0.513	Yaw:	-2.662	Thrust:	100.000
Time:	4.625	Roll Set Point:	-0.018	Pitch Set Point:	-0.023	Yaw Set Point:	0.015	X_WP:	0.000	Y_WP:	0.000	Y_WP:	0.750	X:	0.009	Y:	0.012	Z:	0.046	yaw:	-0.852	yaw rate:	-1.684	Roll:	0.316	Pitch:	0.418	Yaw:	-2.102	Thrust:	100.000
Time:	4.645	Roll Set Point:	-0.018	Pitch Set Point:	-0.023	Yaw Set Point:	0.015	X_WP:	0.000	Y_WP:	0.000	Y_WP:	0.750	X:	0.009	Y:	0.012	Z:	0.046	yaw:	-0.871	yaw rate:	1.921	Roll:	0.360	Pitch:	0.485	Yaw:	-2.842	Thrust:	100.000
Time:	4.673	Roll Set Point:	-0.018	Pitch Set Point:	-0.024	Yaw Set Point:	0.014	X_WP:	0.000	Y_WP:	0.000	Y_WP:	0.750	X:	0.009	Y:	0.012	Z:	0.046	yaw:	-0.787	yaw rate:	-8.447	Roll:	0.385	Pitch:	0.632	Yaw:	-2.276	Thrust:	100.000
Time:	4.685	Roll Set Point:	-0.018	Pitch Set Point:	-0.023	Yaw Set Point:	0.015	X_WP:	0.000	Y_WP:	0.000	Y_WP:	0.750	X:	0.009	Y:	0.012	Z:	0.046	yaw:	-0.865	yaw rate:	7.848	Roll:	0.341	Pitch:	0.189	Yaw:	-3.750	Thrust:	100.000
Time:	4.705	Roll Set Point:	-0.018	Pitch Set Point:	-0.023	Yaw Set Point:	0.015	X_WP:	0.000	Y_WP:	0.000	Y_WP:	0.750	X:	0.009	Y:	0.011	Z:	0.046	yaw:	-0.864	yaw rate:	-0.161	Roll:	0.361	Pitch:	0.415	Yaw:	-2.606	Thrust:	100.000
Time:	4.724	Roll Set Point:	-0.018	Pitch Set Point:	-0.023	Yaw Set Point:	0.015	X_WP:	0.000	Y_WP:	0.000	Y_WP:	0.750	X:	0.009	Y:	0.012	Z:	0.046	yaw:	-0.868	yaw rate:	0.433	Roll:	0.343	Pitch:	0.572	Yaw:	-2.602	Thrust:	100.000
Time:	4.746	Roll Set Point:	-0.018	Pitch Set Point:	-0.023	Yaw Set Point:	0.015	X_WP:	0.000	Y_WP:	0.000	Y_WP:	0.750	X:	0.009	Y:	0.012	Z:	0.046	yaw:	-0.850	yaw rate:	-1.760	Roll:	0.377	Pitch:	0.451	Yaw:	-2.423	Thrust:	100.000
Time:	4.775	Roll Set Point:	-0.018	Pitch Set Point:	-0.023	Yaw Set Point:	0.015	X_WP:	0.000	Y_WP:	0.000	Y_WP:	0.750	X:	0.009	Y:	0.011	Z:	0.046	yaw:	-0.865	yaw rate:	1.505	Roll:	0.338	Pitch:	0.436	Yaw:	-3.449	Thrust:	100.000
Time:	4.788	Roll Set Point:	-0.018	Pitch Set Point:	-0.023	Yaw Set Point:	0.015	X_WP:	0.000	Y_WP:	0.000	Y_WP:	0.750	X:	0.009	Y:	0.012	Z:	0.046	yaw:	-0.875	yaw rate:	0.999	Roll:	0.347	Pitch:	0.506	Yaw:	-2.348	Thrust:	100.000
Time:	4.807	Roll Set Point:	-0.018	Pitch Set Point:	-0.023	Yaw Set Point:	0.015	X_WP:	0.000	Y_WP:	0.000	Y_WP:	0.750	X:	0.009	Y:	0.012	Z:	0.046	yaw:	-0.861	yaw rate:	-1.474	Roll:	0.389	Pitch:	0.470	Yaw:	-2.360	Thrust:	100.000
Time:	4.826	Roll Set Point:	-0.018	Pitch Set Point:	-0.023	Yaw Set Point:	0.015	X_WP:	0.000	Y_WP:	0.000	Y_WP:	0.750	X:	0.009	Y:	0.012	Z:	0.046	yaw:	-0.875	yaw rate:	1.420	Roll:	0.348	Pitch:	0.495	Yaw:	-2.779	Thrust:	100.000
Time:	4.846	Roll Set Point:	-0.018	Pitch Set Point:	-0.023	Yaw Set Point:	0.014	X_WP:	0.000	Y_WP:	0.000	Y_WP:	0.750	X:	0.009	Y:	0.012	Z:	0.046	yaw:	-0.825	yaw rate:	-4.998	Roll:	0.352	Pitch:	0.444	Yaw:	-1.893	Thrust:	100.000
Time:	4.866	Roll Set Point:	-0.018	Pitch Set Point:	-0.023	Yaw Set Point:	0.015	X_WP:	0.000	Y_WP:	0.000	Y_WP:	0.750	X:	0.009	Y:	0.012	Z:	0.046	yaw:	-0.876	yaw rate:	5.085	Roll:	0.357	Pitch:	0.532	Yaw:	-3.338	Thrust:	100.000
Time:	4.887	Roll Set Point:	-0.018	Pitch Set Point:	-0.023	Yaw Set Point:	0.015	X_WP:	0.000	Y_WP:	0.000	Y_WP:	0.750	X:	0.009	Y:	0.012	Z:	0.046	yaw:	-0.855	yaw rate:	-2.079	Roll:	0.365	Pitch:	0.452	Yaw:	-2.428	Thrust:	100.000
Time:	4.906	Roll Set Point:	-0.018	Pitch Set Point:	-0.023	Yaw Set Point:	0.015	X_WP:	0.000	Y_WP:	0.000	Y_WP:	0.750	X:	0.009	Y:	0.012	Z:	0.046	yaw:	-0.885	yaw rate:	3.058	Roll:	0.356	Pitch:	0.476	Yaw:	-3.034	Thrust:	100.000
Time:	4.926	Roll Set Point:	-0.018	Pitch Set Point:	-0.023	Yaw Set Point:	0.015	X_WP:	0.000	Y_WP:	0.000	Y_WP:	0.750	X:	0.009	Y:	0.012	Z:	0.046	yaw:	-0.872	yaw rate:	-1.360	Roll:	0.362	Pitch:	0.470	Yaw:	-2.556	Thrust:	100.000
Time:	4.946	Roll Set Point:	-0.018	Pitch Set Point:	-0.023	Yaw Set Point:	0.015	X_WP:	0.000	Y_WP:	0.000	Y_WP:	0.750	X:	0.009	Y:	0.011	Z:	0.046	yaw:	-0.843	yaw rate:	-2.896	Roll:	0.367	Pitch:	0.455	Yaw:	-2.341	Thrust:	100.000
Time:	4.967	Roll Set Point:	-0.018	Pitch Set Point:	-0.023	Yaw Set Point:	0.015	X_WP:	0.000	Y_WP:	0.000	Y_WP:	0.750	X:	0.009	Y:	0.012	Z:	0.046	yaw:	-0.887	yaw rate:	4.395	Roll:	0.343	Pitch:	0.522	Yaw:	-3.252	Thrust:	100.000
Time:	4.986	Roll Set Point:	-0.018	Pitch Set Point:	-0.023	Yaw Set Point:	0.015	X_WP:	0.000	Y_WP:	0.000	Y_WP:	0.750	X:	0.009	Y:	0.012	Z:	0.046	yaw:	-0.846	yaw rate:	-4.126	Roll:	0.384	Pitch:	0.474	Yaw:	-2.098	Thrust:	100.000
Time:	5.007	Roll Set Point:	-0.018	Pitch Set Point:	-0.023	Yaw Set Point:	0.015	X_WP:	0.000	Y_WP:	0.000	Y_WP:	0.750	X:	0.009	Y:	0.012	Z:	0.046	yaw:	-0.875	yaw rate:	2.939	Roll:	0.380	Pitch:	0.507	Yaw:	-3.165	Thrust:	100.000
Time:	5.026	Roll Set Point:	-0.018	Pitch Set Point:	-0.023	Yaw Set Point:	0.015	X_WP:	0.000	Y_WP:	0.000	Y_WP:	0.750	X:	0.009	Y:	0.012	Z:	0.046	yaw:	-0.885	yaw rate:	0.962	Roll:	0.338	Pitch:	0.450	Yaw:	-2.801	Thrust:	100.000
Time:	5.048	Roll Set Point:	-0.018	Pitch Set Point:	-0.023	Yaw Set Point:	0.015	X_WP:	0.000	Y_WP:	0.000	Y_WP:	0.750	X:	0.009	Y:	0.012	Z:	0.046	yaw:	-0.868	yaw rate:	-1.637	Roll:	0.362	Pitch:	0.500	Yaw:	-2.590	Thrust:	100.000
Time:	5.070	Roll Set Point:	-0.018	Pitch Set Point:	-0.023	Yaw Set Point:	0.015	X_WP:	0.000	Y_WP:	0.000	Y_WP:	0.750	X:	0.009	Y:	0.012	Z:	0.046	yaw:	-0.871	yaw rate:	0.303	Roll:	0.365	Pitch:	0.479	Yaw:	-2.839	Thrust:	100.000
Time:	5.087	Roll Set Point:	-0.018	Pitch Set Point:	-0.023	Yaw Set Point:	0.015	X_WP:	0.000	Y_WP:	0.000	Y_WP:	0.750	X:	0.009	Y:	0.012	Z:	0.046	yaw:	-0.874	yaw rate:	0.230	Roll:	0.357	Pitch:	0.491	Yaw:	-2.649	Thrust:	100.000
Time:	5.109	Roll Set Point:	-0.018	Pitch Set Point:	-0.023	Yaw Set Point:	0.015	X_WP:	0.000	Y_WP:	0.000	Y_WP:	0.750	X:	0.009	Y:	0.012	Z:	0.046	yaw:	-0.850	yaw rate:	-2.382	Roll:	0.376	Pitch:	0.481	Yaw:	-2.541	Thrust:	100.000
Time:	5.128	Roll Set Point:	-0.018	Pitch Set Point:	-0.023	Yaw Set Point:	0.016	X_WP:	0.000	Y_WP:	0.000	Y_WP:	0.750	X:	0.009	Y:	0.012	Z:	0.046	yaw:	-0.895	yaw rate:	4.525	Roll:	0.346	Pitch:	0.489	Yaw:	-3.347	Thrust:	100.000
Time:	5.148	Roll Set Point:	-0.018	Pitch Set Point:	-0.023	Yaw Set Point:	0.015	X_WP:	0.000	Y_WP:	0.000	Y_WP:	0.750	X:	0.009	Y:	0.012	Z:	0.046	yaw:	-0.864	yaw rate:	-3.063	Roll:	0.375	Pitch:	0.476	Yaw:	-2.311	Thrust:	100.000
Time:	5.169	Roll Set Point:	-0.018	Pitch Set Point:	-0.023	Yaw Set Point:	0.015	X_WP:	0.000	Y_WP:	0.000	Y_WP:	0.750	X:	0.009	Y:	0.011	Z:	0.046	yaw:	-0.853	yaw rate:	-1.110	Roll:	0.324	Pitch:	0.462	Yaw:	-2.635	Thrust:	100.000
Time:	5.188	Roll Set Point:	-0.018	Pitch Set Point:	-0.023	Yaw Set Point:	0.015	X_WP:	0.000	Y_WP:	0.000	Y_WP:	0.750	X:	0.009	Y:	0.012	Z:	0.046	yaw:	-0.867	yaw rate:	1.383	Roll:	0.366	Pitch:	0.514	Yaw:	-2.874	Thrust:	100.000
Time:	5.208	Roll Set Point:	-0.018	Pitch Set Point:	-0.023	Yaw Set Point:	0.015	X_WP:	0.000	Y_WP:	0.000	Y_WP:	0.750	X:	0.009	Y:	0.012	Z:	0.046	yaw:	-0.871	yaw rate:	0.421	Roll:	0.409	Pitch:	0.483	Yaw:	-2.864	Thrust:	100.000
Time:	5.227	Roll Set Point:	-0.018	Pitch Set Point:	-0.023	Yaw Set Point:	0.014	X_WP:	0.000	Y_WP:	0.000	Y_WP:	0.750	X:	0.009	Y:	0.012	Z:	0.046	yaw:	-0.826	yaw rate:	-4.514	Roll:	0.391	Pitch:	0.481	Yaw:	-2.015	Thrust:	100.000
Time:	5.248	Roll Set Point:	-0.018	Pitch Set Point:	-0.023	Yaw Set Point:	0.016	X_WP:	0.000	Y_WP:	0.000	Y_WP:	0.750	X:	0.009	Y:	0.012	Z:	0.046	yaw:	-0.893	yaw rate:	6.650	Roll:	0.332	Pitch:	0.510	Yaw:	-3.676	Thrust:	100.000
Time:	5.269	Roll Set Point:	-0.018	Pitch Set Point:	-0.023	Yaw Set Point:	0.015	X_WP:	0.000	Y_WP:	0.000	Y_WP:	0.750	X:	0.009	Y:	0.012	Z:	0.046	yaw:	-0.833	yaw rate:	-5.946	Roll:	0.375	Pitch:	0.498	Yaw:	-2.074	Thrust:	100.000
Time:	5.288	Roll Set Point:	-0.018	Pitch Set Point:	-0.023	Yaw Set Point:	0.015	X_WP:	0.000	Y_WP:	0.000	Y_WP:	0.750	X:	0.009	Y:	0.012	Z:	0.046	yaw:	-0.857	yaw rate:	2.382	Roll:	0.399	Pitch:	0.491	Yaw:	-3.103	Thrust:	100.000
Time:	5.308	Roll Set Point:	-0.018	Pitch Set Point:	-0.023	Yaw Set Point:	0.015	X_WP:	0.000	Y_WP:	0.000	Y_WP:	0.750	X:	0.009	Y:	0.012	Z:	0.046	yaw:	-0.866	yaw rate:	0.856	Roll:	0.326	Pitch:	0.479	Yaw:	-2.868	Thrust:	100.000
Time:	5.327	Roll Set Point:	-0.018	Pitch Set Point:	-0.023	Yaw Set Point:	0.015	X_WP:	0.000	Y_WP:	0.000	Y_WP:	0.750	X:	0.009	Y:	0.012	Z:	0.046	yaw:	-0.856	yaw rate:	-0.960	Roll:	0.383	Pitch:	0.503	Yaw:	-2.577	Thrust:	100.000
Time:	5.353	Roll Set Point:	-0.018	Pitch Set Point:	-0.023	Yaw Set Point:	0.015	X_WP:	0.000	Y_WP:	0.000	Y_WP:	0.750	X:	0.009	Y:	0.011	Z:	0.046	yaw:	-0.867	yaw rate:	1.092	Roll:	0.402	Pitch:	0.504	Yaw:	-3.429	Thrust:	100.000
Time:	5.369	Roll Set Point:	-0.018	Pitch Set Point:	-0.023	Yaw Set Point:	0.015	X_WP:	0.000	Y_WP:	0.000	Y_WP:	0.750	X:	0.009	Y:	0.012	Z:	0.046	yaw:	-0.845	yaw rate:	-2.214	Roll:	0.347	Pitch:	0.490	Yaw:	-2.005	Thrust:	100.000
