Time:	0.038	Roll Set Point:	-0.034	Pitch Set Point:	-0.031	Yaw Set Point:	-0.054	X_WP:	0.000	Y_WP:	0.000	Y_WP:	0.000	X:	0.017	Y:	0.016	Z:	0.052	yaw:	3.108	yaw rate:	-1.205	Roll:	0.510	Pitch:	0.439	Yaw:	4.339	Thrust:	0.000
Time:	0.062	Roll Set Point:	-0.034	Pitch Set Point:	-0.031	Yaw Set Point:	-0.053	X_WP:	0.000	Y_WP:	0.000	Y_WP:	0.000	X:	0.017	Y:	0.016	Z:	0.052	yaw:	3.061	yaw rate:	4.639	Roll:	0.494	Pitch:	0.418	Yaw:	3.783	Thrust:	0.000
Time:	0.078	Roll Set Point:	-0.034	Pitch Set Point:	-0.031	Yaw Set Point:	-0.053	X_WP:	0.000	Y_WP:	0.000	Y_WP:	0.000	X:	0.017	Y:	0.016	Z:	0.052	yaw:	3.053	yaw rate:	0.852	Roll:	0.503	Pitch:	0.439	Yaw:	4.154	Thrust:	0.000
Time:	0.098	Roll Set Point:	-0.034	Pitch Set Point:	-0.031	Yaw Set Point:	-0.053	X_WP:	0.000	Y_WP:	0.000	Y_WP:	0.000	X:	0.017	Y:	0.016	Z:	0.052	yaw:	3.029	yaw rate:	2.414	Roll:	0.581	Pitch:	0.568	Yaw:	3.978	Thrust:	0.000
Time:	0.123	Roll Set Point:	-0.034	Pitch Set Point:	-0.031	Yaw Set Point:	-0.054	X_WP:	0.000	Y_WP:	0.000	Y_WP:	0.000	X:	0.017	Y:	0.016	Z:	0.052	yaw:	3.076	yaw rate:	-4.796	Roll:	0.470	Pitch:	0.351	Yaw:	4.911	Thrust:	0.000
Time:	0.138	Roll Set Point:	-0.034	Pitch Set Point:	-0.031	Yaw Set Point:	-0.053	X_WP:	0.000	Y_WP:	0.000	Y_WP:	0.000	X:	0.017	Y:	0.016	Z:	0.052	yaw:	3.041	yaw rate:	3.541	Roll:	0.601	Pitch:	0.593	Yaw:	3.720	Thrust:	0.000
Time:	0.158	Roll Set Point:	-0.034	Pitch Set Point:	-0.031	Yaw Set Point:	-0.054	X_WP:	0.000	Y_WP:	0.000	Y_WP:	0.000	X:	0.017	Y:	0.016	Z:	0.052	yaw:	3.107	yaw rate:	-6.585	Roll:	0.438	Pitch:	0.326	Yaw:	5.320	Thrust:	0.000
Time:	0.179	Roll Set Point:	-0.034	Pitch Set Point:	-0.031	Yaw Set Point:	-0.054	X_WP:	0.000	Y_WP:	0.000	Y_WP:	0.000	X:	0.017	Y:	0.016	Z:	0.052	yaw:	3.088	yaw rate:	1.895	Roll:	0.535	Pitch:	0.445	Yaw:	4.226	Thrust:	0.000
Time:	0.198	Roll Set Point:	-0.034	Pitch Set Point:	-0.031	Yaw Set Point:	-0.053	X_WP:	0.000	Y_WP:	0.000	Y_WP:	0.000	X:	0.017	Y:	0.016	Z:	0.052	yaw:	3.030	yaw rate:	5.776	Roll:	0.567	Pitch:	0.561	Yaw:	3.591	Thrust:	0.000
Time:	0.218	Roll Set Point:	-0.034	Pitch Set Point:	-0.031	Yaw Set Point:	-0.053	X_WP:	0.000	Y_WP:	0.000	Y_WP:	0.000	X:	0.017	Y:	0.016	Z:	0.052	yaw:	3.050	yaw rate:	-1.946	Roll:	0.455	Pitch:	0.345	Yaw:	4.704	Thrust:	0.000
Time:	0.237	Roll Set Point:	-0.034	Pitch Set Point:	-0.031	Yaw Set Point:	-0.056	X_WP:	0.000	Y_WP:	0.000	Y_WP:	0.000	X:	0.017	Y:	0.016	Z:	0.052	yaw:	3.196	yaw rate:	-14.603	Roll:	0.536	Pitch:	0.447	Yaw:	6.612	Thrust:	0.000
Time:	0.261	Roll Set Point:	-0.034	Pitch Set Point:	-0.031	Yaw Set Point:	-0.054	X_WP:	0.000	Y_WP:	0.000	Y_WP:	0.000	X:	0.017	Y:	0.016	Z:	0.052	yaw:	3.122	yaw rate:	7.395	Roll:	0.495	Pitch:	0.457	Yaw:	3.770	Thrust:	0.000
Time:	0.279	Roll Set Point:	-0.034	Pitch Set Point:	-0.031	Yaw Set Point:	-0.054	X_WP:	0.000	Y_WP:	0.000	Y_WP:	0.000	X:	0.017	Y:	0.016	Z:	0.052	yaw:	3.093	yaw rate:	2.834	Roll:	0.543	Pitch:	0.430	Yaw:	4.141	Thrust:	0.000
Time:	0.298	Roll Set Point:	-0.034	Pitch Set Point:	-0.031	Yaw Set Point:	-0.054	X_WP:	0.000	Y_WP:	0.000	Y_WP:	0.000	X:	0.017	Y:	0.016	Z:	0.052	yaw:	3.110	yaw rate:	-1.674	Roll:	0.534	Pitch:	0.447	Yaw:	4.840	Thrust:	0.000
Time:	0.323	Roll Set Point:	-0.034	Pitch Set Point:	-0.031	Yaw Set Point:	-0.053	X_WP:	0.000	Y_WP:	0.000	Y_WP:	0.000	X:	0.017	Y:	0.016	Z:	0.052	yaw:	3.023	yaw rate:	8.750	Roll:	0.563	Pitch:	0.545	Yaw:	3.657	Thrust:	0.000
Time:	0.338	Roll Set Point:	-0.034	Pitch Set Point:	-0.031	Yaw Set Point:	-0.053	X_WP:	0.000	Y_WP:	0.000	Y_WP:	0.000	X:	0.017	Y:	0.016	Z:	0.052	yaw:	3.038	yaw rate:	-1.496	Roll:	0.433	Pitch:	0.328	Yaw:	4.744	Thrust:	0.000
Time:	0.358	Roll Set Point:	-0.034	Pitch Set Point:	-0.031	Yaw Set Point:	-0.054	X_WP:	0.000	Y_WP:	0.000	Y_WP:	0.000	X:	0.017	Y:	0.016	Z:	0.052	yaw:	3.117	yaw rate:	-7.979	Roll:	0.527	Pitch:	0.439	Yaw:	5.730	Thrust:	0.000
Time:	0.380	Roll Set Point:	-0.034	Pitch Set Point:	-0.031	Yaw Set Point:	-0.054	X_WP:	0.000	Y_WP:	0.000	Y_WP:	0.000	X:	0.017	Y:	0.016	Z:	0.052	yaw:	3.107	yaw rate:	0.997	Roll:	0.574	Pitch:	0.451	Yaw:	4.617	Thrust:	0.000
Time:	0.398	Roll Set Point:	-0.034	Pitch Set Point:	-0.031	Yaw Set Point:	-0.054	X_WP:	0.000	Y_WP:	0.000	Y_WP:	0.000	X:	0.017	Y:	0.016	Z:	0.052	yaw:	3.067	yaw rate:	4.016	Roll:	0.521	Pitch:	0.599	Yaw:	4.075	Thrust:	0.000
Time:	0.418	Roll Set Point:	-0.034	Pitch Set Point:	-0.031	Yaw Set Point:	-0.054	X_WP:	0.000	Y_WP:	0.000	Y_WP:	0.000	X:	0.017	Y:	0.016	Z:	0.052	yaw:	3.083	yaw rate:	-1.574	Roll:	0.491	Pitch:	0.342	Yaw:	4.916	Thrust:	0.000
Time:	0.437	Roll Set Point:	-0.034	Pitch Set Point:	-0.031	Yaw Set Point:	-0.054	X_WP:	0.000	Y_WP:	0.000	Y_WP:	0.000	X:	0.017	Y:	0.016	Z:	0.052	yaw:	3.109	yaw rate:	-2.583	Roll:	0.540	Pitch:	0.447	Yaw:	5.107	Thrust:	0.000
Time:	0.461	Roll Set Point:	-0.034	Pitch Set Point:	-0.031	Yaw Set Point:	-0.055	X_WP:	0.000	Y_WP:	0.000	Y_WP:	0.000	X:	0.017	Y:	0.016	Z:	0.052	yaw:	3.155	yaw rate:	-4.581	Roll:	0.513	Pitch:	0.465	Yaw:	5.446	Thrust:	0.000
Time:	0.478	Roll Set Point:	-0.034	Pitch Set Point:	-0.031	Yaw Set Point:	-0.054	X_WP:	0.000	Y_WP:	0.000	Y_WP:	0.000	X:	0.017	Y:	0.016	Z:	0.052	yaw:	3.100	yaw rate:	5.500	Roll:	0.536	Pitch:	0.422	Yaw:	3.887	Thrust:	0.000
Time:	0.498	Roll Set Point:	-0.034	Pitch Set Point:	-0.031	Yaw Set Point:	-0.055	X_WP:	0.000	Y_WP:	0.000	Y_WP:	0.000	X:	0.017	Y:	0.016	Z:	0.052	yaw:	3.130	yaw rate:	-3.066	Roll:	0.539	Pitch:	0.469	Yaw:	5.267	Thrust:	0.000
Time:	0.523	Roll Set Point:	-0.034	Pitch Set Point:	-0.031	Yaw Set Point:	-0.054	X_WP:	0.000	Y_WP:	0.000	Y_WP:	0.000	X:	0.017	Y:	0.016	Z:	0.052	yaw:	3.070	yaw rate:	6.024	Roll:	0.526	Pitch:	0.470	Yaw:	4.287	Thrust:	0.000
Time:	0.538	Roll Set Point:	-0.034	Pitch Set Point:	-0.031	Yaw Set Point:	-0.055	X_WP:	0.000	Y_WP:	0.000	Y_WP:	0.000	X:	0.017	Y:	0.016	Z:	0.052	yaw:	3.131	yaw rate:	-6.134	Roll:	0.534	Pitch:	0.471	Yaw:	5.829	Thrust:	0.000
Time:	0.558	Roll Set Point:	-0.034	Pitch Set Point:	-0.031	Yaw Set Point:	-0.054	X_WP:	0.000	Y_WP:	0.000	Y_WP:	0.000	X:	0.017	Y:	0.016	Z:	0.052	yaw:	3.091	yaw rate:	4.041	Roll:	0.528	Pitch:	0.435	Yaw:	4.323	Thrust:	0.000
Time:	0.579	Roll Set Point:	-0.034	Pitch Set Point:	-0.031	Yaw Set Point:	-0.054	X_WP:	0.000	Y_WP:	0.000	Y_WP:	0.000	X:	0.017	Y:	0.016	Z:	0.052	yaw:	3.076	yaw rate:	1.500	Roll:	0.548	Pitch:	0.465	Yaw:	4.726	Thrust:	0.000
Time:	0.597	Roll Set Point:	-0.034	Pitch Set Point:	-0.031	Yaw Set Point:	-0.053	X_WP:	0.000	Y_WP:	0.000	Y_WP:	0.000	X:	0.017	Y:	0.016	Z:	0.052	yaw:	3.010	yaw rate:	6.569	Roll:	0.559	Pitch:	0.591	Yaw:	3.838	Thrust:	0.000
Time:	0.617	Roll Set Point:	-0.034	Pitch Set Point:	-0.031	Yaw Set Point:	-0.055	X_WP:	0.000	Y_WP:	0.000	Y_WP:	0.000	X:	0.017	Y:	0.016	Z:	0.052	yaw:	3.148	yaw rate:	-13.799	Roll:	0.503	Pitch:	0.348	Yaw:	6.821	Thrust:	0.000
Time:	0.638	Roll Set Point:	-0.034	Pitch Set Point:	-0.031	Yaw Set Point:	-0.054	X_WP:	0.000	Y_WP:	0.000	Y_WP:	0.000	X:	0.017	Y:	0.016	Z:	0.052	yaw:	3.098	yaw rate:	5.069	Roll:	0.553	Pitch:	0.449	Yaw:	4.278	Thrust:	0.000
Time:	0.663	Roll Set Point:	-0.034	Pitch Set Point:	-0.031	Yaw Set Point:	-0.054	X_WP:	0.000	Y_WP:	0.000	Y_WP:	0.000	X:	0.017	Y:	0.016	Z:	0.052	yaw:	3.073	yaw rate:	2.410	Roll:	0.521	Pitch:	0.483	Yaw:	4.921	Thrust:	0.000
Time:	0.678	Roll Set Point:	-0.034	Pitch Set Point:	-0.031	Yaw Set Point:	-0.054	X_WP:	0.000	Y_WP:	0.000	Y_WP:	0.000	X:	0.017	Y:	0.016	Z:	0.052	yaw:	3.105	yaw rate:	-3.161	Roll:	0.572	Pitch:	0.448	Yaw:	5.404	Thrust:	0.000
Time:	0.698	Roll Set Point:	-0.034	Pitch Set Point:	-0.031	Yaw Set Point:	-0.054	X_WP:	0.000	Y_WP:	0.000	Y_WP:	0.000	X:	0.017	Y:	0.016	Z:	0.052	yaw:	3.081	yaw rate:	2.458	Roll:	0.528	Pitch:	0.443	Yaw:	4.698	Thrust:	0.000
Time:	0.723	Roll Set Point:	-0.034	Pitch Set Point:	-0.031	Yaw Set Point:	-0.053	X_WP:	0.000	Y_WP:	0.000	Y_WP:	0.000	X:	0.017	Y:	0.016	Z:	0.052	yaw:	3.036	yaw rate:	4.419	Roll:	0.569	Pitch:	0.593	Yaw:	4.662	Thrust:	0.000
Time:	0.738	Roll Set Point:	-0.034	Pitch Set Point:	-0.031	Yaw Set Point:	-0.054	X_WP:	0.000	Y_WP:	0.000	Y_WP:	0.000	X:	0.017	Y:	0.016	Z:	0.052	yaw:	3.101	yaw rate:	-6.439	Roll:	0.503	Pitch:	0.327	Yaw:	5.994	Thrust:	0.000
Time:	0.758	Roll Set Point:	-0.034	Pitch Set Point:	-0.031	Yaw Set Point:	-0.055	X_WP:	0.000	Y_WP:	0.000	Y_WP:	0.000	X:	0.017	Y:	0.016	Z:	0.052	yaw:	3.123	yaw rate:	-2.226	Roll:	0.563	Pitch:	0.462	Yaw:	5.432	Thrust:	0.000
Time:	0.781	Roll Set Point:	-0.034	Pitch Set Point:	-0.031	Yaw Set Point:	-0.054	X_WP:	0.000	Y_WP:	0.000	Y_WP:	0.000	X:	0.017	Y:	0.016	Z:	0.052	yaw:	3.119	yaw rate:	0.354	Roll:	0.546	Pitch:	0.466	Yaw:	5.191	Thrust:	0.000
Time:	0.797	Roll Set Point:	-0.034	Pitch Set Point:	-0.031	Yaw Set Point:	-0.054	X_WP:	0.000	Y_WP:	0.000	Y_WP:	0.000	X:	0.017	Y:	0.016	Z:	0.052	yaw:	3.102	yaw rate:	1.725	Roll:	0.514	Pitch:	0.465	Yaw:	4.758	Thrust:	0.000
Time:	0.818	Roll Set Point:	-0.034	Pitch Set Point:	-0.031	Yaw Set Point:	-0.053	X_WP:	0.000	Y_WP:	0.000	Y_WP:	0.000	X:	0.017	Y:	0.016	Z:	0.052	yaw:	3.031	yaw rate:	7.076	Roll:	0.581	Pitch:	0.589	Yaw:	4.236	Thrust:	0.000
Time:	0.838	Roll Set Point:	-0.034	Pitch Set Point:	-0.031	Yaw Set Point:	-0.053	X_WP:	0.000	Y_WP:	0.000	Y_WP:	0.000	X:	0.017	Y:	0.016	Z:	0.052	yaw:	3.032	yaw rate:	-0.041	Roll:	0.557	Pitch:	0.454	Yaw:	5.081	Thrust:	0.000
Time:	0.862	Roll Set Point:	-0.034	Pitch Set Point:	-0.031	Yaw Set Point:	-0.053	X_WP:	0.000	Y_WP:	0.000	Y_WP:	0.000	X:	0.017	Y:	0.016	Z:	0.052	yaw:	3.054	yaw rate:	-2.234	Roll:	0.507	Pitch:	0.393	Yaw:	5.533	Thrust:	0.000
Time:	0.878	Roll Set Point:	-0.034	Pitch Set Point:	-0.031	Yaw Set Point:	-0.053	X_WP:	0.000	Y_WP:	0.000	Y_WP:	0.000	X:	0.017	Y:	0.016	Z:	0.052	yaw:	3.028	yaw rate:	2.591	Roll:	0.603	Pitch:	0.588	Yaw:	4.634	Thrust:	0.000
Time:	0.898	Roll Set Point:	-0.034	Pitch Set Point:	-0.031	Yaw Set Point:	-0.054	X_WP:	0.000	Y_WP:	0.000	Y_WP:	0.000	X:	0.017	Y:	0.016	Z:	0.052	yaw:	3.109	yaw rate:	-8.112	Roll:	0.508	Pitch:	0.365	Yaw:	6.331	Thrust:	0.000
Time:	0.923	Roll Set Point:	-0.034	Pitch Set Point:	-0.031	Yaw Set Point:	-0.054	X_WP:	0.000	Y_WP:	0.000	Y_WP:	0.000	X:	0.017	Y:	0.016	Z:	0.052	yaw:	3.077	yaw rate:	3.264	Roll:	0.515	Pitch:	0.483	Yaw:	5.113	Thrust:	0.000
Time:	0.938	Roll Set Point:	-0.034	Pitch Set Point:	-0.031	Yaw Set Point:	-0.054	X_WP:	0.000	Y_WP:	0.000	Y_WP:	0.000	X:	0.017	Y:	0.016	Z:	0.052	yaw:	3.073	yaw rate:	0.370	Roll:	0.597	Pitch:	0.453	Yaw:	4.987	Thrust:	0.000
Time:	0.958	Roll Set Point:	-0.034	Pitch Set Point:	-0.031	Yaw Set Point:	-0.053	X_WP:	0.000	Y_WP:	0.000	Y_WP:	0.000	X:	0.017	Y:	0.016	Z:	0.052	yaw:	3.024	yaw rate:	4.914	Roll:	0.592	Pitch:	0.575	Yaw:	4.543	Thrust:	0.000
Time:	0.981	Roll Set Point:	-0.034	Pitch Set Point:	-0.031	Yaw Set Point:	-0.054	X_WP:	0.000	Y_WP:	0.000	Y_WP:	0.000	X:	0.017	Y:	0.016	Z:	0.052	yaw:	3.068	yaw rate:	-4.424	Roll:	0.498	Pitch:	0.421	Yaw:	5.943	Thrust:	0.000
Time:	0.998	Roll Set Point:	-0.034	Pitch Set Point:	-0.031	Yaw Set Point:	-0.054	X_WP:	0.000	Y_WP:	0.000	Y_WP:	0.000	X:	0.017	Y:	0.016	Z:	0.052	yaw:	3.085	yaw rate:	-1.705	Roll:	0.571	Pitch:	0.448	Yaw:	5.467	Thrust:	0.000
Time:	1.018	Roll Set Point:	-0.034	Pitch Set Point:	-0.031	Yaw Set Point:	-0.054	X_WP:	0.000	Y_WP:	0.000	Y_WP:	0.000	X:	0.017	Y:	0.016	Z:	0.052	yaw:	3.107	yaw rate:	-2.172	Roll:	0.543	Pitch:	0.443	Yaw:	5.684	Thrust:	0.000
Time:	1.038	Roll Set Point:	-0.034	Pitch Set Point:	-0.031	Yaw Set Point:	-0.054	X_WP:	0.000	Y_WP:	0.000	Y_WP:	0.000	X:	0.017	Y:	0.016	Z:	0.052	yaw:	3.100	yaw rate:	0.646	Roll:	0.561	Pitch:	0.493	Yaw:	5.315	Thrust:	0.000
Time:	1.061	Roll Set Point:	-0.034	Pitch Set Point:	-0.031	Yaw Set Point:	-0.053	X_WP:	0.000	Y_WP:	0.000	Y_WP:	0.000	X:	0.017	Y:	0.016	Z:	0.052	yaw:	3.055	yaw rate:	4.521	Roll:	0.540	Pitch:	0.475	Yaw:	4.949	Thrust:	0.000
Time:	1.079	Roll Set Point:	-0.034	Pitch Set Point:	-0.031	Yaw Set Point:	-0.054	X_WP:	0.000	Y_WP:	0.000	Y_WP:	0.000	X:	0.017	Y:	0.016	Z:	0.052	yaw:	3.086	yaw rate:	-3.037	Roll:	0.549	Pitch:	0.485	Yaw:	5.746	Thrust:	0.000
Time:	1.098	Roll Set Point:	-0.034	Pitch Set Point:	-0.031	Yaw Set Point:	-0.055	X_WP:	0.000	Y_WP:	0.000	Y_WP:	0.000	X:	0.017	Y:	0.016	Z:	0.052	yaw:	3.159	yaw rate:	-7.344	Roll:	0.569	Pitch:	0.475	Yaw:	6.510	Thrust:	0.000
Time:	1.122	Roll Set Point:	-0.034	Pitch Set Point:	-0.031	Yaw Set Point:	-0.054	X_WP:	0.000	Y_WP:	0.000	Y_WP:	0.000	X:	0.017	Y:	0.016	Z:	0.052	yaw:	3.099	yaw rate:	5.993	Roll:	0.559	Pitch:	0.501	Yaw:	5.083	Thrust:	0.000
Time:	1.138	Roll Set Point:	-0.034	Pitch Set Point:	-0.031	Yaw Set Point:	-0.054	X_WP:	0.000	Y_WP:	0.000	Y_WP:	0.000	X:	0.017	Y:	0.016	Z:	0.052	yaw:	3.072	yaw rate:	2.693	Roll:	0.567	Pitch:	0.446	Yaw:	4.808	Thrust:	0.000
Time:	1.158	Roll Set Point:	-0.034	Pitch Set Point:	-0.031	Yaw Set Point:	-0.054	X_WP:	0.000	Y_WP:	0.000	Y_WP:	0.000	X:	0.017	Y:	0.016	Z:	0.052	yaw:	3.115	yaw rate:	-4.259	Roll:	0.539	Pitch:	0.502	Yaw:	6.119	Thrust:	0.000
Time:	1.181	Roll Set Point:	-0.034	Pitch Set Point:	-0.031	Yaw Set Point:	-0.053	X_WP:	0.000	Y_WP:	0.000	Y_WP:	0.000	X:	0.017	Y:	0.016	Z:	0.052	yaw:	3.013	yaw rate:	10.145	Roll:	0.604	Pitch:	0.591	Yaw:	4.373	Thrust:	0.000
Time:	1.198	Roll Set Point:	-0.034	Pitch Set Point:	-0.031	Yaw Set Point:	-0.055	X_WP:	0.000	Y_WP:	0.000	Y_WP:	0.000	X:	0.017	Y:	0.016	Z:	0.052	yaw:	3.161	yaw rate:	-14.799	Roll:	0.507	Pitch:	0.328	Yaw:	7.749	Thrust:	0.000
Time:	1.218	Roll Set Point:	-0.034	Pitch Set Point:	-0.031	Yaw Set Point:	-0.053	X_WP:	0.000	Y_WP:	0.000	Y_WP:	0.000	X:	0.017	Y:	0.016	Z:	0.052	yaw:	3.062	yaw rate:	9.976	Roll:	0.574	Pitch:	0.492	Yaw:	4.344	Thrust:	0.000
Time:	1.239	Roll Set Point:	-0.034	Pitch Set Point:	-0.031	Yaw Set Point:	-0.055	X_WP:	0.000	Y_WP:	0.000	Y_WP:	0.000	X:	0.017	Y:	0.016	Z:	0.052	yaw:	3.152	yaw rate:	-9.079	Roll:	0.551	Pitch:	0.480	Yaw:	6.880	Thrust:	0.000
Time:	1.262	Roll Set Point:	-0.034	Pitch Set Point:	-0.031	Yaw Set Point:	-0.055	X_WP:	0.000	Y_WP:	0.000	Y_WP:	0.000	X:	0.017	Y:	0.016	Z:	0.052	yaw:	3.123	yaw rate:	2.938	Roll:	0.598	Pitch:	0.508	Yaw:	5.634	Thrust:	0.000
Time:	1.278	Roll Set Point:	-0.034	Pitch Set Point:	-0.031	Yaw Set Point:	-0.054	X_WP:	0.000	Y_WP:	0.000	Y_WP:	0.000	X:	0.017	Y:	0.016	Z:	0.052	yaw:	3.076	yaw rate:	4.675	Roll:	0.526	Pitch:	0.429	Yaw:	4.604	Thrust:	0.000
Time:	1.298	Roll Set Point:	-0.034	Pitch Set Point:	-0.031	Yaw Set Point:	-0.055	X_WP:	0.000	Y_WP:	0.000	Y_WP:	0.000	X:	0.017	Y:	0.016	Z:	0.052	yaw:	3.145	yaw rate:	-6.882	Roll:	0.571	Pitch:	0.531	Yaw:	6.652	Thrust:	0.000
Time:	1.324	Roll Set Point:	-0.034	Pitch Set Point:	-0.031	Yaw Set Point:	-0.058	X_WP:	0.000	Y_WP:	0.000	Y_WP:	0.000	X:	0.017	Y:	0.016	Z:	0.052	yaw:	3.328	yaw rate:	-18.253	Roll:	0.582	Pitch:	0.509	Yaw:	8.280	Thrust:	0.000
Time:	1.338	Roll Set Point:	-0.034	Pitch Set Point:	-0.031	Yaw Set Point:	-0.053	X_WP:	0.000	Y_WP:	0.000	Y_WP:	0.000	X:	0.017	Y:	0.016	Z:	0.052	yaw:	3.014	yaw rate:	31.370	Roll:	0.584	Pitch:	0.595	Yaw:	-0.167	Thrust:	0.000
Time:	1.359	Roll Set Point:	-0.034	Pitch Set Point:	-0.031	Yaw Set Point:	-0.053	X_WP:	0.000	Y_WP:	0.000	Y_WP:	0.000	X:	0.017	Y:	0.016	Z:	0.052	yaw:	3.026	yaw rate:	-1.252	Roll:	0.581	Pitch:	0.478	Yaw:	5.840	Thrust:	0.000
Time:	1.381	Roll Set Point:	-0.034	Pitch Set Point:	-0.031	Yaw Set Point:	-0.054	X_WP:	0.000	Y_WP:	0.000	Y_WP:	0.000	X:	0.017	Y:	0.016	Z:	0.052	yaw:	3.068	yaw rate:	-4.159	Roll:	0.545	Pitch:	0.400	Yaw:	6.353	Thrust:	0.000
Time:	1.398	Roll Set Point:	-0.034	Pitch Set Point:	-0.031	Yaw Set Point:	-0.054	X_WP:	0.000	Y_WP:	0.000	Y_WP:	0.000	X:	0.017	Y:	0.016	Z:	0.052	yaw:	3.099	yaw rate:	-3.122	Roll:	0.584	Pitch:	0.500	Yaw:	6.092	Thrust:	0.000
Time:	1.418	Roll Set Point:	-0.034	Pitch Set Point:	-0.031	Yaw Set Point:	-0.054	X_WP:	0.000	Y_WP:	0.000	Y_WP:	0.000	X:	0.017	Y:	0.016	Z:	0.052	yaw:	3.070	yaw rate:	2.928	Roll:	0.538	Pitch:	0.468	Yaw:	5.423	Thrust:	0.000
Time:	1.439	Roll Set Point:	-0.034	Pitch Set Point:	-0.031	Yaw Set Point:	-0.054	X_WP:	0.000	Y_WP:	0.000	Y_WP:	0.000	X:	0.017	Y:	0.016	Z:	0.052	yaw:	3.121	yaw rate:	-5.128	Roll:	0.579	Pitch:	0.499	Yaw:	6.502	Thrust:	0.000
Time:	1.464	Roll Set Point:	-0.034	Pitch Set Point:	-0.031	Yaw Set Point:	-0.054	X_WP:	0.000	Y_WP:	0.000	Y_WP:	0.000	X:	0.017	Y:	0.016	Z:	0.052	yaw:	3.098	yaw rate:	2.343	Roll:	0.587	Pitch:	0.523	Yaw:	6.003	Thrust:	0.000
Time:	1.478	Roll Set Point:	-0.034	Pitch Set Point:	-0.031	Yaw Set Point:	-0.055	X_WP:	0.000	Y_WP:	0.000	Y_WP:	0.000	X:	0.017	Y:	0.016	Z:	0.052	yaw:	3.127	yaw rate:	-2.899	Roll:	0.552	Pitch:	0.449	Yaw:	6.038	Thrust:	0.000
Time:	1.498	Roll Set Point:	-0.034	Pitch Set Point:	-0.031	Yaw Set Point:	-0.055	X_WP:	0.000	Y_WP:	0.000	Y_WP:	0.000	X:	0.017	Y:	0.016	Z:	0.052	yaw:	3.125	yaw rate:	0.163	Roll:	0.567	Pitch:	0.512	Yaw:	5.926	Thrust:	0.000
Time:	1.524	Roll Set Point:	-0.034	Pitch Set Point:	-0.031	Yaw Set Point:	-0.054	X_WP:	0.000	Y_WP:	0.000	Y_WP:	0.000	X:	0.017	Y:	0.016	Z:	0.052	yaw:	3.097	yaw rate:	2.831	Roll:	0.598	Pitch:	0.494	Yaw:	6.018	Thrust:	0.000
Time:	1.538	Roll Set Point:	-0.034	Pitch Set Point:	-0.031	Yaw Set Point:	-0.053	X_WP:	0.000	Y_WP:	0.000	Y_WP:	0.000	X:	0.017	Y:	0.016	Z:	0.052	yaw:	3.018	yaw rate:	7.867	Roll:	0.603	Pitch:	0.613	Yaw:	4.133	Thrust:	0.000
Time:	1.558	Roll Set Point:	-0.034	Pitch Set Point:	-0.031	Yaw Set Point:	-0.054	X_WP:	0.000	Y_WP:	0.000	Y_WP:	0.000	X:	0.017	Y:	0.016	Z:	0.052	yaw:	3.107	yaw rate:	-8.872	Roll:	0.551	Pitch:	0.393	Yaw:	7.132	Thrust:	0.000
Time:	1.581	Roll Set Point:	-0.034	Pitch Set Point:	-0.031	Yaw Set Point:	-0.055	X_WP:	0.000	Y_WP:	0.000	Y_WP:	0.000	X:	0.017	Y:	0.016	Z:	0.052	yaw:	3.123	yaw rate:	-1.612	Roll:	0.566	Pitch:	0.504	Yaw:	6.425	Thrust:	0.000
Time:	1.598	Roll Set Point:	-0.034	Pitch Set Point:	-0.031	Yaw Set Point:	-0.054	X_WP:	0.000	Y_WP:	0.000	Y_WP:	0.000	X:	0.017	Y:	0.016	Z:	0.052	yaw:	3.078	yaw rate:	4.494	Roll:	0.570	Pitch:	0.479	Yaw:	5.061	Thrust:	0.000
Time:	1.618	Roll Set Point:	-0.034	Pitch Set Point:	-0.031	Yaw Set Point:	-0.052	X_WP:	0.000	Y_WP:	0.000	Y_WP:	0.000	X:	0.017	Y:	0.016	Z:	0.052	yaw:	2.994	yaw rate:	8.362	Roll:	0.622	Pitch:	0.622	Yaw:	4.729	Thrust:	0.000
Time:	1.638	Roll Set Point:	-0.034	Pitch Set Point:	-0.031	Yaw Set Point:	-0.054	X_WP:	0.000	Y_WP:	0.000	Y_WP:	0.000	X:	0.017	Y:	0.016	Z:	0.052	yaw:	3.106	yaw rate:	-11.192	Roll:	0.565	Pitch:	0.383	Yaw:	7.525	Thrust:	0.000
Time:	1.660	Roll Set Point:	-0.034	Pitch Set Point:	-0.031	Yaw Set Point:	-0.055	X_WP:	0.000	Y_WP:	0.000	Y_WP:	0.000	X:	0.017	Y:	0.016	Z:	0.052	yaw:	3.164	yaw rate:	-5.792	Roll:	0.580	Pitch:	0.504	Yaw:	7.067	Thrust:	0.000
Time:	1.678	Roll Set Point:	-0.034	Pitch Set Point:	-0.031	Yaw Set Point:	-0.053	X_WP:	0.000	Y_WP:	0.000	Y_WP:	0.000	X:	0.017	Y:	0.016	Z:	0.052	yaw:	3.062	yaw rate:	10.238	Roll:	0.640	Pitch:	0.612	Yaw:	4.473	Thrust:	0.000
Time:	1.699	Roll Set Point:	-0.034	Pitch Set Point:	-0.031	Yaw Set Point:	-0.054	X_WP:	0.000	Y_WP:	0.000	Y_WP:	0.000	X:	0.017	Y:	0.016	Z:	0.052	yaw:	3.103	yaw rate:	-4.102	Roll:	0.514	Pitch:	0.409	Yaw:	6.610	Thrust:	0.000
Time:	1.723	Roll Set Point:	-0.034	Pitch Set Point:	-0.031	Yaw Set Point:	-0.054	X_WP:	0.000	Y_WP:	0.000	Y_WP:	0.000	X:	0.017	Y:	0.016	Z:	0.052	yaw:	3.089	yaw rate:	1.350	Roll:	0.613	Pitch:	0.506	Yaw:	6.347	Thrust:	0.000
Time:	1.738	Roll Set Point:	-0.034	Pitch Set Point:	-0.031	Yaw Set Point:	-0.053	X_WP:	0.000	Y_WP:	0.000	Y_WP:	0.000	X:	0.017	Y:	0.016	Z:	0.052	yaw:	3.044	yaw rate:	4.541	Roll:	0.592	Pitch:	0.653	Yaw:	5.056	Thrust:	0.000
Time:	1.758	Roll Set Point:	-0.034	Pitch Set Point:	-0.031	Yaw Set Point:	-0.054	X_WP:	0.000	Y_WP:	0.000	Y_WP:	0.000	X:	0.017	Y:	0.016	Z:	0.052	yaw:	3.075	yaw rate:	-3.130	Roll:	0.569	Pitch:	0.375	Yaw:	6.550	Thrust:	0.000
Time:	1.781	Roll Set Point:	-0.034	Pitch Set Point:	-0.031	Yaw Set Point:	-0.054	X_WP:	0.000	Y_WP:	0.000	Y_WP:	0.000	X:	0.017	Y:	0.016	Z:	0.052	yaw:	3.105	yaw rate:	-2.924	Roll:	0.580	Pitch:	0.505	Yaw:	6.750	Thrust:	0.000
Time:	1.798	Roll Set Point:	-0.034	Pitch Set Point:	-0.031	Yaw Set Point:	-0.053	X_WP:	0.000	Y_WP:	0.000	Y_WP:	0.000	X:	0.017	Y:	0.016	Z:	0.052	yaw:	3.036	yaw rate:	6.888	Roll:	0.645	Pitch:	0.623	Yaw:	4.952	Thrust:	0.000
Time:	1.818	Roll Set Point:	-0.034	Pitch Set Point:	-0.031	Yaw Set Point:	-0.053	X_WP:	0.000	Y_WP:	0.000	Y_WP:	0.000	X:	0.017	Y:	0.016	Z:	0.052	yaw:	3.028	yaw rate:	0.730	Roll:	0.570	Pitch:	0.511	Yaw:	6.013	Thrust:	0.000
Time:	1.839	Roll Set Point:	-0.034	Pitch Set Point:	-0.031	Yaw Set Point:	-0.054	X_WP:	0.000	Y_WP:	0.000	Y_WP:	0.000	X:	0.017	Y:	0.016	Z:	0.052	yaw:	3.098	yaw rate:	-6.925	Roll:	0.564	Pitch:	0.409	Yaw:	7.201	Thrust:	0.000
Time:	1.860	Roll Set Point:	-0.034	Pitch Set Point:	-0.031	Yaw Set Point:	-0.054	X_WP:	0.000	Y_WP:	0.000	Y_WP:	0.000	X:	0.017	Y:	0.016	Z:	0.052	yaw:	3.100	yaw rate:	-0.232	Roll:	0.581	Pitch:	0.516	Yaw:	6.475	Thrust:	0.000
Time:	1.878	Roll Set Point:	-0.034	Pitch Set Point:	-0.031	Yaw Set Point:	-0.054	X_WP:	0.000	Y_WP:	0.000	Y_WP:	0.000	X:	0.017	Y:	0.016	Z:	0.052	yaw:	3.111	yaw rate:	-1.118	Roll:	0.601	Pitch:	0.486	Yaw:	6.292	Thrust:	0.000
Time:	1.898	Roll Set Point:	-0.034	Pitch Set Point:	-0.031	Yaw Set Point:	-0.054	X_WP:	0.000	Y_WP:	0.000	Y_WP:	0.000	X:	0.017	Y:	0.016	Z:	0.052	yaw:	3.092	yaw rate:	1.866	Roll:	0.591	Pitch:	0.513	Yaw:	6.038	Thrust:	0.000
Time:	1.923	Roll Set Point:	-0.034	Pitch Set Point:	-0.031	Yaw Set Point:	-0.054	X_WP:	0.000	Y_WP:	0.000	Y_WP:	0.000	X:	0.017	Y:	0.016	Z:	0.052	yaw:	3.075	yaw rate:	1.711	Roll:	0.596	Pitch:	0.547	Yaw:	6.521	Thrust:	0.000
Time:	1.938	Roll Set Point:	-0.034	Pitch Set Point:	-0.031	Yaw Set Point:	-0.054	X_WP:	0.000	Y_WP:	0.000	Y_WP:	0.000	X:	0.017	Y:	0.016	Z:	0.052	yaw:	3.118	yaw rate:	-4.275	Roll:	0.582	Pitch:	0.451	Yaw:	6.634	Thrust:	0.000
Time:	1.958	Roll Set Point:	-0.034	Pitch Set Point:	-0.031	Yaw Set Point:	-0.053	X_WP:	0.000	Y_WP:	0.000	Y_WP:	0.000	X:	0.017	Y:	0.016	Z:	0.052	yaw:	3.028	yaw rate:	9.016	Roll:	0.569	Pitch:	0.536	Yaw:	5.163	Thrust:	0.000
Time:	1.982	Roll Set Point:	-0.034	Pitch Set Point:	-0.031	Yaw Set Point:	-0.055	X_WP:	0.000	Y_WP:	0.000	Y_WP:	0.000	X:	0.017	Y:	0.016	Z:	0.052	yaw:	3.150	yaw rate:	-12.181	Roll:	0.629	Pitch:	0.518	Yaw:	8.072	Thrust:	0.000
Time:	1.998	Roll Set Point:	-0.034	Pitch Set Point:	-0.031	Yaw Set Point:	-0.054	X_WP:	0.000	Y_WP:	0.000	Y_WP:	0.000	X:	0.017	Y:	0.016	Z:	0.052	yaw:	3.091	yaw rate:	5.849	Roll:	0.585	Pitch:	0.492	Yaw:	5.143	Thrust:	0.000
Time:	2.018	Roll Set Point:	-0.034	Pitch Set Point:	-0.031	Yaw Set Point:	-0.054	X_WP:	0.000	Y_WP:	0.000	Y_WP:	0.000	X:	0.017	Y:	0.016	Z:	0.052	yaw:	3.092	yaw rate:	-0.029	Roll:	0.598	Pitch:	0.521	Yaw:	6.305	Thrust:	0.000
Time:	2.038	Roll Set Point:	-0.034	Pitch Set Point:	-0.031	Yaw Set Point:	-0.055	X_WP:	0.000	Y_WP:	0.000	Y_WP:	0.000	X:	0.017	Y:	0.016	Z:	0.052	yaw:	3.140	yaw rate:	-4.863	Roll:	0.609	Pitch:	0.514	Yaw:	6.996	Thrust:	0.000
Time:	2.061	Roll Set Point:	-0.034	Pitch Set Point:	-0.031	Yaw Set Point:	-0.054	X_WP:	0.000	Y_WP:	0.000	Y_WP:	0.000	X:	0.017	Y:	0.016	Z:	0.052	yaw:	3.109	yaw rate:	3.081	Roll:	0.603	Pitch:	0.501	Yaw:	6.213	Thrust:	0.000
Time:	2.079	Roll Set Point:	-0.034	Pitch Set Point:	-0.031	Yaw Set Point:	-0.054	X_WP:	0.000	Y_WP:	0.000	Y_WP:	0.000	X:	0.017	Y:	0.016	Z:	0.052	yaw:	3.081	yaw rate:	2.797	Roll:	0.580	Pitch:	0.538	Yaw:	5.764	Thrust:	0.000
Time:	2.098	Roll Set Point:	-0.034	Pitch Set Point:	-0.031	Yaw Set Point:	-0.053	X_WP:	0.000	Y_WP:	0.000	Y_WP:	0.000	X:	0.017	Y:	0.016	Z:	0.052	yaw:	3.047	yaw rate:	3.454	Roll:	0.669	Pitch:	0.618	Yaw:	5.696	Thrust:	0.000
Time:	2.123	Roll Set Point:	-0.034	Pitch Set Point:	-0.031	Yaw Set Point:	-0.055	X_WP:	0.000	Y_WP:	0.000	Y_WP:	0.000	X:	0.017	Y:	0.016	Z:	0.052	yaw:	3.148	yaw rate:	-10.152	Roll:	0.555	Pitch:	0.445	Yaw:	7.936	Thrust:	0.000
Time:	2.138	Roll Set Point:	-0.034	Pitch Set Point:	-0.031	Yaw Set Point:	-0.053	X_WP:	0.000	Y_WP:	0.000	Y_WP:	0.000	X:	0.017	Y:	0.016	Z:	0.052	yaw:	3.049	yaw rate:	9.981	Roll:	0.591	Pitch:	0.521	Yaw:	4.160	Thrust:	0.000
Time:	2.158	Roll Set Point:	-0.034	Pitch Set Point:	-0.031	Yaw Set Point:	-0.054	X_WP:	0.000	Y_WP:	0.000	Y_WP:	0.000	X:	0.017	Y:	0.016	Z:	0.052	yaw:	3.109	yaw rate:	-6.062	Roll:	0.609	Pitch:	0.511	Yaw:	7.131	Thrust:	0.000
Time:	2.180	Roll Set Point:	-0.034	Pitch Set Point:	-0.031	Yaw Set Point:	-0.054	X_WP:	0.000	Y_WP:	0.000	Y_WP:	0.000	X:	0.017	Y:	0.016	Z:	0.052	yaw:	3.084	yaw rate:	2.555	Roll:	0.605	Pitch:	0.518	Yaw:	6.266	Thrust:	0.000
Time:	2.198	Roll Set Point:	-0.034	Pitch Set Point:	-0.031	Yaw Set Point:	-0.054	X_WP:	0.000	Y_WP:	0.000	Y_WP:	0.000	X:	0.017	Y:	0.016	Z:	0.052	yaw:	3.086	yaw rate:	-0.281	Roll:	0.581	Pitch:	0.527	Yaw:	6.058	Thrust:	0.000
Time:	2.219	Roll Set Point:	-0.034	Pitch Set Point:	-0.031	Yaw Set Point:	-0.054	X_WP:	0.000	Y_WP:	0.000	Y_WP:	0.000	X:	0.017	Y:	0.016	Z:	0.052	yaw:	3.081	yaw rate:	0.497	Roll:	0.643	Pitch:	0.521	Yaw:	6.347	Thrust:	0.000
Time:	2.238	Roll Set Point:	-0.034	Pitch Set Point:	-0.031	Yaw Set Point:	-0.054	X_WP:	0.000	Y_WP:	0.000	Y_WP:	0.000	X:	0.017	Y:	0.016	Z:	0.052	yaw:	3.107	yaw rate:	-2.542	Roll:	0.596	Pitch:	0.501	Yaw:	6.616	Thrust:	0.000
Time:	2.260	Roll Set Point:	-0.034	Pitch Set Point:	-0.031	Yaw Set Point:	-0.053	X_WP:	0.000	Y_WP:	0.000	Y_WP:	0.000	X:	0.017	Y:	0.016	Z:	0.052	yaw:	3.013	yaw rate:	9.396	Roll:	0.643	Pitch:	0.645	Yaw:	5.300	Thrust:	0.000
Time:	2.279	Roll Set Point:	-0.034	Pitch Set Point:	-0.031	Yaw Set Point:	-0.054	X_WP:	0.000	Y_WP:	0.000	Y_WP:	0.000	X:	0.017	Y:	0.016	Z:	0.052	yaw:	3.086	yaw rate:	-7.305	Roll:	0.544	Pitch:	0.413	Yaw:	7.174	Thrust:	0.000
Time:	2.298	Roll Set Point:	-0.034	Pitch Set Point:	-0.031	Yaw Set Point:	-0.054	X_WP:	0.000	Y_WP:	0.000	Y_WP:	0.000	X:	0.017	Y:	0.016	Z:	0.052	yaw:	3.080	yaw rate:	0.630	Roll:	0.628	Pitch:	0.503	Yaw:	6.191	Thrust:	0.000
Time:	2.322	Roll Set Point:	-0.034	Pitch Set Point:	-0.031	Yaw Set Point:	-0.054	X_WP:	0.000	Y_WP:	0.000	Y_WP:	0.000	X:	0.017	Y:	0.016	Z:	0.052	yaw:	3.067	yaw rate:	1.222	Roll:	0.600	Pitch:	0.554	Yaw:	6.569	Thrust:	0.000
Time:	2.338	Roll Set Point:	-0.034	Pitch Set Point:	-0.031	Yaw Set Point:	-0.053	X_WP:	0.000	Y_WP:	0.000	Y_WP:	0.000	X:	0.017	Y:	0.016	Z:	0.052	yaw:	3.057	yaw rate:	1.096	Roll:	0.620	Pitch:	0.512	Yaw:	5.693	Thrust:	0.000
Time:	2.358	Roll Set Point:	-0.034	Pitch Set Point:	-0.031	Yaw Set Point:	-0.054	X_WP:	0.000	Y_WP:	0.000	Y_WP:	0.000	X:	0.017	Y:	0.016	Z:	0.052	yaw:	3.118	yaw rate:	-6.123	Roll:	0.617	Pitch:	0.498	Yaw:	7.159	Thrust:	0.000
Time:	2.381	Roll Set Point:	-0.034	Pitch Set Point:	-0.031	Yaw Set Point:	-0.054	X_WP:	0.000	Y_WP:	0.000	Y_WP:	0.000	X:	0.017	Y:	0.016	Z:	0.052	yaw:	3.104	yaw rate:	1.402	Roll:	0.588	Pitch:	0.562	Yaw:	6.439	Thrust:	0.000
Time:	2.397	Roll Set Point:	-0.034	Pitch Set Point:	-0.031	Yaw Set Point:	-0.054	X_WP:	0.000	Y_WP:	0.000	Y_WP:	0.000	X:	0.017	Y:	0.016	Z:	0.052	yaw:	3.117	yaw rate:	-1.344	Roll:	0.648	Pitch:	0.504	Yaw:	6.220	Thrust:	0.000
Time:	2.418	Roll Set Point:	-0.034	Pitch Set Point:	-0.031	Yaw Set Point:	-0.053	X_WP:	0.000	Y_WP:	0.000	Y_WP:	0.000	X:	0.017	Y:	0.016	Z:	0.052	yaw:	3.065	yaw rate:	5.213	Roll:	0.613	Pitch:	0.527	Yaw:	5.682	Thrust:	0.000
Time:	2.438	Roll Set Point:	-0.034	Pitch Set Point:	-0.031	Yaw Set Point:	-0.054	X_WP:	0.000	Y_WP:	0.000	Y_WP:	0.000	X:	0.017	Y:	0.016	Z:	0.052	yaw:	3.077	yaw rate:	-1.223	Roll:	0.663	Pitch:	0.639	Yaw:	6.474	Thrust:	0.000
Time:	2.461	Roll Set Point:	-0.034	Pitch Set Point:	-0.031	Yaw Set Point:	-0.054	X_WP:	0.000	Y_WP:	0.000	Y_WP:	0.000	X:	0.017	Y:	0.016	Z:	0.052	yaw:	3.095	yaw rate:	-1.752	Roll:	0.605	Pitch:	0.466	Yaw:	6.776	Thrust:	0.000
Time:	2.478	Roll Set Point:	-0.034	Pitch Set Point:	-0.031	Yaw Set Point:	-0.052	X_WP:	0.000	Y_WP:	0.000	Y_WP:	0.000	X:	0.017	Y:	0.016	Z:	0.052	yaw:	3.002	yaw rate:	9.303	Roll:	0.641	Pitch:	0.626	Yaw:	4.558	Thrust:	0.000
Time:	2.498	Roll Set Point:	-0.034	Pitch Set Point:	-0.031	Yaw Set Point:	-0.054	X_WP:	0.000	Y_WP:	0.000	Y_WP:	0.000	X:	0.017	Y:	0.016	Z:	0.052	yaw:	3.103	yaw rate:	-10.122	Roll:	0.565	Pitch:	0.401	Yaw:	7.659	Thrust:	0.000
Time:	2.524	Roll Set Point:	-0.034	Pitch Set Point:	-0.031	Yaw Set Point:	-0.054	X_WP:	0.000	Y_WP:	0.000	Y_WP:	0.000	X:	0.017	Y:	0.016	Z:	0.052	yaw:	3.115	yaw rate:	-1.229	Roll:	0.627	Pitch:	0.551	Yaw:	6.938	Thrust:	0.000
Time:	2.538	Roll Set Point:	-0.034	Pitch Set Point:	-0.031	Yaw Set Point:	-0.054	X_WP:	0.000	Y_WP:	0.000	Y_WP:	0.000	X:	0.017	Y:	0.016	Z:	0.052	yaw:	3.082	yaw rate:	3.362	Roll:	0.589	Pitch:	0.546	Yaw:	5.290	Thrust:	0.000
Time:	2.558	Roll Set Point:	-0.034	Pitch Set Point:	-0.031	Yaw Set Point:	-0.054	X_WP:	0.000	Y_WP:	0.000	Y_WP:	0.000	X:	0.017	Y:	0.016	Z:	0.052	yaw:	3.110	yaw rate:	-2.843	Roll:	0.633	Pitch:	0.510	Yaw:	6.669	Thrust:	0.000
Time:	2.581	Roll Set Point:	-0.034	Pitch Set Point:	-0.031	Yaw Set Point:	-0.054	X_WP:	0.000	Y_WP:	0.000	Y_WP:	0.000	X:	0.017	Y:	0.016	Z:	0.052	yaw:	3.102	yaw rate:	0.776	Roll:	0.648	Pitch:	0.567	Yaw:	6.562	Thrust:	0.000
Time:	2.598	Roll Set Point:	-0.034	Pitch Set Point:	-0.031	Yaw Set Point:	-0.054	X_WP:	0.000	Y_WP:	0.000	Y_WP:	0.000	X:	0.017	Y:	0.016	Z:	0.052	yaw:	3.105	yaw rate:	-0.313	Roll:	0.599	Pitch:	0.504	Yaw:	6.042	Thrust:	0.000
Time:	2.619	Roll Set Point:	-0.034	Pitch Set Point:	-0.031	Yaw Set Point:	-0.054	X_WP:	0.000	Y_WP:	0.000	Y_WP:	0.000	X:	0.017	Y:	0.016	Z:	0.052	yaw:	3.111	yaw rate:	-0.589	Roll:	0.638	Pitch:	0.525	Yaw:	6.477	Thrust:	0.000
Time:	2.638	Roll Set Point:	-0.034	Pitch Set Point:	-0.031	Yaw Set Point:	-0.054	X_WP:	0.000	Y_WP:	0.000	Y_WP:	0.000	X:	0.017	Y:	0.016	Z:	0.052	yaw:	3.105	yaw rate:	0.623	Roll:	0.601	Pitch:	0.554	Yaw:	6.224	Thrust:	0.000
Time:	2.660	Roll Set Point:	-0.034	Pitch Set Point:	-0.031	Yaw Set Point:	-0.054	X_WP:	0.000	Y_WP:	0.000	Y_WP:	0.000	X:	0.017	Y:	0.016	Z:	0.052	yaw:	3.071	yaw rate:	3.458	Roll:	0.632	Pitch:	0.555	Yaw:	6.092	Thrust:	0.000
Time:	2.678	Roll Set Point:	-0.034	Pitch Set Point:	-0.031	Yaw Set Point:	-0.055	X_WP:	0.000	Y_WP:	0.000	Y_WP:	0.000	X:	0.017	Y:	0.016	Z:	0.052	yaw:	3.132	yaw rate:	-6.101	Roll:	0.609	Pitch:	0.508	Yaw:	7.063	Thrust:	0.000
Time:	2.698	Roll Set Point:	-0.034	Pitch Set Point:	-0.031	Yaw Set Point:	-0.054	X_WP:	0.000	Y_WP:	0.000	Y_WP:	0.000	X:	0.017	Y:	0.016	Z:	0.052	yaw:	3.081	yaw rate:	5.101	Roll:	0.625	Pitch:	0.559	Yaw:	5.622	Thrust:	0.000
Time:	2.725	Roll Set Point:	-0.034	Pitch Set Point:	-0.031	Yaw Set Point:	-0.053	X_WP:	0.000	Y_WP:	0.000	Y_WP:	0.000	X:	0.017	Y:	0.016	Z:	0.052	yaw:	3.029	yaw rate:	5.119	Roll:	0.649	Pitch:	0.567	Yaw:	6.142	Thrust:	0.000
Time:	2.738	Roll Set Point:	-0.034	Pitch Set Point:	-0.031	Yaw Set Point:	-0.053	X_WP:	0.000	Y_WP:	0.000	Y_WP:	0.000	X:	0.017	Y:	0.016	Z:	0.052	yaw:	3.065	yaw rate:	-3.534	Roll:	0.610	Pitch:	0.507	Yaw:	6.455	Thrust:	0.000
Time:	2.759	Roll Set Point:	-0.034	Pitch Set Point:	-0.031	Yaw Set Point:	-0.055	X_WP:	0.000	Y_WP:	0.000	Y_WP:	0.000	X:	0.017	Y:	0.016	Z:	0.052	yaw:	3.136	yaw rate:	-7.129	Roll:	0.655	Pitch:	0.529	Yaw:	7.303	Thrust:	0.000
Time:	2.781	Roll Set Point:	-0.034	Pitch Set Point:	-0.031	Yaw Set Point:	-0.053	X_WP:	0.000	Y_WP:	0.000	Y_WP:	0.000	X:	0.017	Y:	0.016	Z:	0.052	yaw:	3.062	yaw rate:	7.423	Roll:	0.625	Pitch:	0.572	Yaw:	5.602	Thrust:	0.000
Time:	2.798	Roll Set Point:	-0.034	Pitch Set Point:	-0.031	Yaw Set Point:	-0.054	X_WP:	0.000	Y_WP:	0.000	Y_WP:	0.000	X:	0.017	Y:	0.016	Z:	0.052	yaw:	3.090	yaw rate:	-2.860	Roll:	0.631	Pitch:	0.541	Yaw:	6.497	Thrust:	0.000
Time:	2.818	Roll Set Point:	-0.034	Pitch Set Point:	-0.031	Yaw Set Point:	-0.054	X_WP:	0.000	Y_WP:	0.000	Y_WP:	0.000	X:	0.017	Y:	0.016	Z:	0.052	yaw:	3.122	yaw rate:	-3.138	Roll:	0.623	Pitch:	0.503	Yaw:	6.763	Thrust:	0.000
Time:	2.838	Roll Set Point:	-0.034	Pitch Set Point:	-0.031	Yaw Set Point:	-0.054	X_WP:	0.000	Y_WP:	0.000	Y_WP:	0.000	X:	0.017	Y:	0.016	Z:	0.052	yaw:	3.067	yaw rate:	5.476	Roll:	0.638	Pitch:	0.562	Yaw:	5.570	Thrust:	0.000
Time:	2.860	Roll Set Point:	-0.034	Pitch Set Point:	-0.031	Yaw Set Point:	-0.054	X_WP:	0.000	Y_WP:	0.000	Y_WP:	0.000	X:	0.017	Y:	0.016	Z:	0.052	yaw:	3.102	yaw rate:	-3.525	Roll:	0.646	Pitch:	0.571	Yaw:	6.967	Thrust:	0.000
Time:	2.878	Roll Set Point:	-0.034	Pitch Set Point:	-0.031	Yaw Set Point:	-0.055	X_WP:	0.000	Y_WP:	0.000	Y_WP:	0.000	X:	0.017	Y:	0.016	Z:	0.052	yaw:	3.145	yaw rate:	-4.276	Roll:	0.603	Pitch:	0.522	Yaw:	6.820	Thrust:	0.000
Time:	2.897	Roll Set Point:	-0.034	Pitch Set Point:	-0.031	Yaw Set Point:	-0.054	X_WP:	0.000	Y_WP:	0.000	Y_WP:	0.000	X:	0.017	Y:	0.016	Z:	0.052	yaw:	3.066	yaw rate:	7.918	Roll:	0.643	Pitch:	0.531	Yaw:	5.086	Thrust:	0.000
Time:	2.924	Roll Set Point:	-0.034	Pitch Set Point:	-0.031	Yaw Set Point:	-0.054	X_WP:	0.000	Y_WP:	0.000	Y_WP:	0.000	X:	0.017	Y:	0.016	Z:	0.052	yaw:	3.079	yaw rate:	-1.351	Roll:	0.678	Pitch:	0.588	Yaw:	6.980	Thrust:	0.000
Time:	2.939	Roll Set Point:	-0.034	Pitch Set Point:	-0.031	Yaw Set Point:	-0.055	X_WP:	0.000	Y_WP:	0.000	Y_WP:	0.000	X:	0.017	Y:	0.016	Z:	0.052	yaw:	3.130	yaw rate:	-5.115	Roll:	0.596	Pitch:	0.524	Yaw:	6.787	Thrust:	0.000
Time:	2.958	Roll Set Point:	-0.034	Pitch Set Point:	-0.031	Yaw Set Point:	-0.053	X_WP:	0.000	Y_WP:	0.000	Y_WP:	0.000	X:	0.017	Y:	0.016	Z:	0.052	yaw:	3.054	yaw rate:	7.602	Roll:	0.630	Pitch:	0.547	Yaw:	5.229	Thrust:	0.000
Time:	2.981	Roll Set Point:	-0.034	Pitch Set Point:	-0.031	Yaw Set Point:	-0.055	X_WP:	0.000	Y_WP:	0.000	Y_WP:	0.000	X:	0.017	Y:	0.016	Z:	0.052	yaw:	3.150	yaw rate:	-9.513	Roll:	0.663	Pitch:	0.572	Yaw:	7.761	Thrust:	0.000
Time:	2.998	Roll Set Point:	-0.034	Pitch Set Point:	-0.031	Yaw Set Point:	-0.054	X_WP:	0.000	Y_WP:	0.000	Y_WP:	0.000	X:	0.017	Y:	0.016	Z:	0.052	yaw:	3.117	yaw rate:	3.275	Roll:	0.637	Pitch:	0.519	Yaw:	5.556	Thrust:	0.000
Time:	3.018	Roll Set Point:	-0.034	Pitch Set Point:	-0.031	Yaw Set Point:	-0.054	X_WP:	0.000	Y_WP:	0.000	Y_WP:	0.000	X:	0.017	Y:	0.016	Z:	0.052	yaw:	3.121	yaw rate:	-0.408	Roll:	0.631	Pitch:	0.553	Yaw:	6.464	Thrust:	0.000
Time:	3.038	Roll Set Point:	-0.034	Pitch Set Point:	-0.031	Yaw Set Point:	-0.053	X_WP:	0.000	Y_WP:	0.000	Y_WP:	0.000	X:	0.017	Y:	0.016	Z:	0.052	yaw:	3.042	yaw rate:	7.853	Roll:	0.633	Pitch:	0.556	Yaw:	5.228	Thrust:	0.000
Time:	3.060	Roll Set Point:	-0.034	Pitch Set Point:	-0.031	Yaw Set Point:	-0.054	X_WP:	0.000	Y_WP:	0.000	Y_WP:	0.000	X:	0.017	Y:	0.016	Z:	0.052	yaw:	3.071	yaw rate:	-2.836	Roll:	0.666	Pitch:	0.550	Yaw:	6.780	Thrust:	0.000
Time:	3.078	Roll Set Point:	-0.034	Pitch Set Point:	-0.031	Yaw Set Point:	-0.054	X_WP:	0.000	Y_WP:	0.000	Y_WP:	0.000	X:	0.017	Y:	0.016	Z:	0.052	yaw:	3.070	yaw rate:	0.074	Roll:	0.624	Pitch:	0.526	Yaw:	6.115	Thrust:	0.000
Time:	3.098	Roll Set Point:	-0.034	Pitch Set Point:	-0.031	Yaw Set Point:	-0.054	X_WP:	0.000	Y_WP:	0.000	Y_WP:	0.000	X:	0.017	Y:	0.016	Z:	0.052	yaw:	3.077	yaw rate:	-0.670	Roll:	0.635	Pitch:	0.604	Yaw:	6.350	Thrust:	0.000
Time:	3.126	Roll Set Point:	-0.034	Pitch Set Point:	-0.031	Yaw Set Point:	-0.054	X_WP:	0.000	Y_WP:	0.000	Y_WP:	0.000	X:	0.017	Y:	0.016	Z:	0.052	yaw:	3.079	yaw rate:	-0.278	Roll:	0.672	Pitch:	0.572	Yaw:	6.756	Thrust:	0.000
Time:	3.139	Roll Set Point:	-0.034	Pitch Set Point:	-0.031	Yaw Set Point:	-0.054	X_WP:	0.000	Y_WP:	0.000	Y_WP:	0.000	X:	0.017	Y:	0.016	Z:	0.052	yaw:	3.104	yaw rate:	-2.436	Roll:	0.643	Pitch:	0.514	Yaw:	6.412	Thrust:	0.000
Time:	3.158	Roll Set Point:	-0.034	Pitch Set Point:	-0.031	Yaw Set Point:	-0.053	X_WP:	0.000	Y_WP:	0.000	Y_WP:	0.000	X:	0.017	Y:	0.016	Z:	0.052	yaw:	3.014	yaw rate:	9.008	Roll:	0.676	Pitch:	0.679	Yaw:	4.904	Thrust:	0.000
Time:	3.181	Roll Set Point:	-0.034	Pitch Set Point:	-0.031	Yaw Set Point:	-0.053	X_WP:	0.000	Y_WP:	0.000	Y_WP:	0.000	X:	0.017	Y:	0.016	Z:	0.052	yaw:	3.013	yaw rate:	0.047	Roll:	0.613	Pitch:	0.478	Yaw:	6.491	Thrust:	0.000
Time:	3.199	Roll Set Point:	-0.034	Pitch Set Point:	-0.031	Yaw Set Point:	-0.053	X_WP:	0.000	Y_WP:	0.000	Y_WP:	0.000	X:	0.017	Y:	0.016	Z:	0.052	yaw:	3.019	yaw rate:	-0.552	Roll:	0.725	Pitch:	0.656	Yaw:	6.004	Thrust:	0.000
Time:	3.219	Roll Set Point:	-0.034	Pitch Set Point:	-0.031	Yaw Set Point:	-0.053	X_WP:	0.000	Y_WP:	0.000	Y_WP:	0.000	X:	0.017	Y:	0.016	Z:	0.052	yaw:	3.043	yaw rate:	-2.430	Roll:	0.655	Pitch:	0.567	Yaw:	6.559	Thrust:	0.000
Time:	3.238	Roll Set Point:	-0.034	Pitch Set Point:	-0.031	Yaw Set Point:	-0.052	X_WP:	0.000	Y_WP:	0.000	Y_WP:	0.000	X:	0.017	Y:	0.016	Z:	0.052	yaw:	3.001	yaw rate:	4.209	Roll:	0.622	Pitch:	0.582	Yaw:	5.672	Thrust:	0.000
Time:	3.261	Roll Set Point:	-0.034	Pitch Set Point:	-0.031	Yaw Set Point:	-0.054	X_WP:	0.000	Y_WP:	0.000	Y_WP:	0.000	X:	0.017	Y:	0.016	Z:	0.052	yaw:	3.106	yaw rate:	-10.486	Roll:	0.634	Pitch:	0.448	Yaw:	7.778	Thrust:	0.000
Time:	3.279	Roll Set Point:	-0.034	Pitch Set Point:	-0.031	Yaw Set Point:	-0.054	X_WP:	0.000	Y_WP:	0.000	Y_WP:	0.000	X:	0.017	Y:	0.016	Z:	0.052	yaw:	3.069	yaw rate:	3.657	Roll:	0.636	Pitch:	0.565	Yaw:	5.564	Thrust:	0.000
Time:	3.298	Roll Set Point:	-0.034	Pitch Set Point:	-0.031	Yaw Set Point:	-0.053	X_WP:	0.000	Y_WP:	0.000	Y_WP:	0.000	X:	0.017	Y:	0.016	Z:	0.052	yaw:	3.054	yaw rate:	1.529	Roll:	0.650	Pitch:	0.581	Yaw:	6.014	Thrust:	0.000
Time:	3.325	Roll Set Point:	-0.034	Pitch Set Point:	-0.031	Yaw Set Point:	-0.054	X_WP:	0.000	Y_WP:	0.000	Y_WP:	0.000	X:	0.017	Y:	0.016	Z:	0.052	yaw:	3.086	yaw rate:	-3.243	Roll:	0.673	Pitch:	0.587	Yaw:	7.112	Thrust:	0.000
Time:	3.338	Roll Set Point:	-0.034	Pitch Set Point:	-0.031	Yaw Set Point:	-0.055	X_WP:	0.000	Y_WP:	0.000	Y_WP:	0.000	X:	0.017	Y:	0.016	Z:	0.052	yaw:	3.135	yaw rate:	-4.849	Roll:	0.636	Pitch:	0.515	Yaw:	6.748	Thrust:	0.000
Time:	3.358	Roll Set Point:	-0.034	Pitch Set Point:	-0.031	Yaw Set Point:	-0.053	X_WP:	0.000	Y_WP:	0.000	Y_WP:	0.000	X:	0.017	Y:	0.016	Z:	0.052	yaw:	3.047	yaw rate:	8.819	Roll:	0.656	Pitch:	0.557	Yaw:	5.127	Thrust:	0.000
Time:	3.381	Roll Set Point:	-0.034	Pitch Set Point:	-0.031	Yaw Set Point:	-0.054	X_WP:	0.000	Y_WP:	0.000	Y_WP:	0.000	X:	0.017	Y:	0.016	Z:	0.052	yaw:	3.097	yaw rate:	-5.009	Roll:	0.690	Pitch:	0.607	Yaw:	7.175	Thrust:	0.000
Time:	3.398	Roll Set Point:	-0.034	Pitch Set Point:	-0.031	Yaw Set Point:	-0.054	X_WP:	0.000	Y_WP:	0.000	Y_WP:	0.000	X:	0.017	Y:	0.016	Z:	0.052	yaw:	3.107	yaw rate:	-1.057	Roll:	0.609	Pitch:	0.533	Yaw:	6.256	Thrust:	0.000
Time:	3.418	Roll Set Point:	-0.034	Pitch Set Point:	-0.031	Yaw Set Point:	-0.054	X_WP:	0.000	Y_WP:	0.000	Y_WP:	0.000	X:	0.017	Y:	0.016	Z:	0.052	yaw:	3.106	yaw rate:	0.159	Roll:	0.644	Pitch:	0.548	Yaw:	6.263	Thrust:	0.000
Time:	3.438	Roll Set Point:	-0.034	Pitch Set Point:	-0.031	Yaw Set Point:	-0.053	X_WP:	0.000	Y_WP:	0.000	Y_WP:	0.000	X:	0.017	Y:	0.016	Z:	0.052	yaw:	3.034	yaw rate:	7.149	Roll:	0.742	Pitch:	0.695	Yaw:	5.341	Thrust:	0.000
Time:	3.461	Roll Set Point:	-0.034	Pitch Set Point:	-0.031	Yaw Set Point:	-0.054	X_WP:	0.000	Y_WP:	0.000	Y_WP:	0.000	X:	0.017	Y:	0.016	Z:	0.052	yaw:	3.101	yaw rate:	-6.703	Roll:	0.623	Pitch:	0.471	Yaw:	7.301	Thrust:	0.000
Time:	3.485	Roll Set Point:	-0.034	Pitch Set Point:	-0.031	Yaw Set Point:	-0.053	X_WP:	0.000	Y_WP:	0.000	Y_WP:	0.000	X:	0.017	Y:	0.016	Z:	0.052	yaw:	3.053	yaw rate:	4.811	Roll:	0.680	Pitch:	0.595	Yaw:	6.222	Thrust:	0.000
Time:	3.498	Roll Set Point:	-0.034	Pitch Set Point:	-0.031	Yaw Set Point:	-0.053	X_WP:	0.000	Y_WP:	0.000	Y_WP:	0.000	X:	0.017	Y:	0.016	Z:	0.052	yaw:	3.023	yaw rate:	2.975	Roll:	0.701	Pitch:	0.701	Yaw:	5.012	Thrust:	0.000
Time:	3.521	Roll Set Point:	-0.034	Pitch Set Point:	-0.031	Yaw Set Point:	-0.053	X_WP:	0.000	Y_WP:	0.000	Y_WP:	0.000	X:	0.017	Y:	0.016	Z:	0.052	yaw:	3.037	yaw rate:	-1.356	Roll:	0.667	Pitch:	0.616	Yaw:	6.701	Thrust:	0.000
Time:	3.539	Roll Set Point:	-0.034	Pitch Set Point:	-0.031	Yaw Set Point:	-0.054	X_WP:	0.000	Y_WP:	0.000	Y_WP:	0.000	X:	0.017	Y:	0.016	Z:	0.052	yaw:	3.079	yaw rate:	-4.209	Roll:	0.607	Pitch:	0.390	Yaw:	6.648	Thrust:	0.000
Time:	3.559	Roll Set Point:	-0.034	Pitch Set Point:	-0.031	Yaw Set Point:	-0.052	X_WP:	0.000	Y_WP:	0.000	Y_WP:	0.000	X:	0.017	Y:	0.016	Z:	0.052	yaw:	3.007	yaw rate:	7.186	Roll:	0.721	Pitch:	0.692	Yaw:	5.254	Thrust:	0.000
Time:	3.581	Roll Set Point:	-0.034	Pitch Set Point:	-0.031	Yaw Set Point:	-0.054	X_WP:	0.000	Y_WP:	0.000	Y_WP:	0.000	X:	0.017	Y:	0.016	Z:	0.052	yaw:	3.075	yaw rate:	-6.819	Roll:	0.620	Pitch:	0.476	Yaw:	7.311	Thrust:	0.000
Time:	3.598	Roll Set Point:	-0.034	Pitch Set Point:	-0.031	Yaw Set Point:	-0.055	X_WP:	0.000	Y_WP:	0.000	Y_WP:	0.000	X:	0.017	Y:	0.016	Z:	0.052	yaw:	3.123	yaw rate:	-4.756	Roll:	0.647	Pitch:	0.571	Yaw:	6.855	Thrust:	0.000
Time:	3.618	Roll Set Point:	-0.034	Pitch Set Point:	-0.031	Yaw Set Point:	-0.054	X_WP:	0.000	Y_WP:	0.000	Y_WP:	0.000	X:	0.017	Y:	0.016	Z:	0.052	yaw:	3.073	yaw rate:	5.033	Roll:	0.665	Pitch:	0.566	Yaw:	5.639	Thrust:	0.000
Time:	3.638	Roll Set Point:	-0.034	Pitch Set Point:	-0.031	Yaw Set Point:	-0.054	X_WP:	0.000	Y_WP:	0.000	Y_WP:	0.000	X:	0.017	Y:	0.016	Z:	0.052	yaw:	3.114	yaw rate:	-4.176	Roll:	0.711	Pitch:	0.583	Yaw:	6.874	Thrust:	0.000
Time:	3.659	Roll Set Point:	-0.034	Pitch Set Point:	-0.031	Yaw Set Point:	-0.052	X_WP:	0.000	Y_WP:	0.000	Y_WP:	0.000	X:	0.017	Y:	0.016	Z:	0.052	yaw:	3.000	yaw rate:	11.420	Roll:	0.697	Pitch:	0.704	Yaw:	4.944	Thrust:	0.000
Time:	3.678	Roll Set Point:	-0.034	Pitch Set Point:	-0.031	Yaw Set Point:	-0.054	X_WP:	0.000	Y_WP:	0.000	Y_WP:	0.000	X:	0.017	Y:	0.016	Z:	0.052	yaw:	3.073	yaw rate:	-7.306	Roll:	0.598	Pitch:	0.454	Yaw:	7.167	Thrust:	0.000
Time:	3.698	Roll Set Point:	-0.034	Pitch Set Point:	-0.031	Yaw Set Point:	-0.054	X_WP:	0.000	Y_WP:	0.000	Y_WP:	0.000	X:	0.017	Y:	0.016	Z:	0.052	yaw:	3.109	yaw rate:	-3.524	Roll:	0.696	Pitch:	0.561	Yaw:	6.824	Thrust:	0.000
Time:	3.725	Roll Set Point:	-0.034	Pitch Set Point:	-0.031	Yaw Set Point:	-0.054	X_WP:	0.000	Y_WP:	0.000	Y_WP:	0.000	X:	0.017	Y:	0.016	Z:	0.052	yaw:	3.097	yaw rate:	1.110	Roll:	0.680	Pitch:	0.619	Yaw:	6.716	Thrust:	0.000
Time:	3.738	Roll Set Point:	-0.034	Pitch Set Point:	-0.031	Yaw Set Point:	-0.054	X_WP:	0.000	Y_WP:	0.000	Y_WP:	0.000	X:	0.017	Y:	0.016	Z:	0.052	yaw:	3.090	yaw rate:	0.782	Roll:	0.666	Pitch:	0.556	Yaw:	5.682	Thrust:	0.000
Time:	3.758	Roll Set Point:	-0.034	Pitch Set Point:	-0.031	Yaw Set Point:	-0.054	X_WP:	0.000	Y_WP:	0.000	Y_WP:	0.000	X:	0.017	Y:	0.016	Z:	0.052	yaw:	3.114	yaw rate:	-2.421	Roll:	0.670	Pitch:	0.579	Yaw:	6.673	Thrust:	0.000
Time:	3.781	Roll Set Point:	-0.034	Pitch Set Point:	-0.031	Yaw Set Point:	-0.055	X_WP:	0.000	Y_WP:	0.000	Y_WP:	0.000	X:	0.017	Y:	0.016	Z:	0.052	yaw:	3.147	yaw rate:	-3.279	Roll:	0.691	Pitch:	0.592	Yaw:	6.991	Thrust:	0.000
Time:	3.798	Roll Set Point:	-0.034	Pitch Set Point:	-0.031	Yaw Set Point:	-0.053	X_WP:	0.000	Y_WP:	0.000	Y_WP:	0.000	X:	0.017	Y:	0.016	Z:	0.052	yaw:	3.016	yaw rate:	13.110	Roll:	0.715	Pitch:	0.662	Yaw:	4.115	Thrust:	0.000
Time:	3.819	Roll Set Point:	-0.034	Pitch Set Point:	-0.031	Yaw Set Point:	-0.053	X_WP:	0.000	Y_WP:	0.000	Y_WP:	0.000	X:	0.017	Y:	0.016	Z:	0.052	yaw:	3.028	yaw rate:	-1.268	Roll:	0.597	Pitch:	0.478	Yaw:	6.358	Thrust:	0.000
Time:	3.839	Roll Set Point:	-0.034	Pitch Set Point:	-0.031	Yaw Set Point:	-0.053	X_WP:	0.000	Y_WP:	0.000	Y_WP:	0.000	X:	0.017	Y:	0.016	Z:	0.052	yaw:	3.033	yaw rate:	-0.527	Roll:	0.768	Pitch:	0.704	Yaw:	6.326	Thrust:	0.000
Time:	3.860	Roll Set Point:	-0.034	Pitch Set Point:	-0.031	Yaw Set Point:	-0.054	X_WP:	0.000	Y_WP:	0.000	Y_WP:	0.000	X:	0.017	Y:	0.016	Z:	0.052	yaw:	3.090	yaw rate:	-5.645	Roll:	0.639	Pitch:	0.487	Yaw:	7.175	Thrust:	0.000
Time:	3.878	Roll Set Point:	-0.034	Pitch Set Point:	-0.031	Yaw Set Point:	-0.054	X_WP:	0.000	Y_WP:	0.000	Y_WP:	0.000	X:	0.017	Y:	0.016	Z:	0.052	yaw:	3.117	yaw rate:	-2.714	Roll:	0.651	Pitch:	0.571	Yaw:	6.563	Thrust:	0.000
Time:	3.898	Roll Set Point:	-0.034	Pitch Set Point:	-0.031	Yaw Set Point:	-0.054	X_WP:	0.000	Y_WP:	0.000	Y_WP:	0.000	X:	0.017	Y:	0.016	Z:	0.052	yaw:	3.080	yaw rate:	3.750	Roll:	0.696	Pitch:	0.585	Yaw:	5.733	Thrust:	0.000
Time:	3.922	Roll Set Point:	-0.034	Pitch Set Point:	-0.031	Yaw Set Point:	-0.053	X_WP:	0.000	Y_WP:	0.000	Y_WP:	0.000	X:	0.017	Y:	0.016	Z:	0.052	yaw:	3.010	yaw rate:	6.961	Roll:	0.734	Pitch:	0.710	Yaw:	5.866	Thrust:	0.000
Time:	3.938	Roll Set Point:	-0.034	Pitch Set Point:	-0.031	Yaw Set Point:	-0.054	X_WP:	0.000	Y_WP:	0.000	Y_WP:	0.000	X:	0.017	Y:	0.016	Z:	0.052	yaw:	3.090	yaw rate:	-8.018	Roll:	0.603	Pitch:	0.433	Yaw:	7.232	Thrust:	0.000
Time:	3.959	Roll Set Point:	-0.034	Pitch Set Point:	-0.031	Yaw Set Point:	-0.055	X_WP:	0.000	Y_WP:	0.000	Y_WP:	0.000	X:	0.017	Y:	0.016	Z:	0.052	yaw:	3.164	yaw rate:	-7.380	Roll:	0.677	Pitch:	0.594	Yaw:	7.385	Thrust:	0.000
Time:	3.981	Roll Set Point:	-0.034	Pitch Set Point:	-0.031	Yaw Set Point:	-0.055	X_WP:	0.000	Y_WP:	0.000	Y_WP:	0.000	X:	0.017	Y:	0.016	Z:	0.052	yaw:	3.145	yaw rate:	1.906	Roll:	0.705	Pitch:	0.595	Yaw:	6.387	Thrust:	0.000
Time:	4.003	Roll Set Point:	-0.034	Pitch Set Point:	-0.031	Yaw Set Point:	-0.054	X_WP:	0.000	Y_WP:	0.000	Y_WP:	0.000	X:	0.017	Y:	0.016	Z:	0.052	yaw:	3.110	yaw rate:	3.486	Roll:	0.703	Pitch:	0.633	Yaw:	6.256	Thrust:	0.000
Time:	4.019	Roll Set Point:	-0.034	Pitch Set Point:	-0.031	Yaw Set Point:	-0.053	X_WP:	0.000	Y_WP:	0.000	Y_WP:	0.000	X:	0.017	Y:	0.016	Z:	0.052	yaw:	3.036	yaw rate:	7.415	Roll:	0.753	Pitch:	0.682	Yaw:	4.463	Thrust:	0.000
Time:	4.038	Roll Set Point:	-0.034	Pitch Set Point:	-0.031	Yaw Set Point:	-0.053	X_WP:	0.000	Y_WP:	0.000	Y_WP:	0.000	X:	0.017	Y:	0.016	Z:	0.052	yaw:	3.044	yaw rate:	-0.826	Roll:	0.601	Pitch:	0.488	Yaw:	6.310	Thrust:	0.000
Time:	4.060	Roll Set Point:	-0.034	Pitch Set Point:	-0.031	Yaw Set Point:	-0.053	X_WP:	0.000	Y_WP:	0.000	Y_WP:	0.000	X:	0.017	Y:	0.016	Z:	0.052	yaw:	3.051	yaw rate:	-0.658	Roll:	0.697	Pitch:	0.584	Yaw:	6.537	Thrust:	0.000
Time:	4.078	Roll Set Point:	-0.034	Pitch Set Point:	-0.031	Yaw Set Point:	-0.054	X_WP:	0.000	Y_WP:	0.000	Y_WP:	0.000	X:	0.017	Y:	0.016	Z:	0.052	yaw:	3.109	yaw rate:	-5.779	Roll:	0.697	Pitch:	0.591	Yaw:	6.986	Thrust:	0.000
Time:	4.098	Roll Set Point:	-0.034	Pitch Set Point:	-0.031	Yaw Set Point:	-0.053	X_WP:	0.000	Y_WP:	0.000	Y_WP:	0.000	X:	0.017	Y:	0.016	Z:	0.052	yaw:	3.055	yaw rate:	5.309	Roll:	0.676	Pitch:	0.578	Yaw:	5.520	Thrust:	0.000
Time:	4.121	Roll Set Point:	-0.034	Pitch Set Point:	-0.031	Yaw Set Point:	-0.052	X_WP:	0.000	Y_WP:	0.000	Y_WP:	0.000	X:	0.017	Y:	0.016	Z:	0.052	yaw:	2.989	yaw rate:	6.626	Roll:	0.747	Pitch:	0.729	Yaw:	5.722	Thrust:	0.000
Time:	4.138	Roll Set Point:	-0.034	Pitch Set Point:	-0.031	Yaw Set Point:	-0.053	X_WP:	0.000	Y_WP:	0.000	Y_WP:	0.000	X:	0.017	Y:	0.016	Z:	0.052	yaw:	3.020	yaw rate:	-3.115	Roll:	0.693	Pitch:	0.579	Yaw:	6.436	Thrust:	0.000
Time:	4.158	Roll Set Point:	-0.034	Pitch Set Point:	-0.031	Yaw Set Point:	-0.056	X_WP:	0.000	Y_WP:	0.000	Y_WP:	0.000	X:	0.017	Y:	0.016	Z:	0.052	yaw:	3.180	yaw rate:	-15.980	Roll:	0.643	Pitch:	0.481	Yaw:	8.532	Thrust:	0.000
Time:	4.181	Roll Set Point:	-0.034	Pitch Set Point:	-0.031	Yaw Set Point:	-0.053	X_WP:	0.000	Y_WP:	0.000	Y_WP:	0.000	X:	0.017	Y:	0.016	Z:	0.052	yaw:	3.037	yaw rate:	14.274	Roll:	0.713	Pitch:	0.634	Yaw:	4.818	Thrust:	0.000
Time:	4.198	Roll Set Point:	-0.034	Pitch Set Point:	-0.031	Yaw Set Point:	-0.053	X_WP:	0.000	Y_WP:	0.000	Y_WP:	0.000	X:	0.017	Y:	0.016	Z:	0.052	yaw:	3.063	yaw rate:	-2.580	Roll:	0.677	Pitch:	0.572	Yaw:	6.417	Thrust:	0.000
Time:	4.219	Roll Set Point:	-0.034	Pitch Set Point:	-0.031	Yaw Set Point:	-0.054	X_WP:	0.000	Y_WP:	0.000	Y_WP:	0.000	X:	0.017	Y:	0.016	Z:	0.052	yaw:	3.095	yaw rate:	-3.176	Roll:	0.708	Pitch:	0.563	Yaw:	6.782	Thrust:	0.000
Time:	4.238	Roll Set Point:	-0.034	Pitch Set Point:	-0.031	Yaw Set Point:	-0.054	X_WP:	0.000	Y_WP:	0.000	Y_WP:	0.000	X:	0.017	Y:	0.016	Z:	0.052	yaw:	3.088	yaw rate:	0.656	Roll:	0.659	Pitch:	0.631	Yaw:	6.146	Thrust:	0.000
Time:	4.259	Roll Set Point:	-0.034	Pitch Set Point:	-0.031	Yaw Set Point:	-0.055	X_WP:	0.000	Y_WP:	0.000	Y_WP:	0.000	X:	0.017	Y:	0.016	Z:	0.052	yaw:	3.136	yaw rate:	-4.785	Roll:	0.709	Pitch:	0.592	Yaw:	7.095	Thrust:	0.000
Time:	4.278	Roll Set Point:	-0.034	Pitch Set Point:	-0.031	Yaw Set Point:	-0.054	X_WP:	0.000	Y_WP:	0.000	Y_WP:	0.000	X:	0.017	Y:	0.016	Z:	0.052	yaw:	3.107	yaw rate:	2.878	Roll:	0.713	Pitch:	0.584	Yaw:	5.839	Thrust:	0.000
Time:	4.298	Roll Set Point:	-0.034	Pitch Set Point:	-0.031	Yaw Set Point:	-0.054	X_WP:	0.000	Y_WP:	0.000	Y_WP:	0.000	X:	0.017	Y:	0.016	Z:	0.052	yaw:	3.097	yaw rate:	1.029	Roll:	0.670	Pitch:	0.588	Yaw:	6.158	Thrust:	0.000
Time:	4.321	Roll Set Point:	-0.034	Pitch Set Point:	-0.031	Yaw Set Point:	-0.054	X_WP:	0.000	Y_WP:	0.000	Y_WP:	0.000	X:	0.017	Y:	0.016	Z:	0.052	yaw:	3.112	yaw rate:	-1.464	Roll:	0.739	Pitch:	0.645	Yaw:	6.857	Thrust:	0.000
Time:	4.338	Roll Set Point:	-0.034	Pitch Set Point:	-0.031	Yaw Set Point:	-0.053	X_WP:	0.000	Y_WP:	0.000	Y_WP:	0.000	X:	0.017	Y:	0.016	Z:	0.052	yaw:	3.032	yaw rate:	7.960	Roll:	0.639	Pitch:	0.558	Yaw:	4.628	Thrust:	0.000
Time:	4.358	Roll Set Point:	-0.034	Pitch Set Point:	-0.031	Yaw Set Point:	-0.054	X_WP:	0.000	Y_WP:	0.000	Y_WP:	0.000	X:	0.017	Y:	0.016	Z:	0.052	yaw:	3.105	yaw rate:	-7.252	Roll:	0.731	Pitch:	0.626	Yaw:	7.279	Thrust:	0.000
Time:	4.381	Roll Set Point:	-0.034	Pitch Set Point:	-0.031	Yaw Set Point:	-0.055	X_WP:	0.000	Y_WP:	0.000	Y_WP:	0.000	X:	0.017	Y:	0.016	Z:	0.052	yaw:	3.138	yaw rate:	-3.325	Roll:	0.722	Pitch:	0.606	Yaw:	7.025	Thrust:	0.000
Time:	4.398	Roll Set Point:	-0.034	Pitch Set Point:	-0.031	Yaw Set Point:	-0.055	X_WP:	0.000	Y_WP:	0.000	Y_WP:	0.000	X:	0.017	Y:	0.016	Z:	0.052	yaw:	3.139	yaw rate:	-0.062	Roll:	0.672	Pitch:	0.605	Yaw:	6.158	Thrust:	0.000
Time:	4.418	Roll Set Point:	-0.034	Pitch Set Point:	-0.031	Yaw Set Point:	-0.054	X_WP:	0.000	Y_WP:	0.000	Y_WP:	0.000	X:	0.017	Y:	0.016	Z:	0.052	yaw:	3.070	yaw rate:	6.835	Roll:	0.699	Pitch:	0.598	Yaw:	5.339	Thrust:	0.000
Time:	4.438	Roll Set Point:	-0.034	Pitch Set Point:	-0.031	Yaw Set Point:	-0.054	X_WP:	0.000	Y_WP:	0.000	Y_WP:	0.000	X:	0.017	Y:	0.016	Z:	0.052	yaw:	3.080	yaw rate:	-1.011	Roll:	0.712	Pitch:	0.602	Yaw:	6.458	Thrust:	0.000
Time:	4.461	Roll Set Point:	-0.034	Pitch Set Point:	-0.031	Yaw Set Point:	-0.054	X_WP:	0.000	Y_WP:	0.000	Y_WP:	0.000	X:	0.017	Y:	0.016	Z:	0.052	yaw:	3.115	yaw rate:	-3.422	Roll:	0.713	Pitch:	0.615	Yaw:	6.895	Thrust:	0.000
Time:	4.478	Roll Set Point:	-0.034	Pitch Set Point:	-0.031	Yaw Set Point:	-0.053	X_WP:	0.000	Y_WP:	0.000	Y_WP:	0.000	X:	0.017	Y:	0.016	Z:	0.052	yaw:	3.064	yaw rate:	5.045	Roll:	0.693	Pitch:	0.587	Yaw:	5.408	Thrust:	0.000
Time:	4.498	Roll Set Point:	-0.034	Pitch Set Point:	-0.031	Yaw Set Point:	-0.054	X_WP:	0.000	Y_WP:	0.000	Y_WP:	0.000	X:	0.017	Y:	0.016	Z:	0.052	yaw:	3.073	yaw rate:	-0.855	Roll:	0.689	Pitch:	0.611	Yaw:	6.432	Thrust:	0.000
Time:	4.521	Roll Set Point:	-0.034	Pitch Set Point:	-0.031	Yaw Set Point:	-0.054	X_WP:	0.000	Y_WP:	0.000	Y_WP:	0.000	X:	0.017	Y:	0.016	Z:	0.052	yaw:	3.087	yaw rate:	-1.463	Roll:	0.764	Pitch:	0.653	Yaw:	6.807	Thrust:	0.000
Time:	4.539	Roll Set Point:	-0.034	Pitch Set Point:	-0.031	Yaw Set Point:	-0.054	X_WP:	0.000	Y_WP:	0.000	Y_WP:	0.000	X:	0.017	Y:	0.016	Z:	0.052	yaw:	3.094	yaw rate:	-0.709	Roll:	0.671	Pitch:	0.576	Yaw:	6.185	Thrust:	0.000
Time:	4.558	Roll Set Point:	-0.034	Pitch Set Point:	-0.031	Yaw Set Point:	-0.054	X_WP:	0.000	Y_WP:	0.000	Y_WP:	0.000	X:	0.017	Y:	0.016	Z:	0.052	yaw:	3.109	yaw rate:	-1.485	Roll:	0.698	Pitch:	0.604	Yaw:	6.441	Thrust:	0.000
Time:	4.582	Roll Set Point:	-0.034	Pitch Set Point:	-0.031	Yaw Set Point:	-0.054	X_WP:	0.000	Y_WP:	0.000	Y_WP:	0.000	X:	0.017	Y:	0.016	Z:	0.052	yaw:	3.067	yaw rate:	4.204	Roll:	0.729	Pitch:	0.650	Yaw:	6.148	Thrust:	0.000
Time:	4.598	Roll Set Point:	-0.034	Pitch Set Point:	-0.031	Yaw Set Point:	-0.054	X_WP:	0.000	Y_WP:	0.000	Y_WP:	0.000	X:	0.017	Y:	0.016	Z:	0.052	yaw:	3.097	yaw rate:	-2.932	Roll:	0.695	Pitch:	0.566	Yaw:	6.407	Thrust:	0.000
Time:	4.623	Roll Set Point:	-0.034	Pitch Set Point:	-0.031	Yaw Set Point:	-0.053	X_WP:	0.000	Y_WP:	0.000	Y_WP:	0.000	X:	0.017	Y:	0.016	Z:	0.052	yaw:	3.039	yaw rate:	5.737	Roll:	0.764	Pitch:	0.652	Yaw:	6.220	Thrust:	0.000
Time:	4.638	Roll Set Point:	-0.034	Pitch Set Point:	-0.031	Yaw Set Point:	-0.053	X_WP:	0.000	Y_WP:	0.000	Y_WP:	0.000	X:	0.017	Y:	0.016	Z:	0.052	yaw:	3.015	yaw rate:	2.386	Roll:	0.724	Pitch:	0.754	Yaw:	5.307	Thrust:	0.000
Time:	4.659	Roll Set Point:	-0.034	Pitch Set Point:	-0.031	Yaw Set Point:	-0.054	X_WP:	0.000	Y_WP:	0.000	Y_WP:	0.000	X:	0.017	Y:	0.016	Z:	0.052	yaw:	3.096	yaw rate:	-8.075	Roll:	0.661	Pitch:	0.496	Yaw:	7.456	Thrust:	0.000
Time:	4.678	Roll Set Point:	-0.034	Pitch Set Point:	-0.031	Yaw Set Point:	-0.054	X_WP:	0.000	Y_WP:	0.000	Y_WP:	0.000	X:	0.017	Y:	0.016	Z:	0.052	yaw:	3.082	yaw rate:	1.441	Roll:	0.729	Pitch:	0.600	Yaw:	5.965	Thrust:	0.000
Time:	4.698	Roll Set Point:	-0.034	Pitch Set Point:	-0.031	Yaw Set Point:	-0.054	X_WP:	0.000	Y_WP:	0.000	Y_WP:	0.000	X:	0.017	Y:	0.016	Z:	0.052	yaw:	3.082	yaw rate:	-0.047	Roll:	0.695	Pitch:	0.626	Yaw:	6.269	Thrust:	0.000
Time:	4.722	Roll Set Point:	-0.034	Pitch Set Point:	-0.031	Yaw Set Point:	-0.055	X_WP:	0.000	Y_WP:	0.000	Y_WP:	0.000	X:	0.017	Y:	0.016	Z:	0.052	yaw:	3.143	yaw rate:	-6.053	Roll:	0.748	Pitch:	0.621	Yaw:	7.419	Thrust:	0.000
Time:	4.738	Roll Set Point:	-0.034	Pitch Set Point:	-0.031	Yaw Set Point:	-0.053	X_WP:	0.000	Y_WP:	0.000	Y_WP:	0.000	X:	0.017	Y:	0.016	Z:	0.052	yaw:	3.043	yaw rate:	9.995	Roll:	0.748	Pitch:	0.728	Yaw:	4.398	Thrust:	0.000
Time:	4.758	Roll Set Point:	-0.034	Pitch Set Point:	-0.031	Yaw Set Point:	-0.055	X_WP:	0.000	Y_WP:	0.000	Y_WP:	0.000	X:	0.017	Y:	0.016	Z:	0.052	yaw:	3.144	yaw rate:	-10.162	Roll:	0.665	Pitch:	0.530	Yaw:	7.715	Thrust:	0.000
Time:	4.794	Roll Set Point:	-0.034	Pitch Set Point:	-0.031	Yaw Set Point:	-0.053	X_WP:	0.000	Y_WP:	0.000	Y_WP:	0.000	X:	0.017	Y:	0.016	Z:	0.052	yaw:	3.060	yaw rate:	8.384	Roll:	0.750	Pitch:	0.625	Yaw:	7.116	Thrust:	0.000
Time:	4.805	Roll Set Point:	-0.034	Pitch Set Point:	-0.031	Yaw Set Point:	-0.054	X_WP:	0.000	Y_WP:	0.000	Y_WP:	0.000	X:	0.017	Y:	0.016	Z:	0.052	yaw:	3.077	yaw rate:	-1.637	Roll:	0.768	Pitch:	0.647	Yaw:	5.802	Thrust:	0.000
Time:	4.819	Roll Set Point:	-0.034	Pitch Set Point:	-0.031	Yaw Set Point:	-0.053	X_WP:	0.000	Y_WP:	0.000	Y_WP:	0.000	X:	0.017	Y:	0.016	Z:	0.052	yaw:	3.034	yaw rate:	4.279	Roll:	0.640	Pitch:	0.602	Yaw:	4.920	Thrust:	0.000
Time:	4.839	Roll Set Point:	-0.034	Pitch Set Point:	-0.031	Yaw Set Point:	-0.053	X_WP:	0.000	Y_WP:	0.000	Y_WP:	0.000	X:	0.017	Y:	0.016	Z:	0.052	yaw:	3.037	yaw rate:	-0.330	Roll:	0.709	Pitch:	0.597	Yaw:	6.240	Thrust:	0.000
Time:	4.860	Roll Set Point:	-0.034	Pitch Set Point:	-0.031	Yaw Set Point:	-0.055	X_WP:	0.000	Y_WP:	0.000	Y_WP:	0.000	X:	0.017	Y:	0.016	Z:	0.052	yaw:	3.127	yaw rate:	-8.977	Roll:	0.740	Pitch:	0.633	Yaw:	7.651	Thrust:	0.000
Time:	4.878	Roll Set Point:	-0.034	Pitch Set Point:	-0.031	Yaw Set Point:	-0.054	X_WP:	0.000	Y_WP:	0.000	Y_WP:	0.000	X:	0.017	Y:	0.016	Z:	0.052	yaw:	3.092	yaw rate:	3.515	Roll:	0.717	Pitch:	0.620	Yaw:	5.546	Thrust:	0.000
Time:	4.898	Roll Set Point:	-0.034	Pitch Set Point:	-0.031	Yaw Set Point:	-0.054	X_WP:	0.000	Y_WP:	0.000	Y_WP:	0.000	X:	0.017	Y:	0.016	Z:	0.052	yaw:	3.102	yaw rate:	-0.994	Roll:	0.768	Pitch:	0.619	Yaw:	6.435	Thrust:	0.000
Time:	4.922	Roll Set Point:	-0.034	Pitch Set Point:	-0.031	Yaw Set Point:	-0.054	X_WP:	0.000	Y_WP:	0.000	Y_WP:	0.000	X:	0.017	Y:	0.016	Z:	0.052	yaw:	3.100	yaw rate:	0.171	Roll:	0.684	Pitch:	0.668	Yaw:	6.667	Thrust:	0.000
Time:	4.938	Roll Set Point:	-0.034	Pitch Set Point:	-0.031	Yaw Set Point:	-0.054	X_WP:	0.000	Y_WP:	0.000	Y_WP:	0.000	X:	0.017	Y:	0.016	Z:	0.052	yaw:	3.098	yaw rate:	0.196	Roll:	0.730	Pitch:	0.586	Yaw:	5.976	Thrust:	0.000
Time:	4.958	Roll Set Point:	-0.034	Pitch Set Point:	-0.031	Yaw Set Point:	-0.053	X_WP:	0.000	Y_WP:	0.000	Y_WP:	0.000	X:	0.017	Y:	0.016	Z:	0.052	yaw:	3.057	yaw rate:	4.148	Roll:	0.718	Pitch:	0.615	Yaw:	5.771	Thrust:	0.000
Time:	4.981	Roll Set Point:	-0.034	Pitch Set Point:	-0.031	Yaw Set Point:	-0.054	X_WP:	0.000	Y_WP:	0.000	Y_WP:	0.000	X:	0.017	Y:	0.016	Z:	0.052	yaw:	3.067	yaw rate:	-1.004	Roll:	0.765	Pitch:	0.651	Yaw:	6.598	Thrust:	0.000
Time:	4.997	Roll Set Point:	-0.034	Pitch Set Point:	-0.031	Yaw Set Point:	-0.054	X_WP:	0.000	Y_WP:	0.000	Y_WP:	0.000	X:	0.017	Y:	0.016	Z:	0.052	yaw:	3.108	yaw rate:	-4.137	Roll:	0.700	Pitch:	0.590	Yaw:	6.680	Thrust:	0.000
Time:	5.018	Roll Set Point:	-0.034	Pitch Set Point:	-0.031	Yaw Set Point:	-0.054	X_WP:	0.000	Y_WP:	0.000	Y_WP:	0.000	X:	0.017	Y:	0.016	Z:	0.052	yaw:	3.101	yaw rate:	0.710	Roll:	0.721	Pitch:	0.633	Yaw:	6.402	Thrust:	0.000
Time:	5.039	Roll Set Point:	-0.034	Pitch Set Point:	-0.031	Yaw Set Point:	-0.054	X_WP:	0.000	Y_WP:	0.000	Y_WP:	0.000	X:	0.017	Y:	0.016	Z:	0.052	yaw:	3.070	yaw rate:	3.131	Roll:	0.748	Pitch:	0.621	Yaw:	6.378	Thrust:	0.000
Time:	5.063	Roll Set Point:	-0.034	Pitch Set Point:	-0.031	Yaw Set Point:	-0.054	X_WP:	0.000	Y_WP:	0.000	Y_WP:	0.000	X:	0.017	Y:	0.016	Z:	0.052	yaw:	3.112	yaw rate:	-4.181	Roll:	0.759	Pitch:	0.642	Yaw:	6.772	Thrust:	0.000
Time:	5.078	Roll Set Point:	-0.034	Pitch Set Point:	-0.031	Yaw Set Point:	-0.054	X_WP:	0.000	Y_WP:	0.000	Y_WP:	0.000	X:	0.017	Y:	0.016	Z:	0.052	yaw:	3.018	yaw rate:	9.355	Roll:	0.648	Pitch:	0.491	Yaw:	5.883	Thrust:	0.000
Time:	5.099	Roll Set Point:	-0.034	Pitch Set Point:	-0.031	Yaw Set Point:	-0.054	X_WP:	0.000	Y_WP:	0.000	Y_WP:	0.000	X:	0.017	Y:	0.016	Z:	0.052	yaw:	3.170	yaw rate:	-15.188	Roll:	0.764	Pitch:	0.714	Yaw:	6.381	Thrust:	0.000
Time:	5.122	Roll Set Point:	-0.034	Pitch Set Point:	-0.031	Yaw Set Point:	-0.054	X_WP:	0.000	Y_WP:	0.000	Y_WP:	0.000	X:	0.017	Y:	0.016	Z:	0.052	yaw:	3.157	yaw rate:	1.283	Roll:	0.803	Pitch:	0.659	Yaw:	6.648	Thrust:	0.000
Time:	5.139	Roll Set Point:	-0.034	Pitch Set Point:	-0.031	Yaw Set Point:	-0.054	X_WP:	0.000	Y_WP:	0.000	Y_WP:	0.000	X:	0.017	Y:	0.016	Z:	0.052	yaw:	3.104	yaw rate:	5.292	Roll:	0.653	Pitch:	0.605	Yaw:	6.044	Thrust:	0.000
Time:	5.163	Roll Set Point:	-0.034	Pitch Set Point:	-0.031	Yaw Set Point:	-0.054	X_WP:	0.000	Y_WP:	0.000	Y_WP:	0.000	X:	0.017	Y:	0.016	Z:	0.052	yaw:	3.175	yaw rate:	-7.093	Roll:	0.806	Pitch:	0.660	Yaw:	6.743	Thrust:	0.000
Time:	5.182	Roll Set Point:	-0.034	Pitch Set Point:	-0.031	Yaw Set Point:	-0.054	X_WP:	0.000	Y_WP:	0.000	Y_WP:	0.000	X:	0.017	Y:	0.016	Z:	0.052	yaw:	3.093	yaw rate:	8.221	Roll:	0.689	Pitch:	0.649	Yaw:	6.246	Thrust:	0.000
Time:	5.198	Roll Set Point:	-0.034	Pitch Set Point:	-0.031	Yaw Set Point:	-0.054	X_WP:	0.000	Y_WP:	0.000	Y_WP:	0.000	X:	0.017	Y:	0.016	Z:	0.052	yaw:	3.065	yaw rate:	2.766	Roll:	0.713	Pitch:	0.601	Yaw:	5.999	Thrust:	0.000
Time:	5.219	Roll Set Point:	-0.034	Pitch Set Point:	-0.031	Yaw Set Point:	-0.054	X_WP:	0.000	Y_WP:	0.000	Y_WP:	0.000	X:	0.017	Y:	0.016	Z:	0.052	yaw:	3.058	yaw rate:	0.765	Roll:	0.742	Pitch:	0.643	Yaw:	6.352	Thrust:	0.000
Time:	5.239	Roll Set Point:	-0.034	Pitch Set Point:	-0.031	Yaw Set Point:	-0.054	X_WP:	0.000	Y_WP:	0.000	Y_WP:	0.000	X:	0.017	Y:	0.016	Z:	0.052	yaw:	3.064	yaw rate:	-0.622	Roll:	0.741	Pitch:	0.658	Yaw:	6.338	Thrust:	0.000
Time:	5.263	Roll Set Point:	-0.034	Pitch Set Point:	-0.031	Yaw Set Point:	-0.054	X_WP:	0.000	Y_WP:	0.000	Y_WP:	0.000	X:	0.017	Y:	0.016	Z:	0.052	yaw:	3.093	yaw rate:	-2.971	Roll:	0.784	Pitch:	0.655	Yaw:	6.801	Thrust:	0.000
Time:	5.279	Roll Set Point:	-0.034	Pitch Set Point:	-0.031	Yaw Set Point:	-0.054	X_WP:	0.000	Y_WP:	0.000	Y_WP:	0.000	X:	0.017	Y:	0.016	Z:	0.052	yaw:	3.033	yaw rate:	6.072	Roll:	0.706	Pitch:	0.635	Yaw:	5.902	Thrust:	0.000
Time:	5.298	Roll Set Point:	-0.034	Pitch Set Point:	-0.031	Yaw Set Point:	-0.054	X_WP:	0.000	Y_WP:	0.000	Y_WP:	0.000	X:	0.017	Y:	0.016	Z:	0.052	yaw:	3.142	yaw rate:	-10.972	Roll:	0.751	Pitch:	0.585	Yaw:	6.247	Thrust:	0.000
Time:	5.322	Roll Set Point:	-0.034	Pitch Set Point:	-0.031	Yaw Set Point:	-0.054	X_WP:	0.000	Y_WP:	0.000	Y_WP:	0.000	X:	0.017	Y:	0.016	Z:	0.052	yaw:	3.030	yaw rate:	11.290	Roll:	0.749	Pitch:	0.703	Yaw:	6.747	Thrust:	0.000
Time:	5.339	Roll Set Point:	-0.034	Pitch Set Point:	-0.031	Yaw Set Point:	-0.054	X_WP:	0.000	Y_WP:	0.000	Y_WP:	0.000	X:	0.017	Y:	0.016	Z:	0.052	yaw:	3.080	yaw rate:	-5.045	Roll:	0.719	Pitch:	0.604	Yaw:	5.961	Thrust:	0.000
Time:	5.358	Roll Set Point:	-0.034	Pitch Set Point:	-0.031	Yaw Set Point:	-0.054	X_WP:	0.000	Y_WP:	0.000	Y_WP:	0.000	X:	0.017	Y:	0.016	Z:	0.052	yaw:	3.126	yaw rate:	-4.561	Roll:	0.745	Pitch:	0.623	Yaw:	6.354	Thrust:	0.000
Time:	5.382	Roll Set Point:	-0.034	Pitch Set Point:	-0.031	Yaw Set Point:	-0.054	X_WP:	0.000	Y_WP:	0.000	Y_WP:	0.000	X:	0.017	Y:	0.016	Z:	0.052	yaw:	3.113	yaw rate:	1.285	Roll:	0.821	Pitch:	0.647	Yaw:	6.703	Thrust:	0.000
Time:	5.398	Roll Set Point:	-0.034	Pitch Set Point:	-0.031	Yaw Set Point:	-0.054	X_WP:	0.000	Y_WP:	0.000	Y_WP:	0.000	X:	0.017	Y:	0.016	Z:	0.052	yaw:	3.062	yaw rate:	5.058	Roll:	0.618	Pitch:	0.486	Yaw:	5.996	Thrust:	0.000
Time:	5.419	Roll Set Point:	-0.034	Pitch Set Point:	-0.031	Yaw Set Point:	-0.054	X_WP:	0.000	Y_WP:	0.000	Y_WP:	0.000	X:	0.017	Y:	0.016	Z:	0.052	yaw:	3.097	yaw rate:	-3.500	Roll:	0.788	Pitch:	0.773	Yaw:	6.345	Thrust:	0.000
