Time:	0.047	Roll Set Point:	-0.023	Pitch Set Point:	0.005	Yaw Set Point:	-2.508	X_WP:	0.000	Y_WP:	0.000	Z_WP:	0.500	X:	0.019	Y:	0.032	Z:	0.059	yaw:	143.671	yaw rate:	-1.387	Roll:	0.018	Pitch:	-0.186	Yaw:	200.602	Thrust:	24.254
Time:	0.067	Roll Set Point:	-0.023	Pitch Set Point:	0.005	Yaw Set Point:	-2.507	X_WP:	0.000	Y_WP:	0.000	Z_WP:	0.500	X:	0.019	Y:	0.032	Z:	0.059	yaw:	143.665	yaw rate:	0.555	Roll:	0.034	Pitch:	-0.198	Yaw:	201.551	Thrust:	25.301
Time:	0.088	Roll Set Point:	-0.023	Pitch Set Point:	0.005	Yaw Set Point:	-2.508	X_WP:	0.000	Y_WP:	0.000	Z_WP:	0.500	X:	0.019	Y:	0.032	Z:	0.059	yaw:	143.703	yaw rate:	-3.770	Roll:	-0.028	Pitch:	-0.160	Yaw:	203.171	Thrust:	26.331
Time:	0.107	Roll Set Point:	-0.023	Pitch Set Point:	0.005	Yaw Set Point:	-2.507	X_WP:	0.000	Y_WP:	0.000	Z_WP:	0.500	X:	0.019	Y:	0.032	Z:	0.059	yaw:	143.631	yaw rate:	7.232	Roll:	0.013	Pitch:	-0.177	Yaw:	201.538	Thrust:	27.400
Time:	0.131	Roll Set Point:	-0.023	Pitch Set Point:	0.005	Yaw Set Point:	-2.509	X_WP:	0.000	Y_WP:	0.000	Z_WP:	0.500	X:	0.019	Y:	0.032	Z:	0.059	yaw:	143.733	yaw rate:	-10.271	Roll:	0.006	Pitch:	-0.200	Yaw:	204.162	Thrust:	29.153
Time:	0.147	Roll Set Point:	-0.023	Pitch Set Point:	0.005	Yaw Set Point:	-2.509	X_WP:	0.000	Y_WP:	0.000	Z_WP:	0.500	X:	0.019	Y:	0.032	Z:	0.059	yaw:	143.730	yaw rate:	0.301	Roll:	-0.008	Pitch:	-0.195	Yaw:	202.267	Thrust:	28.422
Time:	0.167	Roll Set Point:	-0.023	Pitch Set Point:	0.005	Yaw Set Point:	-2.509	X_WP:	0.000	Y_WP:	0.000	Z_WP:	0.500	X:	0.019	Y:	0.032	Z:	0.059	yaw:	143.732	yaw rate:	-0.163	Roll:	0.077	Pitch:	-0.207	Yaw:	202.774	Thrust:	30.786
Time:	0.188	Roll Set Point:	-0.023	Pitch Set Point:	0.005	Yaw Set Point:	-2.508	X_WP:	0.000	Y_WP:	0.000	Z_WP:	0.500	X:	0.019	Y:	0.032	Z:	0.059	yaw:	143.704	yaw rate:	2.752	Roll:	0.059	Pitch:	-0.197	Yaw:	202.294	Thrust:	31.590
Time:	0.208	Roll Set Point:	-0.023	Pitch Set Point:	0.005	Yaw Set Point:	-2.508	X_WP:	0.000	Y_WP:	0.000	Z_WP:	0.500	X:	0.019	Y:	0.032	Z:	0.059	yaw:	143.676	yaw rate:	2.847	Roll:	0.048	Pitch:	-0.205	Yaw:	202.259	Thrust:	32.760
Time:	0.230	Roll Set Point:	-0.023	Pitch Set Point:	0.005	Yaw Set Point:	-2.508	X_WP:	0.000	Y_WP:	0.000	Z_WP:	0.500	X:	0.019	Y:	0.032	Z:	0.059	yaw:	143.709	yaw rate:	-3.300	Roll:	0.016	Pitch:	-0.200	Yaw:	203.297	Thrust:	34.877
Time:	0.247	Roll Set Point:	-0.023	Pitch Set Point:	0.005	Yaw Set Point:	-2.505	X_WP:	0.000	Y_WP:	0.000	Z_WP:	0.500	X:	0.019	Y:	0.032	Z:	0.059	yaw:	143.506	yaw rate:	20.242	Roll:	0.046	Pitch:	-0.068	Yaw:	198.967	Thrust:	33.084
Time:	0.267	Roll Set Point:	-0.023	Pitch Set Point:	0.005	Yaw Set Point:	-2.491	X_WP:	0.000	Y_WP:	0.000	Z_WP:	0.500	X:	0.019	Y:	0.032	Z:	0.059	yaw:	142.716	yaw rate:	79.071	Roll:	0.146	Pitch:	-0.014	Yaw:	190.840	Thrust:	35.793
Time:	0.288	Roll Set Point:	-0.023	Pitch Set Point:	0.006	Yaw Set Point:	-2.475	X_WP:	0.000	Y_WP:	0.000	Z_WP:	0.500	X:	0.020	Y:	0.031	Z:	0.059	yaw:	141.785	yaw rate:	93.067	Roll:	-0.052	Pitch:	-0.052	Yaw:	188.176	Thrust:	37.258
Time:	0.308	Roll Set Point:	-0.024	Pitch Set Point:	0.006	Yaw Set Point:	-2.461	X_WP:	0.000	Y_WP:	0.000	Z_WP:	0.500	X:	0.020	Y:	0.031	Z:	0.059	yaw:	140.986	yaw rate:	79.954	Roll:	-0.065	Pitch:	-0.312	Yaw:	188.233	Thrust:	37.725
Time:	0.329	Roll Set Point:	-0.025	Pitch Set Point:	0.006	Yaw Set Point:	-2.449	X_WP:	0.000	Y_WP:	0.000	Z_WP:	0.500	X:	0.021	Y:	0.031	Z:	0.059	yaw:	140.318	yaw rate:	66.758	Roll:	-0.080	Pitch:	-0.566	Yaw:	189.850	Thrust:	40.038
Time:	0.347	Roll Set Point:	-0.025	Pitch Set Point:	0.007	Yaw Set Point:	-2.433	X_WP:	0.000	Y_WP:	0.000	Z_WP:	0.500	X:	0.022	Y:	0.031	Z:	0.059	yaw:	139.401	yaw rate:	91.649	Roll:	0.137	Pitch:	-0.522	Yaw:	183.530	Thrust:	38.815
Time:	0.368	Roll Set Point:	-0.026	Pitch Set Point:	0.007	Yaw Set Point:	-2.410	X_WP:	0.000	Y_WP:	0.000	Z_WP:	0.500	X:	0.022	Y:	0.031	Z:	0.059	yaw:	138.086	yaw rate:	131.561	Roll:	0.261	Pitch:	-0.361	Yaw:	177.574	Thrust:	41.243
Time:	0.390	Roll Set Point:	-0.027	Pitch Set Point:	0.007	Yaw Set Point:	-2.380	X_WP:	0.000	Y_WP:	0.000	Z_WP:	0.500	X:	0.023	Y:	0.030	Z:	0.059	yaw:	136.373	yaw rate:	171.266	Roll:	0.434	Pitch:	-0.158	Yaw:	172.899	Thrust:	43.580
Time:	0.407	Roll Set Point:	-0.028	Pitch Set Point:	0.008	Yaw Set Point:	-2.349	X_WP:	0.000	Y_WP:	0.000	Z_WP:	0.500	X:	0.023	Y:	0.030	Z:	0.059	yaw:	134.600	yaw rate:	177.275	Roll:	0.376	Pitch:	-0.233	Yaw:	162.872	Thrust:	41.719
Time:	0.430	Roll Set Point:	-0.029	Pitch Set Point:	0.008	Yaw Set Point:	-2.310	X_WP:	0.000	Y_WP:	0.000	Z_WP:	0.500	X:	0.024	Y:	0.029	Z:	0.059	yaw:	132.335	yaw rate:	226.510	Roll:	0.508	Pitch:	-0.182	Yaw:	160.824	Thrust:	47.231
Time:	0.447	Roll Set Point:	-0.031	Pitch Set Point:	0.009	Yaw Set Point:	-2.273	X_WP:	0.000	Y_WP:	0.000	Z_WP:	0.500	X:	0.025	Y:	0.029	Z:	0.059	yaw:	130.239	yaw rate:	209.599	Roll:	0.789	Pitch:	-0.288	Yaw:	151.166	Thrust:	41.815
Time:	0.468	Roll Set Point:	-0.032	Pitch Set Point:	0.009	Yaw Set Point:	-2.239	X_WP:	0.000	Y_WP:	0.000	Z_WP:	0.500	X:	0.025	Y:	0.029	Z:	0.059	yaw:	128.274	yaw rate:	196.562	Roll:	0.500	Pitch:	-0.373	Yaw:	156.134	Thrust:	47.102
Time:	0.491	Roll Set Point:	-0.034	Pitch Set Point:	0.010	Yaw Set Point:	-2.197	X_WP:	0.000	Y_WP:	0.000	Z_WP:	0.500	X:	0.026	Y:	0.028	Z:	0.059	yaw:	125.895	yaw rate:	237.840	Roll:	0.666	Pitch:	-0.230	Yaw:	149.116	Thrust:	48.815
Time:	0.508	Roll Set Point:	-0.035	Pitch Set Point:	0.010	Yaw Set Point:	-2.154	X_WP:	0.000	Y_WP:	0.000	Z_WP:	0.500	X:	0.027	Y:	0.028	Z:	0.059	yaw:	123.398	yaw rate:	249.776	Roll:	0.970	Pitch:	-0.180	Yaw:	137.939	Thrust:	47.666
Time:	0.531	Roll Set Point:	-0.037	Pitch Set Point:	0.010	Yaw Set Point:	-2.113	X_WP:	0.000	Y_WP:	0.000	Z_WP:	0.500	X:	0.027	Y:	0.028	Z:	0.058	yaw:	121.094	yaw rate:	230.321	Roll:	0.848	Pitch:	-0.337	Yaw:	145.262	Thrust:	54.212
Time:	0.548	Roll Set Point:	-0.039	Pitch Set Point:	0.011	Yaw Set Point:	-2.072	X_WP:	0.000	Y_WP:	0.000	Z_WP:	0.500	X:	0.028	Y:	0.027	Z:	0.058	yaw:	118.688	yaw rate:	240.595	Roll:	0.643	Pitch:	-0.296	Yaw:	130.732	Thrust:	48.530
Time:	0.568	Roll Set Point:	-0.040	Pitch Set Point:	0.011	Yaw Set Point:	-2.024	X_WP:	0.000	Y_WP:	0.000	Z_WP:	0.500	X:	0.029	Y:	0.027	Z:	0.058	yaw:	115.970	yaw rate:	271.859	Roll:	1.068	Pitch:	0.152	Yaw:	128.461	Thrust:	51.797
Time:	0.588	Roll Set Point:	-0.041	Pitch Set Point:	0.010	Yaw Set Point:	-1.984	X_WP:	0.000	Y_WP:	0.000	Z_WP:	0.500	X:	0.028	Y:	0.026	Z:	0.058	yaw:	113.651	yaw rate:	231.886	Roll:	1.017	Pitch:	0.518	Yaw:	129.605	Thrust:	52.043
Time:	0.608	Roll Set Point:	-0.042	Pitch Set Point:	0.011	Yaw Set Point:	-1.937	X_WP:	0.000	Y_WP:	0.000	Z_WP:	0.500	X:	0.029	Y:	0.025	Z:	0.059	yaw:	110.965	yaw rate:	268.559	Roll:	0.741	Pitch:	0.164	Yaw:	122.643	Thrust:	52.812
Time:	0.631	Roll Set Point:	-0.043	Pitch Set Point:	0.011	Yaw Set Point:	-1.884	X_WP:	0.000	Y_WP:	0.000	Z_WP:	0.500	X:	0.029	Y:	0.025	Z:	0.058	yaw:	107.939	yaw rate:	302.688	Roll:	0.873	Pitch:	0.380	Yaw:	117.923	Thrust:	61.196
Time:	0.648	Roll Set Point:	-0.045	Pitch Set Point:	0.010	Yaw Set Point:	-1.832	X_WP:	0.000	Y_WP:	0.000	Z_WP:	0.500	X:	0.029	Y:	0.024	Z:	0.058	yaw:	104.985	yaw rate:	295.372	Roll:	1.354	Pitch:	0.665	Yaw:	102.923	Thrust:	50.315
Time:	0.667	Roll Set Point:	-0.046	Pitch Set Point:	0.010	Yaw Set Point:	-1.786	X_WP:	0.000	Y_WP:	0.000	Z_WP:	0.500	X:	0.029	Y:	0.024	Z:	0.058	yaw:	102.316	yaw rate:	266.837	Roll:	1.066	Pitch:	0.287	Yaw:	109.112	Thrust:	57.269
Time:	0.688	Roll Set Point:	-0.048	Pitch Set Point:	0.010	Yaw Set Point:	-1.725	X_WP:	0.000	Y_WP:	0.000	Z_WP:	0.500	X:	0.030	Y:	0.023	Z:	0.058	yaw:	98.841	yaw rate:	347.512	Roll:	1.149	Pitch:	0.624	Yaw:	96.105	Thrust:	59.346
Time:	0.708	Roll Set Point:	-0.048	Pitch Set Point:	0.010	Yaw Set Point:	-1.672	X_WP:	0.000	Y_WP:	0.000	Z_WP:	0.500	X:	0.030	Y:	0.022	Z:	0.059	yaw:	95.805	yaw rate:	303.618	Roll:	0.804	Pitch:	0.726	Yaw:	95.381	Thrust:	57.988
Time:	0.728	Roll Set Point:	-0.049	Pitch Set Point:	0.010	Yaw Set Point:	-1.621	X_WP:	0.000	Y_WP:	0.000	Z_WP:	0.500	X:	0.030	Y:	0.021	Z:	0.059	yaw:	92.871	yaw rate:	293.377	Roll:	0.791	Pitch:	0.461	Yaw:	94.373	Thrust:	60.211
Time:	0.747	Roll Set Point:	-0.051	Pitch Set Point:	0.009	Yaw Set Point:	-1.549	X_WP:	0.000	Y_WP:	0.000	Z_WP:	0.500	X:	0.030	Y:	0.021	Z:	0.058	yaw:	88.734	yaw rate:	413.742	Roll:	1.526	Pitch:	1.025	Yaw:	68.219	Thrust:	61.451
Time:	0.768	Roll Set Point:	-0.053	Pitch Set Point:	0.008	Yaw Set Point:	-1.486	X_WP:	0.000	Y_WP:	0.000	Z_WP:	0.500	X:	0.030	Y:	0.020	Z:	0.058	yaw:	85.137	yaw rate:	359.656	Roll:	1.351	Pitch:	0.694	Yaw:	75.167	Thrust:	61.936
Time:	0.788	Roll Set Point:	-0.054	Pitch Set Point:	0.008	Yaw Set Point:	-1.423	X_WP:	0.000	Y_WP:	0.000	Z_WP:	0.500	X:	0.030	Y:	0.019	Z:	0.059	yaw:	81.543	yaw rate:	359.458	Roll:	0.838	Pitch:	0.685	Yaw:	68.848	Thrust:	63.315
Time:	0.808	Roll Set Point:	-0.055	Pitch Set Point:	0.007	Yaw Set Point:	-1.350	X_WP:	0.000	Y_WP:	0.000	Z_WP:	0.500	X:	0.030	Y:	0.018	Z:	0.059	yaw:	77.351	yaw rate:	419.173	Roll:	1.140	Pitch:	1.188	Yaw:	55.841	Thrust:	65.683
Time:	0.830	Roll Set Point:	-0.057	Pitch Set Point:	0.006	Yaw Set Point:	-1.256	X_WP:	0.000	Y_WP:	0.000	Z_WP:	0.500	X:	0.031	Y:	0.018	Z:	0.058	yaw:	71.972	yaw rate:	537.881	Roll:	1.339	Pitch:	1.421	Yaw:	35.737	Thrust:	68.287
Time:	0.847	Roll Set Point:	-0.058	Pitch Set Point:	0.006	Yaw Set Point:	-1.194	X_WP:	0.000	Y_WP:	0.000	Z_WP:	0.500	X:	0.031	Y:	0.017	Z:	0.059	yaw:	68.406	yaw rate:	356.575	Roll:	0.979	Pitch:	0.908	Yaw:	46.157	Thrust:	61.761
Time:	0.867	Roll Set Point:	-0.059	Pitch Set Point:	0.005	Yaw Set Point:	-1.118	X_WP:	0.000	Y_WP:	0.000	Z_WP:	0.500	X:	0.031	Y:	0.016	Z:	0.059	yaw:	64.039	yaw rate:	436.750	Roll:	0.996	Pitch:	1.321	Yaw:	35.098	Thrust:	66.933
Time:	0.888	Roll Set Point:	-0.060	Pitch Set Point:	0.004	Yaw Set Point:	-1.042	X_WP:	0.000	Y_WP:	0.000	Z_WP:	0.500	X:	0.031	Y:	0.015	Z:	0.060	yaw:	59.677	yaw rate:	436.169	Roll:	0.726	Pitch:	1.344	Yaw:	29.005	Thrust:	68.276
Time:	0.907	Roll Set Point:	-0.060	Pitch Set Point:	0.002	Yaw Set Point:	-0.952	X_WP:	0.000	Y_WP:	0.000	Z_WP:	0.500	X:	0.031	Y:	0.015	Z:	0.061	yaw:	54.549	yaw rate:	512.796	Roll:	0.864	Pitch:	2.034	Yaw:	10.118	Thrust:	67.228
Time:	0.930	Roll Set Point:	-0.060	Pitch Set Point:	0.002	Yaw Set Point:	-0.872	X_WP:	0.000	Y_WP:	0.000	Z_WP:	0.500	X:	0.030	Y:	0.013	Z:	0.061	yaw:	49.944	yaw rate:	460.567	Roll:	0.261	Pitch:	1.158	Yaw:	17.442	Thrust:	72.987
Time:	0.947	Roll Set Point:	-0.060	Pitch Set Point:	0.002	Yaw Set Point:	-0.793	X_WP:	0.000	Y_WP:	0.000	Z_WP:	0.500	X:	0.030	Y:	0.012	Z:	0.062	yaw:	45.460	yaw rate:	448.365	Roll:	0.119	Pitch:	1.051	Yaw:	-1.255	Thrust:	64.838
Time:	0.968	Roll Set Point:	-0.060	Pitch Set Point:	0.004	Yaw Set Point:	-0.724	X_WP:	0.000	Y_WP:	0.000	Z_WP:	0.500	X:	0.031	Y:	0.010	Z:	0.064	yaw:	41.493	yaw rate:	396.736	Roll:	-0.198	Pitch:	0.139	Yaw:	9.721	Thrust:	70.151
Time:	0.988	Roll Set Point:	-0.061	Pitch Set Point:	0.004	Yaw Set Point:	-0.629	X_WP:	0.000	Y_WP:	0.000	Z_WP:	0.500	X:	0.031	Y:	0.008	Z:	0.066	yaw:	36.055	yaw rate:	543.801	Roll:	0.644	Pitch:	0.789	Yaw:	-19.973	Thrust:	68.910
Time:	1.007	Roll Set Point:	-0.062	Pitch Set Point:	0.007	Yaw Set Point:	-0.549	X_WP:	0.000	Y_WP:	0.000	Z_WP:	0.500	X:	0.032	Y:	0.005	Z:	0.069	yaw:	31.447	yaw rate:	460.740	Roll:	0.374	Pitch:	-0.120	Yaw:	-15.594	Thrust:	67.238
Time:	1.030	Roll Set Point:	-0.064	Pitch Set Point:	0.010	Yaw Set Point:	-0.480	X_WP:	0.000	Y_WP:	0.000	Z_WP:	0.500	X:	0.033	Y:	0.003	Z:	0.072	yaw:	27.517	yaw rate:	392.976	Roll:	0.773	Pitch:	-0.749	Yaw:	-4.680	Thrust:	76.344
Time:	1.047	Roll Set Point:	-0.067	Pitch Set Point:	0.014	Yaw Set Point:	-0.420	X_WP:	0.000	Y_WP:	0.000	Z_WP:	0.500	X:	0.035	Y:	0.000	Z:	0.075	yaw:	24.043	yaw rate:	347.444	Roll:	1.297	Pitch:	-1.519	Yaw:	-17.619	Thrust:	60.011
Time:	1.067	Roll Set Point:	-0.070	Pitch Set Point:	0.019	Yaw Set Point:	-0.358	X_WP:	0.000	Y_WP:	0.000	Z_WP:	0.500	X:	0.037	Y:	-0.003	Z:	0.080	yaw:	20.537	yaw rate:	350.624	Roll:	1.588	Pitch:	-1.663	Yaw:	-15.077	Thrust:	66.609
Time:	1.088	Roll Set Point:	-0.075	Pitch Set Point:	0.024	Yaw Set Point:	-0.303	X_WP:	0.000	Y_WP:	0.000	Z_WP:	0.500	X:	0.040	Y:	-0.006	Z:	0.084	yaw:	17.335	yaw rate:	320.227	Roll:	2.147	Pitch:	-1.730	Yaw:	-14.226	Thrust:	70.788
Time:	1.107	Roll Set Point:	-0.082	Pitch Set Point:	0.029	Yaw Set Point:	-0.235	X_WP:	0.000	Y_WP:	0.000	Z_WP:	0.500	X:	0.043	Y:	-0.009	Z:	0.088	yaw:	13.467	yaw rate:	386.790	Roll:	3.174	Pitch:	-1.293	Yaw:	-30.879	Thrust:	67.221
Time:	1.130	Roll Set Point:	-0.089	Pitch Set Point:	0.035	Yaw Set Point:	-0.187	X_WP:	0.000	Y_WP:	0.000	Z_WP:	0.500	X:	0.046	Y:	-0.013	Z:	0.093	yaw:	10.699	yaw rate:	276.774	Roll:	3.272	Pitch:	-2.018	Yaw:	-14.399	Thrust:	77.312
Time:	1.147	Roll Set Point:	-0.097	Pitch Set Point:	0.041	Yaw Set Point:	-0.134	X_WP:	0.000	Y_WP:	0.000	Z_WP:	0.500	X:	0.050	Y:	-0.017	Z:	0.097	yaw:	7.699	yaw rate:	299.987	Roll:	4.218	Pitch:	-2.421	Yaw:	-34.968	Thrust:	60.176
Time:	1.168	Roll Set Point:	-0.107	Pitch Set Point:	0.048	Yaw Set Point:	-0.092	X_WP:	0.000	Y_WP:	0.000	Z_WP:	0.500	X:	0.055	Y:	-0.021	Z:	0.102	yaw:	5.297	yaw rate:	240.194	Roll:	4.590	Pitch:	-2.281	Yaw:	-20.561	Thrust:	73.248
Time:	1.188	Roll Set Point:	-0.117	Pitch Set Point:	0.057	Yaw Set Point:	-0.069	X_WP:	0.000	Y_WP:	0.000	Z_WP:	0.500	X:	0.059	Y:	-0.026	Z:	0.107	yaw:	3.964	yaw rate:	133.262	Roll:	4.574	Pitch:	-3.504	Yaw:	-9.813	Thrust:	70.854
Time:	1.206	Roll Set Point:	-0.128	Pitch Set Point:	0.065	Yaw Set Point:	-0.044	X_WP:	0.000	Y_WP:	0.000	Z_WP:	0.500	X:	0.065	Y:	-0.031	Z:	0.111	yaw:	2.497	yaw rate:	146.776	Roll:	5.510	Pitch:	-3.613	Yaw:	-15.335	Thrust:	67.389
Time:	1.230	Roll Set Point:	-0.140	Pitch Set Point:	0.074	Yaw Set Point:	-0.020	X_WP:	0.000	Y_WP:	0.000	Z_WP:	0.500	X:	0.070	Y:	-0.036	Z:	0.115	yaw:	1.157	yaw rate:	133.997	Roll:	5.495	Pitch:	-3.078	Yaw:	-10.903	Thrust:	81.933
Time:	1.248	Roll Set Point:	-0.153	Pitch Set Point:	0.083	Yaw Set Point:	-0.003	X_WP:	0.000	Y_WP:	0.000	Z_WP:	0.500	X:	0.076	Y:	-0.042	Z:	0.119	yaw:	0.194	yaw rate:	96.272	Roll:	6.485	Pitch:	-4.099	Yaw:	-12.394	Thrust:	68.839
Time:	1.267	Roll Set Point:	-0.166	Pitch Set Point:	0.094	Yaw Set Point:	0.008	X_WP:	0.000	Y_WP:	0.000	Z_WP:	0.500	X:	0.083	Y:	-0.047	Z:	0.123	yaw:	-0.477	yaw rate:	67.142	Roll:	6.044	Pitch:	-4.450	Yaw:	-7.639	Thrust:	74.039
Time:	1.288	Roll Set Point:	-0.180	Pitch Set Point:	0.104	Yaw Set Point:	0.021	X_WP:	0.000	Y_WP:	0.000	Z_WP:	0.500	X:	0.089	Y:	-0.053	Z:	0.127	yaw:	-1.215	yaw rate:	73.787	Roll:	6.663	Pitch:	-4.054	Yaw:	-9.033	Thrust:	77.569
Time:	1.307	Roll Set Point:	-0.194	Pitch Set Point:	0.115	Yaw Set Point:	0.029	X_WP:	0.000	Y_WP:	0.000	Z_WP:	0.500	X:	0.096	Y:	-0.059	Z:	0.132	yaw:	-1.651	yaw rate:	43.582	Roll:	6.706	Pitch:	-4.868	Yaw:	-6.188	Thrust:	74.229
Time:	1.330	Roll Set Point:	-0.208	Pitch Set Point:	0.125	Yaw Set Point:	0.044	X_WP:	0.000	Y_WP:	0.000	Z_WP:	0.500	X:	0.103	Y:	-0.065	Z:	0.136	yaw:	-2.526	yaw rate:	87.465	Roll:	6.848	Pitch:	-3.561	Yaw:	-11.175	Thrust:	86.634
Time:	1.347	Roll Set Point:	-0.222	Pitch Set Point:	0.139	Yaw Set Point:	0.040	X_WP:	0.000	Y_WP:	0.000	Z_WP:	0.500	X:	0.110	Y:	-0.072	Z:	0.141	yaw:	-2.273	yaw rate:	-25.316	Roll:	7.060	Pitch:	-7.284	Yaw:	2.431	Thrust:	64.311
Time:	1.368	Roll Set Point:	-0.236	Pitch Set Point:	0.152	Yaw Set Point:	0.039	X_WP:	0.000	Y_WP:	0.000	Z_WP:	0.500	X:	0.116	Y:	-0.078	Z:	0.146	yaw:	-2.229	yaw rate:	-4.337	Roll:	6.598	Pitch:	-5.966	Yaw:	-0.560	Thrust:	76.956
Time:	1.387	Roll Set Point:	-0.250	Pitch Set Point:	0.166	Yaw Set Point:	0.039	X_WP:	0.000	Y_WP:	0.000	Z_WP:	0.500	X:	0.123	Y:	-0.085	Z:	0.151	yaw:	-2.213	yaw rate:	-1.662	Roll:	7.058	Pitch:	-6.185	Yaw:	-1.024	Thrust:	72.547
Time:	1.407	Roll Set Point:	-0.264	Pitch Set Point:	0.179	Yaw Set Point:	0.037	X_WP:	0.000	Y_WP:	0.000	Z_WP:	0.500	X:	0.130	Y:	-0.092	Z:	0.156	yaw:	-2.113	yaw rate:	-9.968	Roll:	6.600	Pitch:	-6.497	Yaw:	0.289	Thrust:	78.860
Time:	1.428	Roll Set Point:	-0.277	Pitch Set Point:	0.194	Yaw Set Point:	0.033	X_WP:	0.000	Y_WP:	0.000	Z_WP:	0.500	X:	0.137	Y:	-0.099	Z:	0.162	yaw:	-1.904	yaw rate:	-20.882	Roll:	6.131	Pitch:	-6.389	Yaw:	1.949	Thrust:	75.783
Time:	1.447	Roll Set Point:	-0.290	Pitch Set Point:	0.208	Yaw Set Point:	0.028	X_WP:	0.000	Y_WP:	0.000	Z_WP:	0.500	X:	0.143	Y:	-0.106	Z:	0.169	yaw:	-1.585	yaw rate:	-31.928	Roll:	6.311	Pitch:	-7.219	Yaw:	3.993	Thrust:	72.216
Time:	1.467	Roll Set Point:	-0.300	Pitch Set Point:	0.225	Yaw Set Point:	0.011	X_WP:	0.000	Y_WP:	0.000	Z_WP:	0.500	X:	0.150	Y:	-0.113	Z:	0.176	yaw:	-0.647	yaw rate:	-93.822	Roll:	4.807	Pitch:	-8.789	Yaw:	13.159	Thrust:	75.267
Time:	1.488	Roll Set Point:	-0.313	Pitch Set Point:	0.237	Yaw Set Point:	0.015	X_WP:	0.000	Y_WP:	0.000	Z_WP:	0.500	X:	0.156	Y:	-0.120	Z:	0.183	yaw:	-0.851	yaw rate:	20.411	Roll:	6.518	Pitch:	-5.454	Yaw:	-1.852	Thrust:	73.039
Time:	1.507	Roll Set Point:	-0.324	Pitch Set Point:	0.251	Yaw Set Point:	0.006	X_WP:	0.000	Y_WP:	0.000	Z_WP:	0.500	X:	0.162	Y:	-0.126	Z:	0.192	yaw:	-0.323	yaw rate:	-52.801	Roll:	4.871	Pitch:	-7.518	Yaw:	8.423	Thrust:	72.564
Time:	1.530	Roll Set Point:	-0.334	Pitch Set Point:	0.265	Yaw Set Point:	0.000	X_WP:	0.000	Y_WP:	0.000	Z_WP:	0.500	X:	0.167	Y:	-0.132	Z:	0.200	yaw:	-0.003	yaw rate:	-31.993	Roll:	4.780	Pitch:	-6.284	Yaw:	5.806	Thrust:	82.776
Time:	1.548	Roll Set Point:	-0.341	Pitch Set Point:	0.279	Yaw Set Point:	-0.015	X_WP:	0.000	Y_WP:	0.000	Z_WP:	0.500	X:	0.172	Y:	-0.138	Z:	0.210	yaw:	0.844	yaw rate:	-84.693	Roll:	3.578	Pitch:	-9.071	Yaw:	15.415	Thrust:	53.000
Time:	1.568	Roll Set Point:	-0.350	Pitch Set Point:	0.289	Yaw Set Point:	-0.016	X_WP:	0.000	Y_WP:	0.000	Z_WP:	0.500	X:	0.176	Y:	-0.143	Z:	0.220	yaw:	0.899	yaw rate:	-5.456	Roll:	4.554	Pitch:	-5.267	Yaw:	3.835	Thrust:	72.781
Time:	1.588	Roll Set Point:	-0.356	Pitch Set Point:	0.303	Yaw Set Point:	-0.033	X_WP:	0.000	Y_WP:	0.000	Z_WP:	0.500	X:	0.180	Y:	-0.149	Z:	0.230	yaw:	1.868	yaw rate:	-96.905	Roll:	2.261	Pitch:	-8.227	Yaw:	17.007	Thrust:	69.402
Time:	1.608	Roll Set Point:	-0.362	Pitch Set Point:	0.312	Yaw Set Point:	-0.034	X_WP:	0.000	Y_WP:	0.000	Z_WP:	0.500	X:	0.184	Y:	-0.153	Z:	0.242	yaw:	1.967	yaw rate:	-9.951	Roll:	3.698	Pitch:	-4.906	Yaw:	5.928	Thrust:	64.166
Time:	1.630	Roll Set Point:	-0.366	Pitch Set Point:	0.324	Yaw Set Point:	-0.051	X_WP:	0.000	Y_WP:	0.000	Z_WP:	0.500	X:	0.187	Y:	-0.157	Z:	0.253	yaw:	2.914	yaw rate:	-94.634	Roll:	1.326	Pitch:	-6.897	Yaw:	17.602	Thrust:	73.950
Time:	1.648	Roll Set Point:	-0.369	Pitch Set Point:	0.333	Yaw Set Point:	-0.060	X_WP:	0.000	Y_WP:	0.000	Z_WP:	0.500	X:	0.190	Y:	-0.161	Z:	0.265	yaw:	3.463	yaw rate:	-54.902	Roll:	1.812	Pitch:	-5.991	Yaw:	14.298	Thrust:	57.986
Time:	1.668	Roll Set Point:	-0.370	Pitch Set Point:	0.343	Yaw Set Point:	-0.077	X_WP:	0.000	Y_WP:	0.000	Z_WP:	0.500	X:	0.192	Y:	-0.164	Z:	0.277	yaw:	4.433	yaw rate:	-97.050	Roll:	0.020	Pitch:	-6.846	Yaw:	21.023	Thrust:	61.728
Time:	1.688	Roll Set Point:	-0.373	Pitch Set Point:	0.347	Yaw Set Point:	-0.076	X_WP:	0.000	Y_WP:	0.000	Z_WP:	0.500	X:	0.193	Y:	-0.166	Z:	0.289	yaw:	4.343	yaw rate:	9.045	Roll:	2.641	Pitch:	-2.727	Yaw:	6.868	Thrust:	60.680
Time:	1.708	Roll Set Point:	-0.374	Pitch Set Point:	0.353	Yaw Set Point:	-0.087	X_WP:	0.000	Y_WP:	0.000	Z_WP:	0.500	X:	0.194	Y:	-0.168	Z:	0.302	yaw:	4.978	yaw rate:	-63.550	Roll:	0.280	Pitch:	-4.584	Yaw:	17.122	Thrust:	68.133
Time:	1.730	Roll Set Point:	-0.374	Pitch Set Point:	0.356	Yaw Set Point:	-0.092	X_WP:	0.000	Y_WP:	0.000	Z_WP:	0.500	X:	0.195	Y:	-0.170	Z:	0.314	yaw:	5.258	yaw rate:	-28.025	Roll:	0.852	Pitch:	-2.957	Yaw:	12.894	Thrust:	68.283
Time:	1.747	Roll Set Point:	-0.374	Pitch Set Point:	0.358	Yaw Set Point:	-0.097	X_WP:	0.000	Y_WP:	0.000	Z_WP:	0.500	X:	0.196	Y:	-0.170	Z:	0.326	yaw:	5.576	yaw rate:	-31.753	Roll:	0.571	Pitch:	-2.551	Yaw:	14.381	Thrust:	51.525
Time:	1.768	Roll Set Point:	-0.372	Pitch Set Point:	0.360	Yaw Set Point:	-0.104	X_WP:	0.000	Y_WP:	0.000	Z_WP:	0.500	X:	0.196	Y:	-0.170	Z:	0.338	yaw:	5.976	yaw rate:	-39.994	Roll:	-0.083	Pitch:	-2.407	Yaw:	15.421	Thrust:	67.521
Time:	1.787	Roll Set Point:	-0.369	Pitch Set Point:	0.362	Yaw Set Point:	-0.116	X_WP:	0.000	Y_WP:	0.000	Z_WP:	0.500	X:	0.195	Y:	-0.170	Z:	0.351	yaw:	6.649	yaw rate:	-67.328	Roll:	-1.359	Pitch:	-3.026	Yaw:	20.364	Thrust:	57.634
Time:	1.807	Roll Set Point:	-0.365	Pitch Set Point:	0.363	Yaw Set Point:	-0.127	X_WP:	0.000	Y_WP:	0.000	Z_WP:	0.500	X:	0.194	Y:	-0.170	Z:	0.364	yaw:	7.257	yaw rate:	-60.807	Roll:	-1.492	Pitch:	-2.447	Yaw:	19.998	Thrust:	54.579
Time:	1.830	Roll Set Point:	-0.362	Pitch Set Point:	0.361	Yaw Set Point:	-0.133	X_WP:	0.000	Y_WP:	0.000	Z_WP:	0.500	X:	0.193	Y:	-0.168	Z:	0.377	yaw:	7.605	yaw rate:	-34.817	Roll:	-0.380	Pitch:	-0.720	Yaw:	16.954	Thrust:	77.164
Time:	1.847	Roll Set Point:	-0.357	Pitch Set Point:	0.360	Yaw Set Point:	-0.142	X_WP:	0.000	Y_WP:	0.000	Z_WP:	0.500	X:	0.191	Y:	-0.167	Z:	0.389	yaw:	8.163	yaw rate:	-55.747	Roll:	-1.995	Pitch:	-1.392	Yaw:	21.618	Thrust:	45.551
Time:	1.867	Roll Set Point:	-0.355	Pitch Set Point:	0.354	Yaw Set Point:	-0.137	X_WP:	0.000	Y_WP:	0.000	Z_WP:	0.500	X:	0.190	Y:	-0.165	Z:	0.401	yaw:	7.875	yaw rate:	28.824	Roll:	0.764	Pitch:	1.594	Yaw:	9.246	Thrust:	61.387
Time:	1.889	Roll Set Point:	-0.352	Pitch Set Point:	0.348	Yaw Set Point:	-0.130	X_WP:	0.000	Y_WP:	0.000	Z_WP:	0.500	X:	0.187	Y:	-0.163	Z:	0.413	yaw:	7.424	yaw rate:	45.106	Roll:	0.879	Pitch:	1.889	Yaw:	6.878	Thrust:	67.406
Time:	1.907	Roll Set Point:	-0.346	Pitch Set Point:	0.344	Yaw Set Point:	-0.140	X_WP:	0.000	Y_WP:	0.000	Z_WP:	0.500	X:	0.185	Y:	-0.160	Z:	0.424	yaw:	8.014	yaw rate:	-59.054	Roll:	-2.025	Pitch:	-0.133	Yaw:	21.041	Thrust:	59.206
Time:	1.930	Roll Set Point:	-0.342	Pitch Set Point:	0.338	Yaw Set Point:	-0.139	X_WP:	0.000	Y_WP:	0.000	Z_WP:	0.500	X:	0.183	Y:	-0.157	Z:	0.436	yaw:	7.967	yaw rate:	4.757	Roll:	-0.372	Pitch:	1.523	Yaw:	12.697	Thrust:	67.156
Time:	1.947	Roll Set Point:	-0.338	Pitch Set Point:	0.331	Yaw Set Point:	-0.139	X_WP:	0.000	Y_WP:	0.000	Z_WP:	0.500	X:	0.180	Y:	-0.154	Z:	0.447	yaw:	7.958	yaw rate:	0.861	Roll:	-0.794	Pitch:	2.179	Yaw:	12.760	Thrust:	52.309
Time:	1.968	Roll Set Point:	-0.331	Pitch Set Point:	0.326	Yaw Set Point:	-0.148	X_WP:	0.000	Y_WP:	0.000	Z_WP:	0.500	X:	0.178	Y:	-0.151	Z:	0.457	yaw:	8.488	yaw rate:	-53.020	Roll:	-2.155	Pitch:	0.441	Yaw:	20.581	Thrust:	64.288
Time:	1.987	Roll Set Point:	-0.329	Pitch Set Point:	0.315	Yaw Set Point:	-0.129	X_WP:	0.000	Y_WP:	0.000	Z_WP:	0.500	X:	0.175	Y:	-0.147	Z:	0.468	yaw:	7.367	yaw rate:	112.112	Roll:	2.043	Pitch:	4.999	Yaw:	-2.785	Thrust:	61.157
Time:	2.007	Roll Set Point:	-0.325	Pitch Set Point:	0.306	Yaw Set Point:	-0.124	X_WP:	0.000	Y_WP:	0.000	Z_WP:	0.500	X:	0.172	Y:	-0.143	Z:	0.478	yaw:	7.096	yaw rate:	27.126	Roll:	-0.174	Pitch:	2.978	Yaw:	8.386	Thrust:	62.555
Time:	2.030	Roll Set Point:	-0.320	Pitch Set Point:	0.296	Yaw Set Point:	-0.116	X_WP:	0.000	Y_WP:	0.000	Z_WP:	0.500	X:	0.169	Y:	-0.139	Z:	0.489	yaw:	6.659	yaw rate:	43.659	Roll:	-0.000	Pitch:	3.386	Yaw:	6.332	Thrust:	68.767
Time:	2.047	Roll Set Point:	-0.314	Pitch Set Point:	0.289	Yaw Set Point:	-0.121	X_WP:	0.000	Y_WP:	0.000	Z_WP:	0.500	X:	0.166	Y:	-0.135	Z:	0.499	yaw:	6.926	yaw rate:	-26.690	Roll:	-2.076	Pitch:	1.983	Yaw:	15.422	Thrust:	50.265
Time:	2.067	Roll Set Point:	-0.309	Pitch Set Point:	0.278	Yaw Set Point:	-0.111	X_WP:	0.000	Y_WP:	0.000	Z_WP:	0.500	X:	0.162	Y:	-0.131	Z:	0.509	yaw:	6.375	yaw rate:	55.117	Roll:	0.047	Pitch:	4.011	Yaw:	3.874	Thrust:	62.335
Time:	2.089	Roll Set Point:	-0.303	Pitch Set Point:	0.271	Yaw Set Point:	-0.115	X_WP:	0.000	Y_WP:	0.000	Z_WP:	0.500	X:	0.159	Y:	-0.127	Z:	0.519	yaw:	6.588	yaw rate:	-21.310	Roll:	-1.707	Pitch:	1.877	Yaw:	13.951	Thrust:	64.738
Time:	2.108	Roll Set Point:	-0.297	Pitch Set Point:	0.262	Yaw Set Point:	-0.114	X_WP:	0.000	Y_WP:	0.000	Z_WP:	0.500	X:	0.156	Y:	-0.123	Z:	0.529	yaw:	6.504	yaw rate:	8.402	Roll:	-1.208	Pitch:	2.923	Yaw:	9.882	Thrust:	59.814
Time:	2.129	Roll Set Point:	-0.291	Pitch Set Point:	0.252	Yaw Set Point:	-0.105	X_WP:	0.000	Y_WP:	0.000	Z_WP:	0.500	X:	0.152	Y:	-0.118	Z:	0.539	yaw:	6.031	yaw rate:	47.266	Roll:	-0.273	Pitch:	3.679	Yaw:	4.653	Thrust:	65.203
Time:	2.148	Roll Set Point:	-0.286	Pitch Set Point:	0.243	Yaw Set Point:	-0.102	X_WP:	0.000	Y_WP:	0.000	Z_WP:	0.500	X:	0.149	Y:	-0.114	Z:	0.548	yaw:	5.859	yaw rate:	17.243	Roll:	-1.288	Pitch:	3.614	Yaw:	7.631	Thrust:	52.809
Time:	2.167	Roll Set Point:	-0.279	Pitch Set Point:	0.234	Yaw Set Point:	-0.101	X_WP:	0.000	Y_WP:	0.000	Z_WP:	0.500	X:	0.146	Y:	-0.110	Z:	0.557	yaw:	5.765	yaw rate:	9.363	Roll:	-1.277	Pitch:	2.684	Yaw:	8.778	Thrust:	57.864
Time:	2.187	Roll Set Point:	-0.273	Pitch Set Point:	0.227	Yaw Set Point:	-0.103	X_WP:	0.000	Y_WP:	0.000	Z_WP:	0.500	X:	0.142	Y:	-0.106	Z:	0.566	yaw:	5.887	yaw rate:	-12.140	Roll:	-1.596	Pitch:	2.127	Yaw:	11.811	Thrust:	60.212
Time:	2.208	Roll Set Point:	-0.268	Pitch Set Point:	0.217	Yaw Set Point:	-0.095	X_WP:	0.000	Y_WP:	0.000	Z_WP:	0.500	X:	0.139	Y:	-0.102	Z:	0.576	yaw:	5.453	yaw rate:	43.412	Roll:	-0.624	Pitch:	3.564	Yaw:	3.992	Thrust:	59.022
Time:	2.230	Roll Set Point:	-0.261	Pitch Set Point:	0.210	Yaw Set Point:	-0.098	X_WP:	0.000	Y_WP:	0.000	Z_WP:	0.500	X:	0.136	Y:	-0.099	Z:	0.584	yaw:	5.598	yaw rate:	-14.539	Roll:	-1.532	Pitch:	1.811	Yaw:	11.760	Thrust:	69.858
Time:	2.247	Roll Set Point:	-0.255	Pitch Set Point:	0.201	Yaw Set Point:	-0.091	X_WP:	0.000	Y_WP:	0.000	Z_WP:	0.500	X:	0.132	Y:	-0.095	Z:	0.593	yaw:	5.235	yaw rate:	36.342	Roll:	-1.115	Pitch:	3.778	Yaw:	3.377	Thrust:	44.540
Time:	2.268	Roll Set Point:	-0.249	Pitch Set Point:	0.194	Yaw Set Point:	-0.088	X_WP:	0.000	Y_WP:	0.000	Z_WP:	0.500	X:	0.129	Y:	-0.091	Z:	0.601	yaw:	5.042	yaw rate:	19.265	Roll:	-1.180	Pitch:	2.554	Yaw:	6.593	Thrust:	59.962
Time:	2.290	Roll Set Point:	-0.244	Pitch Set Point:	0.186	Yaw Set Point:	-0.086	X_WP:	0.000	Y_WP:	0.000	Z_WP:	0.500	X:	0.126	Y:	-0.088	Z:	0.609	yaw:	4.936	yaw rate:	10.585	Roll:	-1.165	Pitch:	2.298	Yaw:	7.923	Thrust:	63.490
Time:	2.315	Roll Set Point:	-0.237	Pitch Set Point:	0.180	Yaw Set Point:	-0.090	X_WP:	0.000	Y_WP:	0.000	Z_WP:	0.500	X:	0.123	Y:	-0.085	Z:	0.617	yaw:	5.164	yaw rate:	-22.801	Roll:	-0.866	Pitch:	0.751	Yaw:	12.101	Thrust:	87.259
Time:	2.329	Roll Set Point:	-0.232	Pitch Set Point:	0.172	Yaw Set Point:	-0.080	X_WP:	0.000	Y_WP:	0.000	Z_WP:	0.500	X:	0.120	Y:	-0.081	Z:	0.625	yaw:	4.571	yaw rate:	59.349	Roll:	-1.387	Pitch:	5.138	Yaw:	-3.740	Thrust:	24.122
Time:	2.347	Roll Set Point:	-0.226	Pitch Set Point:	0.166	Yaw Set Point:	-0.080	X_WP:	0.000	Y_WP:	0.000	Z_WP:	0.500	X:	0.116	Y:	-0.078	Z:	0.633	yaw:	4.555	yaw rate:	1.527	Roll:	-1.606	Pitch:	2.144	Yaw:	7.921	Thrust:	48.733
Time:	2.368	Roll Set Point:	-0.221	Pitch Set Point:	0.159	Yaw Set Point:	-0.075	X_WP:	0.000	Y_WP:	0.000	Z_WP:	0.500	X:	0.113	Y:	-0.075	Z:	0.641	yaw:	4.308	yaw rate:	24.762	Roll:	-0.952	Pitch:	2.054	Yaw:	4.918	Thrust:	59.165
Time:	2.388	Roll Set Point:	-0.215	Pitch Set Point:	0.154	Yaw Set Point:	-0.078	X_WP:	0.000	Y_WP:	0.000	Z_WP:	0.500	X:	0.111	Y:	-0.073	Z:	0.648	yaw:	4.445	yaw rate:	-13.732	Roll:	-1.368	Pitch:	1.170	Yaw:	10.012	Thrust:	57.769
Time:	2.408	Roll Set Point:	-0.210	Pitch Set Point:	0.149	Yaw Set Point:	-0.076	X_WP:	0.000	Y_WP:	0.000	Z_WP:	0.500	X:	0.108	Y:	-0.070	Z:	0.654	yaw:	4.347	yaw rate:	9.823	Roll:	-0.975	Pitch:	1.645	Yaw:	6.741	Thrust:	58.505
Time:	2.429	Roll Set Point:	-0.205	Pitch Set Point:	0.144	Yaw Set Point:	-0.073	X_WP:	0.000	Y_WP:	0.000	Z_WP:	0.500	X:	0.105	Y:	-0.068	Z:	0.660	yaw:	4.167	yaw rate:	17.955	Roll:	-0.952	Pitch:	1.436	Yaw:	5.659	Thrust:	61.894
Time:	2.447	Roll Set Point:	-0.201	Pitch Set Point:	0.138	Yaw Set Point:	-0.068	X_WP:	0.000	Y_WP:	0.000	Z_WP:	0.500	X:	0.103	Y:	-0.065	Z:	0.665	yaw:	3.870	yaw rate:	29.695	Roll:	-0.816	Pitch:	2.272	Yaw:	3.060	Thrust:	52.289
Time:	2.468	Roll Set Point:	-0.196	Pitch Set Point:	0.133	Yaw Set Point:	-0.066	X_WP:	0.000	Y_WP:	0.000	Z_WP:	0.500	X:	0.100	Y:	-0.063	Z:	0.671	yaw:	3.756	yaw rate:	11.409	Roll:	-0.936	Pitch:	1.069	Yaw:	5.953	Thrust:	63.004
Time:	2.487	Roll Set Point:	-0.191	Pitch Set Point:	0.130	Yaw Set Point:	-0.070	X_WP:	0.000	Y_WP:	0.000	Z_WP:	0.500	X:	0.098	Y:	-0.062	Z:	0.675	yaw:	3.985	yaw rate:	-22.918	Roll:	-1.230	Pitch:	0.458	Yaw:	10.612	Thrust:	56.127
Time:	2.508	Roll Set Point:	-0.186	Pitch Set Point:	0.126	Yaw Set Point:	-0.070	X_WP:	0.000	Y_WP:	0.000	Z_WP:	0.500	X:	0.095	Y:	-0.060	Z:	0.679	yaw:	3.986	yaw rate:	-0.050	Roll:	-0.857	Pitch:	0.832	Yaw:	7.590	Thrust:	60.527
Time:	2.529	Roll Set Point:	-0.182	Pitch Set Point:	0.122	Yaw Set Point:	-0.064	X_WP:	0.000	Y_WP:	0.000	Z_WP:	0.500	X:	0.093	Y:	-0.058	Z:	0.683	yaw:	3.675	yaw rate:	31.039	Roll:	-0.540	Pitch:	1.288	Yaw:	3.235	Thrust:	61.988
Time:	2.548	Roll Set Point:	-0.178	Pitch Set Point:	0.119	Yaw Set Point:	-0.064	X_WP:	0.000	Y_WP:	0.000	Z_WP:	0.500	X:	0.091	Y:	-0.056	Z:	0.686	yaw:	3.694	yaw rate:	-1.858	Roll:	-0.974	Pitch:	0.719	Yaw:	7.358	Thrust:	54.056
Time:	2.568	Roll Set Point:	-0.174	Pitch Set Point:	0.116	Yaw Set Point:	-0.067	X_WP:	0.000	Y_WP:	0.000	Z_WP:	0.500	X:	0.089	Y:	-0.055	Z:	0.689	yaw:	3.867	yaw rate:	-17.330	Roll:	-0.762	Pitch:	0.077	Yaw:	9.675	Thrust:	63.834
Time:	2.590	Roll Set Point:	-0.170	Pitch Set Point:	0.114	Yaw Set Point:	-0.067	X_WP:	0.000	Y_WP:	0.000	Z_WP:	0.500	X:	0.087	Y:	-0.054	Z:	0.691	yaw:	3.864	yaw rate:	0.291	Roll:	-0.713	Pitch:	0.422	Yaw:	7.533	Thrust:	61.554
Time:	2.608	Roll Set Point:	-0.167	Pitch Set Point:	0.110	Yaw Set Point:	-0.062	X_WP:	0.000	Y_WP:	0.000	Z_WP:	0.500	X:	0.085	Y:	-0.053	Z:	0.694	yaw:	3.564	yaw rate:	30.004	Roll:	-0.350	Pitch:	0.795	Yaw:	2.613	Thrust:	60.649
Time:	2.631	Roll Set Point:	-0.163	Pitch Set Point:	0.108	Yaw Set Point:	-0.063	X_WP:	0.000	Y_WP:	0.000	Z_WP:	0.500	X:	0.083	Y:	-0.051	Z:	0.696	yaw:	3.590	yaw rate:	-2.595	Roll:	-0.543	Pitch:	0.115	Yaw:	7.614	Thrust:	71.105
Time:	2.647	Roll Set Point:	-0.160	Pitch Set Point:	0.106	Yaw Set Point:	-0.060	X_WP:	0.000	Y_WP:	0.000	Z_WP:	0.500	X:	0.081	Y:	-0.050	Z:	0.697	yaw:	3.421	yaw rate:	16.940	Roll:	-0.556	Pitch:	0.620	Yaw:	3.670	Thrust:	47.823
Time:	2.668	Roll Set Point:	-0.156	Pitch Set Point:	0.104	Yaw Set Point:	-0.060	X_WP:	0.000	Y_WP:	0.000	Z_WP:	0.500	X:	0.080	Y:	-0.050	Z:	0.699	yaw:	3.411	yaw rate:	1.018	Roll:	-0.534	Pitch:	0.064	Yaw:	6.696	Thrust:	63.173
Time:	2.688	Roll Set Point:	-0.153	Pitch Set Point:	0.102	Yaw Set Point:	-0.058	X_WP:	0.000	Y_WP:	0.000	Z_WP:	0.500	X:	0.078	Y:	-0.049	Z:	0.700	yaw:	3.317	yaw rate:	9.390	Roll:	-0.316	Pitch:	0.009	Yaw:	5.410	Thrust:	60.598
Time:	2.708	Roll Set Point:	-0.150	Pitch Set Point:	0.101	Yaw Set Point:	-0.062	X_WP:	0.000	Y_WP:	0.000	Z_WP:	0.500	X:	0.076	Y:	-0.048	Z:	0.701	yaw:	3.525	yaw rate:	-20.841	Roll:	-0.452	Pitch:	-0.551	Yaw:	9.650	Thrust:	60.683
Time:	2.730	Roll Set Point:	-0.147	Pitch Set Point:	0.099	Yaw Set Point:	-0.056	X_WP:	0.000	Y_WP:	0.000	Z_WP:	0.500	X:	0.075	Y:	-0.047	Z:	0.703	yaw:	3.223	yaw rate:	30.208	Roll:	-0.077	Pitch:	0.216	Yaw:	3.285	Thrust:	67.845
Time:	2.747	Roll Set Point:	-0.144	Pitch Set Point:	0.098	Yaw Set Point:	-0.055	X_WP:	0.000	Y_WP:	0.000	Z_WP:	0.500	X:	0.073	Y:	-0.047	Z:	0.703	yaw:	3.179	yaw rate:	4.376	Roll:	-0.513	Pitch:	-0.092	Yaw:	5.430	Thrust:	49.715
Time:	2.768	Roll Set Point:	-0.141	Pitch Set Point:	0.097	Yaw Set Point:	-0.059	X_WP:	0.000	Y_WP:	0.000	Z_WP:	0.500	X:	0.072	Y:	-0.047	Z:	0.704	yaw:	3.392	yaw rate:	-21.250	Roll:	-0.282	Pitch:	-0.757	Yaw:	9.488	Thrust:	63.459
Time:	2.789	Roll Set Point:	-0.139	Pitch Set Point:	0.095	Yaw Set Point:	-0.052	X_WP:	0.000	Y_WP:	0.000	Z_WP:	0.500	X:	0.071	Y:	-0.046	Z:	0.705	yaw:	2.985	yaw rate:	40.731	Roll:	0.031	Pitch:	0.371	Yaw:	1.050	Thrust:	59.085
Time:	2.808	Roll Set Point:	-0.137	Pitch Set Point:	0.095	Yaw Set Point:	-0.051	X_WP:	0.000	Y_WP:	0.000	Z_WP:	0.500	X:	0.069	Y:	-0.046	Z:	0.705	yaw:	2.902	yaw rate:	8.232	Roll:	-0.090	Pitch:	-0.420	Yaw:	4.746	Thrust:	55.719
Time:	2.829	Roll Set Point:	-0.134	Pitch Set Point:	0.094	Yaw Set Point:	-0.051	X_WP:	0.000	Y_WP:	0.000	Z_WP:	0.500	X:	0.068	Y:	-0.045	Z:	0.706	yaw:	2.925	yaw rate:	-2.297	Roll:	-0.136	Pitch:	-0.485	Yaw:	6.536	Thrust:	65.158
Time:	2.848	Roll Set Point:	-0.131	Pitch Set Point:	0.094	Yaw Set Point:	-0.055	X_WP:	0.000	Y_WP:	0.000	Z_WP:	0.500	X:	0.067	Y:	-0.045	Z:	0.706	yaw:	3.165	yaw rate:	-23.936	Roll:	-0.375	Pitch:	-0.943	Yaw:	9.631	Thrust:	55.149
Time:	2.867	Roll Set Point:	-0.129	Pitch Set Point:	0.094	Yaw Set Point:	-0.055	X_WP:	0.000	Y_WP:	0.000	Z_WP:	0.500	X:	0.066	Y:	-0.045	Z:	0.706	yaw:	3.169	yaw rate:	-0.424	Roll:	-0.127	Pitch:	-0.523	Yaw:	6.444	Thrust:	57.376
Time:	2.887	Roll Set Point:	-0.127	Pitch Set Point:	0.094	Yaw Set Point:	-0.055	X_WP:	0.000	Y_WP:	0.000	Z_WP:	0.500	X:	0.065	Y:	-0.045	Z:	0.706	yaw:	3.152	yaw rate:	1.690	Roll:	-0.079	Pitch:	-0.709	Yaw:	6.189	Thrust:	57.321
Time:	2.907	Roll Set Point:	-0.125	Pitch Set Point:	0.092	Yaw Set Point:	-0.049	X_WP:	0.000	Y_WP:	0.000	Z_WP:	0.500	X:	0.063	Y:	-0.045	Z:	0.706	yaw:	2.782	yaw rate:	36.979	Roll:	0.187	Pitch:	0.013	Yaw:	1.073	Thrust:	59.789
Time:	2.930	Roll Set Point:	-0.123	Pitch Set Point:	0.091	Yaw Set Point:	-0.046	X_WP:	0.000	Y_WP:	0.000	Z_WP:	0.500	X:	0.062	Y:	-0.044	Z:	0.705	yaw:	2.661	yaw rate:	12.107	Roll:	0.241	Pitch:	-0.575	Yaw:	4.567	Thrust:	67.101
Time:	2.947	Roll Set Point:	-0.121	Pitch Set Point:	0.091	Yaw Set Point:	-0.045	X_WP:	0.000	Y_WP:	0.000	Z_WP:	0.500	X:	0.061	Y:	-0.044	Z:	0.704	yaw:	2.595	yaw rate:	6.634	Roll:	-0.101	Pitch:	-0.541	Yaw:	4.308	Thrust:	48.636
Time:	2.968	Roll Set Point:	-0.119	Pitch Set Point:	0.092	Yaw Set Point:	-0.051	X_WP:	0.000	Y_WP:	0.000	Z_WP:	0.500	X:	0.060	Y:	-0.045	Z:	0.703	yaw:	2.920	yaw rate:	-32.475	Roll:	-0.202	Pitch:	-1.285	Yaw:	10.328	Thrust:	58.944
Time:	2.987	Roll Set Point:	-0.117	Pitch Set Point:	0.092	Yaw Set Point:	-0.050	X_WP:	0.000	Y_WP:	0.000	Z_WP:	0.500	X:	0.060	Y:	-0.044	Z:	0.702	yaw:	2.858	yaw rate:	6.145	Roll:	0.158	Pitch:	-0.519	Yaw:	5.222	Thrust:	57.716
Time:	3.008	Roll Set Point:	-0.115	Pitch Set Point:	0.091	Yaw Set Point:	-0.050	X_WP:	0.000	Y_WP:	0.000	Z_WP:	0.500	X:	0.059	Y:	-0.044	Z:	0.701	yaw:	2.845	yaw rate:	1.286	Roll:	0.129	Pitch:	-0.727	Yaw:	5.841	Thrust:	61.021
Time:	3.030	Roll Set Point:	-0.113	Pitch Set Point:	0.090	Yaw Set Point:	-0.042	X_WP:	0.000	Y_WP:	0.000	Z_WP:	0.500	X:	0.058	Y:	-0.044	Z:	0.700	yaw:	2.398	yaw rate:	44.764	Roll:	0.393	Pitch:	-0.107	Yaw:	0.125	Thrust:	61.718
Time:	3.047	Roll Set Point:	-0.112	Pitch Set Point:	0.091	Yaw Set Point:	-0.046	X_WP:	0.000	Y_WP:	0.000	Z_WP:	0.500	X:	0.057	Y:	-0.044	Z:	0.698	yaw:	2.648	yaw rate:	-24.995	Roll:	-0.086	Pitch:	-1.196	Yaw:	9.189	Thrust:	53.043
Time:	3.067	Roll Set Point:	-0.110	Pitch Set Point:	0.090	Yaw Set Point:	-0.040	X_WP:	0.000	Y_WP:	0.000	Z_WP:	0.500	X:	0.056	Y:	-0.044	Z:	0.696	yaw:	2.282	yaw rate:	36.579	Roll:	0.403	Pitch:	-0.258	Yaw:	0.500	Thrust:	59.147
Time:	3.089	Roll Set Point:	-0.108	Pitch Set Point:	0.091	Yaw Set Point:	-0.045	X_WP:	0.000	Y_WP:	0.000	Z_WP:	0.500	X:	0.055	Y:	-0.044	Z:	0.694	yaw:	2.576	yaw rate:	-29.441	Roll:	0.004	Pitch:	-1.191	Yaw:	9.401	Thrust:	61.251
Time:	3.108	Roll Set Point:	-0.107	Pitch Set Point:	0.090	Yaw Set Point:	-0.038	X_WP:	0.000	Y_WP:	0.000	Z_WP:	0.500	X:	0.054	Y:	-0.044	Z:	0.692	yaw:	2.200	yaw rate:	37.621	Roll:	0.452	Pitch:	-0.215	Yaw:	0.068	Thrust:	57.824
Time:	3.129	Roll Set Point:	-0.106	Pitch Set Point:	0.089	Yaw Set Point:	-0.036	X_WP:	0.000	Y_WP:	0.000	Z_WP:	0.500	X:	0.054	Y:	-0.044	Z:	0.689	yaw:	2.078	yaw rate:	12.223	Roll:	0.356	Pitch:	-0.654	Yaw:	3.499	Thrust:	62.425
Time:	3.148	Roll Set Point:	-0.104	Pitch Set Point:	0.090	Yaw Set Point:	-0.040	X_WP:	0.000	Y_WP:	0.000	Z_WP:	0.500	X:	0.053	Y:	-0.044	Z:	0.686	yaw:	2.315	yaw rate:	-23.714	Roll:	0.051	Pitch:	-1.221	Yaw:	8.442	Thrust:	55.905
Time:	3.168	Roll Set Point:	-0.103	Pitch Set Point:	0.089	Yaw Set Point:	-0.033	X_WP:	0.000	Y_WP:	0.000	Z_WP:	0.500	X:	0.052	Y:	-0.044	Z:	0.683	yaw:	1.915	yaw rate:	40.017	Roll:	0.536	Pitch:	-0.305	Yaw:	-0.353	Thrust:	60.871
Time:	3.188	Roll Set Point:	-0.101	Pitch Set Point:	0.090	Yaw Set Point:	-0.038	X_WP:	0.000	Y_WP:	0.000	Z_WP:	0.500	X:	0.052	Y:	-0.044	Z:	0.680	yaw:	2.185	yaw rate:	-27.051	Roll:	0.125	Pitch:	-1.144	Yaw:	8.587	Thrust:	59.488
Time:	3.207	Roll Set Point:	-0.100	Pitch Set Point:	0.089	Yaw Set Point:	-0.031	X_WP:	0.000	Y_WP:	0.000	Z_WP:	0.500	X:	0.051	Y:	-0.044	Z:	0.677	yaw:	1.776	yaw rate:	40.895	Roll:	0.589	Pitch:	-0.196	Yaw:	-1.096	Thrust:	59.179
Time:	3.230	Roll Set Point:	-0.099	Pitch Set Point:	0.089	Yaw Set Point:	-0.031	X_WP:	0.000	Y_WP:	0.000	Z_WP:	0.500	X:	0.050	Y:	-0.044	Z:	0.673	yaw:	1.784	yaw rate:	-0.746	Roll:	0.349	Pitch:	-0.852	Yaw:	4.832	Thrust:	65.504
Time:	3.247	Roll Set Point:	-0.098	Pitch Set Point:	0.090	Yaw Set Point:	-0.034	X_WP:	0.000	Y_WP:	0.000	Z_WP:	0.500	X:	0.050	Y:	-0.044	Z:	0.669	yaw:	1.968	yaw rate:	-18.424	Roll:	0.214	Pitch:	-1.246	Yaw:	7.296	Thrust:	53.726
Time:	3.267	Roll Set Point:	-0.097	Pitch Set Point:	0.089	Yaw Set Point:	-0.033	X_WP:	0.000	Y_WP:	0.000	Z_WP:	0.500	X:	0.049	Y:	-0.044	Z:	0.666	yaw:	1.889	yaw rate:	7.941	Roll:	0.458	Pitch:	-0.687	Yaw:	3.691	Thrust:	61.878
Time:	3.288	Roll Set Point:	-0.096	Pitch Set Point:	0.090	Yaw Set Point:	-0.033	X_WP:	0.000	Y_WP:	0.000	Z_WP:	0.500	X:	0.049	Y:	-0.044	Z:	0.662	yaw:	1.917	yaw rate:	-2.837	Roll:	0.368	Pitch:	-0.981	Yaw:	5.087	Thrust:	61.165
Time:	3.307	Roll Set Point:	-0.094	Pitch Set Point:	0.090	Yaw Set Point:	-0.033	X_WP:	0.000	Y_WP:	0.000	Z_WP:	0.500	X:	0.048	Y:	-0.044	Z:	0.658	yaw:	1.879	yaw rate:	3.805	Roll:	0.365	Pitch:	-0.760	Yaw:	4.066	Thrust:	58.809
Time:	3.330	Roll Set Point:	-0.094	Pitch Set Point:	0.089	Yaw Set Point:	-0.026	X_WP:	0.000	Y_WP:	0.000	Z_WP:	0.500	X:	0.047	Y:	-0.044	Z:	0.654	yaw:	1.485	yaw rate:	39.426	Roll:	0.726	Pitch:	-0.437	Yaw:	-0.080	Thrust:	66.122
Time:	3.347	Roll Set Point:	-0.092	Pitch Set Point:	0.089	Yaw Set Point:	-0.025	X_WP:	0.000	Y_WP:	0.000	Z_WP:	0.500	X:	0.047	Y:	-0.044	Z:	0.650	yaw:	1.430	yaw rate:	5.442	Roll:	0.187	Pitch:	-0.572	Yaw:	2.869	Thrust:	52.742
Time:	3.367	Roll Set Point:	-0.091	Pitch Set Point:	0.090	Yaw Set Point:	-0.029	X_WP:	0.000	Y_WP:	0.000	Z_WP:	0.500	X:	0.046	Y:	-0.044	Z:	0.646	yaw:	1.636	yaw rate:	-20.547	Roll:	0.380	Pitch:	-1.326	Yaw:	6.971	Thrust:	60.644
Time:	3.388	Roll Set Point:	-0.090	Pitch Set Point:	0.089	Yaw Set Point:	-0.022	X_WP:	0.000	Y_WP:	0.000	Z_WP:	0.500	X:	0.046	Y:	-0.044	Z:	0.642	yaw:	1.233	yaw rate:	40.288	Roll:	0.567	Pitch:	-0.294	Yaw:	-1.601	Thrust:	58.939
Time:	3.407	Roll Set Point:	-0.089	Pitch Set Point:	0.089	Yaw Set Point:	-0.021	X_WP:	0.000	Y_WP:	0.000	Z_WP:	0.500	X:	0.045	Y:	-0.044	Z:	0.638	yaw:	1.199	yaw rate:	3.380	Roll:	0.445	Pitch:	-0.831	Yaw:	3.241	Thrust:	60.053
Time:	3.430	Roll Set Point:	-0.088	Pitch Set Point:	0.089	Yaw Set Point:	-0.026	X_WP:	0.000	Y_WP:	0.000	Z_WP:	0.500	X:	0.045	Y:	-0.044	Z:	0.634	yaw:	1.469	yaw rate:	-27.049	Roll:	0.329	Pitch:	-1.175	Yaw:	7.444	Thrust:	64.336
Time:	3.447	Roll Set Point:	-0.087	Pitch Set Point:	0.089	Yaw Set Point:	-0.018	X_WP:	0.000	Y_WP:	0.000	Z_WP:	0.500	X:	0.044	Y:	-0.044	Z:	0.630	yaw:	1.057	yaw rate:	41.224	Roll:	0.597	Pitch:	-0.357	Yaw:	-3.003	Thrust:	53.222
Time:	3.468	Roll Set Point:	-0.086	Pitch Set Point:	0.089	Yaw Set Point:	-0.024	X_WP:	0.000	Y_WP:	0.000	Z_WP:	0.500	X:	0.044	Y:	-0.044	Z:	0.625	yaw:	1.371	yaw rate:	-31.380	Roll:	0.197	Pitch:	-1.215	Yaw:	8.057	Thrust:	62.342
Time:	3.489	Roll Set Point:	-0.085	Pitch Set Point:	0.089	Yaw Set Point:	-0.017	X_WP:	0.000	Y_WP:	0.000	Z_WP:	0.500	X:	0.043	Y:	-0.044	Z:	0.621	yaw:	0.965	yaw rate:	40.614	Roll:	0.682	Pitch:	-0.455	Yaw:	-1.615	Thrust:	60.826
Time:	3.507	Roll Set Point:	-0.084	Pitch Set Point:	0.090	Yaw Set Point:	-0.020	X_WP:	0.000	Y_WP:	0.000	Z_WP:	0.500	X:	0.043	Y:	-0.044	Z:	0.616	yaw:	1.155	yaw rate:	-18.976	Roll:	0.445	Pitch:	-1.274	Yaw:	6.120	Thrust:	60.644
Time:	3.530	Roll Set Point:	-0.083	Pitch Set Point:	0.089	Yaw Set Point:	-0.014	X_WP:	0.000	Y_WP:	0.000	Z_WP:	0.500	X:	0.042	Y:	-0.044	Z:	0.612	yaw:	0.809	yaw rate:	34.543	Roll:	0.643	Pitch:	-0.478	Yaw:	-0.628	Thrust:	66.178
Time:	3.557	Roll Set Point:	-0.082	Pitch Set Point:	0.089	Yaw Set Point:	-0.020	X_WP:	0.000	Y_WP:	0.000	Z_WP:	0.500	X:	0.042	Y:	-0.044	Z:	0.607	yaw:	1.128	yaw rate:	-31.904	Roll:	0.495	Pitch:	-1.305	Yaw:	7.389	Thrust:	75.984
Time:	3.568	Roll Set Point:	-0.081	Pitch Set Point:	0.090	Yaw Set Point:	-0.021	X_WP:	0.000	Y_WP:	0.000	Z_WP:	0.500	X:	0.041	Y:	-0.044	Z:	0.602	yaw:	1.175	yaw rate:	-4.722	Roll:	-0.076	Pitch:	-0.782	Yaw:	3.883	Thrust:	47.438
Time:	3.589	Roll Set Point:	-0.080	Pitch Set Point:	0.089	Yaw Set Point:	-0.014	X_WP:	0.000	Y_WP:	0.000	Z_WP:	0.500	X:	0.040	Y:	-0.044	Z:	0.597	yaw:	0.781	yaw rate:	39.457	Roll:	0.685	Pitch:	-0.332	Yaw:	-1.697	Thrust:	62.410
Time:	3.608	Roll Set Point:	-0.079	Pitch Set Point:	0.090	Yaw Set Point:	-0.018	X_WP:	0.000	Y_WP:	0.000	Z_WP:	0.500	X:	0.040	Y:	-0.044	Z:	0.592	yaw:	1.024	yaw rate:	-24.287	Roll:	0.304	Pitch:	-1.293	Yaw:	6.713	Thrust:	59.906
Time:	3.628	Roll Set Point:	-0.079	Pitch Set Point:	0.089	Yaw Set Point:	-0.011	X_WP:	0.000	Y_WP:	0.000	Z_WP:	0.500	X:	0.040	Y:	-0.044	Z:	0.587	yaw:	0.644	yaw rate:	37.973	Roll:	0.811	Pitch:	-0.577	Yaw:	-2.059	Thrust:	61.232
Time:	3.647	Roll Set Point:	-0.077	Pitch Set Point:	0.090	Yaw Set Point:	-0.016	X_WP:	0.000	Y_WP:	0.000	Z_WP:	0.500	X:	0.039	Y:	-0.045	Z:	0.582	yaw:	0.940	yaw rate:	-29.618	Roll:	0.165	Pitch:	-1.199	Yaw:	7.309	Thrust:	60.345
Time:	3.668	Roll Set Point:	-0.077	Pitch Set Point:	0.089	Yaw Set Point:	-0.012	X_WP:	0.000	Y_WP:	0.000	Z_WP:	0.500	X:	0.039	Y:	-0.044	Z:	0.577	yaw:	0.672	yaw rate:	26.803	Roll:	0.578	Pitch:	-0.570	Yaw:	-0.285	Thrust:	64.270
Time:	3.689	Roll Set Point:	-0.076	Pitch Set Point:	0.090	Yaw Set Point:	-0.017	X_WP:	0.000	Y_WP:	0.000	Z_WP:	0.500	X:	0.038	Y:	-0.045	Z:	0.571	yaw:	0.998	yaw rate:	-32.560	Roll:	0.325	Pitch:	-1.289	Yaw:	7.597	Thrust:	63.780
Time:	3.707	Roll Set Point:	-0.075	Pitch Set Point:	0.090	Yaw Set Point:	-0.017	X_WP:	0.000	Y_WP:	0.000	Z_WP:	0.500	X:	0.038	Y:	-0.045	Z:	0.565	yaw:	0.974	yaw rate:	2.335	Roll:	0.557	Pitch:	-0.908	Yaw:	2.903	Thrust:	61.958
Time:	3.730	Roll Set Point:	-0.074	Pitch Set Point:	0.090	Yaw Set Point:	-0.017	X_WP:	0.000	Y_WP:	0.000	Z_WP:	0.500	X:	0.037	Y:	-0.045	Z:	0.559	yaw:	0.956	yaw rate:	1.882	Roll:	0.585	Pitch:	-0.938	Yaw:	3.373	Thrust:	67.298
Time:	3.747	Roll Set Point:	-0.073	Pitch Set Point:	0.090	Yaw Set Point:	-0.012	X_WP:	0.000	Y_WP:	0.000	Z_WP:	0.500	X:	0.037	Y:	-0.045	Z:	0.554	yaw:	0.679	yaw rate:	27.623	Roll:	0.611	Pitch:	-0.530	Yaw:	-1.517	Thrust:	60.117
Time:	3.768	Roll Set Point:	-0.073	Pitch Set Point:	0.090	Yaw Set Point:	-0.010	X_WP:	0.000	Y_WP:	0.000	Z_WP:	0.500	X:	0.037	Y:	-0.045	Z:	0.548	yaw:	0.560	yaw rate:	11.922	Roll:	0.620	Pitch:	-0.857	Yaw:	1.408	Thrust:	65.420
Time:	3.788	Roll Set Point:	-0.072	Pitch Set Point:	0.090	Yaw Set Point:	-0.010	X_WP:	0.000	Y_WP:	0.000	Z_WP:	0.500	X:	0.036	Y:	-0.045	Z:	0.542	yaw:	0.559	yaw rate:	0.102	Roll:	0.598	Pitch:	-0.815	Yaw:	2.685	Thrust:	64.098
Time:	3.808	Roll Set Point:	-0.072	Pitch Set Point:	0.090	Yaw Set Point:	-0.008	X_WP:	0.000	Y_WP:	0.000	Z_WP:	0.500	X:	0.036	Y:	-0.045	Z:	0.537	yaw:	0.469	yaw rate:	9.048	Roll:	0.703	Pitch:	-0.877	Yaw:	1.521	Thrust:	65.235
Time:	3.833	Roll Set Point:	-0.071	Pitch Set Point:	0.090	Yaw Set Point:	-0.011	X_WP:	0.000	Y_WP:	0.000	Z_WP:	0.500	X:	0.036	Y:	-0.045	Z:	0.531	yaw:	0.612	yaw rate:	-14.353	Roll:	0.701	Pitch:	-1.167	Yaw:	4.875	Thrust:	75.414
Time:	3.847	Roll Set Point:	-0.070	Pitch Set Point:	0.090	Yaw Set Point:	-0.013	X_WP:	0.000	Y_WP:	0.000	Z_WP:	0.500	X:	0.035	Y:	-0.045	Z:	0.525	yaw:	0.754	yaw rate:	-14.184	Roll:	0.288	Pitch:	-1.102	Yaw:	5.102	Thrust:	55.005
Time:	3.868	Roll Set Point:	-0.070	Pitch Set Point:	0.090	Yaw Set Point:	-0.006	X_WP:	0.000	Y_WP:	0.000	Z_WP:	0.500	X:	0.035	Y:	-0.045	Z:	0.520	yaw:	0.351	yaw rate:	40.320	Roll:	0.801	Pitch:	-0.559	Yaw:	-2.555	Thrust:	65.041
Time:	3.887	Roll Set Point:	-0.069	Pitch Set Point:	0.090	Yaw Set Point:	-0.003	X_WP:	0.000	Y_WP:	0.000	Z_WP:	0.500	X:	0.035	Y:	-0.045	Z:	0.515	yaw:	0.191	yaw rate:	15.985	Roll:	0.720	Pitch:	-0.814	Yaw:	0.113	Thrust:	63.221
Time:	3.907	Roll Set Point:	-0.069	Pitch Set Point:	0.091	Yaw Set Point:	-0.010	X_WP:	0.000	Y_WP:	0.000	Z_WP:	0.500	X:	0.035	Y:	-0.045	Z:	0.510	yaw:	0.554	yaw rate:	-36.348	Roll:	0.468	Pitch:	-1.367	Yaw:	7.536	Thrust:	64.331
Time:	3.930	Roll Set Point:	-0.068	Pitch Set Point:	0.090	Yaw Set Point:	-0.004	X_WP:	0.000	Y_WP:	0.000	Z_WP:	0.500	X:	0.034	Y:	-0.045	Z:	0.506	yaw:	0.235	yaw rate:	31.931	Roll:	0.805	Pitch:	-0.723	Yaw:	-1.116	Thrust:	69.043
Time:	3.947	Roll Set Point:	-0.068	Pitch Set Point:	0.091	Yaw Set Point:	-0.008	X_WP:	0.000	Y_WP:	0.000	Z_WP:	0.500	X:	0.034	Y:	-0.045	Z:	0.501	yaw:	0.487	yaw rate:	-25.139	Roll:	0.424	Pitch:	-1.303	Yaw:	6.250	Thrust:	58.887
Time:	3.968	Roll Set Point:	-0.067	Pitch Set Point:	0.091	Yaw Set Point:	-0.001	X_WP:	0.000	Y_WP:	0.000	Z_WP:	0.500	X:	0.034	Y:	-0.045	Z:	0.496	yaw:	0.078	yaw rate:	40.904	Roll:	0.918	Pitch:	-0.548	Yaw:	-3.043	Thrust:	64.966
Time:	3.990	Roll Set Point:	-0.067	Pitch Set Point:	0.091	Yaw Set Point:	0.001	X_WP:	0.000	Y_WP:	0.000	Z_WP:	0.500	X:	0.033	Y:	-0.045	Z:	0.492	yaw:	-0.077	yaw rate:	15.502	Roll:	0.805	Pitch:	-0.899	Yaw:	0.266	Thrust:	66.547
Time:	4.007	Roll Set Point:	-0.067	Pitch Set Point:	0.091	Yaw Set Point:	0.001	X_WP:	0.000	Y_WP:	0.000	Z_WP:	0.500	X:	0.033	Y:	-0.045	Z:	0.487	yaw:	-0.069	yaw rate:	-0.836	Roll:	0.667	Pitch:	-0.992	Yaw:	1.795	Thrust:	61.399
Time:	4.029	Roll Set Point:	-0.066	Pitch Set Point:	0.092	Yaw Set Point:	-0.004	X_WP:	0.000	Y_WP:	0.000	Z_WP:	0.500	X:	0.033	Y:	-0.046	Z:	0.483	yaw:	0.232	yaw rate:	-30.122	Roll:	0.515	Pitch:	-1.406	Yaw:	6.168	Thrust:	67.219
Time:	4.048	Roll Set Point:	-0.066	Pitch Set Point:	0.091	Yaw Set Point:	0.004	X_WP:	0.000	Y_WP:	0.000	Z_WP:	0.500	X:	0.033	Y:	-0.046	Z:	0.479	yaw:	-0.236	yaw rate:	46.764	Roll:	0.949	Pitch:	-0.422	Yaw:	-4.721	Thrust:	59.614
Time:	4.071	Roll Set Point:	-0.065	Pitch Set Point:	0.091	Yaw Set Point:	0.005	X_WP:	0.000	Y_WP:	0.000	Z_WP:	0.500	X:	0.033	Y:	-0.046	Z:	0.475	yaw:	-0.269	yaw rate:	3.321	Roll:	0.836	Pitch:	-1.110	Yaw:	1.518	Thrust:	72.643
Time:	4.087	Roll Set Point:	-0.065	Pitch Set Point:	0.093	Yaw Set Point:	-0.002	X_WP:	0.000	Y_WP:	0.000	Z_WP:	0.500	X:	0.032	Y:	-0.046	Z:	0.471	yaw:	0.088	yaw rate:	-35.720	Roll:	0.265	Pitch:	-1.479	Yaw:	7.410	Thrust:	57.064
Time:	4.108	Roll Set Point:	-0.064	Pitch Set Point:	0.093	Yaw Set Point:	-0.001	X_WP:	0.000	Y_WP:	0.000	Z_WP:	0.500	X:	0.032	Y:	-0.046	Z:	0.467	yaw:	0.086	yaw rate:	0.256	Roll:	0.679	Pitch:	-1.049	Yaw:	2.144	Thrust:	64.960
Time:	4.130	Roll Set Point:	-0.064	Pitch Set Point:	0.093	Yaw Set Point:	0.002	X_WP:	0.000	Y_WP:	0.000	Z_WP:	0.500	X:	0.032	Y:	-0.047	Z:	0.464	yaw:	-0.088	yaw rate:	17.390	Roll:	0.866	Pitch:	-1.057	Yaw:	-0.099	Thrust:	65.605
Time:	4.147	Roll Set Point:	-0.064	Pitch Set Point:	0.093	Yaw Set Point:	0.006	X_WP:	0.000	Y_WP:	0.000	Z_WP:	0.500	X:	0.032	Y:	-0.047	Z:	0.461	yaw:	-0.351	yaw rate:	26.341	Roll:	0.782	Pitch:	-0.711	Yaw:	-2.630	Thrust:	58.712
Time:	4.168	Roll Set Point:	-0.064	Pitch Set Point:	0.093	Yaw Set Point:	0.008	X_WP:	0.000	Y_WP:	0.000	Z_WP:	0.500	X:	0.032	Y:	-0.047	Z:	0.458	yaw:	-0.444	yaw rate:	9.281	Roll:	0.841	Pitch:	-1.033	Yaw:	0.269	Thrust:	65.179
Time:	4.187	Roll Set Point:	-0.063	Pitch Set Point:	0.095	Yaw Set Point:	0.002	X_WP:	0.000	Y_WP:	0.000	Z_WP:	0.500	X:	0.031	Y:	-0.047	Z:	0.454	yaw:	-0.109	yaw rate:	-33.523	Roll:	0.503	Pitch:	-1.546	Yaw:	6.272	Thrust:	62.214
Time:	4.207	Roll Set Point:	-0.063	Pitch Set Point:	0.094	Yaw Set Point:	0.007	X_WP:	0.000	Y_WP:	0.000	Z_WP:	0.500	X:	0.031	Y:	-0.047	Z:	0.451	yaw:	-0.411	yaw rate:	30.233	Roll:	0.943	Pitch:	-0.802	Yaw:	-2.490	Thrust:	64.822
Time:	4.230	Roll Set Point:	-0.063	Pitch Set Point:	0.095	Yaw Set Point:	0.009	X_WP:	0.000	Y_WP:	0.000	Z_WP:	0.500	X:	0.031	Y:	-0.048	Z:	0.448	yaw:	-0.487	yaw rate:	7.589	Roll:	0.849	Pitch:	-1.144	Yaw:	0.643	Thrust:	68.250
Time:	4.247	Roll Set Point:	-0.062	Pitch Set Point:	0.096	Yaw Set Point:	0.002	X_WP:	0.000	Y_WP:	0.000	Z_WP:	0.500	X:	0.031	Y:	-0.048	Z:	0.445	yaw:	-0.108	yaw rate:	-37.939	Roll:	0.445	Pitch:	-1.575	Yaw:	7.351	Thrust:	59.435
Time:	4.267	Roll Set Point:	-0.062	Pitch Set Point:	0.096	Yaw Set Point:	0.006	X_WP:	0.000	Y_WP:	0.000	Z_WP:	0.500	X:	0.031	Y:	-0.048	Z:	0.442	yaw:	-0.336	yaw rate:	22.837	Roll:	0.886	Pitch:	-0.868	Yaw:	-1.319	Thrust:	64.284
Time:	4.288	Roll Set Point:	-0.061	Pitch Set Point:	0.097	Yaw Set Point:	-0.002	X_WP:	0.000	Y_WP:	0.000	Z_WP:	0.500	X:	0.031	Y:	-0.049	Z:	0.439	yaw:	0.137	yaw rate:	-47.288	Roll:	0.446	Pitch:	-1.670	Yaw:	8.350	Thrust:	66.806
Time:	4.308	Roll Set Point:	-0.061	Pitch Set Point:	0.098	Yaw Set Point:	-0.002	X_WP:	0.000	Y_WP:	0.000	Z_WP:	0.500	X:	0.031	Y:	-0.049	Z:	0.436	yaw:	0.115	yaw rate:	2.212	Roll:	0.774	Pitch:	-1.238	Yaw:	1.813	Thrust:	63.964
Time:	4.329	Roll Set Point:	-0.061	Pitch Set Point:	0.098	Yaw Set Point:	0.004	X_WP:	0.000	Y_WP:	0.000	Z_WP:	0.500	X:	0.030	Y:	-0.049	Z:	0.434	yaw:	-0.232	yaw rate:	34.653	Roll:	0.989	Pitch:	-0.884	Yaw:	-2.393	Thrust:	68.258
Time:	4.347	Roll Set Point:	-0.060	Pitch Set Point:	0.099	Yaw Set Point:	-0.002	X_WP:	0.000	Y_WP:	0.000	Z_WP:	0.500	X:	0.030	Y:	-0.050	Z:	0.431	yaw:	0.098	yaw rate:	-33.045	Roll:	0.404	Pitch:	-1.570	Yaw:	6.676	Thrust:	61.536
Time:	4.368	Roll Set Point:	-0.060	Pitch Set Point:	0.100	Yaw Set Point:	-0.004	X_WP:	0.000	Y_WP:	0.000	Z_WP:	0.500	X:	0.030	Y:	-0.050	Z:	0.428	yaw:	0.222	yaw rate:	-12.327	Roll:	0.683	Pitch:	-1.362	Yaw:	3.918	Thrust:	66.710
Time:	4.388	Roll Set Point:	-0.060	Pitch Set Point:	0.100	Yaw Set Point:	0.003	X_WP:	0.000	Y_WP:	0.000	Z_WP:	0.500	X:	0.030	Y:	-0.050	Z:	0.426	yaw:	-0.145	yaw rate:	36.694	Roll:	0.972	Pitch:	-0.822	Yaw:	-2.949	Thrust:	63.817
Time:	4.408	Roll Set Point:	-0.060	Pitch Set Point:	0.101	Yaw Set Point:	0.002	X_WP:	0.000	Y_WP:	0.000	Z_WP:	0.500	X:	0.030	Y:	-0.050	Z:	0.424	yaw:	-0.101	yaw rate:	-4.405	Roll:	0.756	Pitch:	-1.236	Yaw:	2.397	Thrust:	65.481
Time:	4.430	Roll Set Point:	-0.059	Pitch Set Point:	0.102	Yaw Set Point:	-0.004	X_WP:	0.000	Y_WP:	0.000	Z_WP:	0.500	X:	0.030	Y:	-0.051	Z:	0.421	yaw:	0.224	yaw rate:	-32.481	Roll:	0.485	Pitch:	-1.642	Yaw:	6.353	Thrust:	69.667
Time:	4.447	Roll Set Point:	-0.059	Pitch Set Point:	0.102	Yaw Set Point:	-0.000	X_WP:	0.000	Y_WP:	0.000	Z_WP:	0.500	X:	0.029	Y:	-0.051	Z:	0.419	yaw:	0.005	yaw rate:	21.855	Roll:	0.774	Pitch:	-0.838	Yaw:	-1.661	Thrust:	58.114
Time:	4.467	Roll Set Point:	-0.058	Pitch Set Point:	0.102	Yaw Set Point:	0.000	X_WP:	0.000	Y_WP:	0.000	Z_WP:	0.500	X:	0.029	Y:	-0.051	Z:	0.417	yaw:	-0.021	yaw rate:	2.658	Roll:	0.823	Pitch:	-1.202	Yaw:	1.692	Thrust:	66.889
Time:	4.488	Roll Set Point:	-0.058	Pitch Set Point:	0.103	Yaw Set Point:	0.000	X_WP:	0.000	Y_WP:	0.000	Z_WP:	0.500	X:	0.029	Y:	-0.052	Z:	0.416	yaw:	-0.013	yaw rate:	-0.860	Roll:	0.625	Pitch:	-1.262	Yaw:	2.089	Thrust:	63.854
Time:	4.507	Roll Set Point:	-0.057	Pitch Set Point:	0.104	Yaw Set Point:	-0.006	X_WP:	0.000	Y_WP:	0.000	Z_WP:	0.500	X:	0.029	Y:	-0.052	Z:	0.414	yaw:	0.329	yaw rate:	-34.235	Roll:	0.401	Pitch:	-1.608	Yaw:	6.966	Thrust:	65.829
Time:	4.530	Roll Set Point:	-0.057	Pitch Set Point:	0.104	Yaw Set Point:	-0.002	X_WP:	0.000	Y_WP:	0.000	Z_WP:	0.500	X:	0.028	Y:	-0.052	Z:	0.413	yaw:	0.132	yaw rate:	19.708	Roll:	0.837	Pitch:	-1.056	Yaw:	0.041	Thrust:	68.711
Time:	4.548	Roll Set Point:	-0.056	Pitch Set Point:	0.106	Yaw Set Point:	-0.010	X_WP:	0.000	Y_WP:	0.000	Z_WP:	0.500	X:	0.028	Y:	-0.053	Z:	0.412	yaw:	0.600	yaw rate:	-46.791	Roll:	0.121	Pitch:	-1.650	Yaw:	9.667	Thrust:	58.125
Time:	4.568	Roll Set Point:	-0.055	Pitch Set Point:	0.106	Yaw Set Point:	-0.011	X_WP:	0.000	Y_WP:	0.000	Z_WP:	0.500	X:	0.028	Y:	-0.053	Z:	0.411	yaw:	0.634	yaw rate:	-3.408	Roll:	0.639	Pitch:	-1.258	Yaw:	3.370	Thrust:	66.495
Time:	4.587	Roll Set Point:	-0.054	Pitch Set Point:	0.107	Yaw Set Point:	-0.012	X_WP:	0.000	Y_WP:	0.000	Z_WP:	0.500	X:	0.027	Y:	-0.053	Z:	0.410	yaw:	0.670	yaw rate:	-3.515	Roll:	0.524	Pitch:	-1.334	Yaw:	3.409	Thrust:	64.072
Time:	4.608	Roll Set Point:	-0.054	Pitch Set Point:	0.108	Yaw Set Point:	-0.009	X_WP:	0.000	Y_WP:	0.000	Z_WP:	0.500	X:	0.027	Y:	-0.054	Z:	0.408	yaw:	0.524	yaw rate:	14.565	Roll:	0.877	Pitch:	-1.199	Yaw:	0.735	Thrust:	66.305
Time:	4.629	Roll Set Point:	-0.053	Pitch Set Point:	0.108	Yaw Set Point:	-0.010	X_WP:	0.000	Y_WP:	0.000	Z_WP:	0.500	X:	0.027	Y:	-0.054	Z:	0.407	yaw:	0.567	yaw rate:	-4.277	Roll:	0.598	Pitch:	-1.375	Yaw:	3.494	Thrust:	70.535
Time:	4.647	Roll Set Point:	-0.053	Pitch Set Point:	0.108	Yaw Set Point:	-0.005	X_WP:	0.000	Y_WP:	0.000	Z_WP:	0.500	X:	0.027	Y:	-0.054	Z:	0.407	yaw:	0.286	yaw rate:	28.102	Roll:	0.711	Pitch:	-0.787	Yaw:	-1.877	Thrust:	58.679
Time:	4.668	Roll Set Point:	-0.052	Pitch Set Point:	0.109	Yaw Set Point:	-0.006	X_WP:	0.000	Y_WP:	0.000	Z_WP:	0.500	X:	0.026	Y:	-0.054	Z:	0.406	yaw:	0.352	yaw rate:	-6.637	Roll:	0.529	Pitch:	-1.344	Yaw:	3.418	Thrust:	67.746
Time:	4.691	Roll Set Point:	-0.051	Pitch Set Point:	0.109	Yaw Set Point:	-0.006	X_WP:	0.000	Y_WP:	0.000	Z_WP:	0.500	X:	0.026	Y:	-0.055	Z:	0.406	yaw:	0.348	yaw rate:	0.375	Roll:	0.546	Pitch:	-1.331	Yaw:	2.620	Thrust:	68.391
Time:	4.707	Roll Set Point:	-0.050	Pitch Set Point:	0.110	Yaw Set Point:	-0.006	X_WP:	0.000	Y_WP:	0.000	Z_WP:	0.500	X:	0.025	Y:	-0.055	Z:	0.405	yaw:	0.353	yaw rate:	-0.436	Roll:	0.490	Pitch:	-1.257	Yaw:	2.323	Thrust:	59.055
Time:	4.728	Roll Set Point:	-0.049	Pitch Set Point:	0.110	Yaw Set Point:	-0.005	X_WP:	0.000	Y_WP:	0.000	Z_WP:	0.500	X:	0.025	Y:	-0.055	Z:	0.405	yaw:	0.283	yaw rate:	6.959	Roll:	0.534	Pitch:	-1.191	Yaw:	1.565	Thrust:	65.856
Time:	4.748	Roll Set Point:	-0.048	Pitch Set Point:	0.111	Yaw Set Point:	-0.006	X_WP:	0.000	Y_WP:	0.000	Z_WP:	0.500	X:	0.024	Y:	-0.055	Z:	0.406	yaw:	0.333	yaw rate:	-4.973	Roll:	0.370	Pitch:	-1.307	Yaw:	3.095	Thrust:	63.308
Time:	4.768	Roll Set Point:	-0.047	Pitch Set Point:	0.112	Yaw Set Point:	-0.013	X_WP:	0.000	Y_WP:	0.000	Z_WP:	0.500	X:	0.024	Y:	-0.056	Z:	0.406	yaw:	0.764	yaw rate:	-43.074	Roll:	0.186	Pitch:	-1.680	Yaw:	8.655	Thrust:	63.971
Time:	4.787	Roll Set Point:	-0.046	Pitch Set Point:	0.113	Yaw Set Point:	-0.017	X_WP:	0.000	Y_WP:	0.000	Z_WP:	0.500	X:	0.023	Y:	-0.056	Z:	0.406	yaw:	0.959	yaw rate:	-19.536	Roll:	0.184	Pitch:	-1.397	Yaw:	5.910	Thrust:	64.395
Time:	4.808	Roll Set Point:	-0.045	Pitch Set Point:	0.113	Yaw Set Point:	-0.012	X_WP:	0.000	Y_WP:	0.000	Z_WP:	0.500	X:	0.023	Y:	-0.057	Z:	0.407	yaw:	0.662	yaw rate:	29.645	Roll:	0.585	Pitch:	-1.048	Yaw:	-0.881	Thrust:	64.320
Time:	4.830	Roll Set Point:	-0.043	Pitch Set Point:	0.115	Yaw Set Point:	-0.019	X_WP:	0.000	Y_WP:	0.000	Z_WP:	0.500	X:	0.022	Y:	-0.057	Z:	0.407	yaw:	1.073	yaw rate:	-41.058	Roll:	0.054	Pitch:	-1.686	Yaw:	8.574	Thrust:	68.385
Time:	4.846	Roll Set Point:	-0.042	Pitch Set Point:	0.115	Yaw Set Point:	-0.018	X_WP:	0.000	Y_WP:	0.000	Z_WP:	0.500	X:	0.022	Y:	-0.057	Z:	0.408	yaw:	1.017	yaw rate:	5.562	Roll:	0.376	Pitch:	-1.191	Yaw:	2.218	Thrust:	56.645
Time:	4.868	Roll Set Point:	-0.041	Pitch Set Point:	0.115	Yaw Set Point:	-0.012	X_WP:	0.000	Y_WP:	0.000	Z_WP:	0.500	X:	0.021	Y:	-0.058	Z:	0.409	yaw:	0.709	yaw rate:	30.872	Roll:	0.643	Pitch:	-1.056	Yaw:	-0.649	Thrust:	66.206
Time:	4.887	Roll Set Point:	-0.040	Pitch Set Point:	0.116	Yaw Set Point:	-0.017	X_WP:	0.000	Y_WP:	0.000	Z_WP:	0.500	X:	0.020	Y:	-0.058	Z:	0.409	yaw:	0.971	yaw rate:	-26.245	Roll:	0.105	Pitch:	-1.470	Yaw:	6.858	Thrust:	62.038
Time:	4.906	Roll Set Point:	-0.039	Pitch Set Point:	0.117	Yaw Set Point:	-0.018	X_WP:	0.000	Y_WP:	0.000	Z_WP:	0.500	X:	0.020	Y:	-0.058	Z:	0.410	yaw:	1.015	yaw rate:	-4.438	Roll:	0.231	Pitch:	-1.311	Yaw:	3.950	Thrust:	63.394
Time:	4.929	Roll Set Point:	-0.037	Pitch Set Point:	0.117	Yaw Set Point:	-0.017	X_WP:	0.000	Y_WP:	0.000	Z_WP:	0.500	X:	0.019	Y:	-0.059	Z:	0.411	yaw:	1.000	yaw rate:	1.585	Roll:	0.450	Pitch:	-1.311	Yaw:	3.434	Thrust:	70.942
Time:	4.946	Roll Set Point:	-0.036	Pitch Set Point:	0.118	Yaw Set Point:	-0.013	X_WP:	0.000	Y_WP:	0.000	Z_WP:	0.500	X:	0.019	Y:	-0.059	Z:	0.412	yaw:	0.760	yaw rate:	24.002	Roll:	0.322	Pitch:	-0.988	Yaw:	-0.861	Thrust:	54.424
Time:	4.967	Roll Set Point:	-0.035	Pitch Set Point:	0.118	Yaw Set Point:	-0.013	X_WP:	0.000	Y_WP:	0.000	Z_WP:	0.500	X:	0.018	Y:	-0.059	Z:	0.413	yaw:	0.772	yaw rate:	-1.200	Roll:	0.399	Pitch:	-1.200	Yaw:	3.379	Thrust:	69.344
Time:	4.987	Roll Set Point:	-0.034	Pitch Set Point:	0.118	Yaw Set Point:	-0.014	X_WP:	0.000	Y_WP:	0.000	Z_WP:	0.500	X:	0.017	Y:	-0.059	Z:	0.415	yaw:	0.823	yaw rate:	-5.145	Roll:	0.223	Pitch:	-1.309	Yaw:	3.793	Thrust:	62.390
Time:	5.007	Roll Set Point:	-0.033	Pitch Set Point:	0.119	Yaw Set Point:	-0.012	X_WP:	0.000	Y_WP:	0.000	Z_WP:	0.500	X:	0.017	Y:	-0.059	Z:	0.416	yaw:	0.712	yaw rate:	11.068	Roll:	0.391	Pitch:	-1.162	Yaw:	1.588	Thrust:	64.648
Time:	5.030	Roll Set Point:	-0.031	Pitch Set Point:	0.119	Yaw Set Point:	-0.014	X_WP:	0.000	Y_WP:	0.000	Z_WP:	0.500	X:	0.016	Y:	-0.060	Z:	0.417	yaw:	0.802	yaw rate:	-8.991	Roll:	0.326	Pitch:	-1.383	Yaw:	4.420	Thrust:	72.489
Time:	5.048	Roll Set Point:	-0.030	Pitch Set Point:	0.120	Yaw Set Point:	-0.013	X_WP:	0.000	Y_WP:	0.000	Z_WP:	0.500	X:	0.015	Y:	-0.060	Z:	0.418	yaw:	0.766	yaw rate:	3.625	Roll:	0.220	Pitch:	-1.125	Yaw:	2.362	Thrust:	58.398
Time:	5.068	Roll Set Point:	-0.029	Pitch Set Point:	0.120	Yaw Set Point:	-0.013	X_WP:	0.000	Y_WP:	0.000	Z_WP:	0.500	X:	0.015	Y:	-0.060	Z:	0.419	yaw:	0.733	yaw rate:	3.283	Roll:	0.328	Pitch:	-1.274	Yaw:	2.670	Thrust:	65.133
Time:	5.092	Roll Set Point:	-0.027	Pitch Set Point:	0.121	Yaw Set Point:	-0.021	X_WP:	0.000	Y_WP:	0.000	Z_WP:	0.500	X:	0.014	Y:	-0.061	Z:	0.420	yaw:	1.183	yaw rate:	-44.987	Roll:	-0.184	Pitch:	-1.621	Yaw:	9.060	Thrust:	73.518
Time:	5.108	Roll Set Point:	-0.025	Pitch Set Point:	0.122	Yaw Set Point:	-0.022	X_WP:	0.000	Y_WP:	0.000	Z_WP:	0.500	X:	0.013	Y:	-0.061	Z:	0.422	yaw:	1.255	yaw rate:	-7.194	Roll:	0.055	Pitch:	-1.227	Yaw:	4.531	Thrust:	53.117
Time:	5.131	Roll Set Point:	-0.025	Pitch Set Point:	0.122	Yaw Set Point:	-0.019	X_WP:	0.000	Y_WP:	0.000	Z_WP:	0.500	X:	0.013	Y:	-0.061	Z:	0.423	yaw:	1.102	yaw rate:	15.335	Roll:	0.654	Pitch:	-1.294	Yaw:	2.104	Thrust:	73.439
Time:	5.147	Roll Set Point:	-0.024	Pitch Set Point:	0.122	Yaw Set Point:	-0.012	X_WP:	0.000	Y_WP:	0.000	Z_WP:	0.500	X:	0.012	Y:	-0.061	Z:	0.425	yaw:	0.660	yaw rate:	44.174	Roll:	0.591	Pitch:	-0.784	Yaw:	-4.703	Thrust:	51.181
Time:	5.168	Roll Set Point:	-0.023	Pitch Set Point:	0.123	Yaw Set Point:	-0.010	X_WP:	0.000	Y_WP:	0.000	Z_WP:	0.500	X:	0.012	Y:	-0.061	Z:	0.427	yaw:	0.569	yaw rate:	9.139	Roll:	0.423	Pitch:	-1.260	Yaw:	1.845	Thrust:	67.272
Time:	5.191	Roll Set Point:	-0.021	Pitch Set Point:	0.123	Yaw Set Point:	-0.011	X_WP:	0.000	Y_WP:	0.000	Z_WP:	0.500	X:	0.011	Y:	-0.062	Z:	0.429	yaw:	0.657	yaw rate:	-8.833	Roll:	0.171	Pitch:	-1.350	Yaw:	4.203	Thrust:	70.853
Time:	5.208	Roll Set Point:	-0.020	Pitch Set Point:	0.124	Yaw Set Point:	-0.011	X_WP:	0.000	Y_WP:	0.000	Z_WP:	0.500	X:	0.011	Y:	-0.062	Z:	0.431	yaw:	0.629	yaw rate:	2.784	Roll:	0.368	Pitch:	-1.196	Yaw:	2.183	Thrust:	54.510
Time:	5.231	Roll Set Point:	-0.019	Pitch Set Point:	0.124	Yaw Set Point:	-0.012	X_WP:	0.000	Y_WP:	0.000	Z_WP:	0.500	X:	0.010	Y:	-0.062	Z:	0.432	yaw:	0.691	yaw rate:	-6.166	Roll:	0.254	Pitch:	-1.331	Yaw:	3.916	Thrust:	73.827
Time:	5.247	Roll Set Point:	-0.018	Pitch Set Point:	0.125	Yaw Set Point:	-0.011	X_WP:	0.000	Y_WP:	0.000	Z_WP:	0.500	X:	0.009	Y:	-0.062	Z:	0.434	yaw:	0.654	yaw rate:	3.691	Roll:	0.292	Pitch:	-1.255	Yaw:	1.986	Thrust:	54.744
Time:	5.268	Roll Set Point:	-0.017	Pitch Set Point:	0.125	Yaw Set Point:	-0.011	X_WP:	0.000	Y_WP:	0.000	Z_WP:	0.500	X:	0.009	Y:	-0.063	Z:	0.435	yaw:	0.613	yaw rate:	4.103	Roll:	0.464	Pitch:	-1.268	Yaw:	2.452	Thrust:	66.837
Time:	5.292	Roll Set Point:	-0.016	Pitch Set Point:	0.126	Yaw Set Point:	-0.010	X_WP:	0.000	Y_WP:	0.000	Z_WP:	0.500	X:	0.008	Y:	-0.063	Z:	0.436	yaw:	0.556	yaw rate:	5.671	Roll:	0.398	Pitch:	-1.345	Yaw:	2.444	Thrust:	73.846
Time:	5.308	Roll Set Point:	-0.015	Pitch Set Point:	0.126	Yaw Set Point:	-0.009	X_WP:	0.000	Y_WP:	0.000	Z_WP:	0.500	X:	0.008	Y:	-0.063	Z:	0.438	yaw:	0.497	yaw rate:	5.931	Roll:	0.423	Pitch:	-1.242	Yaw:	1.315	Thrust:	54.679
Time:	5.331	Roll Set Point:	-0.014	Pitch Set Point:	0.127	Yaw Set Point:	-0.010	X_WP:	0.000	Y_WP:	0.000	Z_WP:	0.500	X:	0.007	Y:	-0.063	Z:	0.439	yaw:	0.564	yaw rate:	-6.727	Roll:	0.340	Pitch:	-1.444	Yaw:	3.890	Thrust:	77.110
Time:	5.348	Roll Set Point:	-0.013	Pitch Set Point:	0.128	Yaw Set Point:	-0.018	X_WP:	0.000	Y_WP:	0.000	Z_WP:	0.500	X:	0.007	Y:	-0.064	Z:	0.440	yaw:	1.026	yaw rate:	-46.154	Roll:	-0.187	Pitch:	-1.653	Yaw:	10.254	Thrust:	55.040
