Time:	0.036	Roll Set Point:	1.070	Pitch Set Point:	1.744	Yaw Set Point:	-1.087	X_WP:	0.000	Y_WP:	0.000	Y_WP:	0.750	X:	-0.008	Y:	-1.195	Z:	0.044	yaw:	62.284	yaw rate:	2.389	Roll:	-30.000	Pitch:	-15.923	Yaw:	86.965	Thrust:	38.821
Time:	0.056	Roll Set Point:	1.070	Pitch Set Point:	1.744	Yaw Set Point:	-1.087	X_WP:	0.000	Y_WP:	0.000	Y_WP:	0.750	X:	-0.008	Y:	-1.195	Z:	0.044	yaw:	62.297	yaw rate:	-1.275	Roll:	-30.000	Pitch:	-15.758	Yaw:	87.599	Thrust:	40.648
Time:	0.075	Roll Set Point:	1.070	Pitch Set Point:	1.744	Yaw Set Point:	-1.087	X_WP:	0.000	Y_WP:	0.000	Y_WP:	0.750	X:	-0.008	Y:	-1.195	Z:	0.044	yaw:	62.299	yaw rate:	-0.200	Roll:	-30.000	Pitch:	-15.933	Yaw:	87.854	Thrust:	42.052
Time:	0.096	Roll Set Point:	1.070	Pitch Set Point:	1.744	Yaw Set Point:	-1.087	X_WP:	0.000	Y_WP:	0.000	Y_WP:	0.750	X:	-0.008	Y:	-1.195	Z:	0.044	yaw:	62.288	yaw rate:	1.100	Roll:	-30.000	Pitch:	-16.147	Yaw:	88.137	Thrust:	43.937
Time:	0.116	Roll Set Point:	1.070	Pitch Set Point:	1.744	Yaw Set Point:	-1.087	X_WP:	0.000	Y_WP:	0.000	Y_WP:	0.750	X:	-0.008	Y:	-1.195	Z:	0.044	yaw:	62.301	yaw rate:	-1.294	Roll:	-30.000	Pitch:	-15.819	Yaw:	88.929	Thrust:	45.813
Time:	0.137	Roll Set Point:	1.070	Pitch Set Point:	1.744	Yaw Set Point:	-1.087	X_WP:	0.000	Y_WP:	0.000	Y_WP:	0.750	X:	-0.008	Y:	-1.195	Z:	0.044	yaw:	62.295	yaw rate:	0.502	Roll:	-30.000	Pitch:	-16.164	Yaw:	88.897	Thrust:	47.250
Time:	0.156	Roll Set Point:	1.070	Pitch Set Point:	1.744	Yaw Set Point:	-1.088	X_WP:	0.000	Y_WP:	0.000	Y_WP:	0.750	X:	-0.008	Y:	-1.195	Z:	0.044	yaw:	62.327	yaw rate:	-3.155	Roll:	-30.000	Pitch:	-15.557	Yaw:	89.478	Thrust:	49.189
Time:	0.175	Roll Set Point:	1.070	Pitch Set Point:	1.744	Yaw Set Point:	-1.088	X_WP:	0.000	Y_WP:	0.000	Y_WP:	0.750	X:	-0.008	Y:	-1.195	Z:	0.044	yaw:	62.313	yaw rate:	1.419	Roll:	-30.000	Pitch:	-16.331	Yaw:	88.722	Thrust:	50.115
Time:	0.195	Roll Set Point:	1.070	Pitch Set Point:	1.744	Yaw Set Point:	-1.087	X_WP:	0.000	Y_WP:	0.000	Y_WP:	0.750	X:	-0.008	Y:	-1.195	Z:	0.044	yaw:	62.297	yaw rate:	1.620	Roll:	-30.000	Pitch:	-16.425	Yaw:	88.802	Thrust:	52.479
Time:	0.215	Roll Set Point:	1.070	Pitch Set Point:	1.744	Yaw Set Point:	-1.087	X_WP:	0.000	Y_WP:	0.000	Y_WP:	0.750	X:	-0.008	Y:	-1.195	Z:	0.044	yaw:	62.280	yaw rate:	1.684	Roll:	-30.000	Pitch:	-16.436	Yaw:	88.699	Thrust:	53.937
Time:	0.236	Roll Set Point:	1.070	Pitch Set Point:	1.744	Yaw Set Point:	-1.087	X_WP:	0.000	Y_WP:	0.000	Y_WP:	0.750	X:	-0.008	Y:	-1.195	Z:	0.044	yaw:	62.297	yaw rate:	-1.768	Roll:	-30.000	Pitch:	-15.904	Yaw:	89.256	Thrust:	56.040
Time:	0.256	Roll Set Point:	1.070	Pitch Set Point:	1.744	Yaw Set Point:	-1.088	X_WP:	0.000	Y_WP:	0.000	Y_WP:	0.750	X:	-0.008	Y:	-1.195	Z:	0.044	yaw:	62.314	yaw rate:	-1.606	Roll:	-30.000	Pitch:	-15.937	Yaw:	89.272	Thrust:	58.174
Time:	0.275	Roll Set Point:	1.070	Pitch Set Point:	1.744	Yaw Set Point:	-1.087	X_WP:	0.000	Y_WP:	0.000	Y_WP:	0.750	X:	-0.008	Y:	-1.195	Z:	0.044	yaw:	62.298	yaw rate:	1.507	Roll:	-30.000	Pitch:	-16.511	Yaw:	88.652	Thrust:	57.909
Time:	0.296	Roll Set Point:	1.070	Pitch Set Point:	1.744	Yaw Set Point:	-1.087	X_WP:	0.000	Y_WP:	0.000	Y_WP:	0.750	X:	-0.008	Y:	-1.195	Z:	0.044	yaw:	62.282	yaw rate:	1.622	Roll:	-30.000	Pitch:	-16.551	Yaw:	88.768	Thrust:	60.963
Time:	0.315	Roll Set Point:	1.070	Pitch Set Point:	1.744	Yaw Set Point:	-1.088	X_WP:	0.000	Y_WP:	0.000	Y_WP:	0.750	X:	-0.008	Y:	-1.195	Z:	0.044	yaw:	62.312	yaw rate:	-2.943	Roll:	-30.000	Pitch:	-15.791	Yaw:	89.417	Thrust:	62.942
Time:	0.337	Roll Set Point:	1.070	Pitch Set Point:	1.744	Yaw Set Point:	-1.087	X_WP:	0.000	Y_WP:	0.000	Y_WP:	0.750	X:	-0.008	Y:	-1.195	Z:	0.044	yaw:	62.308	yaw rate:	0.400	Roll:	-30.000	Pitch:	-16.453	Yaw:	89.058	Thrust:	65.615
Time:	0.358	Roll Set Point:	1.070	Pitch Set Point:	1.744	Yaw Set Point:	-1.087	X_WP:	0.000	Y_WP:	0.000	Y_WP:	0.750	X:	-0.008	Y:	-1.195	Z:	0.044	yaw:	62.297	yaw rate:	1.080	Roll:	-30.000	Pitch:	-16.541	Yaw:	89.040	Thrust:	67.813
Time:	0.376	Roll Set Point:	1.070	Pitch Set Point:	1.744	Yaw Set Point:	-1.088	X_WP:	0.000	Y_WP:	0.000	Y_WP:	0.750	X:	-0.008	Y:	-1.195	Z:	0.044	yaw:	62.324	yaw rate:	-2.713	Roll:	-30.000	Pitch:	-15.774	Yaw:	89.189	Thrust:	64.977
Time:	0.397	Roll Set Point:	1.070	Pitch Set Point:	1.744	Yaw Set Point:	-1.088	X_WP:	0.000	Y_WP:	0.000	Y_WP:	0.750	X:	-0.008	Y:	-1.195	Z:	0.044	yaw:	62.320	yaw rate:	0.359	Roll:	-30.000	Pitch:	-16.494	Yaw:	89.030	Thrust:	70.201
Time:	0.416	Roll Set Point:	1.070	Pitch Set Point:	1.744	Yaw Set Point:	-1.087	X_WP:	0.000	Y_WP:	0.000	Y_WP:	0.750	X:	-0.008	Y:	-1.195	Z:	0.044	yaw:	62.300	yaw rate:	2.084	Roll:	-30.000	Pitch:	-16.762	Yaw:	88.670	Thrust:	70.438
Time:	0.437	Roll Set Point:	1.070	Pitch Set Point:	1.744	Yaw Set Point:	-1.087	X_WP:	0.000	Y_WP:	0.000	Y_WP:	0.750	X:	-0.008	Y:	-1.195	Z:	0.044	yaw:	62.297	yaw rate:	0.253	Roll:	-30.000	Pitch:	-16.508	Yaw:	88.977	Thrust:	73.214
Time:	0.457	Roll Set Point:	1.070	Pitch Set Point:	1.744	Yaw Set Point:	-1.087	X_WP:	0.000	Y_WP:	0.000	Y_WP:	0.750	X:	-0.008	Y:	-1.195	Z:	0.044	yaw:	62.293	yaw rate:	0.409	Roll:	-30.000	Pitch:	-16.570	Yaw:	88.982	Thrust:	75.263
Time:	0.476	Roll Set Point:	1.070	Pitch Set Point:	1.744	Yaw Set Point:	-1.088	X_WP:	0.000	Y_WP:	0.000	Y_WP:	0.750	X:	-0.008	Y:	-1.195	Z:	0.044	yaw:	62.323	yaw rate:	-2.975	Roll:	-30.000	Pitch:	-16.014	Yaw:	89.337	Thrust:	74.484
Time:	0.497	Roll Set Point:	1.070	Pitch Set Point:	1.744	Yaw Set Point:	-1.087	X_WP:	0.000	Y_WP:	0.000	Y_WP:	0.750	X:	-0.008	Y:	-1.195	Z:	0.044	yaw:	62.303	yaw rate:	1.959	Roll:	-30.000	Pitch:	-16.857	Yaw:	88.792	Thrust:	78.762
Time:	0.518	Roll Set Point:	1.070	Pitch Set Point:	1.744	Yaw Set Point:	-1.088	X_WP:	0.000	Y_WP:	0.000	Y_WP:	0.750	X:	-0.008	Y:	-1.195	Z:	0.044	yaw:	62.311	yaw rate:	-0.825	Roll:	-30.000	Pitch:	-16.433	Yaw:	89.174	Thrust:	80.841
Time:	0.539	Roll Set Point:	1.070	Pitch Set Point:	1.744	Yaw Set Point:	-1.087	X_WP:	0.000	Y_WP:	0.000	Y_WP:	0.750	X:	-0.008	Y:	-1.195	Z:	0.044	yaw:	62.296	yaw rate:	1.492	Roll:	-30.000	Pitch:	-16.900	Yaw:	88.957	Thrust:	84.484
Time:	0.558	Roll Set Point:	1.070	Pitch Set Point:	1.744	Yaw Set Point:	-1.088	X_WP:	0.000	Y_WP:	0.000	Y_WP:	0.750	X:	-0.008	Y:	-1.195	Z:	0.044	yaw:	62.312	yaw rate:	-1.578	Roll:	-30.000	Pitch:	-16.304	Yaw:	89.155	Thrust:	81.496
Time:	0.577	Roll Set Point:	1.070	Pitch Set Point:	1.744	Yaw Set Point:	-1.088	X_WP:	0.000	Y_WP:	0.000	Y_WP:	0.750	X:	-0.008	Y:	-1.195	Z:	0.044	yaw:	62.322	yaw rate:	-0.992	Roll:	-30.000	Pitch:	-16.421	Yaw:	88.921	Thrust:	78.905
Time:	0.596	Roll Set Point:	1.070	Pitch Set Point:	1.744	Yaw Set Point:	-1.087	X_WP:	0.000	Y_WP:	0.000	Y_WP:	0.750	X:	-0.008	Y:	-1.195	Z:	0.044	yaw:	62.291	yaw rate:	3.143	Roll:	-30.000	Pitch:	-17.145	Yaw:	88.570	Thrust:	86.382
Time:	0.616	Roll Set Point:	1.070	Pitch Set Point:	1.744	Yaw Set Point:	-1.087	X_WP:	0.000	Y_WP:	0.000	Y_WP:	0.750	X:	-0.008	Y:	-1.195	Z:	0.044	yaw:	62.294	yaw rate:	-0.331	Roll:	-30.000	Pitch:	-16.612	Yaw:	88.989	Thrust:	87.181
Time:	0.636	Roll Set Point:	1.070	Pitch Set Point:	1.744	Yaw Set Point:	-1.087	X_WP:	0.000	Y_WP:	0.000	Y_WP:	0.750	X:	-0.008	Y:	-1.195	Z:	0.044	yaw:	62.298	yaw rate:	-0.369	Roll:	-30.000	Pitch:	-16.619	Yaw:	89.063	Thrust:	90.414
Time:	0.657	Roll Set Point:	1.070	Pitch Set Point:	1.744	Yaw Set Point:	-1.088	X_WP:	0.000	Y_WP:	0.000	Y_WP:	0.750	X:	-0.008	Y:	-1.195	Z:	0.044	yaw:	62.315	yaw rate:	-1.713	Roll:	-30.000	Pitch:	-16.414	Yaw:	89.294	Thrust:	93.159
Time:	0.676	Roll Set Point:	1.070	Pitch Set Point:	1.744	Yaw Set Point:	-1.088	X_WP:	0.000	Y_WP:	0.000	Y_WP:	0.750	X:	-0.008	Y:	-1.195	Z:	0.044	yaw:	62.311	yaw rate:	0.384	Roll:	-30.000	Pitch:	-16.686	Yaw:	88.886	Thrust:	91.279
Time:	0.696	Roll Set Point:	1.070	Pitch Set Point:	1.744	Yaw Set Point:	-1.088	X_WP:	0.000	Y_WP:	0.000	Y_WP:	0.750	X:	-0.008	Y:	-1.195	Z:	0.044	yaw:	62.320	yaw rate:	-0.912	Roll:	-30.000	Pitch:	-16.510	Yaw:	89.109	Thrust:	94.007
Time:	0.717	Roll Set Point:	1.070	Pitch Set Point:	1.744	Yaw Set Point:	-1.087	X_WP:	0.000	Y_WP:	0.000	Y_WP:	0.750	X:	-0.008	Y:	-1.195	Z:	0.044	yaw:	62.284	yaw rate:	3.575	Roll:	-30.000	Pitch:	-17.234	Yaw:	88.592	Thrust:	98.641
Time:	0.736	Roll Set Point:	1.070	Pitch Set Point:	1.744	Yaw Set Point:	-1.087	X_WP:	0.000	Y_WP:	0.000	Y_WP:	0.750	X:	-0.008	Y:	-1.195	Z:	0.044	yaw:	62.286	yaw rate:	-0.173	Roll:	-30.000	Pitch:	-16.649	Yaw:	88.986	Thrust:	97.988
Time:	0.757	Roll Set Point:	1.070	Pitch Set Point:	1.744	Yaw Set Point:	-1.087	X_WP:	0.000	Y_WP:	0.000	Y_WP:	0.750	X:	-0.008	Y:	-1.195	Z:	0.044	yaw:	62.297	yaw rate:	-1.110	Roll:	-30.000	Pitch:	-16.473	Yaw:	89.152	Thrust:	100.000
Time:	0.776	Roll Set Point:	1.070	Pitch Set Point:	1.744	Yaw Set Point:	-1.087	X_WP:	0.000	Y_WP:	0.000	Y_WP:	0.750	X:	-0.008	Y:	-1.195	Z:	0.044	yaw:	62.305	yaw rate:	-0.820	Roll:	-30.000	Pitch:	-16.517	Yaw:	89.016	Thrust:	98.612
Time:	0.797	Roll Set Point:	1.070	Pitch Set Point:	1.744	Yaw Set Point:	-1.087	X_WP:	0.000	Y_WP:	0.000	Y_WP:	0.750	X:	-0.008	Y:	-1.195	Z:	0.044	yaw:	62.299	yaw rate:	0.691	Roll:	-30.000	Pitch:	-16.774	Yaw:	88.925	Thrust:	100.000
Time:	0.816	Roll Set Point:	1.070	Pitch Set Point:	1.744	Yaw Set Point:	-1.088	X_WP:	0.000	Y_WP:	0.000	Y_WP:	0.750	X:	-0.008	Y:	-1.195	Z:	0.044	yaw:	62.312	yaw rate:	-1.393	Roll:	-30.000	Pitch:	-16.428	Yaw:	89.169	Thrust:	100.000
Time:	0.837	Roll Set Point:	1.070	Pitch Set Point:	1.744	Yaw Set Point:	-1.087	X_WP:	0.000	Y_WP:	0.000	Y_WP:	0.750	X:	-0.008	Y:	-1.195	Z:	0.044	yaw:	62.305	yaw rate:	0.785	Roll:	-30.000	Pitch:	-16.827	Yaw:	88.951	Thrust:	100.000
Time:	0.857	Roll Set Point:	1.070	Pitch Set Point:	1.744	Yaw Set Point:	-1.087	X_WP:	0.000	Y_WP:	0.000	Y_WP:	0.750	X:	-0.008	Y:	-1.195	Z:	0.044	yaw:	62.299	yaw rate:	0.549	Roll:	-30.000	Pitch:	-16.716	Yaw:	88.937	Thrust:	100.000
Time:	0.876	Roll Set Point:	1.070	Pitch Set Point:	1.744	Yaw Set Point:	-1.088	X_WP:	0.000	Y_WP:	0.000	Y_WP:	0.750	X:	-0.008	Y:	-1.195	Z:	0.044	yaw:	62.314	yaw rate:	-1.521	Roll:	-30.000	Pitch:	-16.391	Yaw:	89.149	Thrust:	100.000
Time:	0.896	Roll Set Point:	1.070	Pitch Set Point:	1.744	Yaw Set Point:	-1.088	X_WP:	0.000	Y_WP:	0.000	Y_WP:	0.750	X:	-0.008	Y:	-1.195	Z:	0.044	yaw:	62.323	yaw rate:	-0.899	Roll:	-30.000	Pitch:	-16.495	Yaw:	89.132	Thrust:	100.000
Time:	0.916	Roll Set Point:	1.069	Pitch Set Point:	1.745	Yaw Set Point:	-1.087	X_WP:	0.000	Y_WP:	0.000	Y_WP:	0.750	X:	-0.008	Y:	-1.195	Z:	0.044	yaw:	62.270	yaw rate:	5.320	Roll:	-30.000	Pitch:	-17.561	Yaw:	88.306	Thrust:	100.000
Time:	0.936	Roll Set Point:	1.070	Pitch Set Point:	1.744	Yaw Set Point:	-1.088	X_WP:	0.000	Y_WP:	0.000	Y_WP:	0.750	X:	-0.008	Y:	-1.195	Z:	0.044	yaw:	62.314	yaw rate:	-4.406	Roll:	-30.000	Pitch:	-15.919	Yaw:	89.537	Thrust:	100.000
Time:	0.958	Roll Set Point:	1.070	Pitch Set Point:	1.744	Yaw Set Point:	-1.088	X_WP:	0.000	Y_WP:	0.000	Y_WP:	0.750	X:	-0.008	Y:	-1.195	Z:	0.044	yaw:	62.325	yaw rate:	-1.090	Roll:	-30.000	Pitch:	-16.513	Yaw:	89.363	Thrust:	100.000
Time:	0.976	Roll Set Point:	1.070	Pitch Set Point:	1.744	Yaw Set Point:	-1.087	X_WP:	0.000	Y_WP:	0.000	Y_WP:	0.750	X:	-0.008	Y:	-1.195	Z:	0.044	yaw:	62.294	yaw rate:	3.103	Roll:	-30.000	Pitch:	-17.159	Yaw:	88.292	Thrust:	100.000
Time:	0.996	Roll Set Point:	1.070	Pitch Set Point:	1.744	Yaw Set Point:	-1.087	X_WP:	0.000	Y_WP:	0.000	Y_WP:	0.750	X:	-0.008	Y:	-1.195	Z:	0.044	yaw:	62.296	yaw rate:	-0.168	Roll:	-30.000	Pitch:	-16.664	Yaw:	89.028	Thrust:	100.000
Time:	1.015	Roll Set Point:	1.070	Pitch Set Point:	1.744	Yaw Set Point:	-1.087	X_WP:	0.000	Y_WP:	0.000	Y_WP:	0.750	X:	-0.008	Y:	-1.195	Z:	0.044	yaw:	62.298	yaw rate:	-0.247	Roll:	-30.000	Pitch:	-16.555	Yaw:	88.932	Thrust:	100.000
Time:	1.037	Roll Set Point:	1.070	Pitch Set Point:	1.744	Yaw Set Point:	-1.088	X_WP:	0.000	Y_WP:	0.000	Y_WP:	0.750	X:	-0.008	Y:	-1.195	Z:	0.044	yaw:	62.313	yaw rate:	-1.495	Roll:	-30.000	Pitch:	-16.448	Yaw:	89.363	Thrust:	100.000
Time:	1.056	Roll Set Point:	1.070	Pitch Set Point:	1.744	Yaw Set Point:	-1.087	X_WP:	0.000	Y_WP:	0.000	Y_WP:	0.750	X:	-0.008	Y:	-1.195	Z:	0.044	yaw:	62.301	yaw rate:	1.226	Roll:	-30.000	Pitch:	-16.878	Yaw:	88.691	Thrust:	100.000
Time:	1.076	Roll Set Point:	1.070	Pitch Set Point:	1.744	Yaw Set Point:	-1.088	X_WP:	0.000	Y_WP:	0.000	Y_WP:	0.750	X:	-0.008	Y:	-1.195	Z:	0.044	yaw:	62.321	yaw rate:	-1.997	Roll:	-30.000	Pitch:	-16.342	Yaw:	89.302	Thrust:	100.000
Time:	1.096	Roll Set Point:	1.070	Pitch Set Point:	1.744	Yaw Set Point:	-1.088	X_WP:	0.000	Y_WP:	0.000	Y_WP:	0.750	X:	-0.008	Y:	-1.195	Z:	0.044	yaw:	62.315	yaw rate:	0.547	Roll:	-30.000	Pitch:	-16.747	Yaw:	88.963	Thrust:	100.000
Time:	1.116	Roll Set Point:	1.070	Pitch Set Point:	1.744	Yaw Set Point:	-1.088	X_WP:	0.000	Y_WP:	0.000	Y_WP:	0.750	X:	-0.008	Y:	-1.195	Z:	0.044	yaw:	62.314	yaw rate:	0.137	Roll:	-30.000	Pitch:	-16.663	Yaw:	88.943	Thrust:	100.000
Time:	1.136	Roll Set Point:	1.070	Pitch Set Point:	1.744	Yaw Set Point:	-1.087	X_WP:	0.000	Y_WP:	0.000	Y_WP:	0.750	X:	-0.008	Y:	-1.195	Z:	0.044	yaw:	62.294	yaw rate:	2.031	Roll:	-30.000	Pitch:	-17.021	Yaw:	88.744	Thrust:	100.000
Time:	1.156	Roll Set Point:	1.070	Pitch Set Point:	1.744	Yaw Set Point:	-1.088	X_WP:	0.000	Y_WP:	0.000	Y_WP:	0.750	X:	-0.008	Y:	-1.195	Z:	0.044	yaw:	62.316	yaw rate:	-2.216	Roll:	-30.000	Pitch:	-16.260	Yaw:	89.279	Thrust:	100.000
Time:	1.175	Roll Set Point:	1.070	Pitch Set Point:	1.744	Yaw Set Point:	-1.088	X_WP:	0.000	Y_WP:	0.000	Y_WP:	0.750	X:	-0.008	Y:	-1.195	Z:	0.044	yaw:	62.312	yaw rate:	0.413	Roll:	-30.000	Pitch:	-16.711	Yaw:	88.907	Thrust:	100.000
Time:	1.196	Roll Set Point:	1.070	Pitch Set Point:	1.744	Yaw Set Point:	-1.087	X_WP:	0.000	Y_WP:	0.000	Y_WP:	0.750	X:	-0.008	Y:	-1.195	Z:	0.044	yaw:	62.298	yaw rate:	1.354	Roll:	-30.000	Pitch:	-16.891	Yaw:	88.857	Thrust:	100.000
Time:	1.215	Roll Set Point:	1.070	Pitch Set Point:	1.744	Yaw Set Point:	-1.088	X_WP:	0.000	Y_WP:	0.000	Y_WP:	0.750	X:	-0.008	Y:	-1.195	Z:	0.044	yaw:	62.311	yaw rate:	-1.321	Roll:	-30.000	Pitch:	-16.459	Yaw:	89.154	Thrust:	100.000
Time:	1.235	Roll Set Point:	1.070	Pitch Set Point:	1.743	Yaw Set Point:	-1.088	X_WP:	0.000	Y_WP:	0.000	Y_WP:	0.750	X:	-0.008	Y:	-1.195	Z:	0.044	yaw:	62.337	yaw rate:	-2.581	Roll:	-30.000	Pitch:	-16.198	Yaw:	89.376	Thrust:	100.000
Time:	1.256	Roll Set Point:	1.070	Pitch Set Point:	1.744	Yaw Set Point:	-1.088	X_WP:	0.000	Y_WP:	0.000	Y_WP:	0.750	X:	-0.008	Y:	-1.195	Z:	0.044	yaw:	62.311	yaw rate:	2.637	Roll:	-30.000	Pitch:	-17.104	Yaw:	88.745	Thrust:	100.000
Time:	1.276	Roll Set Point:	1.070	Pitch Set Point:	1.744	Yaw Set Point:	-1.087	X_WP:	0.000	Y_WP:	0.000	Y_WP:	0.750	X:	-0.008	Y:	-1.195	Z:	0.044	yaw:	62.289	yaw rate:	2.160	Roll:	-30.000	Pitch:	-17.011	Yaw:	88.540	Thrust:	100.000
Time:	1.296	Roll Set Point:	1.070	Pitch Set Point:	1.744	Yaw Set Point:	-1.088	X_WP:	0.000	Y_WP:	0.000	Y_WP:	0.750	X:	-0.008	Y:	-1.195	Z:	0.044	yaw:	62.316	yaw rate:	-2.633	Roll:	-30.000	Pitch:	-16.259	Yaw:	89.458	Thrust:	100.000
Time:	1.316	Roll Set Point:	1.070	Pitch Set Point:	1.744	Yaw Set Point:	-1.087	X_WP:	0.000	Y_WP:	0.000	Y_WP:	0.750	X:	-0.008	Y:	-1.195	Z:	0.044	yaw:	62.303	yaw rate:	1.280	Roll:	-30.000	Pitch:	-16.863	Yaw:	88.806	Thrust:	100.000
Time:	1.336	Roll Set Point:	1.070	Pitch Set Point:	1.744	Yaw Set Point:	-1.087	X_WP:	0.000	Y_WP:	0.000	Y_WP:	0.750	X:	-0.008	Y:	-1.195	Z:	0.044	yaw:	62.292	yaw rate:	1.071	Roll:	-30.000	Pitch:	-16.870	Yaw:	88.794	Thrust:	100.000
Time:	1.356	Roll Set Point:	1.070	Pitch Set Point:	1.744	Yaw Set Point:	-1.088	X_WP:	0.000	Y_WP:	0.000	Y_WP:	0.750	X:	-0.008	Y:	-1.195	Z:	0.044	yaw:	62.319	yaw rate:	-2.712	Roll:	-30.000	Pitch:	-16.173	Yaw:	89.399	Thrust:	100.000
Time:	1.376	Roll Set Point:	1.070	Pitch Set Point:	1.744	Yaw Set Point:	-1.087	X_WP:	0.000	Y_WP:	0.000	Y_WP:	0.750	X:	-0.008	Y:	-1.195	Z:	0.044	yaw:	62.298	yaw rate:	2.071	Roll:	-30.000	Pitch:	-16.989	Yaw:	88.694	Thrust:	100.000
Time:	1.396	Roll Set Point:	1.070	Pitch Set Point:	1.744	Yaw Set Point:	-1.087	X_WP:	0.000	Y_WP:	0.000	Y_WP:	0.750	X:	-0.008	Y:	-1.195	Z:	0.044	yaw:	62.293	yaw rate:	0.544	Roll:	-30.000	Pitch:	-16.791	Yaw:	88.894	Thrust:	100.000
Time:	1.416	Roll Set Point:	1.070	Pitch Set Point:	1.744	Yaw Set Point:	-1.087	X_WP:	0.000	Y_WP:	0.000	Y_WP:	0.750	X:	-0.008	Y:	-1.195	Z:	0.044	yaw:	62.297	yaw rate:	-0.441	Roll:	-30.000	Pitch:	-16.611	Yaw:	89.047	Thrust:	100.000
Time:	1.436	Roll Set Point:	1.070	Pitch Set Point:	1.744	Yaw Set Point:	-1.088	X_WP:	0.000	Y_WP:	0.000	Y_WP:	0.750	X:	-0.008	Y:	-1.195	Z:	0.044	yaw:	62.327	yaw rate:	-2.984	Roll:	-30.000	Pitch:	-16.138	Yaw:	89.410	Thrust:	100.000
Time:	1.457	Roll Set Point:	1.070	Pitch Set Point:	1.744	Yaw Set Point:	-1.087	X_WP:	0.000	Y_WP:	0.000	Y_WP:	0.750	X:	-0.008	Y:	-1.195	Z:	0.044	yaw:	62.303	yaw rate:	2.421	Roll:	-30.000	Pitch:	-17.063	Yaw:	88.761	Thrust:	100.000
Time:	1.475	Roll Set Point:	1.070	Pitch Set Point:	1.744	Yaw Set Point:	-1.087	X_WP:	0.000	Y_WP:	0.000	Y_WP:	0.750	X:	-0.008	Y:	-1.195	Z:	0.044	yaw:	62.292	yaw rate:	1.112	Roll:	-30.000	Pitch:	-16.850	Yaw:	88.664	Thrust:	100.000
Time:	1.495	Roll Set Point:	1.070	Pitch Set Point:	1.744	Yaw Set Point:	-1.087	X_WP:	0.000	Y_WP:	0.000	Y_WP:	0.750	X:	-0.008	Y:	-1.195	Z:	0.044	yaw:	62.302	yaw rate:	-1.049	Roll:	-30.000	Pitch:	-16.452	Yaw:	89.163	Thrust:	100.000
Time:	1.515	Roll Set Point:	1.070	Pitch Set Point:	1.744	Yaw Set Point:	-1.087	X_WP:	0.000	Y_WP:	0.000	Y_WP:	0.750	X:	-0.008	Y:	-1.195	Z:	0.044	yaw:	62.306	yaw rate:	-0.315	Roll:	-30.000	Pitch:	-16.617	Yaw:	89.059	Thrust:	100.000
Time:	1.539	Roll Set Point:	1.070	Pitch Set Point:	1.744	Yaw Set Point:	-1.088	X_WP:	0.000	Y_WP:	0.000	Y_WP:	0.750	X:	-0.008	Y:	-1.195	Z:	0.044	yaw:	62.314	yaw rate:	-0.851	Roll:	-30.000	Pitch:	-16.723	Yaw:	89.457	Thrust:	100.000
Time:	1.557	Roll Set Point:	1.069	Pitch Set Point:	1.745	Yaw Set Point:	-1.087	X_WP:	0.000	Y_WP:	0.000	Y_WP:	0.750	X:	-0.008	Y:	-1.195	Z:	0.044	yaw:	62.271	yaw rate:	4.309	Roll:	-30.000	Pitch:	-17.337	Yaw:	88.085	Thrust:	100.000
Time:	1.576	Roll Set Point:	1.070	Pitch Set Point:	1.744	Yaw Set Point:	-1.087	X_WP:	0.000	Y_WP:	0.000	Y_WP:	0.750	X:	-0.008	Y:	-1.195	Z:	0.044	yaw:	62.306	yaw rate:	-3.501	Roll:	-30.000	Pitch:	-15.990	Yaw:	89.313	Thrust:	100.000
Time:	1.596	Roll Set Point:	1.070	Pitch Set Point:	1.744	Yaw Set Point:	-1.087	X_WP:	0.000	Y_WP:	0.000	Y_WP:	0.750	X:	-0.008	Y:	-1.195	Z:	0.044	yaw:	62.305	yaw rate:	0.088	Roll:	-30.000	Pitch:	-16.705	Yaw:	89.055	Thrust:	100.000
Time:	1.615	Roll Set Point:	1.070	Pitch Set Point:	1.744	Yaw Set Point:	-1.088	X_WP:	0.000	Y_WP:	0.000	Y_WP:	0.750	X:	-0.008	Y:	-1.195	Z:	0.044	yaw:	62.319	yaw rate:	-1.356	Roll:	-30.000	Pitch:	-16.460	Yaw:	89.157	Thrust:	100.000
Time:	1.635	Roll Set Point:	1.070	Pitch Set Point:	1.743	Yaw Set Point:	-1.088	X_WP:	0.000	Y_WP:	0.000	Y_WP:	0.750	X:	-0.008	Y:	-1.195	Z:	0.044	yaw:	62.338	yaw rate:	-1.888	Roll:	-30.000	Pitch:	-16.265	Yaw:	89.251	Thrust:	100.000
Time:	1.657	Roll Set Point:	1.070	Pitch Set Point:	1.744	Yaw Set Point:	-1.088	X_WP:	0.000	Y_WP:	0.000	Y_WP:	0.750	X:	-0.008	Y:	-1.195	Z:	0.044	yaw:	62.325	yaw rate:	1.261	Roll:	-30.000	Pitch:	-16.905	Yaw:	89.025	Thrust:	100.000
Time:	1.675	Roll Set Point:	1.070	Pitch Set Point:	1.744	Yaw Set Point:	-1.088	X_WP:	0.000	Y_WP:	0.000	Y_WP:	0.750	X:	-0.008	Y:	-1.195	Z:	0.044	yaw:	62.318	yaw rate:	0.654	Roll:	-30.000	Pitch:	-16.716	Yaw:	88.796	Thrust:	100.000
Time:	1.695	Roll Set Point:	1.070	Pitch Set Point:	1.744	Yaw Set Point:	-1.087	X_WP:	0.000	Y_WP:	0.000	Y_WP:	0.750	X:	-0.008	Y:	-1.195	Z:	0.044	yaw:	62.303	yaw rate:	1.501	Roll:	-30.000	Pitch:	-16.931	Yaw:	88.825	Thrust:	100.000
Time:	1.716	Roll Set Point:	1.070	Pitch Set Point:	1.743	Yaw Set Point:	-1.088	X_WP:	0.000	Y_WP:	0.000	Y_WP:	0.750	X:	-0.008	Y:	-1.195	Z:	0.044	yaw:	62.334	yaw rate:	-3.016	Roll:	-30.000	Pitch:	-16.177	Yaw:	89.472	Thrust:	100.000
Time:	1.736	Roll Set Point:	1.070	Pitch Set Point:	1.744	Yaw Set Point:	-1.087	X_WP:	0.000	Y_WP:	0.000	Y_WP:	0.750	X:	-0.008	Y:	-1.195	Z:	0.044	yaw:	62.297	yaw rate:	3.696	Roll:	-30.000	Pitch:	-17.264	Yaw:	88.386	Thrust:	100.000
Time:	1.756	Roll Set Point:	1.070	Pitch Set Point:	1.744	Yaw Set Point:	-1.087	X_WP:	0.000	Y_WP:	0.000	Y_WP:	0.750	X:	-0.008	Y:	-1.195	Z:	0.044	yaw:	62.300	yaw rate:	-0.348	Roll:	-30.000	Pitch:	-16.645	Yaw:	89.100	Thrust:	100.000
Time:	1.775	Roll Set Point:	1.070	Pitch Set Point:	1.743	Yaw Set Point:	-1.088	X_WP:	0.000	Y_WP:	0.000	Y_WP:	0.750	X:	-0.008	Y:	-1.195	Z:	0.044	yaw:	62.337	yaw rate:	-3.725	Roll:	-30.000	Pitch:	-15.994	Yaw:	89.494	Thrust:	100.000
Time:	1.796	Roll Set Point:	1.070	Pitch Set Point:	1.744	Yaw Set Point:	-1.088	X_WP:	0.000	Y_WP:	0.000	Y_WP:	0.750	X:	-0.008	Y:	-1.195	Z:	0.044	yaw:	62.320	yaw rate:	1.684	Roll:	-30.000	Pitch:	-16.919	Yaw:	88.804	Thrust:	100.000
Time:	1.815	Roll Set Point:	1.070	Pitch Set Point:	1.744	Yaw Set Point:	-1.088	X_WP:	0.000	Y_WP:	0.000	Y_WP:	0.750	X:	-0.008	Y:	-1.195	Z:	0.044	yaw:	62.315	yaw rate:	0.535	Roll:	-30.000	Pitch:	-16.749	Yaw:	88.914	Thrust:	100.000
Time:	1.836	Roll Set Point:	1.069	Pitch Set Point:	1.745	Yaw Set Point:	-1.087	X_WP:	0.000	Y_WP:	0.000	Y_WP:	0.750	X:	-0.008	Y:	-1.195	Z:	0.044	yaw:	62.272	yaw rate:	4.335	Roll:	-30.000	Pitch:	-17.406	Yaw:	88.494	Thrust:	100.000
Time:	1.856	Roll Set Point:	1.070	Pitch Set Point:	1.744	Yaw Set Point:	-1.088	X_WP:	0.000	Y_WP:	0.000	Y_WP:	0.750	X:	-0.008	Y:	-1.195	Z:	0.044	yaw:	62.318	yaw rate:	-4.580	Roll:	-30.000	Pitch:	-15.842	Yaw:	89.597	Thrust:	100.000
Time:	1.875	Roll Set Point:	1.070	Pitch Set Point:	1.744	Yaw Set Point:	-1.088	X_WP:	0.000	Y_WP:	0.000	Y_WP:	0.750	X:	-0.008	Y:	-1.195	Z:	0.044	yaw:	62.311	yaw rate:	0.671	Roll:	-30.000	Pitch:	-16.777	Yaw:	88.829	Thrust:	100.000
Time:	1.895	Roll Set Point:	1.070	Pitch Set Point:	1.744	Yaw Set Point:	-1.088	X_WP:	0.000	Y_WP:	0.000	Y_WP:	0.750	X:	-0.008	Y:	-1.195	Z:	0.044	yaw:	62.311	yaw rate:	0.033	Roll:	-30.000	Pitch:	-16.659	Yaw:	89.038	Thrust:	100.000
Time:	1.916	Roll Set Point:	1.070	Pitch Set Point:	1.743	Yaw Set Point:	-1.088	X_WP:	0.000	Y_WP:	0.000	Y_WP:	0.750	X:	-0.008	Y:	-1.195	Z:	0.044	yaw:	62.331	yaw rate:	-2.034	Roll:	-30.000	Pitch:	-16.357	Yaw:	89.308	Thrust:	100.000
Time:	1.936	Roll Set Point:	1.070	Pitch Set Point:	1.744	Yaw Set Point:	-1.088	X_WP:	0.000	Y_WP:	0.000	Y_WP:	0.750	X:	-0.008	Y:	-1.195	Z:	0.044	yaw:	62.321	yaw rate:	1.014	Roll:	-30.000	Pitch:	-16.797	Yaw:	88.893	Thrust:	100.000
Time:	1.956	Roll Set Point:	1.070	Pitch Set Point:	1.744	Yaw Set Point:	-1.087	X_WP:	0.000	Y_WP:	0.000	Y_WP:	0.750	X:	-0.008	Y:	-1.195	Z:	0.044	yaw:	62.305	yaw rate:	1.538	Roll:	-30.000	Pitch:	-16.930	Yaw:	88.817	Thrust:	100.000
Time:	1.977	Roll Set Point:	1.070	Pitch Set Point:	1.744	Yaw Set Point:	-1.088	X_WP:	0.000	Y_WP:	0.000	Y_WP:	0.750	X:	-0.008	Y:	-1.195	Z:	0.044	yaw:	62.319	yaw rate:	-1.412	Roll:	-30.000	Pitch:	-16.416	Yaw:	89.285	Thrust:	100.000
Time:	1.996	Roll Set Point:	1.070	Pitch Set Point:	1.744	Yaw Set Point:	-1.088	X_WP:	0.000	Y_WP:	0.000	Y_WP:	0.750	X:	-0.008	Y:	-1.195	Z:	0.044	yaw:	62.326	yaw rate:	-0.664	Roll:	-30.000	Pitch:	-16.523	Yaw:	88.999	Thrust:	100.000
Time:	2.016	Roll Set Point:	1.070	Pitch Set Point:	1.744	Yaw Set Point:	-1.087	X_WP:	0.000	Y_WP:	0.000	Y_WP:	0.750	X:	-0.008	Y:	-1.195	Z:	0.044	yaw:	62.294	yaw rate:	3.241	Roll:	-30.000	Pitch:	-17.178	Yaw:	88.589	Thrust:	100.000
Time:	2.036	Roll Set Point:	1.070	Pitch Set Point:	1.744	Yaw Set Point:	-1.087	X_WP:	0.000	Y_WP:	0.000	Y_WP:	0.750	X:	-0.008	Y:	-1.195	Z:	0.044	yaw:	62.282	yaw rate:	1.160	Roll:	-30.000	Pitch:	-16.879	Yaw:	88.857	Thrust:	100.000
Time:	2.056	Roll Set Point:	1.070	Pitch Set Point:	1.744	Yaw Set Point:	-1.088	X_WP:	0.000	Y_WP:	0.000	Y_WP:	0.750	X:	-0.008	Y:	-1.195	Z:	0.044	yaw:	62.328	yaw rate:	-4.588	Roll:	-30.000	Pitch:	-15.962	Yaw:	89.628	Thrust:	100.000
Time:	2.076	Roll Set Point:	1.070	Pitch Set Point:	1.744	Yaw Set Point:	-1.088	X_WP:	0.000	Y_WP:	0.000	Y_WP:	0.750	X:	-0.008	Y:	-1.195	Z:	0.044	yaw:	62.315	yaw rate:	1.261	Roll:	-30.000	Pitch:	-16.847	Yaw:	88.790	Thrust:	100.000
Time:	2.095	Roll Set Point:	1.070	Pitch Set Point:	1.744	Yaw Set Point:	-1.087	X_WP:	0.000	Y_WP:	0.000	Y_WP:	0.750	X:	-0.008	Y:	-1.195	Z:	0.044	yaw:	62.296	yaw rate:	1.932	Roll:	-30.000	Pitch:	-16.979	Yaw:	88.686	Thrust:	100.000
Time:	2.116	Roll Set Point:	1.070	Pitch Set Point:	1.743	Yaw Set Point:	-1.088	X_WP:	0.000	Y_WP:	0.000	Y_WP:	0.750	X:	-0.008	Y:	-1.195	Z:	0.044	yaw:	62.345	yaw rate:	-4.915	Roll:	-30.000	Pitch:	-15.890	Yaw:	89.731	Thrust:	100.000
Time:	2.136	Roll Set Point:	1.070	Pitch Set Point:	1.744	Yaw Set Point:	-1.088	X_WP:	0.000	Y_WP:	0.000	Y_WP:	0.750	X:	-0.008	Y:	-1.195	Z:	0.044	yaw:	62.317	yaw rate:	2.866	Roll:	-30.000	Pitch:	-17.124	Yaw:	88.626	Thrust:	100.000
Time:	2.156	Roll Set Point:	1.070	Pitch Set Point:	1.744	Yaw Set Point:	-1.088	X_WP:	0.000	Y_WP:	0.000	Y_WP:	0.750	X:	-0.008	Y:	-1.195	Z:	0.044	yaw:	62.315	yaw rate:	0.200	Roll:	-30.000	Pitch:	-16.682	Yaw:	88.974	Thrust:	100.000
Time:	2.175	Roll Set Point:	1.070	Pitch Set Point:	1.744	Yaw Set Point:	-1.088	X_WP:	0.000	Y_WP:	0.000	Y_WP:	0.750	X:	-0.008	Y:	-1.195	Z:	0.044	yaw:	62.330	yaw rate:	-1.584	Roll:	-30.000	Pitch:	-16.368	Yaw:	89.168	Thrust:	100.000
Time:	2.196	Roll Set Point:	1.070	Pitch Set Point:	1.743	Yaw Set Point:	-1.088	X_WP:	0.000	Y_WP:	0.000	Y_WP:	0.750	X:	-0.008	Y:	-1.195	Z:	0.044	yaw:	62.335	yaw rate:	-0.448	Roll:	-30.000	Pitch:	-16.579	Yaw:	89.200	Thrust:	100.000
Time:	2.215	Roll Set Point:	1.070	Pitch Set Point:	1.744	Yaw Set Point:	-1.088	X_WP:	0.000	Y_WP:	0.000	Y_WP:	0.750	X:	-0.008	Y:	-1.195	Z:	0.044	yaw:	62.309	yaw rate:	2.534	Roll:	-30.000	Pitch:	-17.089	Yaw:	88.566	Thrust:	100.000
Time:	2.236	Roll Set Point:	1.070	Pitch Set Point:	1.744	Yaw Set Point:	-1.088	X_WP:	0.000	Y_WP:	0.000	Y_WP:	0.750	X:	-0.008	Y:	-1.195	Z:	0.044	yaw:	62.314	yaw rate:	-0.477	Roll:	-30.000	Pitch:	-16.597	Yaw:	89.129	Thrust:	100.000
Time:	2.257	Roll Set Point:	1.070	Pitch Set Point:	1.744	Yaw Set Point:	-1.087	X_WP:	0.000	Y_WP:	0.000	Y_WP:	0.750	X:	-0.008	Y:	-1.195	Z:	0.044	yaw:	62.295	yaw rate:	1.969	Roll:	-30.000	Pitch:	-16.984	Yaw:	88.741	Thrust:	100.000
Time:	2.275	Roll Set Point:	1.070	Pitch Set Point:	1.744	Yaw Set Point:	-1.088	X_WP:	0.000	Y_WP:	0.000	Y_WP:	0.750	X:	-0.008	Y:	-1.195	Z:	0.044	yaw:	62.314	yaw rate:	-1.900	Roll:	-30.000	Pitch:	-16.325	Yaw:	89.195	Thrust:	100.000
Time:	2.296	Roll Set Point:	1.070	Pitch Set Point:	1.744	Yaw Set Point:	-1.087	X_WP:	0.000	Y_WP:	0.000	Y_WP:	0.750	X:	-0.008	Y:	-1.195	Z:	0.044	yaw:	62.306	yaw rate:	0.772	Roll:	-30.000	Pitch:	-16.788	Yaw:	88.913	Thrust:	100.000
Time:	2.316	Roll Set Point:	1.070	Pitch Set Point:	1.744	Yaw Set Point:	-1.087	X_WP:	0.000	Y_WP:	0.000	Y_WP:	0.750	X:	-0.008	Y:	-1.195	Z:	0.044	yaw:	62.299	yaw rate:	0.695	Roll:	-30.000	Pitch:	-16.771	Yaw:	88.909	Thrust:	100.000
Time:	2.336	Roll Set Point:	1.070	Pitch Set Point:	1.744	Yaw Set Point:	-1.087	X_WP:	0.000	Y_WP:	0.000	Y_WP:	0.750	X:	-0.008	Y:	-1.195	Z:	0.044	yaw:	62.300	yaw rate:	-0.091	Roll:	-30.000	Pitch:	-16.656	Yaw:	89.012	Thrust:	100.000
Time:	2.356	Roll Set Point:	1.070	Pitch Set Point:	1.744	Yaw Set Point:	-1.088	X_WP:	0.000	Y_WP:	0.000	Y_WP:	0.750	X:	-0.008	Y:	-1.195	Z:	0.044	yaw:	62.318	yaw rate:	-1.781	Roll:	-30.000	Pitch:	-16.364	Yaw:	89.274	Thrust:	100.000
Time:	2.376	Roll Set Point:	1.070	Pitch Set Point:	1.744	Yaw Set Point:	-1.087	X_WP:	0.000	Y_WP:	0.000	Y_WP:	0.750	X:	-0.008	Y:	-1.195	Z:	0.044	yaw:	62.308	yaw rate:	0.953	Roll:	-30.000	Pitch:	-16.788	Yaw:	88.850	Thrust:	100.000
Time:	2.396	Roll Set Point:	1.070	Pitch Set Point:	1.744	Yaw Set Point:	-1.088	X_WP:	0.000	Y_WP:	0.000	Y_WP:	0.750	X:	-0.008	Y:	-1.195	Z:	0.044	yaw:	62.315	yaw rate:	-0.696	Roll:	-30.000	Pitch:	-16.547	Yaw:	89.065	Thrust:	100.000
Time:	2.416	Roll Set Point:	1.070	Pitch Set Point:	1.744	Yaw Set Point:	-1.087	X_WP:	0.000	Y_WP:	0.000	Y_WP:	0.750	X:	-0.008	Y:	-1.195	Z:	0.044	yaw:	62.292	yaw rate:	2.272	Roll:	-30.000	Pitch:	-17.043	Yaw:	88.702	Thrust:	100.000
Time:	2.436	Roll Set Point:	1.070	Pitch Set Point:	1.744	Yaw Set Point:	-1.088	X_WP:	0.000	Y_WP:	0.000	Y_WP:	0.750	X:	-0.008	Y:	-1.195	Z:	0.044	yaw:	62.328	yaw rate:	-3.582	Roll:	-30.000	Pitch:	-16.122	Yaw:	89.498	Thrust:	100.000
Time:	2.456	Roll Set Point:	1.070	Pitch Set Point:	1.744	Yaw Set Point:	-1.088	X_WP:	0.000	Y_WP:	0.000	Y_WP:	0.750	X:	-0.008	Y:	-1.195	Z:	0.044	yaw:	62.314	yaw rate:	1.395	Roll:	-30.000	Pitch:	-16.889	Yaw:	88.831	Thrust:	100.000
Time:	2.475	Roll Set Point:	1.070	Pitch Set Point:	1.744	Yaw Set Point:	-1.088	X_WP:	0.000	Y_WP:	0.000	Y_WP:	0.750	X:	-0.008	Y:	-1.195	Z:	0.044	yaw:	62.325	yaw rate:	-1.086	Roll:	-30.000	Pitch:	-16.450	Yaw:	89.113	Thrust:	100.000
Time:	2.496	Roll Set Point:	1.070	Pitch Set Point:	1.743	Yaw Set Point:	-1.088	X_WP:	0.000	Y_WP:	0.000	Y_WP:	0.750	X:	-0.008	Y:	-1.195	Z:	0.044	yaw:	62.332	yaw rate:	-0.683	Roll:	-30.000	Pitch:	-16.557	Yaw:	89.158	Thrust:	100.000
Time:	2.515	Roll Set Point:	1.070	Pitch Set Point:	1.744	Yaw Set Point:	-1.087	X_WP:	0.000	Y_WP:	0.000	Y_WP:	0.750	X:	-0.008	Y:	-1.195	Z:	0.044	yaw:	62.307	yaw rate:	2.481	Roll:	-30.000	Pitch:	-17.028	Yaw:	88.640	Thrust:	100.000
Time:	2.536	Roll Set Point:	1.070	Pitch Set Point:	1.744	Yaw Set Point:	-1.088	X_WP:	0.000	Y_WP:	0.000	Y_WP:	0.750	X:	-0.008	Y:	-1.195	Z:	0.044	yaw:	62.318	yaw rate:	-1.072	Roll:	-30.000	Pitch:	-16.474	Yaw:	89.130	Thrust:	100.000
Time:	2.556	Roll Set Point:	1.070	Pitch Set Point:	1.743	Yaw Set Point:	-1.088	X_WP:	0.000	Y_WP:	0.000	Y_WP:	0.750	X:	-0.008	Y:	-1.195	Z:	0.044	yaw:	62.336	yaw rate:	-1.819	Roll:	-30.000	Pitch:	-16.406	Yaw:	89.322	Thrust:	100.000
Time:	2.576	Roll Set Point:	1.070	Pitch Set Point:	1.743	Yaw Set Point:	-1.088	X_WP:	0.000	Y_WP:	0.000	Y_WP:	0.750	X:	-0.008	Y:	-1.195	Z:	0.044	yaw:	62.333	yaw rate:	0.253	Roll:	-30.000	Pitch:	-16.664	Yaw:	89.018	Thrust:	100.000
Time:	2.596	Roll Set Point:	1.070	Pitch Set Point:	1.744	Yaw Set Point:	-1.087	X_WP:	0.000	Y_WP:	0.000	Y_WP:	0.750	X:	-0.008	Y:	-1.195	Z:	0.044	yaw:	62.292	yaw rate:	4.184	Roll:	-30.000	Pitch:	-17.351	Yaw:	88.398	Thrust:	100.000
Time:	2.615	Roll Set Point:	1.070	Pitch Set Point:	1.744	Yaw Set Point:	-1.088	X_WP:	0.000	Y_WP:	0.000	Y_WP:	0.750	X:	-0.008	Y:	-1.195	Z:	0.044	yaw:	62.315	yaw rate:	-2.346	Roll:	-30.000	Pitch:	-16.253	Yaw:	89.265	Thrust:	100.000
Time:	2.636	Roll Set Point:	1.070	Pitch Set Point:	1.744	Yaw Set Point:	-1.088	X_WP:	0.000	Y_WP:	0.000	Y_WP:	0.750	X:	-0.008	Y:	-1.195	Z:	0.044	yaw:	62.312	yaw rate:	0.322	Roll:	-30.000	Pitch:	-16.729	Yaw:	89.113	Thrust:	100.000
Time:	2.656	Roll Set Point:	1.070	Pitch Set Point:	1.743	Yaw Set Point:	-1.088	X_WP:	0.000	Y_WP:	0.000	Y_WP:	0.750	X:	-0.008	Y:	-1.195	Z:	0.044	yaw:	62.330	yaw rate:	-1.826	Roll:	-30.000	Pitch:	-16.327	Yaw:	89.201	Thrust:	100.000
Time:	2.676	Roll Set Point:	1.070	Pitch Set Point:	1.743	Yaw Set Point:	-1.088	X_WP:	0.000	Y_WP:	0.000	Y_WP:	0.750	X:	-0.008	Y:	-1.195	Z:	0.044	yaw:	62.336	yaw rate:	-0.569	Roll:	-30.000	Pitch:	-16.589	Yaw:	89.118	Thrust:	100.000
Time:	2.695	Roll Set Point:	1.070	Pitch Set Point:	1.744	Yaw Set Point:	-1.087	X_WP:	0.000	Y_WP:	0.000	Y_WP:	0.750	X:	-0.008	Y:	-1.195	Z:	0.044	yaw:	62.304	yaw rate:	3.141	Roll:	-30.000	Pitch:	-17.157	Yaw:	88.547	Thrust:	100.000
Time:	2.716	Roll Set Point:	1.070	Pitch Set Point:	1.744	Yaw Set Point:	-1.087	X_WP:	0.000	Y_WP:	0.000	Y_WP:	0.750	X:	-0.008	Y:	-1.195	Z:	0.044	yaw:	62.294	yaw rate:	1.016	Roll:	-30.000	Pitch:	-16.845	Yaw:	88.854	Thrust:	100.000
Time:	2.736	Roll Set Point:	1.070	Pitch Set Point:	1.744	Yaw Set Point:	-1.088	X_WP:	0.000	Y_WP:	0.000	Y_WP:	0.750	X:	-0.008	Y:	-1.195	Z:	0.044	yaw:	62.310	yaw rate:	-1.622	Roll:	-30.000	Pitch:	-16.389	Yaw:	89.242	Thrust:	100.000
Time:	2.756	Roll Set Point:	1.070	Pitch Set Point:	1.744	Yaw Set Point:	-1.087	X_WP:	0.000	Y_WP:	0.000	Y_WP:	0.750	X:	-0.008	Y:	-1.195	Z:	0.044	yaw:	62.301	yaw rate:	0.898	Roll:	-30.000	Pitch:	-16.816	Yaw:	88.891	Thrust:	100.000
Time:	2.776	Roll Set Point:	1.070	Pitch Set Point:	1.744	Yaw Set Point:	-1.087	X_WP:	0.000	Y_WP:	0.000	Y_WP:	0.750	X:	-0.008	Y:	-1.195	Z:	0.044	yaw:	62.304	yaw rate:	-0.221	Roll:	-30.000	Pitch:	-16.588	Yaw:	88.904	Thrust:	100.000
Time:	2.796	Roll Set Point:	1.070	Pitch Set Point:	1.744	Yaw Set Point:	-1.087	X_WP:	0.000	Y_WP:	0.000	Y_WP:	0.750	X:	-0.008	Y:	-1.195	Z:	0.044	yaw:	62.295	yaw rate:	0.887	Roll:	-30.000	Pitch:	-16.847	Yaw:	88.962	Thrust:	100.000
Time:	2.815	Roll Set Point:	1.070	Pitch Set Point:	1.744	Yaw Set Point:	-1.087	X_WP:	0.000	Y_WP:	0.000	Y_WP:	0.750	X:	-0.008	Y:	-1.195	Z:	0.044	yaw:	62.296	yaw rate:	-0.113	Roll:	-30.000	Pitch:	-16.629	Yaw:	88.942	Thrust:	100.000
Time:	2.836	Roll Set Point:	1.070	Pitch Set Point:	1.744	Yaw Set Point:	-1.087	X_WP:	0.000	Y_WP:	0.000	Y_WP:	0.750	X:	-0.008	Y:	-1.195	Z:	0.044	yaw:	62.307	yaw rate:	-1.138	Roll:	-30.000	Pitch:	-16.488	Yaw:	89.201	Thrust:	100.000
Time:	2.856	Roll Set Point:	1.070	Pitch Set Point:	1.744	Yaw Set Point:	-1.087	X_WP:	0.000	Y_WP:	0.000	Y_WP:	0.750	X:	-0.008	Y:	-1.195	Z:	0.044	yaw:	62.300	yaw rate:	0.727	Roll:	-30.000	Pitch:	-16.792	Yaw:	88.905	Thrust:	100.000
Time:	2.875	Roll Set Point:	1.070	Pitch Set Point:	1.744	Yaw Set Point:	-1.087	X_WP:	0.000	Y_WP:	0.000	Y_WP:	0.750	X:	-0.008	Y:	-1.195	Z:	0.044	yaw:	62.294	yaw rate:	0.644	Roll:	-30.000	Pitch:	-16.751	Yaw:	88.828	Thrust:	100.000
Time:	2.896	Roll Set Point:	1.070	Pitch Set Point:	1.744	Yaw Set Point:	-1.087	X_WP:	0.000	Y_WP:	0.000	Y_WP:	0.750	X:	-0.008	Y:	-1.195	Z:	0.044	yaw:	62.302	yaw rate:	-0.812	Roll:	-30.000	Pitch:	-16.558	Yaw:	89.150	Thrust:	100.000
Time:	2.916	Roll Set Point:	1.070	Pitch Set Point:	1.744	Yaw Set Point:	-1.088	X_WP:	0.000	Y_WP:	0.000	Y_WP:	0.750	X:	-0.008	Y:	-1.195	Z:	0.044	yaw:	62.322	yaw rate:	-1.988	Roll:	-30.000	Pitch:	-16.309	Yaw:	89.257	Thrust:	100.000
Time:	2.936	Roll Set Point:	1.070	Pitch Set Point:	1.743	Yaw Set Point:	-1.088	X_WP:	0.000	Y_WP:	0.000	Y_WP:	0.750	X:	-0.008	Y:	-1.195	Z:	0.044	yaw:	62.332	yaw rate:	-1.008	Roll:	-30.000	Pitch:	-16.462	Yaw:	89.182	Thrust:	100.000
Time:	2.956	Roll Set Point:	1.070	Pitch Set Point:	1.744	Yaw Set Point:	-1.087	X_WP:	0.000	Y_WP:	0.000	Y_WP:	0.750	X:	-0.008	Y:	-1.195	Z:	0.044	yaw:	62.292	yaw rate:	3.949	Roll:	-30.000	Pitch:	-17.315	Yaw:	88.502	Thrust:	100.000
Time:	2.975	Roll Set Point:	1.070	Pitch Set Point:	1.744	Yaw Set Point:	-1.088	X_WP:	0.000	Y_WP:	0.000	Y_WP:	0.750	X:	-0.008	Y:	-1.195	Z:	0.044	yaw:	62.322	yaw rate:	-2.944	Roll:	-30.000	Pitch:	-16.136	Yaw:	89.311	Thrust:	100.000
Time:	2.995	Roll Set Point:	1.070	Pitch Set Point:	1.744	Yaw Set Point:	-1.088	X_WP:	0.000	Y_WP:	0.000	Y_WP:	0.750	X:	-0.008	Y:	-1.195	Z:	0.044	yaw:	62.311	yaw rate:	1.092	Roll:	-30.000	Pitch:	-16.827	Yaw:	88.907	Thrust:	100.000
Time:	3.016	Roll Set Point:	1.070	Pitch Set Point:	1.744	Yaw Set Point:	-1.088	X_WP:	0.000	Y_WP:	0.000	Y_WP:	0.750	X:	-0.008	Y:	-1.195	Z:	0.044	yaw:	62.323	yaw rate:	-1.181	Roll:	-30.000	Pitch:	-16.466	Yaw:	89.178	Thrust:	100.000
Time:	3.035	Roll Set Point:	1.070	Pitch Set Point:	1.744	Yaw Set Point:	-1.087	X_WP:	0.000	Y_WP:	0.000	Y_WP:	0.750	X:	-0.008	Y:	-1.195	Z:	0.044	yaw:	62.300	yaw rate:	2.211	Roll:	-30.000	Pitch:	-17.040	Yaw:	88.659	Thrust:	100.000
Time:	3.056	Roll Set Point:	1.070	Pitch Set Point:	1.744	Yaw Set Point:	-1.087	X_WP:	0.000	Y_WP:	0.000	Y_WP:	0.750	X:	-0.008	Y:	-1.195	Z:	0.044	yaw:	62.295	yaw rate:	0.528	Roll:	-30.000	Pitch:	-16.750	Yaw:	88.987	Thrust:	100.000
Time:	3.075	Roll Set Point:	1.070	Pitch Set Point:	1.744	Yaw Set Point:	-1.088	X_WP:	0.000	Y_WP:	0.000	Y_WP:	0.750	X:	-0.008	Y:	-1.195	Z:	0.044	yaw:	62.313	yaw rate:	-1.747	Roll:	-30.000	Pitch:	-16.354	Yaw:	89.183	Thrust:	100.000
Time:	3.096	Roll Set Point:	1.070	Pitch Set Point:	1.744	Yaw Set Point:	-1.087	X_WP:	0.000	Y_WP:	0.000	Y_WP:	0.750	X:	-0.008	Y:	-1.195	Z:	0.044	yaw:	62.289	yaw rate:	2.353	Roll:	-30.000	Pitch:	-17.065	Yaw:	88.735	Thrust:	100.000
Time:	3.117	Roll Set Point:	1.069	Pitch Set Point:	1.745	Yaw Set Point:	-1.087	X_WP:	0.000	Y_WP:	0.000	Y_WP:	0.750	X:	-0.008	Y:	-1.195	Z:	0.044	yaw:	62.276	yaw rate:	1.295	Roll:	-30.000	Pitch:	-16.919	Yaw:	88.856	Thrust:	100.000
Time:	3.137	Roll Set Point:	1.070	Pitch Set Point:	1.743	Yaw Set Point:	-1.088	X_WP:	0.000	Y_WP:	0.000	Y_WP:	0.750	X:	-0.008	Y:	-1.195	Z:	0.044	yaw:	62.343	yaw rate:	-6.730	Roll:	-30.000	Pitch:	-15.468	Yaw:	89.933	Thrust:	100.000
Time:	3.157	Roll Set Point:	1.070	Pitch Set Point:	1.744	Yaw Set Point:	-1.088	X_WP:	0.000	Y_WP:	0.000	Y_WP:	0.750	X:	-0.008	Y:	-1.195	Z:	0.044	yaw:	62.314	yaw rate:	2.979	Roll:	-30.000	Pitch:	-17.176	Yaw:	88.622	Thrust:	100.000
Time:	3.176	Roll Set Point:	1.070	Pitch Set Point:	1.744	Yaw Set Point:	-1.087	X_WP:	0.000	Y_WP:	0.000	Y_WP:	0.750	X:	-0.008	Y:	-1.195	Z:	0.044	yaw:	62.301	yaw rate:	1.245	Roll:	-30.000	Pitch:	-16.861	Yaw:	88.783	Thrust:	100.000
Time:	3.197	Roll Set Point:	1.070	Pitch Set Point:	1.744	Yaw Set Point:	-1.088	X_WP:	0.000	Y_WP:	0.000	Y_WP:	0.750	X:	-0.008	Y:	-1.195	Z:	0.044	yaw:	62.329	yaw rate:	-2.796	Roll:	-30.000	Pitch:	-16.175	Yaw:	89.384	Thrust:	100.000
Time:	3.216	Roll Set Point:	1.070	Pitch Set Point:	1.744	Yaw Set Point:	-1.088	X_WP:	0.000	Y_WP:	0.000	Y_WP:	0.750	X:	-0.008	Y:	-1.195	Z:	0.044	yaw:	62.327	yaw rate:	0.211	Roll:	-30.000	Pitch:	-16.659	Yaw:	88.900	Thrust:	100.000
Time:	3.237	Roll Set Point:	1.070	Pitch Set Point:	1.745	Yaw Set Point:	-1.087	X_WP:	0.000	Y_WP:	0.000	Y_WP:	0.750	X:	-0.008	Y:	-1.195	Z:	0.044	yaw:	62.277	yaw rate:	4.966	Roll:	-30.000	Pitch:	-17.464	Yaw:	88.517	Thrust:	100.000
Time:	3.257	Roll Set Point:	1.070	Pitch Set Point:	1.744	Yaw Set Point:	-1.087	X_WP:	0.000	Y_WP:	0.000	Y_WP:	0.750	X:	-0.008	Y:	-1.195	Z:	0.044	yaw:	62.295	yaw rate:	-1.727	Roll:	-30.000	Pitch:	-16.451	Yaw:	89.229	Thrust:	100.000
Time:	3.277	Roll Set Point:	1.070	Pitch Set Point:	1.744	Yaw Set Point:	-1.088	X_WP:	0.000	Y_WP:	0.000	Y_WP:	0.750	X:	-0.008	Y:	-1.195	Z:	0.044	yaw:	62.311	yaw rate:	-1.608	Roll:	-30.000	Pitch:	-16.394	Yaw:	89.187	Thrust:	100.000
Time:	3.297	Roll Set Point:	1.070	Pitch Set Point:	1.744	Yaw Set Point:	-1.087	X_WP:	0.000	Y_WP:	0.000	Y_WP:	0.750	X:	-0.008	Y:	-1.195	Z:	0.044	yaw:	62.285	yaw rate:	2.618	Roll:	-30.000	Pitch:	-17.081	Yaw:	88.581	Thrust:	100.000
Time:	3.316	Roll Set Point:	1.070	Pitch Set Point:	1.743	Yaw Set Point:	-1.088	X_WP:	0.000	Y_WP:	0.000	Y_WP:	0.750	X:	-0.008	Y:	-1.195	Z:	0.044	yaw:	62.338	yaw rate:	-5.343	Roll:	-30.000	Pitch:	-15.758	Yaw:	89.719	Thrust:	100.000
Time:	3.336	Roll Set Point:	1.070	Pitch Set Point:	1.744	Yaw Set Point:	-1.087	X_WP:	0.000	Y_WP:	0.000	Y_WP:	0.750	X:	-0.008	Y:	-1.195	Z:	0.044	yaw:	62.288	yaw rate:	5.044	Roll:	-30.000	Pitch:	-17.498	Yaw:	88.317	Thrust:	100.000
Time:	3.357	Roll Set Point:	1.070	Pitch Set Point:	1.744	Yaw Set Point:	-1.087	X_WP:	0.000	Y_WP:	0.000	Y_WP:	0.750	X:	-0.008	Y:	-1.195	Z:	0.044	yaw:	62.292	yaw rate:	-0.403	Roll:	-30.000	Pitch:	-16.642	Yaw:	89.034	Thrust:	100.000
Time:	3.376	Roll Set Point:	1.070	Pitch Set Point:	1.744	Yaw Set Point:	-1.088	X_WP:	0.000	Y_WP:	0.000	Y_WP:	0.750	X:	-0.008	Y:	-1.195	Z:	0.044	yaw:	62.329	yaw rate:	-3.726	Roll:	-30.000	Pitch:	-16.055	Yaw:	89.517	Thrust:	100.000
Time:	3.396	Roll Set Point:	1.070	Pitch Set Point:	1.744	Yaw Set Point:	-1.088	X_WP:	0.000	Y_WP:	0.000	Y_WP:	0.750	X:	-0.008	Y:	-1.195	Z:	0.044	yaw:	62.321	yaw rate:	0.805	Roll:	-30.000	Pitch:	-16.759	Yaw:	88.920	Thrust:	100.000
Time:	3.416	Roll Set Point:	1.070	Pitch Set Point:	1.744	Yaw Set Point:	-1.087	X_WP:	0.000	Y_WP:	0.000	Y_WP:	0.750	X:	-0.008	Y:	-1.195	Z:	0.044	yaw:	62.308	yaw rate:	1.247	Roll:	-30.000	Pitch:	-16.859	Yaw:	88.729	Thrust:	100.000
Time:	3.437	Roll Set Point:	1.070	Pitch Set Point:	1.744	Yaw Set Point:	-1.088	X_WP:	0.000	Y_WP:	0.000	Y_WP:	0.750	X:	-0.008	Y:	-1.195	Z:	0.044	yaw:	62.315	yaw rate:	-0.662	Roll:	-30.000	Pitch:	-16.585	Yaw:	89.203	Thrust:	100.000
Time:	3.457	Roll Set Point:	1.070	Pitch Set Point:	1.744	Yaw Set Point:	-1.087	X_WP:	0.000	Y_WP:	0.000	Y_WP:	0.750	X:	-0.008	Y:	-1.195	Z:	0.044	yaw:	62.296	yaw rate:	1.921	Roll:	-30.000	Pitch:	-16.972	Yaw:	88.760	Thrust:	100.000
Time:	3.475	Roll Set Point:	1.070	Pitch Set Point:	1.744	Yaw Set Point:	-1.088	X_WP:	0.000	Y_WP:	0.000	Y_WP:	0.750	X:	-0.008	Y:	-1.195	Z:	0.044	yaw:	62.316	yaw rate:	-2.055	Roll:	-30.000	Pitch:	-16.244	Yaw:	89.127	Thrust:	100.000
Time:	3.497	Roll Set Point:	1.070	Pitch Set Point:	1.744	Yaw Set Point:	-1.088	X_WP:	0.000	Y_WP:	0.000	Y_WP:	0.750	X:	-0.008	Y:	-1.195	Z:	0.044	yaw:	62.321	yaw rate:	-0.445	Roll:	-30.000	Pitch:	-16.622	Yaw:	89.177	Thrust:	100.000
Time:	3.516	Roll Set Point:	1.070	Pitch Set Point:	1.744	Yaw Set Point:	-1.088	X_WP:	0.000	Y_WP:	0.000	Y_WP:	0.750	X:	-0.008	Y:	-1.195	Z:	0.044	yaw:	62.319	yaw rate:	0.130	Roll:	-30.000	Pitch:	-16.646	Yaw:	88.986	Thrust:	100.000
Time:	3.543	Roll Set Point:	1.069	Pitch Set Point:	1.745	Yaw Set Point:	-1.087	X_WP:	0.000	Y_WP:	0.000	Y_WP:	0.750	X:	-0.008	Y:	-1.195	Z:	0.044	yaw:	62.274	yaw rate:	4.545	Roll:	-30.000	Pitch:	-17.499	Yaw:	89.252	Thrust:	100.000
Time:	3.557	Roll Set Point:	1.070	Pitch Set Point:	1.744	Yaw Set Point:	-1.088	X_WP:	0.000	Y_WP:	0.000	Y_WP:	0.750	X:	-0.008	Y:	-1.195	Z:	0.044	yaw:	62.329	yaw rate:	-5.530	Roll:	-30.000	Pitch:	-15.088	Yaw:	89.456	Thrust:	100.000
Time:	3.576	Roll Set Point:	1.070	Pitch Set Point:	1.744	Yaw Set Point:	-1.087	X_WP:	0.000	Y_WP:	0.000	Y_WP:	0.750	X:	-0.008	Y:	-1.195	Z:	0.044	yaw:	62.294	yaw rate:	3.573	Roll:	-30.000	Pitch:	-17.203	Yaw:	88.405	Thrust:	100.000
Time:	3.597	Roll Set Point:	1.070	Pitch Set Point:	1.743	Yaw Set Point:	-1.088	X_WP:	0.000	Y_WP:	0.000	Y_WP:	0.750	X:	-0.008	Y:	-1.195	Z:	0.044	yaw:	62.337	yaw rate:	-4.385	Roll:	-30.000	Pitch:	-15.964	Yaw:	89.641	Thrust:	100.000
Time:	3.618	Roll Set Point:	1.070	Pitch Set Point:	1.744	Yaw Set Point:	-1.087	X_WP:	0.000	Y_WP:	0.000	Y_WP:	0.750	X:	-0.008	Y:	-1.195	Z:	0.044	yaw:	62.309	yaw rate:	2.860	Roll:	-30.000	Pitch:	-17.137	Yaw:	88.671	Thrust:	100.000
Time:	3.639	Roll Set Point:	1.070	Pitch Set Point:	1.744	Yaw Set Point:	-1.087	X_WP:	0.000	Y_WP:	0.000	Y_WP:	0.750	X:	-0.008	Y:	-1.195	Z:	0.044	yaw:	62.308	yaw rate:	0.058	Roll:	-30.000	Pitch:	-16.715	Yaw:	89.214	Thrust:	100.000
Time:	3.658	Roll Set Point:	1.070	Pitch Set Point:	1.744	Yaw Set Point:	-1.088	X_WP:	0.000	Y_WP:	0.000	Y_WP:	0.750	X:	-0.008	Y:	-1.195	Z:	0.044	yaw:	62.330	yaw rate:	-2.162	Roll:	-30.000	Pitch:	-16.246	Yaw:	89.169	Thrust:	100.000
Time:	3.677	Roll Set Point:	1.070	Pitch Set Point:	1.744	Yaw Set Point:	-1.088	X_WP:	0.000	Y_WP:	0.000	Y_WP:	0.750	X:	-0.008	Y:	-1.195	Z:	0.044	yaw:	62.324	yaw rate:	0.568	Roll:	-30.000	Pitch:	-16.731	Yaw:	88.844	Thrust:	100.000
Time:	3.697	Roll Set Point:	1.070	Pitch Set Point:	1.744	Yaw Set Point:	-1.087	X_WP:	0.000	Y_WP:	0.000	Y_WP:	0.750	X:	-0.008	Y:	-1.195	Z:	0.044	yaw:	62.290	yaw rate:	3.380	Roll:	-30.000	Pitch:	-17.204	Yaw:	88.529	Thrust:	100.000
Time:	3.716	Roll Set Point:	1.070	Pitch Set Point:	1.744	Yaw Set Point:	-1.088	X_WP:	0.000	Y_WP:	0.000	Y_WP:	0.750	X:	-0.008	Y:	-1.195	Z:	0.044	yaw:	62.327	yaw rate:	-3.641	Roll:	-30.000	Pitch:	-15.979	Yaw:	89.481	Thrust:	100.000
Time:	3.737	Roll Set Point:	1.070	Pitch Set Point:	1.744	Yaw Set Point:	-1.088	X_WP:	0.000	Y_WP:	0.000	Y_WP:	0.750	X:	-0.008	Y:	-1.195	Z:	0.044	yaw:	62.319	yaw rate:	0.728	Roll:	-30.000	Pitch:	-16.810	Yaw:	88.881	Thrust:	100.000
Time:	3.757	Roll Set Point:	1.070	Pitch Set Point:	1.744	Yaw Set Point:	-1.087	X_WP:	0.000	Y_WP:	0.000	Y_WP:	0.750	X:	-0.008	Y:	-1.195	Z:	0.044	yaw:	62.283	yaw rate:	3.684	Roll:	-30.000	Pitch:	-17.256	Yaw:	88.565	Thrust:	100.000
Time:	3.777	Roll Set Point:	1.070	Pitch Set Point:	1.744	Yaw Set Point:	-1.088	X_WP:	0.000	Y_WP:	0.000	Y_WP:	0.750	X:	-0.008	Y:	-1.195	Z:	0.044	yaw:	62.315	yaw rate:	-3.271	Roll:	-30.000	Pitch:	-16.070	Yaw:	89.433	Thrust:	100.000
Time:	3.797	Roll Set Point:	1.070	Pitch Set Point:	1.744	Yaw Set Point:	-1.087	X_WP:	0.000	Y_WP:	0.000	Y_WP:	0.750	X:	-0.008	Y:	-1.195	Z:	0.044	yaw:	62.306	yaw rate:	0.982	Roll:	-30.000	Pitch:	-16.823	Yaw:	88.942	Thrust:	100.000
Time:	3.818	Roll Set Point:	1.070	Pitch Set Point:	1.744	Yaw Set Point:	-1.088	X_WP:	0.000	Y_WP:	0.000	Y_WP:	0.750	X:	-0.008	Y:	-1.195	Z:	0.044	yaw:	62.323	yaw rate:	-1.744	Roll:	-30.000	Pitch:	-16.425	Yaw:	89.283	Thrust:	100.000
Time:	3.838	Roll Set Point:	1.070	Pitch Set Point:	1.744	Yaw Set Point:	-1.087	X_WP:	0.000	Y_WP:	0.000	Y_WP:	0.750	X:	-0.008	Y:	-1.195	Z:	0.044	yaw:	62.291	yaw rate:	3.170	Roll:	-30.000	Pitch:	-17.184	Yaw:	88.643	Thrust:	100.000
Time:	3.857	Roll Set Point:	1.070	Pitch Set Point:	1.744	Yaw Set Point:	-1.088	X_WP:	0.000	Y_WP:	0.000	Y_WP:	0.750	X:	-0.008	Y:	-1.195	Z:	0.044	yaw:	62.319	yaw rate:	-2.787	Roll:	-30.000	Pitch:	-16.048	Yaw:	89.266	Thrust:	100.000
Time:	3.876	Roll Set Point:	1.070	Pitch Set Point:	1.744	Yaw Set Point:	-1.087	X_WP:	0.000	Y_WP:	0.000	Y_WP:	0.750	X:	-0.008	Y:	-1.195	Z:	0.044	yaw:	62.286	yaw rate:	3.310	Roll:	-30.000	Pitch:	-17.240	Yaw:	88.428	Thrust:	100.000
Time:	3.896	Roll Set Point:	1.070	Pitch Set Point:	1.744	Yaw Set Point:	-1.088	X_WP:	0.000	Y_WP:	0.000	Y_WP:	0.750	X:	-0.008	Y:	-1.195	Z:	0.044	yaw:	62.310	yaw rate:	-2.367	Roll:	-30.000	Pitch:	-16.287	Yaw:	89.323	Thrust:	100.000
Time:	3.917	Roll Set Point:	1.070	Pitch Set Point:	1.744	Yaw Set Point:	-1.087	X_WP:	0.000	Y_WP:	0.000	Y_WP:	0.750	X:	-0.008	Y:	-1.195	Z:	0.044	yaw:	62.302	yaw rate:	0.816	Roll:	-30.000	Pitch:	-16.793	Yaw:	88.917	Thrust:	100.000
Time:	3.937	Roll Set Point:	1.070	Pitch Set Point:	1.744	Yaw Set Point:	-1.087	X_WP:	0.000	Y_WP:	0.000	Y_WP:	0.750	X:	-0.008	Y:	-1.195	Z:	0.044	yaw:	62.299	yaw rate:	0.297	Roll:	-30.000	Pitch:	-16.713	Yaw:	88.969	Thrust:	100.000
Time:	3.958	Roll Set Point:	1.070	Pitch Set Point:	1.744	Yaw Set Point:	-1.088	X_WP:	0.000	Y_WP:	0.000	Y_WP:	0.750	X:	-0.008	Y:	-1.195	Z:	0.044	yaw:	62.311	yaw rate:	-1.226	Roll:	-30.000	Pitch:	-16.530	Yaw:	89.236	Thrust:	100.000
Time:	3.977	Roll Set Point:	1.070	Pitch Set Point:	1.743	Yaw Set Point:	-1.088	X_WP:	0.000	Y_WP:	0.000	Y_WP:	0.750	X:	-0.008	Y:	-1.195	Z:	0.044	yaw:	62.338	yaw rate:	-2.752	Roll:	-30.000	Pitch:	-16.108	Yaw:	89.331	Thrust:	100.000
Time:	3.996	Roll Set Point:	1.070	Pitch Set Point:	1.744	Yaw Set Point:	-1.087	X_WP:	0.000	Y_WP:	0.000	Y_WP:	0.750	X:	-0.008	Y:	-1.195	Z:	0.044	yaw:	62.305	yaw rate:	3.313	Roll:	-30.000	Pitch:	-17.186	Yaw:	88.486	Thrust:	100.000
Time:	4.016	Roll Set Point:	1.070	Pitch Set Point:	1.744	Yaw Set Point:	-1.088	X_WP:	0.000	Y_WP:	0.000	Y_WP:	0.750	X:	-0.008	Y:	-1.195	Z:	0.044	yaw:	62.319	yaw rate:	-1.365	Roll:	-30.000	Pitch:	-16.437	Yaw:	89.147	Thrust:	100.000
Time:	4.036	Roll Set Point:	1.070	Pitch Set Point:	1.744	Yaw Set Point:	-1.087	X_WP:	0.000	Y_WP:	0.000	Y_WP:	0.750	X:	-0.008	Y:	-1.195	Z:	0.044	yaw:	62.308	yaw rate:	1.072	Roll:	-30.000	Pitch:	-16.804	Yaw:	88.880	Thrust:	100.000
Time:	4.056	Roll Set Point:	1.070	Pitch Set Point:	1.744	Yaw Set Point:	-1.088	X_WP:	0.000	Y_WP:	0.000	Y_WP:	0.750	X:	-0.008	Y:	-1.195	Z:	0.044	yaw:	62.318	yaw rate:	-1.012	Roll:	-30.000	Pitch:	-16.499	Yaw:	89.150	Thrust:	100.000
Time:	4.075	Roll Set Point:	1.070	Pitch Set Point:	1.744	Yaw Set Point:	-1.087	X_WP:	0.000	Y_WP:	0.000	Y_WP:	0.750	X:	-0.008	Y:	-1.195	Z:	0.044	yaw:	62.298	yaw rate:	1.981	Roll:	-30.000	Pitch:	-16.986	Yaw:	88.625	Thrust:	100.000
Time:	4.097	Roll Set Point:	1.070	Pitch Set Point:	1.744	Yaw Set Point:	-1.088	X_WP:	0.000	Y_WP:	0.000	Y_WP:	0.750	X:	-0.008	Y:	-1.195	Z:	0.044	yaw:	62.321	yaw rate:	-2.286	Roll:	-30.000	Pitch:	-16.365	Yaw:	89.511	Thrust:	100.000
Time:	4.117	Roll Set Point:	1.070	Pitch Set Point:	1.744	Yaw Set Point:	-1.087	X_WP:	0.000	Y_WP:	0.000	Y_WP:	0.750	X:	-0.008	Y:	-1.195	Z:	0.044	yaw:	62.303	yaw rate:	1.880	Roll:	-30.000	Pitch:	-16.965	Yaw:	88.707	Thrust:	100.000
Time:	4.138	Roll Set Point:	1.070	Pitch Set Point:	1.744	Yaw Set Point:	-1.088	X_WP:	0.000	Y_WP:	0.000	Y_WP:	0.750	X:	-0.008	Y:	-1.195	Z:	0.044	yaw:	62.327	yaw rate:	-2.431	Roll:	-30.000	Pitch:	-16.264	Yaw:	89.416	Thrust:	100.000
Time:	4.158	Roll Set Point:	1.070	Pitch Set Point:	1.744	Yaw Set Point:	-1.087	X_WP:	0.000	Y_WP:	0.000	Y_WP:	0.750	X:	-0.008	Y:	-1.195	Z:	0.044	yaw:	62.285	yaw rate:	4.138	Roll:	-30.000	Pitch:	-17.342	Yaw:	88.380	Thrust:	100.000
Time:	4.176	Roll Set Point:	1.070	Pitch Set Point:	1.744	Yaw Set Point:	-1.088	X_WP:	0.000	Y_WP:	0.000	Y_WP:	0.750	X:	-0.008	Y:	-1.195	Z:	0.044	yaw:	62.328	yaw rate:	-4.292	Roll:	-30.000	Pitch:	-15.826	Yaw:	89.491	Thrust:	100.000
Time:	4.197	Roll Set Point:	1.070	Pitch Set Point:	1.744	Yaw Set Point:	-1.088	X_WP:	0.000	Y_WP:	0.000	Y_WP:	0.750	X:	-0.008	Y:	-1.195	Z:	0.044	yaw:	62.332	yaw rate:	-0.343	Roll:	-30.000	Pitch:	-16.650	Yaw:	89.133	Thrust:	100.000
Time:	4.217	Roll Set Point:	1.070	Pitch Set Point:	1.744	Yaw Set Point:	-1.088	X_WP:	0.000	Y_WP:	0.000	Y_WP:	0.750	X:	-0.008	Y:	-1.195	Z:	0.044	yaw:	62.326	yaw rate:	0.616	Roll:	-30.000	Pitch:	-16.690	Yaw:	88.942	Thrust:	100.000
Time:	4.236	Roll Set Point:	1.070	Pitch Set Point:	1.745	Yaw Set Point:	-1.087	X_WP:	0.000	Y_WP:	0.000	Y_WP:	0.750	X:	-0.008	Y:	-1.195	Z:	0.044	yaw:	62.277	yaw rate:	4.906	Roll:	-30.000	Pitch:	-17.490	Yaw:	88.231	Thrust:	100.000
Time:	4.257	Roll Set Point:	1.070	Pitch Set Point:	1.744	Yaw Set Point:	-1.088	X_WP:	0.000	Y_WP:	0.000	Y_WP:	0.750	X:	-0.008	Y:	-1.195	Z:	0.044	yaw:	62.324	yaw rate:	-4.696	Roll:	-30.000	Pitch:	-15.933	Yaw:	89.710	Thrust:	100.000
Time:	4.276	Roll Set Point:	1.070	Pitch Set Point:	1.744	Yaw Set Point:	-1.087	X_WP:	0.000	Y_WP:	0.000	Y_WP:	0.750	X:	-0.008	Y:	-1.195	Z:	0.044	yaw:	62.299	yaw rate:	2.497	Roll:	-30.000	Pitch:	-17.056	Yaw:	88.569	Thrust:	100.000
Time:	4.297	Roll Set Point:	1.070	Pitch Set Point:	1.744	Yaw Set Point:	-1.088	X_WP:	0.000	Y_WP:	0.000	Y_WP:	0.750	X:	-0.008	Y:	-1.195	Z:	0.044	yaw:	62.329	yaw rate:	-3.080	Roll:	-30.000	Pitch:	-16.203	Yaw:	89.508	Thrust:	100.000
Time:	4.316	Roll Set Point:	1.070	Pitch Set Point:	1.744	Yaw Set Point:	-1.088	X_WP:	0.000	Y_WP:	0.000	Y_WP:	0.750	X:	-0.008	Y:	-1.195	Z:	0.044	yaw:	62.318	yaw rate:	1.147	Roll:	-30.000	Pitch:	-16.830	Yaw:	88.714	Thrust:	100.000
Time:	4.337	Roll Set Point:	1.070	Pitch Set Point:	1.744	Yaw Set Point:	-1.087	X_WP:	0.000	Y_WP:	0.000	Y_WP:	0.750	X:	-0.008	Y:	-1.195	Z:	0.044	yaw:	62.292	yaw rate:	2.539	Roll:	-30.000	Pitch:	-17.079	Yaw:	88.611	Thrust:	100.000
Time:	4.356	Roll Set Point:	1.070	Pitch Set Point:	1.744	Yaw Set Point:	-1.087	X_WP:	0.000	Y_WP:	0.000	Y_WP:	0.750	X:	-0.008	Y:	-1.195	Z:	0.044	yaw:	62.303	yaw rate:	-1.084	Roll:	-30.000	Pitch:	-16.454	Yaw:	89.178	Thrust:	100.000
Time:	4.376	Roll Set Point:	1.070	Pitch Set Point:	1.744	Yaw Set Point:	-1.088	X_WP:	0.000	Y_WP:	0.000	Y_WP:	0.750	X:	-0.008	Y:	-1.195	Z:	0.044	yaw:	62.324	yaw rate:	-2.104	Roll:	-30.000	Pitch:	-16.302	Yaw:	89.308	Thrust:	100.000
Time:	4.396	Roll Set Point:	1.070	Pitch Set Point:	1.744	Yaw Set Point:	-1.088	X_WP:	0.000	Y_WP:	0.000	Y_WP:	0.750	X:	-0.008	Y:	-1.195	Z:	0.044	yaw:	62.318	yaw rate:	0.656	Roll:	-30.000	Pitch:	-16.774	Yaw:	88.967	Thrust:	100.000
Time:	4.417	Roll Set Point:	1.070	Pitch Set Point:	1.744	Yaw Set Point:	-1.088	X_WP:	0.000	Y_WP:	0.000	Y_WP:	0.750	X:	-0.008	Y:	-1.195	Z:	0.044	yaw:	62.321	yaw rate:	-0.346	Roll:	-30.000	Pitch:	-16.577	Yaw:	89.081	Thrust:	100.000
Time:	4.437	Roll Set Point:	1.070	Pitch Set Point:	1.744	Yaw Set Point:	-1.087	X_WP:	0.000	Y_WP:	0.000	Y_WP:	0.750	X:	-0.008	Y:	-1.195	Z:	0.044	yaw:	62.309	yaw rate:	1.236	Roll:	-30.000	Pitch:	-16.893	Yaw:	88.853	Thrust:	100.000
Time:	4.458	Roll Set Point:	1.070	Pitch Set Point:	1.744	Yaw Set Point:	-1.087	X_WP:	0.000	Y_WP:	0.000	Y_WP:	0.750	X:	-0.008	Y:	-1.195	Z:	0.044	yaw:	62.302	yaw rate:	0.714	Roll:	-30.000	Pitch:	-16.799	Yaw:	88.955	Thrust:	100.000
Time:	4.476	Roll Set Point:	1.070	Pitch Set Point:	1.744	Yaw Set Point:	-1.087	X_WP:	0.000	Y_WP:	0.000	Y_WP:	0.750	X:	-0.008	Y:	-1.195	Z:	0.044	yaw:	62.302	yaw rate:	-0.047	Roll:	-30.000	Pitch:	-16.598	Yaw:	88.856	Thrust:	100.000
Time:	4.497	Roll Set Point:	1.070	Pitch Set Point:	1.744	Yaw Set Point:	-1.088	X_WP:	0.000	Y_WP:	0.000	Y_WP:	0.750	X:	-0.008	Y:	-1.195	Z:	0.044	yaw:	62.312	yaw rate:	-1.012	Roll:	-30.000	Pitch:	-16.521	Yaw:	89.195	Thrust:	100.000
Time:	4.516	Roll Set Point:	1.070	Pitch Set Point:	1.744	Yaw Set Point:	-1.088	X_WP:	0.000	Y_WP:	0.000	Y_WP:	0.750	X:	-0.008	Y:	-1.195	Z:	0.044	yaw:	62.312	yaw rate:	0.052	Roll:	-30.000	Pitch:	-16.670	Yaw:	88.960	Thrust:	100.000
Time:	4.538	Roll Set Point:	1.070	Pitch Set Point:	1.743	Yaw Set Point:	-1.088	X_WP:	0.000	Y_WP:	0.000	Y_WP:	0.750	X:	-0.008	Y:	-1.195	Z:	0.044	yaw:	62.331	yaw rate:	-1.874	Roll:	-30.000	Pitch:	-16.377	Yaw:	89.414	Thrust:	100.000
Time:	4.557	Roll Set Point:	1.070	Pitch Set Point:	1.743	Yaw Set Point:	-1.088	X_WP:	0.000	Y_WP:	0.000	Y_WP:	0.750	X:	-0.008	Y:	-1.195	Z:	0.044	yaw:	62.332	yaw rate:	-0.095	Roll:	-30.000	Pitch:	-16.616	Yaw:	88.996	Thrust:	100.000
Time:	4.577	Roll Set Point:	1.070	Pitch Set Point:	1.744	Yaw Set Point:	-1.088	X_WP:	0.000	Y_WP:	0.000	Y_WP:	0.750	X:	-0.008	Y:	-1.195	Z:	0.044	yaw:	62.312	yaw rate:	1.939	Roll:	-30.000	Pitch:	-16.972	Yaw:	88.592	Thrust:	100.000
Time:	4.597	Roll Set Point:	1.070	Pitch Set Point:	1.743	Yaw Set Point:	-1.088	X_WP:	0.000	Y_WP:	0.000	Y_WP:	0.750	X:	-0.008	Y:	-1.195	Z:	0.044	yaw:	62.359	yaw rate:	-4.724	Roll:	-30.000	Pitch:	-15.873	Yaw:	89.733	Thrust:	100.000
Time:	4.616	Roll Set Point:	1.070	Pitch Set Point:	1.744	Yaw Set Point:	-1.088	X_WP:	0.000	Y_WP:	0.000	Y_WP:	0.750	X:	-0.008	Y:	-1.195	Z:	0.044	yaw:	62.310	yaw rate:	4.960	Roll:	-30.000	Pitch:	-17.459	Yaw:	88.302	Thrust:	100.000
Time:	4.637	Roll Set Point:	1.070	Pitch Set Point:	1.744	Yaw Set Point:	-1.088	X_WP:	0.000	Y_WP:	0.000	Y_WP:	0.750	X:	-0.008	Y:	-1.195	Z:	0.044	yaw:	62.320	yaw rate:	-1.045	Roll:	-30.000	Pitch:	-16.512	Yaw:	89.221	Thrust:	100.000
Time:	4.657	Roll Set Point:	1.070	Pitch Set Point:	1.744	Yaw Set Point:	-1.087	X_WP:	0.000	Y_WP:	0.000	Y_WP:	0.750	X:	-0.008	Y:	-1.195	Z:	0.044	yaw:	62.284	yaw rate:	3.661	Roll:	-30.000	Pitch:	-17.285	Yaw:	88.487	Thrust:	100.000
Time:	4.676	Roll Set Point:	1.070	Pitch Set Point:	1.743	Yaw Set Point:	-1.088	X_WP:	0.000	Y_WP:	0.000	Y_WP:	0.750	X:	-0.008	Y:	-1.195	Z:	0.044	yaw:	62.341	yaw rate:	-5.695	Roll:	-30.000	Pitch:	-15.657	Yaw:	89.737	Thrust:	100.000
Time:	4.697	Roll Set Point:	1.070	Pitch Set Point:	1.744	Yaw Set Point:	-1.087	X_WP:	0.000	Y_WP:	0.000	Y_WP:	0.750	X:	-0.008	Y:	-1.195	Z:	0.044	yaw:	62.292	yaw rate:	4.907	Roll:	-30.000	Pitch:	-17.507	Yaw:	88.394	Thrust:	100.000
Time:	4.717	Roll Set Point:	1.070	Pitch Set Point:	1.744	Yaw Set Point:	-1.088	X_WP:	0.000	Y_WP:	0.000	Y_WP:	0.750	X:	-0.008	Y:	-1.195	Z:	0.044	yaw:	62.310	yaw rate:	-1.887	Roll:	-30.000	Pitch:	-16.308	Yaw:	89.211	Thrust:	100.000
Time:	4.737	Roll Set Point:	1.070	Pitch Set Point:	1.744	Yaw Set Point:	-1.087	X_WP:	0.000	Y_WP:	0.000	Y_WP:	0.750	X:	-0.008	Y:	-1.195	Z:	0.044	yaw:	62.309	yaw rate:	0.145	Roll:	-30.000	Pitch:	-16.714	Yaw:	89.045	Thrust:	100.000
Time:	4.764	Roll Set Point:	1.070	Pitch Set Point:	1.744	Yaw Set Point:	-1.087	X_WP:	0.000	Y_WP:	0.000	Y_WP:	0.750	X:	-0.008	Y:	-1.195	Z:	0.044	yaw:	62.299	yaw rate:	0.981	Roll:	-30.000	Pitch:	-16.833	Yaw:	89.589	Thrust:	100.000
Time:	4.777	Roll Set Point:	1.070	Pitch Set Point:	1.744	Yaw Set Point:	-1.088	X_WP:	0.000	Y_WP:	0.000	Y_WP:	0.750	X:	-0.008	Y:	-1.195	Z:	0.044	yaw:	62.331	yaw rate:	-3.221	Roll:	-30.000	Pitch:	-16.182	Yaw:	89.008	Thrust:	100.000
Time:	4.796	Roll Set Point:	1.070	Pitch Set Point:	1.743	Yaw Set Point:	-1.088	X_WP:	0.000	Y_WP:	0.000	Y_WP:	0.750	X:	-0.008	Y:	-1.195	Z:	0.044	yaw:	62.345	yaw rate:	-1.353	Roll:	-30.000	Pitch:	-16.334	Yaw:	89.154	Thrust:	100.000
Time:	4.817	Roll Set Point:	1.070	Pitch Set Point:	1.744	Yaw Set Point:	-1.087	X_WP:	0.000	Y_WP:	0.000	Y_WP:	0.750	X:	-0.008	Y:	-1.195	Z:	0.044	yaw:	62.309	yaw rate:	3.573	Roll:	-30.000	Pitch:	-17.224	Yaw:	88.505	Thrust:	100.000
Time:	4.837	Roll Set Point:	1.070	Pitch Set Point:	1.744	Yaw Set Point:	-1.088	X_WP:	0.000	Y_WP:	0.000	Y_WP:	0.750	X:	-0.008	Y:	-1.195	Z:	0.044	yaw:	62.323	yaw rate:	-1.431	Roll:	-30.000	Pitch:	-16.422	Yaw:	89.255	Thrust:	100.000
Time:	4.856	Roll Set Point:	1.070	Pitch Set Point:	1.744	Yaw Set Point:	-1.088	X_WP:	0.000	Y_WP:	0.000	Y_WP:	0.750	X:	-0.008	Y:	-1.195	Z:	0.044	yaw:	62.311	yaw rate:	1.197	Roll:	-30.000	Pitch:	-16.811	Yaw:	88.714	Thrust:	100.000
Time:	4.878	Roll Set Point:	1.070	Pitch Set Point:	1.744	Yaw Set Point:	-1.088	X_WP:	0.000	Y_WP:	0.000	Y_WP:	0.750	X:	-0.008	Y:	-1.195	Z:	0.044	yaw:	62.312	yaw rate:	-0.092	Roll:	-30.000	Pitch:	-16.708	Yaw:	89.222	Thrust:	100.000
Time:	4.896	Roll Set Point:	1.070	Pitch Set Point:	1.744	Yaw Set Point:	-1.087	X_WP:	0.000	Y_WP:	0.000	Y_WP:	0.750	X:	-0.008	Y:	-1.195	Z:	0.044	yaw:	62.309	yaw rate:	0.327	Roll:	-30.000	Pitch:	-16.652	Yaw:	88.759	Thrust:	100.000
Time:	4.916	Roll Set Point:	1.070	Pitch Set Point:	1.744	Yaw Set Point:	-1.088	X_WP:	0.000	Y_WP:	0.000	Y_WP:	0.750	X:	-0.008	Y:	-1.195	Z:	0.044	yaw:	62.319	yaw rate:	-1.032	Roll:	-30.000	Pitch:	-16.476	Yaw:	89.173	Thrust:	100.000
Time:	4.938	Roll Set Point:	1.070	Pitch Set Point:	1.744	Yaw Set Point:	-1.087	X_WP:	0.000	Y_WP:	0.000	Y_WP:	0.750	X:	-0.008	Y:	-1.195	Z:	0.044	yaw:	62.301	yaw rate:	1.884	Roll:	-30.000	Pitch:	-17.011	Yaw:	88.826	Thrust:	100.000
Time:	4.956	Roll Set Point:	1.070	Pitch Set Point:	1.744	Yaw Set Point:	-1.087	X_WP:	0.000	Y_WP:	0.000	Y_WP:	0.750	X:	-0.008	Y:	-1.195	Z:	0.044	yaw:	62.303	yaw rate:	-0.214	Roll:	-30.000	Pitch:	-16.608	Yaw:	88.930	Thrust:	100.000
Time:	4.975	Roll Set Point:	1.070	Pitch Set Point:	1.744	Yaw Set Point:	-1.088	X_WP:	0.000	Y_WP:	0.000	Y_WP:	0.750	X:	-0.008	Y:	-1.195	Z:	0.044	yaw:	62.319	yaw rate:	-1.669	Roll:	-30.000	Pitch:	-16.351	Yaw:	89.193	Thrust:	100.000
Time:	4.996	Roll Set Point:	1.070	Pitch Set Point:	1.744	Yaw Set Point:	-1.088	X_WP:	0.000	Y_WP:	0.000	Y_WP:	0.750	X:	-0.008	Y:	-1.195	Z:	0.044	yaw:	62.314	yaw rate:	0.509	Roll:	-30.000	Pitch:	-16.713	Yaw:	88.984	Thrust:	100.000
Time:	5.015	Roll Set Point:	1.070	Pitch Set Point:	1.744	Yaw Set Point:	-1.088	X_WP:	0.000	Y_WP:	0.000	Y_WP:	0.750	X:	-0.008	Y:	-1.195	Z:	0.044	yaw:	62.316	yaw rate:	-0.205	Roll:	-30.000	Pitch:	-16.647	Yaw:	88.967	Thrust:	100.000
Time:	5.036	Roll Set Point:	1.070	Pitch Set Point:	1.744	Yaw Set Point:	-1.088	X_WP:	0.000	Y_WP:	0.000	Y_WP:	0.750	X:	-0.008	Y:	-1.195	Z:	0.044	yaw:	62.313	yaw rate:	0.349	Roll:	-30.000	Pitch:	-16.709	Yaw:	89.062	Thrust:	100.000
Time:	5.057	Roll Set Point:	1.070	Pitch Set Point:	1.743	Yaw Set Point:	-1.088	X_WP:	0.000	Y_WP:	0.000	Y_WP:	0.750	X:	-0.008	Y:	-1.195	Z:	0.044	yaw:	62.341	yaw rate:	-2.774	Roll:	-30.000	Pitch:	-16.228	Yaw:	89.462	Thrust:	100.000
Time:	5.077	Roll Set Point:	1.070	Pitch Set Point:	1.744	Yaw Set Point:	-1.087	X_WP:	0.000	Y_WP:	0.000	Y_WP:	0.750	X:	-0.008	Y:	-1.195	Z:	0.044	yaw:	62.296	yaw rate:	4.481	Roll:	-30.000	Pitch:	-17.382	Yaw:	88.282	Thrust:	100.000
Time:	5.098	Roll Set Point:	1.070	Pitch Set Point:	1.744	Yaw Set Point:	-1.088	X_WP:	0.000	Y_WP:	0.000	Y_WP:	0.750	X:	-0.008	Y:	-1.195	Z:	0.044	yaw:	62.316	yaw rate:	-1.986	Roll:	-30.000	Pitch:	-16.447	Yaw:	89.437	Thrust:	100.000
Time:	5.116	Roll Set Point:	1.070	Pitch Set Point:	1.744	Yaw Set Point:	-1.088	X_WP:	0.000	Y_WP:	0.000	Y_WP:	0.750	X:	-0.008	Y:	-1.195	Z:	0.044	yaw:	62.311	yaw rate:	0.428	Roll:	-30.000	Pitch:	-16.631	Yaw:	88.755	Thrust:	100.000
Time:	5.137	Roll Set Point:	1.070	Pitch Set Point:	1.744	Yaw Set Point:	-1.088	X_WP:	0.000	Y_WP:	0.000	Y_WP:	0.750	X:	-0.008	Y:	-1.195	Z:	0.044	yaw:	62.316	yaw rate:	-0.496	Roll:	-30.000	Pitch:	-16.606	Yaw:	89.188	Thrust:	100.000
Time:	5.156	Roll Set Point:	1.070	Pitch Set Point:	1.744	Yaw Set Point:	-1.087	X_WP:	0.000	Y_WP:	0.000	Y_WP:	0.750	X:	-0.008	Y:	-1.195	Z:	0.044	yaw:	62.296	yaw rate:	2.046	Roll:	-30.000	Pitch:	-16.997	Yaw:	88.599	Thrust:	100.000
Time:	5.176	Roll Set Point:	1.070	Pitch Set Point:	1.744	Yaw Set Point:	-1.088	X_WP:	0.000	Y_WP:	0.000	Y_WP:	0.750	X:	-0.008	Y:	-1.195	Z:	0.044	yaw:	62.331	yaw rate:	-3.520	Roll:	-30.000	Pitch:	-16.053	Yaw:	89.423	Thrust:	100.000
Time:	5.196	Roll Set Point:	1.070	Pitch Set Point:	1.744	Yaw Set Point:	-1.087	X_WP:	0.000	Y_WP:	0.000	Y_WP:	0.750	X:	-0.008	Y:	-1.195	Z:	0.044	yaw:	62.308	yaw rate:	2.319	Roll:	-30.000	Pitch:	-17.031	Yaw:	88.768	Thrust:	100.000
Time:	5.215	Roll Set Point:	1.070	Pitch Set Point:	1.744	Yaw Set Point:	-1.088	X_WP:	0.000	Y_WP:	0.000	Y_WP:	0.750	X:	-0.008	Y:	-1.195	Z:	0.044	yaw:	62.318	yaw rate:	-1.006	Roll:	-30.000	Pitch:	-16.491	Yaw:	89.109	Thrust:	100.000
Time:	5.236	Roll Set Point:	1.070	Pitch Set Point:	1.744	Yaw Set Point:	-1.087	X_WP:	0.000	Y_WP:	0.000	Y_WP:	0.750	X:	-0.008	Y:	-1.195	Z:	0.044	yaw:	62.308	yaw rate:	0.997	Roll:	-30.000	Pitch:	-16.818	Yaw:	88.916	Thrust:	100.000
