Time:	0.034	Roll Set Point:	1.070	Pitch Set Point:	1.743	Yaw Set Point:	-1.088	X_WP:	0.000	Y_WP:	0.000	Y_WP:	0.750	X:	-0.008	Y:	-1.195	Z:	0.044	yaw:	62.328	yaw rate:	-1.221	Roll:	-30.000	Pitch:	-15.895	Yaw:	87.026	Thrust:	38.821
Time:	0.052	Roll Set Point:	1.070	Pitch Set Point:	1.744	Yaw Set Point:	-1.088	X_WP:	0.000	Y_WP:	0.000	Y_WP:	0.750	X:	-0.008	Y:	-1.195	Z:	0.044	yaw:	62.313	yaw rate:	1.488	Roll:	-30.000	Pitch:	-16.180	Yaw:	87.184	Thrust:	40.264
Time:	0.071	Roll Set Point:	1.070	Pitch Set Point:	1.744	Yaw Set Point:	-1.087	X_WP:	0.000	Y_WP:	0.000	Y_WP:	0.750	X:	-0.008	Y:	-1.195	Z:	0.044	yaw:	62.300	yaw rate:	1.334	Roll:	-30.000	Pitch:	-16.191	Yaw:	87.606	Thrust:	42.014
Time:	0.091	Roll Set Point:	1.070	Pitch Set Point:	1.744	Yaw Set Point:	-1.087	X_WP:	0.000	Y_WP:	0.000	Y_WP:	0.750	X:	-0.008	Y:	-1.195	Z:	0.044	yaw:	62.304	yaw rate:	-0.476	Roll:	-30.000	Pitch:	-15.922	Yaw:	88.345	Thrust:	43.861
Time:	0.112	Roll Set Point:	1.070	Pitch Set Point:	1.744	Yaw Set Point:	-1.087	X_WP:	0.000	Y_WP:	0.000	Y_WP:	0.750	X:	-0.008	Y:	-1.195	Z:	0.044	yaw:	62.293	yaw rate:	1.169	Roll:	-30.000	Pitch:	-16.215	Yaw:	88.569	Thrust:	45.514
Time:	0.133	Roll Set Point:	1.070	Pitch Set Point:	1.743	Yaw Set Point:	-1.088	X_WP:	0.000	Y_WP:	0.000	Y_WP:	0.750	X:	-0.008	Y:	-1.195	Z:	0.044	yaw:	62.329	yaw rate:	-3.614	Roll:	-30.000	Pitch:	-15.423	Yaw:	89.507	Thrust:	47.411
Time:	0.152	Roll Set Point:	1.070	Pitch Set Point:	1.744	Yaw Set Point:	-1.088	X_WP:	0.000	Y_WP:	0.000	Y_WP:	0.750	X:	-0.008	Y:	-1.195	Z:	0.044	yaw:	62.313	yaw rate:	1.571	Roll:	-30.000	Pitch:	-16.345	Yaw:	88.918	Thrust:	49.256
Time:	0.173	Roll Set Point:	1.070	Pitch Set Point:	1.744	Yaw Set Point:	-1.087	X_WP:	0.000	Y_WP:	0.000	Y_WP:	0.750	X:	-0.008	Y:	-1.195	Z:	0.044	yaw:	62.293	yaw rate:	1.968	Roll:	-30.000	Pitch:	-16.418	Yaw:	88.864	Thrust:	51.718
Time:	0.191	Roll Set Point:	1.070	Pitch Set Point:	1.744	Yaw Set Point:	-1.088	X_WP:	0.000	Y_WP:	0.000	Y_WP:	0.750	X:	-0.008	Y:	-1.195	Z:	0.044	yaw:	62.309	yaw rate:	-1.580	Roll:	-30.000	Pitch:	-15.846	Yaw:	89.063	Thrust:	51.316
Time:	0.211	Roll Set Point:	1.070	Pitch Set Point:	1.744	Yaw Set Point:	-1.087	X_WP:	0.000	Y_WP:	0.000	Y_WP:	0.750	X:	-0.008	Y:	-1.195	Z:	0.044	yaw:	62.303	yaw rate:	0.622	Roll:	-30.000	Pitch:	-16.240	Yaw:	88.916	Thrust:	54.083
Time:	0.233	Roll Set Point:	1.070	Pitch Set Point:	1.744	Yaw Set Point:	-1.088	X_WP:	0.000	Y_WP:	0.000	Y_WP:	0.750	X:	-0.008	Y:	-1.195	Z:	0.044	yaw:	62.322	yaw rate:	-1.915	Roll:	-30.000	Pitch:	-15.909	Yaw:	89.376	Thrust:	55.986
Time:	0.254	Roll Set Point:	1.070	Pitch Set Point:	1.744	Yaw Set Point:	-1.088	X_WP:	0.000	Y_WP:	0.000	Y_WP:	0.750	X:	-0.008	Y:	-1.195	Z:	0.044	yaw:	62.319	yaw rate:	0.340	Roll:	-30.000	Pitch:	-16.256	Yaw:	89.066	Thrust:	59.284
Time:	0.272	Roll Set Point:	1.070	Pitch Set Point:	1.744	Yaw Set Point:	-1.087	X_WP:	0.000	Y_WP:	0.000	Y_WP:	0.750	X:	-0.008	Y:	-1.195	Z:	0.044	yaw:	62.293	yaw rate:	2.535	Roll:	-30.000	Pitch:	-16.692	Yaw:	88.505	Thrust:	57.274
Time:	0.292	Roll Set Point:	1.070	Pitch Set Point:	1.744	Yaw Set Point:	-1.087	X_WP:	0.000	Y_WP:	0.000	Y_WP:	0.750	X:	-0.008	Y:	-1.195	Z:	0.044	yaw:	62.294	yaw rate:	-0.036	Roll:	-30.000	Pitch:	-16.238	Yaw:	88.980	Thrust:	60.316
Time:	0.312	Roll Set Point:	1.070	Pitch Set Point:	1.744	Yaw Set Point:	-1.087	X_WP:	0.000	Y_WP:	0.000	Y_WP:	0.750	X:	-0.008	Y:	-1.195	Z:	0.044	yaw:	62.294	yaw rate:	-0.075	Roll:	-30.000	Pitch:	-16.291	Yaw:	88.995	Thrust:	63.830
Time:	0.333	Roll Set Point:	1.070	Pitch Set Point:	1.744	Yaw Set Point:	-1.087	X_WP:	0.000	Y_WP:	0.000	Y_WP:	0.750	X:	-0.008	Y:	-1.195	Z:	0.044	yaw:	62.308	yaw rate:	-1.340	Roll:	-30.000	Pitch:	-16.127	Yaw:	89.143	Thrust:	63.743
Time:	0.353	Roll Set Point:	1.070	Pitch Set Point:	1.744	Yaw Set Point:	-1.088	X_WP:	0.000	Y_WP:	0.000	Y_WP:	0.750	X:	-0.008	Y:	-1.195	Z:	0.044	yaw:	62.311	yaw rate:	-0.306	Roll:	-30.000	Pitch:	-16.247	Yaw:	89.085	Thrust:	66.556
Time:	0.373	Roll Set Point:	1.070	Pitch Set Point:	1.744	Yaw Set Point:	-1.087	X_WP:	0.000	Y_WP:	0.000	Y_WP:	0.750	X:	-0.008	Y:	-1.195	Z:	0.044	yaw:	62.293	yaw rate:	1.782	Roll:	-30.000	Pitch:	-16.714	Yaw:	88.682	Thrust:	66.814
Time:	0.392	Roll Set Point:	1.070	Pitch Set Point:	1.743	Yaw Set Point:	-1.088	X_WP:	0.000	Y_WP:	0.000	Y_WP:	0.750	X:	-0.008	Y:	-1.195	Z:	0.044	yaw:	62.333	yaw rate:	-3.982	Roll:	-30.000	Pitch:	-15.682	Yaw:	89.556	Thrust:	67.910
Time:	0.412	Roll Set Point:	1.070	Pitch Set Point:	1.744	Yaw Set Point:	-1.088	X_WP:	0.000	Y_WP:	0.000	Y_WP:	0.750	X:	-0.008	Y:	-1.195	Z:	0.044	yaw:	62.314	yaw rate:	1.938	Roll:	-30.000	Pitch:	-16.732	Yaw:	88.654	Thrust:	71.131
Time:	0.432	Roll Set Point:	1.070	Pitch Set Point:	1.743	Yaw Set Point:	-1.088	X_WP:	0.000	Y_WP:	0.000	Y_WP:	0.750	X:	-0.008	Y:	-1.195	Z:	0.044	yaw:	62.324	yaw rate:	-1.048	Roll:	-30.000	Pitch:	-16.257	Yaw:	89.231	Thrust:	72.334
Time:	0.452	Roll Set Point:	1.070	Pitch Set Point:	1.743	Yaw Set Point:	-1.088	X_WP:	0.000	Y_WP:	0.000	Y_WP:	0.750	X:	-0.008	Y:	-1.195	Z:	0.044	yaw:	62.329	yaw rate:	-0.513	Roll:	-30.000	Pitch:	-16.429	Yaw:	89.093	Thrust:	75.262
Time:	0.474	Roll Set Point:	1.070	Pitch Set Point:	1.744	Yaw Set Point:	-1.087	X_WP:	0.000	Y_WP:	0.000	Y_WP:	0.750	X:	-0.008	Y:	-1.195	Z:	0.044	yaw:	62.293	yaw rate:	3.630	Roll:	-30.000	Pitch:	-17.111	Yaw:	88.735	Thrust:	79.631
Time:	0.493	Roll Set Point:	1.070	Pitch Set Point:	1.743	Yaw Set Point:	-1.088	X_WP:	0.000	Y_WP:	0.000	Y_WP:	0.750	X:	-0.008	Y:	-1.195	Z:	0.044	yaw:	62.328	yaw rate:	-3.488	Roll:	-30.000	Pitch:	-15.930	Yaw:	89.458	Thrust:	76.228
Time:	0.516	Roll Set Point:	1.070	Pitch Set Point:	1.744	Yaw Set Point:	-1.087	X_WP:	0.000	Y_WP:	0.000	Y_WP:	0.750	X:	-0.008	Y:	-1.195	Z:	0.044	yaw:	62.296	yaw rate:	3.196	Roll:	-30.000	Pitch:	-17.110	Yaw:	88.690	Thrust:	81.559
Time:	0.534	Roll Set Point:	1.070	Pitch Set Point:	1.744	Yaw Set Point:	-1.087	X_WP:	0.000	Y_WP:	0.000	Y_WP:	0.750	X:	-0.008	Y:	-1.195	Z:	0.044	yaw:	62.289	yaw rate:	0.712	Roll:	-30.000	Pitch:	-16.722	Yaw:	88.782	Thrust:	79.265
Time:	0.555	Roll Set Point:	1.070	Pitch Set Point:	1.744	Yaw Set Point:	-1.087	X_WP:	0.000	Y_WP:	0.000	Y_WP:	0.750	X:	-0.008	Y:	-1.195	Z:	0.044	yaw:	62.299	yaw rate:	-1.062	Roll:	-30.000	Pitch:	-16.485	Yaw:	89.132	Thrust:	85.170
Time:	0.572	Roll Set Point:	1.070	Pitch Set Point:	1.743	Yaw Set Point:	-1.088	X_WP:	0.000	Y_WP:	0.000	Y_WP:	0.750	X:	-0.008	Y:	-1.195	Z:	0.044	yaw:	62.345	yaw rate:	-4.573	Roll:	-30.000	Pitch:	-15.664	Yaw:	89.515	Thrust:	79.009
Time:	0.592	Roll Set Point:	1.070	Pitch Set Point:	1.744	Yaw Set Point:	-1.087	X_WP:	0.000	Y_WP:	0.000	Y_WP:	0.750	X:	-0.008	Y:	-1.195	Z:	0.044	yaw:	62.302	yaw rate:	4.261	Roll:	-30.000	Pitch:	-17.369	Yaw:	88.495	Thrust:	87.290
Time:	0.612	Roll Set Point:	1.070	Pitch Set Point:	1.743	Yaw Set Point:	-1.088	X_WP:	0.000	Y_WP:	0.000	Y_WP:	0.750	X:	-0.008	Y:	-1.195	Z:	0.044	yaw:	62.330	yaw rate:	-2.766	Roll:	-30.000	Pitch:	-16.164	Yaw:	89.302	Thrust:	86.485
Time:	0.632	Roll Set Point:	1.070	Pitch Set Point:	1.744	Yaw Set Point:	-1.087	X_WP:	0.000	Y_WP:	0.000	Y_WP:	0.750	X:	-0.008	Y:	-1.195	Z:	0.044	yaw:	62.305	yaw rate:	2.466	Roll:	-30.000	Pitch:	-17.025	Yaw:	88.740	Thrust:	91.159
Time:	0.652	Roll Set Point:	1.070	Pitch Set Point:	1.744	Yaw Set Point:	-1.087	X_WP:	0.000	Y_WP:	0.000	Y_WP:	0.750	X:	-0.008	Y:	-1.195	Z:	0.044	yaw:	62.298	yaw rate:	0.728	Roll:	-30.000	Pitch:	-16.810	Yaw:	88.882	Thrust:	91.097
Time:	0.672	Roll Set Point:	1.070	Pitch Set Point:	1.744	Yaw Set Point:	-1.088	X_WP:	0.000	Y_WP:	0.000	Y_WP:	0.750	X:	-0.008	Y:	-1.195	Z:	0.044	yaw:	62.311	yaw rate:	-1.269	Roll:	-30.000	Pitch:	-16.465	Yaw:	89.165	Thrust:	91.667
Time:	0.692	Roll Set Point:	1.070	Pitch Set Point:	1.743	Yaw Set Point:	-1.088	X_WP:	0.000	Y_WP:	0.000	Y_WP:	0.750	X:	-0.008	Y:	-1.195	Z:	0.044	yaw:	62.325	yaw rate:	-1.387	Roll:	-30.000	Pitch:	-16.384	Yaw:	89.198	Thrust:	95.895
Time:	0.713	Roll Set Point:	1.070	Pitch Set Point:	1.744	Yaw Set Point:	-1.088	X_WP:	0.000	Y_WP:	0.000	Y_WP:	0.750	X:	-0.008	Y:	-1.195	Z:	0.044	yaw:	62.314	yaw rate:	1.083	Roll:	-30.000	Pitch:	-16.914	Yaw:	88.978	Thrust:	99.404
Time:	0.734	Roll Set Point:	1.070	Pitch Set Point:	1.744	Yaw Set Point:	-1.087	X_WP:	0.000	Y_WP:	0.000	Y_WP:	0.750	X:	-0.008	Y:	-1.195	Z:	0.044	yaw:	62.309	yaw rate:	0.525	Roll:	-30.000	Pitch:	-16.716	Yaw:	89.052	Thrust:	100.000
Time:	0.754	Roll Set Point:	1.070	Pitch Set Point:	1.744	Yaw Set Point:	-1.088	X_WP:	0.000	Y_WP:	0.000	Y_WP:	0.750	X:	-0.008	Y:	-1.195	Z:	0.044	yaw:	62.312	yaw rate:	-0.371	Roll:	-30.000	Pitch:	-16.617	Yaw:	89.011	Thrust:	98.465
Time:	0.771	Roll Set Point:	1.070	Pitch Set Point:	1.743	Yaw Set Point:	-1.088	X_WP:	0.000	Y_WP:	0.000	Y_WP:	0.750	X:	-0.008	Y:	-1.195	Z:	0.044	yaw:	62.324	yaw rate:	-1.149	Roll:	-30.000	Pitch:	-16.354	Yaw:	88.996	Thrust:	93.953
Time:	0.792	Roll Set Point:	1.070	Pitch Set Point:	1.744	Yaw Set Point:	-1.088	X_WP:	0.000	Y_WP:	0.000	Y_WP:	0.750	X:	-0.008	Y:	-1.195	Z:	0.044	yaw:	62.317	yaw rate:	0.731	Roll:	-30.000	Pitch:	-16.761	Yaw:	88.907	Thrust:	100.000
Time:	0.812	Roll Set Point:	1.070	Pitch Set Point:	1.744	Yaw Set Point:	-1.087	X_WP:	0.000	Y_WP:	0.000	Y_WP:	0.750	X:	-0.008	Y:	-1.195	Z:	0.044	yaw:	62.300	yaw rate:	1.667	Roll:	-30.000	Pitch:	-16.939	Yaw:	88.762	Thrust:	100.000
Time:	0.832	Roll Set Point:	1.070	Pitch Set Point:	1.744	Yaw Set Point:	-1.087	X_WP:	0.000	Y_WP:	0.000	Y_WP:	0.750	X:	-0.008	Y:	-1.195	Z:	0.044	yaw:	62.303	yaw rate:	-0.289	Roll:	-30.000	Pitch:	-16.654	Yaw:	89.101	Thrust:	100.000
Time:	0.852	Roll Set Point:	1.070	Pitch Set Point:	1.743	Yaw Set Point:	-1.088	X_WP:	0.000	Y_WP:	0.000	Y_WP:	0.750	X:	-0.008	Y:	-1.195	Z:	0.044	yaw:	62.326	yaw rate:	-2.353	Roll:	-30.000	Pitch:	-16.255	Yaw:	89.327	Thrust:	100.000
Time:	0.871	Roll Set Point:	1.070	Pitch Set Point:	1.744	Yaw Set Point:	-1.087	X_WP:	0.000	Y_WP:	0.000	Y_WP:	0.750	X:	-0.008	Y:	-1.195	Z:	0.044	yaw:	62.300	yaw rate:	2.612	Roll:	-30.000	Pitch:	-17.075	Yaw:	88.590	Thrust:	100.000
Time:	0.892	Roll Set Point:	1.070	Pitch Set Point:	1.744	Yaw Set Point:	-1.088	X_WP:	0.000	Y_WP:	0.000	Y_WP:	0.750	X:	-0.008	Y:	-1.195	Z:	0.044	yaw:	62.318	yaw rate:	-1.806	Roll:	-30.000	Pitch:	-16.350	Yaw:	89.284	Thrust:	100.000
Time:	0.911	Roll Set Point:	1.070	Pitch Set Point:	1.743	Yaw Set Point:	-1.088	X_WP:	0.000	Y_WP:	0.000	Y_WP:	0.750	X:	-0.008	Y:	-1.195	Z:	0.044	yaw:	62.331	yaw rate:	-1.263	Roll:	-30.000	Pitch:	-16.418	Yaw:	89.109	Thrust:	100.000
Time:	0.934	Roll Set Point:	1.070	Pitch Set Point:	1.744	Yaw Set Point:	-1.088	X_WP:	0.000	Y_WP:	0.000	Y_WP:	0.750	X:	-0.008	Y:	-1.195	Z:	0.044	yaw:	62.316	yaw rate:	1.438	Roll:	-30.000	Pitch:	-16.940	Yaw:	89.154	Thrust:	100.000
Time:	0.953	Roll Set Point:	1.070	Pitch Set Point:	1.744	Yaw Set Point:	-1.087	X_WP:	0.000	Y_WP:	0.000	Y_WP:	0.750	X:	-0.008	Y:	-1.195	Z:	0.044	yaw:	62.292	yaw rate:	2.474	Roll:	-30.000	Pitch:	-17.073	Yaw:	88.552	Thrust:	100.000
Time:	0.973	Roll Set Point:	1.070	Pitch Set Point:	1.744	Yaw Set Point:	-1.087	X_WP:	0.000	Y_WP:	0.000	Y_WP:	0.750	X:	-0.008	Y:	-1.195	Z:	0.044	yaw:	62.307	yaw rate:	-1.539	Roll:	-30.000	Pitch:	-16.405	Yaw:	89.115	Thrust:	100.000
Time:	0.995	Roll Set Point:	1.070	Pitch Set Point:	1.744	Yaw Set Point:	-1.087	X_WP:	0.000	Y_WP:	0.000	Y_WP:	0.750	X:	-0.008	Y:	-1.195	Z:	0.044	yaw:	62.308	yaw rate:	-0.055	Roll:	-30.000	Pitch:	-16.654	Yaw:	89.193	Thrust:	100.000
Time:	1.013	Roll Set Point:	1.070	Pitch Set Point:	1.744	Yaw Set Point:	-1.087	X_WP:	0.000	Y_WP:	0.000	Y_WP:	0.750	X:	-0.008	Y:	-1.195	Z:	0.044	yaw:	62.297	yaw rate:	1.048	Roll:	-30.000	Pitch:	-16.814	Yaw:	88.642	Thrust:	100.000
Time:	1.032	Roll Set Point:	1.070	Pitch Set Point:	1.743	Yaw Set Point:	-1.088	X_WP:	0.000	Y_WP:	0.000	Y_WP:	0.750	X:	-0.008	Y:	-1.195	Z:	0.044	yaw:	62.340	yaw rate:	-4.330	Roll:	-30.000	Pitch:	-15.923	Yaw:	89.556	Thrust:	100.000
Time:	1.054	Roll Set Point:	1.070	Pitch Set Point:	1.744	Yaw Set Point:	-1.087	X_WP:	0.000	Y_WP:	0.000	Y_WP:	0.750	X:	-0.008	Y:	-1.195	Z:	0.044	yaw:	62.304	yaw rate:	3.622	Roll:	-30.000	Pitch:	-17.272	Yaw:	88.713	Thrust:	100.000
Time:	1.072	Roll Set Point:	1.070	Pitch Set Point:	1.744	Yaw Set Point:	-1.088	X_WP:	0.000	Y_WP:	0.000	Y_WP:	0.750	X:	-0.008	Y:	-1.195	Z:	0.044	yaw:	62.312	yaw rate:	-0.824	Roll:	-30.000	Pitch:	-16.425	Yaw:	89.007	Thrust:	100.000
Time:	1.092	Roll Set Point:	1.070	Pitch Set Point:	1.744	Yaw Set Point:	-1.088	X_WP:	0.000	Y_WP:	0.000	Y_WP:	0.750	X:	-0.008	Y:	-1.195	Z:	0.044	yaw:	62.316	yaw rate:	-0.311	Roll:	-30.000	Pitch:	-16.620	Yaw:	89.080	Thrust:	100.000
Time:	1.112	Roll Set Point:	1.070	Pitch Set Point:	1.744	Yaw Set Point:	-1.088	X_WP:	0.000	Y_WP:	0.000	Y_WP:	0.750	X:	-0.008	Y:	-1.195	Z:	0.044	yaw:	62.313	yaw rate:	0.296	Roll:	-30.000	Pitch:	-16.712	Yaw:	88.972	Thrust:	100.000
Time:	1.132	Roll Set Point:	1.070	Pitch Set Point:	1.743	Yaw Set Point:	-1.088	X_WP:	0.000	Y_WP:	0.000	Y_WP:	0.750	X:	-0.008	Y:	-1.195	Z:	0.044	yaw:	62.322	yaw rate:	-0.986	Roll:	-30.000	Pitch:	-16.439	Yaw:	89.128	Thrust:	100.000
Time:	1.151	Roll Set Point:	1.070	Pitch Set Point:	1.744	Yaw Set Point:	-1.088	X_WP:	0.000	Y_WP:	0.000	Y_WP:	0.750	X:	-0.008	Y:	-1.195	Z:	0.044	yaw:	62.313	yaw rate:	0.976	Roll:	-30.000	Pitch:	-16.828	Yaw:	88.791	Thrust:	100.000
Time:	1.176	Roll Set Point:	1.070	Pitch Set Point:	1.744	Yaw Set Point:	-1.088	X_WP:	0.000	Y_WP:	0.000	Y_WP:	0.750	X:	-0.008	Y:	-1.195	Z:	0.044	yaw:	62.323	yaw rate:	-0.993	Roll:	-30.000	Pitch:	-16.678	Yaw:	89.635	Thrust:	100.000
Time:	1.191	Roll Set Point:	1.070	Pitch Set Point:	1.744	Yaw Set Point:	-1.087	X_WP:	0.000	Y_WP:	0.000	Y_WP:	0.750	X:	-0.008	Y:	-1.195	Z:	0.044	yaw:	62.294	yaw rate:	2.833	Roll:	-30.000	Pitch:	-17.067	Yaw:	87.892	Thrust:	100.000
Time:	1.211	Roll Set Point:	1.070	Pitch Set Point:	1.744	Yaw Set Point:	-1.087	X_WP:	0.000	Y_WP:	0.000	Y_WP:	0.750	X:	-0.008	Y:	-1.195	Z:	0.044	yaw:	62.300	yaw rate:	-0.552	Roll:	-30.000	Pitch:	-16.547	Yaw:	89.128	Thrust:	100.000
Time:	1.232	Roll Set Point:	1.070	Pitch Set Point:	1.743	Yaw Set Point:	-1.088	X_WP:	0.000	Y_WP:	0.000	Y_WP:	0.750	X:	-0.008	Y:	-1.195	Z:	0.044	yaw:	62.328	yaw rate:	-2.770	Roll:	-30.000	Pitch:	-16.240	Yaw:	89.408	Thrust:	100.000
Time:	1.254	Roll Set Point:	1.070	Pitch Set Point:	1.744	Yaw Set Point:	-1.088	X_WP:	0.000	Y_WP:	0.000	Y_WP:	0.750	X:	-0.008	Y:	-1.195	Z:	0.044	yaw:	62.318	yaw rate:	0.949	Roll:	-30.000	Pitch:	-16.812	Yaw:	89.059	Thrust:	100.000
Time:	1.272	Roll Set Point:	1.070	Pitch Set Point:	1.743	Yaw Set Point:	-1.088	X_WP:	0.000	Y_WP:	0.000	Y_WP:	0.750	X:	-0.008	Y:	-1.195	Z:	0.044	yaw:	62.328	yaw rate:	-0.989	Roll:	-30.000	Pitch:	-16.455	Yaw:	88.954	Thrust:	100.000
Time:	1.291	Roll Set Point:	1.070	Pitch Set Point:	1.744	Yaw Set Point:	-1.087	X_WP:	0.000	Y_WP:	0.000	Y_WP:	0.750	X:	-0.008	Y:	-1.195	Z:	0.044	yaw:	62.286	yaw rate:	4.204	Roll:	-30.000	Pitch:	-17.334	Yaw:	88.462	Thrust:	100.000
Time:	1.311	Roll Set Point:	1.070	Pitch Set Point:	1.744	Yaw Set Point:	-1.087	X_WP:	0.000	Y_WP:	0.000	Y_WP:	0.750	X:	-0.008	Y:	-1.195	Z:	0.044	yaw:	62.291	yaw rate:	-0.556	Roll:	-30.000	Pitch:	-16.593	Yaw:	88.956	Thrust:	100.000
Time:	1.331	Roll Set Point:	1.070	Pitch Set Point:	1.744	Yaw Set Point:	-1.088	X_WP:	0.000	Y_WP:	0.000	Y_WP:	0.750	X:	-0.008	Y:	-1.195	Z:	0.044	yaw:	62.315	yaw rate:	-2.342	Roll:	-30.000	Pitch:	-16.288	Yaw:	89.332	Thrust:	100.000
Time:	1.351	Roll Set Point:	1.070	Pitch Set Point:	1.743	Yaw Set Point:	-1.088	X_WP:	0.000	Y_WP:	0.000	Y_WP:	0.750	X:	-0.008	Y:	-1.195	Z:	0.044	yaw:	62.330	yaw rate:	-1.497	Roll:	-30.000	Pitch:	-16.395	Yaw:	89.255	Thrust:	100.000
Time:	1.373	Roll Set Point:	1.070	Pitch Set Point:	1.744	Yaw Set Point:	-1.088	X_WP:	0.000	Y_WP:	0.000	Y_WP:	0.750	X:	-0.008	Y:	-1.195	Z:	0.044	yaw:	62.318	yaw rate:	1.202	Roll:	-30.000	Pitch:	-16.909	Yaw:	89.050	Thrust:	100.000
Time:	1.393	Roll Set Point:	1.070	Pitch Set Point:	1.744	Yaw Set Point:	-1.088	X_WP:	0.000	Y_WP:	0.000	Y_WP:	0.750	X:	-0.008	Y:	-1.195	Z:	0.044	yaw:	62.312	yaw rate:	0.628	Roll:	-30.000	Pitch:	-16.734	Yaw:	88.934	Thrust:	100.000
Time:	1.412	Roll Set Point:	1.070	Pitch Set Point:	1.743	Yaw Set Point:	-1.088	X_WP:	0.000	Y_WP:	0.000	Y_WP:	0.750	X:	-0.008	Y:	-1.195	Z:	0.044	yaw:	62.339	yaw rate:	-2.704	Roll:	-30.000	Pitch:	-16.140	Yaw:	89.238	Thrust:	100.000
Time:	1.432	Roll Set Point:	1.070	Pitch Set Point:	1.743	Yaw Set Point:	-1.088	X_WP:	0.000	Y_WP:	0.000	Y_WP:	0.750	X:	-0.008	Y:	-1.195	Z:	0.044	yaw:	62.326	yaw rate:	1.279	Roll:	-30.000	Pitch:	-16.837	Yaw:	88.863	Thrust:	100.000
Time:	1.453	Roll Set Point:	1.070	Pitch Set Point:	1.744	Yaw Set Point:	-1.087	X_WP:	0.000	Y_WP:	0.000	Y_WP:	0.750	X:	-0.008	Y:	-1.195	Z:	0.044	yaw:	62.307	yaw rate:	1.914	Roll:	-30.000	Pitch:	-16.984	Yaw:	88.873	Thrust:	100.000
Time:	1.471	Roll Set Point:	1.070	Pitch Set Point:	1.743	Yaw Set Point:	-1.088	X_WP:	0.000	Y_WP:	0.000	Y_WP:	0.750	X:	-0.008	Y:	-1.195	Z:	0.044	yaw:	62.332	yaw rate:	-2.555	Roll:	-30.000	Pitch:	-16.190	Yaw:	89.259	Thrust:	100.000
Time:	1.491	Roll Set Point:	1.070	Pitch Set Point:	1.744	Yaw Set Point:	-1.088	X_WP:	0.000	Y_WP:	0.000	Y_WP:	0.750	X:	-0.008	Y:	-1.195	Z:	0.044	yaw:	62.317	yaw rate:	1.551	Roll:	-30.000	Pitch:	-16.864	Yaw:	88.838	Thrust:	100.000
Time:	1.511	Roll Set Point:	1.070	Pitch Set Point:	1.744	Yaw Set Point:	-1.087	X_WP:	0.000	Y_WP:	0.000	Y_WP:	0.750	X:	-0.008	Y:	-1.195	Z:	0.044	yaw:	62.285	yaw rate:	3.173	Roll:	-30.000	Pitch:	-17.229	Yaw:	88.556	Thrust:	100.000
Time:	1.533	Roll Set Point:	1.070	Pitch Set Point:	1.744	Yaw Set Point:	-1.087	X_WP:	0.000	Y_WP:	0.000	Y_WP:	0.750	X:	-0.008	Y:	-1.195	Z:	0.044	yaw:	62.282	yaw rate:	0.280	Roll:	-30.000	Pitch:	-16.731	Yaw:	88.997	Thrust:	100.000
Time:	1.553	Roll Set Point:	1.070	Pitch Set Point:	1.743	Yaw Set Point:	-1.088	X_WP:	0.000	Y_WP:	0.000	Y_WP:	0.750	X:	-0.008	Y:	-1.195	Z:	0.044	yaw:	62.344	yaw rate:	-6.204	Roll:	-30.000	Pitch:	-15.595	Yaw:	89.901	Thrust:	100.000
Time:	1.573	Roll Set Point:	1.070	Pitch Set Point:	1.744	Yaw Set Point:	-1.087	X_WP:	0.000	Y_WP:	0.000	Y_WP:	0.750	X:	-0.008	Y:	-1.195	Z:	0.044	yaw:	62.298	yaw rate:	4.629	Roll:	-30.000	Pitch:	-17.427	Yaw:	88.323	Thrust:	100.000
Time:	1.593	Roll Set Point:	1.070	Pitch Set Point:	1.744	Yaw Set Point:	-1.088	X_WP:	0.000	Y_WP:	0.000	Y_WP:	0.750	X:	-0.008	Y:	-1.195	Z:	0.044	yaw:	62.311	yaw rate:	-1.345	Roll:	-30.000	Pitch:	-16.473	Yaw:	89.182	Thrust:	100.000
Time:	1.613	Roll Set Point:	1.070	Pitch Set Point:	1.744	Yaw Set Point:	-1.088	X_WP:	0.000	Y_WP:	0.000	Y_WP:	0.750	X:	-0.008	Y:	-1.195	Z:	0.044	yaw:	62.311	yaw rate:	0.041	Roll:	-30.000	Pitch:	-16.629	Yaw:	89.006	Thrust:	100.000
Time:	1.632	Roll Set Point:	1.070	Pitch Set Point:	1.744	Yaw Set Point:	-1.088	X_WP:	0.000	Y_WP:	0.000	Y_WP:	0.750	X:	-0.008	Y:	-1.195	Z:	0.044	yaw:	62.311	yaw rate:	0.008	Roll:	-30.000	Pitch:	-16.630	Yaw:	89.010	Thrust:	100.000
Time:	1.656	Roll Set Point:	1.070	Pitch Set Point:	1.744	Yaw Set Point:	-1.088	X_WP:	0.000	Y_WP:	0.000	Y_WP:	0.750	X:	-0.008	Y:	-1.195	Z:	0.044	yaw:	62.315	yaw rate:	-0.461	Roll:	-30.000	Pitch:	-16.738	Yaw:	89.406	Thrust:	100.000
Time:	1.672	Roll Set Point:	1.070	Pitch Set Point:	1.744	Yaw Set Point:	-1.088	X_WP:	0.000	Y_WP:	0.000	Y_WP:	0.750	X:	-0.008	Y:	-1.195	Z:	0.044	yaw:	62.317	yaw rate:	-0.169	Roll:	-30.000	Pitch:	-16.458	Yaw:	88.661	Thrust:	100.000
Time:	1.692	Roll Set Point:	1.070	Pitch Set Point:	1.743	Yaw Set Point:	-1.088	X_WP:	0.000	Y_WP:	0.000	Y_WP:	0.750	X:	-0.008	Y:	-1.195	Z:	0.044	yaw:	62.323	yaw rate:	-0.592	Roll:	-30.000	Pitch:	-16.575	Yaw:	89.064	Thrust:	100.000
Time:	1.713	Roll Set Point:	1.070	Pitch Set Point:	1.744	Yaw Set Point:	-1.087	X_WP:	0.000	Y_WP:	0.000	Y_WP:	0.750	X:	-0.008	Y:	-1.195	Z:	0.044	yaw:	62.305	yaw rate:	1.818	Roll:	-30.000	Pitch:	-16.942	Yaw:	88.878	Thrust:	100.000
Time:	1.732	Roll Set Point:	1.070	Pitch Set Point:	1.743	Yaw Set Point:	-1.088	X_WP:	0.000	Y_WP:	0.000	Y_WP:	0.750	X:	-0.008	Y:	-1.195	Z:	0.044	yaw:	62.327	yaw rate:	-2.206	Roll:	-30.000	Pitch:	-16.270	Yaw:	89.185	Thrust:	100.000
Time:	1.752	Roll Set Point:	1.070	Pitch Set Point:	1.744	Yaw Set Point:	-1.087	X_WP:	0.000	Y_WP:	0.000	Y_WP:	0.750	X:	-0.008	Y:	-1.195	Z:	0.044	yaw:	62.301	yaw rate:	2.608	Roll:	-30.000	Pitch:	-17.072	Yaw:	88.784	Thrust:	100.000
Time:	1.773	Roll Set Point:	1.070	Pitch Set Point:	1.744	Yaw Set Point:	-1.087	X_WP:	0.000	Y_WP:	0.000	Y_WP:	0.750	X:	-0.008	Y:	-1.195	Z:	0.044	yaw:	62.309	yaw rate:	-0.808	Roll:	-30.000	Pitch:	-16.560	Yaw:	89.117	Thrust:	100.000
Time:	1.792	Roll Set Point:	1.070	Pitch Set Point:	1.744	Yaw Set Point:	-1.087	X_WP:	0.000	Y_WP:	0.000	Y_WP:	0.750	X:	-0.008	Y:	-1.195	Z:	0.044	yaw:	62.308	yaw rate:	0.077	Roll:	-30.000	Pitch:	-16.632	Yaw:	88.859	Thrust:	100.000
Time:	1.812	Roll Set Point:	1.070	Pitch Set Point:	1.744	Yaw Set Point:	-1.088	X_WP:	0.000	Y_WP:	0.000	Y_WP:	0.750	X:	-0.008	Y:	-1.195	Z:	0.044	yaw:	62.318	yaw rate:	-0.952	Roll:	-30.000	Pitch:	-16.533	Yaw:	89.192	Thrust:	100.000
Time:	1.832	Roll Set Point:	1.070	Pitch Set Point:	1.744	Yaw Set Point:	-1.087	X_WP:	0.000	Y_WP:	0.000	Y_WP:	0.750	X:	-0.008	Y:	-1.195	Z:	0.044	yaw:	62.302	yaw rate:	1.600	Roll:	-30.000	Pitch:	-16.901	Yaw:	88.798	Thrust:	100.000
Time:	1.854	Roll Set Point:	1.070	Pitch Set Point:	1.743	Yaw Set Point:	-1.088	X_WP:	0.000	Y_WP:	0.000	Y_WP:	0.750	X:	-0.008	Y:	-1.195	Z:	0.044	yaw:	62.323	yaw rate:	-2.085	Roll:	-30.000	Pitch:	-16.349	Yaw:	89.419	Thrust:	100.000
Time:	1.872	Roll Set Point:	1.070	Pitch Set Point:	1.744	Yaw Set Point:	-1.087	X_WP:	0.000	Y_WP:	0.000	Y_WP:	0.750	X:	-0.008	Y:	-1.195	Z:	0.044	yaw:	62.284	yaw rate:	3.852	Roll:	-30.000	Pitch:	-17.292	Yaw:	88.147	Thrust:	100.000
Time:	1.891	Roll Set Point:	1.070	Pitch Set Point:	1.744	Yaw Set Point:	-1.087	X_WP:	0.000	Y_WP:	0.000	Y_WP:	0.750	X:	-0.008	Y:	-1.195	Z:	0.044	yaw:	62.298	yaw rate:	-1.370	Roll:	-30.000	Pitch:	-16.456	Yaw:	89.174	Thrust:	100.000
Time:	1.912	Roll Set Point:	1.070	Pitch Set Point:	1.744	Yaw Set Point:	-1.087	X_WP:	0.000	Y_WP:	0.000	Y_WP:	0.750	X:	-0.008	Y:	-1.195	Z:	0.044	yaw:	62.300	yaw rate:	-0.185	Roll:	-30.000	Pitch:	-16.616	Yaw:	89.115	Thrust:	100.000
Time:	1.933	Roll Set Point:	1.070	Pitch Set Point:	1.743	Yaw Set Point:	-1.088	X_WP:	0.000	Y_WP:	0.000	Y_WP:	0.750	X:	-0.008	Y:	-1.195	Z:	0.044	yaw:	62.328	yaw rate:	-2.855	Roll:	-30.000	Pitch:	-16.236	Yaw:	89.385	Thrust:	100.000
Time:	1.952	Roll Set Point:	1.070	Pitch Set Point:	1.743	Yaw Set Point:	-1.088	X_WP:	0.000	Y_WP:	0.000	Y_WP:	0.750	X:	-0.008	Y:	-1.195	Z:	0.044	yaw:	62.328	yaw rate:	0.058	Roll:	-30.000	Pitch:	-16.646	Yaw:	89.057	Thrust:	100.000
Time:	1.973	Roll Set Point:	1.070	Pitch Set Point:	1.744	Yaw Set Point:	-1.087	X_WP:	0.000	Y_WP:	0.000	Y_WP:	0.750	X:	-0.008	Y:	-1.195	Z:	0.044	yaw:	62.296	yaw rate:	3.193	Roll:	-30.000	Pitch:	-17.167	Yaw:	88.543	Thrust:	100.000
Time:	1.993	Roll Set Point:	1.070	Pitch Set Point:	1.743	Yaw Set Point:	-1.088	X_WP:	0.000	Y_WP:	0.000	Y_WP:	0.750	X:	-0.008	Y:	-1.195	Z:	0.044	yaw:	62.321	yaw rate:	-2.539	Roll:	-30.000	Pitch:	-16.189	Yaw:	89.355	Thrust:	100.000
Time:	2.013	Roll Set Point:	1.070	Pitch Set Point:	1.744	Yaw Set Point:	-1.087	X_WP:	0.000	Y_WP:	0.000	Y_WP:	0.750	X:	-0.008	Y:	-1.195	Z:	0.044	yaw:	62.295	yaw rate:	2.559	Roll:	-30.000	Pitch:	-17.136	Yaw:	88.626	Thrust:	100.000
Time:	2.033	Roll Set Point:	1.070	Pitch Set Point:	1.744	Yaw Set Point:	-1.087	X_WP:	0.000	Y_WP:	0.000	Y_WP:	0.750	X:	-0.008	Y:	-1.195	Z:	0.044	yaw:	62.295	yaw rate:	0.034	Roll:	-30.000	Pitch:	-16.649	Yaw:	88.982	Thrust:	100.000
Time:	2.054	Roll Set Point:	1.070	Pitch Set Point:	1.744	Yaw Set Point:	-1.088	X_WP:	0.000	Y_WP:	0.000	Y_WP:	0.750	X:	-0.008	Y:	-1.195	Z:	0.044	yaw:	62.315	yaw rate:	-1.959	Roll:	-30.000	Pitch:	-16.422	Yaw:	89.432	Thrust:	100.000
Time:	2.071	Roll Set Point:	1.070	Pitch Set Point:	1.744	Yaw Set Point:	-1.088	X_WP:	0.000	Y_WP:	0.000	Y_WP:	0.750	X:	-0.008	Y:	-1.195	Z:	0.044	yaw:	62.310	yaw rate:	0.512	Roll:	-30.000	Pitch:	-16.659	Yaw:	88.576	Thrust:	100.000
Time:	2.091	Roll Set Point:	1.070	Pitch Set Point:	1.744	Yaw Set Point:	-1.088	X_WP:	0.000	Y_WP:	0.000	Y_WP:	0.750	X:	-0.008	Y:	-1.195	Z:	0.044	yaw:	62.311	yaw rate:	-0.183	Roll:	-30.000	Pitch:	-16.631	Yaw:	89.044	Thrust:	100.000
Time:	2.111	Roll Set Point:	1.070	Pitch Set Point:	1.744	Yaw Set Point:	-1.087	X_WP:	0.000	Y_WP:	0.000	Y_WP:	0.750	X:	-0.008	Y:	-1.195	Z:	0.044	yaw:	62.306	yaw rate:	0.585	Roll:	-30.000	Pitch:	-16.742	Yaw:	88.924	Thrust:	100.000
Time:	2.131	Roll Set Point:	1.070	Pitch Set Point:	1.744	Yaw Set Point:	-1.087	X_WP:	0.000	Y_WP:	0.000	Y_WP:	0.750	X:	-0.008	Y:	-1.195	Z:	0.044	yaw:	62.296	yaw rate:	0.939	Roll:	-30.000	Pitch:	-16.836	Yaw:	88.861	Thrust:	100.000
Time:	2.154	Roll Set Point:	1.070	Pitch Set Point:	1.744	Yaw Set Point:	-1.087	X_WP:	0.000	Y_WP:	0.000	Y_WP:	0.750	X:	-0.008	Y:	-1.195	Z:	0.044	yaw:	62.273	yaw rate:	2.334	Roll:	-30.000	Pitch:	-17.051	Yaw:	88.838	Thrust:	100.000
Time:	2.172	Roll Set Point:	1.070	Pitch Set Point:	1.744	Yaw Set Point:	-1.088	X_WP:	0.000	Y_WP:	0.000	Y_WP:	0.750	X:	-0.008	Y:	-1.195	Z:	0.044	yaw:	62.309	yaw rate:	-3.638	Roll:	-30.000	Pitch:	-16.107	Yaw:	89.463	Thrust:	100.000
Time:	2.193	Roll Set Point:	1.070	Pitch Set Point:	1.744	Yaw Set Point:	-1.088	X_WP:	0.000	Y_WP:	0.000	Y_WP:	0.750	X:	-0.008	Y:	-1.195	Z:	0.044	yaw:	62.320	yaw rate:	-1.112	Roll:	-30.000	Pitch:	-16.451	Yaw:	89.197	Thrust:	100.000
Time:	2.211	Roll Set Point:	1.070	Pitch Set Point:	1.744	Yaw Set Point:	-1.088	X_WP:	0.000	Y_WP:	0.000	Y_WP:	0.750	X:	-0.008	Y:	-1.195	Z:	0.044	yaw:	62.313	yaw rate:	0.757	Roll:	-30.000	Pitch:	-16.736	Yaw:	88.734	Thrust:	100.000
Time:	2.232	Roll Set Point:	1.070	Pitch Set Point:	1.744	Yaw Set Point:	-1.088	X_WP:	0.000	Y_WP:	0.000	Y_WP:	0.750	X:	-0.008	Y:	-1.195	Z:	0.044	yaw:	62.313	yaw rate:	-0.003	Roll:	-30.000	Pitch:	-16.705	Yaw:	89.003	Thrust:	100.000
Time:	2.253	Roll Set Point:	1.070	Pitch Set Point:	1.743	Yaw Set Point:	-1.088	X_WP:	0.000	Y_WP:	0.000	Y_WP:	0.750	X:	-0.008	Y:	-1.195	Z:	0.044	yaw:	62.324	yaw rate:	-1.115	Roll:	-30.000	Pitch:	-16.423	Yaw:	89.199	Thrust:	100.000
Time:	2.272	Roll Set Point:	1.070	Pitch Set Point:	1.744	Yaw Set Point:	-1.087	X_WP:	0.000	Y_WP:	0.000	Y_WP:	0.750	X:	-0.008	Y:	-1.195	Z:	0.044	yaw:	62.309	yaw rate:	1.504	Roll:	-30.000	Pitch:	-16.910	Yaw:	88.764	Thrust:	100.000
Time:	2.291	Roll Set Point:	1.070	Pitch Set Point:	1.744	Yaw Set Point:	-1.087	X_WP:	0.000	Y_WP:	0.000	Y_WP:	0.750	X:	-0.008	Y:	-1.195	Z:	0.044	yaw:	62.302	yaw rate:	0.655	Roll:	-30.000	Pitch:	-16.755	Yaw:	88.846	Thrust:	100.000
Time:	2.317	Roll Set Point:	1.070	Pitch Set Point:	1.744	Yaw Set Point:	-1.087	X_WP:	0.000	Y_WP:	0.000	Y_WP:	0.750	X:	-0.008	Y:	-1.195	Z:	0.044	yaw:	62.293	yaw rate:	0.886	Roll:	-30.000	Pitch:	-17.014	Yaw:	89.567	Thrust:	100.000
Time:	2.331	Roll Set Point:	1.070	Pitch Set Point:	1.744	Yaw Set Point:	-1.087	X_WP:	0.000	Y_WP:	0.000	Y_WP:	0.750	X:	-0.008	Y:	-1.195	Z:	0.044	yaw:	62.304	yaw rate:	-1.024	Roll:	-30.000	Pitch:	-16.129	Yaw:	88.439	Thrust:	100.000
Time:	2.351	Roll Set Point:	1.070	Pitch Set Point:	1.744	Yaw Set Point:	-1.088	X_WP:	0.000	Y_WP:	0.000	Y_WP:	0.750	X:	-0.008	Y:	-1.195	Z:	0.044	yaw:	62.318	yaw rate:	-1.432	Roll:	-30.000	Pitch:	-16.464	Yaw:	89.299	Thrust:	100.000
Time:	2.372	Roll Set Point:	1.070	Pitch Set Point:	1.743	Yaw Set Point:	-1.088	X_WP:	0.000	Y_WP:	0.000	Y_WP:	0.750	X:	-0.008	Y:	-1.195	Z:	0.044	yaw:	62.345	yaw rate:	-2.659	Roll:	-30.000	Pitch:	-16.212	Yaw:	89.468	Thrust:	100.000
Time:	2.392	Roll Set Point:	1.070	Pitch Set Point:	1.743	Yaw Set Point:	-1.088	X_WP:	0.000	Y_WP:	0.000	Y_WP:	0.750	X:	-0.008	Y:	-1.195	Z:	0.044	yaw:	62.327	yaw rate:	1.800	Roll:	-30.000	Pitch:	-16.956	Yaw:	88.760	Thrust:	100.000
Time:	2.412	Roll Set Point:	1.070	Pitch Set Point:	1.743	Yaw Set Point:	-1.088	X_WP:	0.000	Y_WP:	0.000	Y_WP:	0.750	X:	-0.008	Y:	-1.195	Z:	0.044	yaw:	62.342	yaw rate:	-1.529	Roll:	-30.000	Pitch:	-16.364	Yaw:	89.300	Thrust:	100.000
Time:	2.430	Roll Set Point:	1.070	Pitch Set Point:	1.743	Yaw Set Point:	-1.088	X_WP:	0.000	Y_WP:	0.000	Y_WP:	0.750	X:	-0.008	Y:	-1.195	Z:	0.044	yaw:	62.322	yaw rate:	1.977	Roll:	-30.000	Pitch:	-16.935	Yaw:	88.540	Thrust:	100.000
Time:	2.452	Roll Set Point:	1.070	Pitch Set Point:	1.743	Yaw Set Point:	-1.088	X_WP:	0.000	Y_WP:	0.000	Y_WP:	0.750	X:	-0.008	Y:	-1.195	Z:	0.044	yaw:	62.324	yaw rate:	-0.234	Roll:	-30.000	Pitch:	-16.689	Yaw:	89.216	Thrust:	100.000
Time:	2.471	Roll Set Point:	1.070	Pitch Set Point:	1.744	Yaw Set Point:	-1.088	X_WP:	0.000	Y_WP:	0.000	Y_WP:	0.750	X:	-0.008	Y:	-1.195	Z:	0.044	yaw:	62.316	yaw rate:	0.873	Roll:	-30.000	Pitch:	-16.748	Yaw:	88.802	Thrust:	100.000
Time:	2.491	Roll Set Point:	1.070	Pitch Set Point:	1.744	Yaw Set Point:	-1.087	X_WP:	0.000	Y_WP:	0.000	Y_WP:	0.750	X:	-0.008	Y:	-1.195	Z:	0.044	yaw:	62.304	yaw rate:	1.136	Roll:	-30.000	Pitch:	-16.844	Yaw:	88.840	Thrust:	100.000
Time:	2.511	Roll Set Point:	1.070	Pitch Set Point:	1.744	Yaw Set Point:	-1.088	X_WP:	0.000	Y_WP:	0.000	Y_WP:	0.750	X:	-0.008	Y:	-1.195	Z:	0.044	yaw:	62.310	yaw rate:	-0.549	Roll:	-30.000	Pitch:	-16.531	Yaw:	89.078	Thrust:	100.000
Time:	2.531	Roll Set Point:	1.069	Pitch Set Point:	1.745	Yaw Set Point:	-1.087	X_WP:	0.000	Y_WP:	0.000	Y_WP:	0.750	X:	-0.008	Y:	-1.195	Z:	0.044	yaw:	62.252	yaw rate:	5.775	Roll:	-30.000	Pitch:	-17.625	Yaw:	88.132	Thrust:	100.000
Time:	2.551	Roll Set Point:	1.070	Pitch Set Point:	1.744	Yaw Set Point:	-1.087	X_WP:	0.000	Y_WP:	0.000	Y_WP:	0.750	X:	-0.008	Y:	-1.195	Z:	0.044	yaw:	62.309	yaw rate:	-5.683	Roll:	-30.000	Pitch:	-15.761	Yaw:	89.787	Thrust:	100.000
Time:	2.573	Roll Set Point:	1.070	Pitch Set Point:	1.743	Yaw Set Point:	-1.088	X_WP:	0.000	Y_WP:	0.000	Y_WP:	0.750	X:	-0.008	Y:	-1.195	Z:	0.044	yaw:	62.329	yaw rate:	-2.001	Roll:	-30.000	Pitch:	-16.367	Yaw:	89.435	Thrust:	100.000
Time:	2.592	Roll Set Point:	1.070	Pitch Set Point:	1.744	Yaw Set Point:	-1.087	X_WP:	0.000	Y_WP:	0.000	Y_WP:	0.750	X:	-0.008	Y:	-1.195	Z:	0.044	yaw:	62.295	yaw rate:	3.357	Roll:	-30.000	Pitch:	-17.220	Yaw:	88.482	Thrust:	100.000
Time:	2.613	Roll Set Point:	1.070	Pitch Set Point:	1.744	Yaw Set Point:	-1.087	X_WP:	0.000	Y_WP:	0.000	Y_WP:	0.750	X:	-0.008	Y:	-1.195	Z:	0.044	yaw:	62.304	yaw rate:	-0.885	Roll:	-30.000	Pitch:	-16.504	Yaw:	89.123	Thrust:	100.000
Time:	2.631	Roll Set Point:	1.070	Pitch Set Point:	1.744	Yaw Set Point:	-1.088	X_WP:	0.000	Y_WP:	0.000	Y_WP:	0.750	X:	-0.008	Y:	-1.195	Z:	0.044	yaw:	62.310	yaw rate:	-0.582	Roll:	-30.000	Pitch:	-16.520	Yaw:	88.942	Thrust:	100.000
Time:	2.654	Roll Set Point:	1.070	Pitch Set Point:	1.744	Yaw Set Point:	-1.088	X_WP:	0.000	Y_WP:	0.000	Y_WP:	0.750	X:	-0.008	Y:	-1.195	Z:	0.044	yaw:	62.316	yaw rate:	-0.598	Roll:	-30.000	Pitch:	-16.625	Yaw:	89.288	Thrust:	100.000
Time:	2.672	Roll Set Point:	1.070	Pitch Set Point:	1.744	Yaw Set Point:	-1.087	X_WP:	0.000	Y_WP:	0.000	Y_WP:	0.750	X:	-0.008	Y:	-1.195	Z:	0.044	yaw:	62.299	yaw rate:	1.725	Roll:	-30.000	Pitch:	-16.916	Yaw:	88.579	Thrust:	100.000
Time:	2.692	Roll Set Point:	1.070	Pitch Set Point:	1.743	Yaw Set Point:	-1.088	X_WP:	0.000	Y_WP:	0.000	Y_WP:	0.750	X:	-0.008	Y:	-1.195	Z:	0.044	yaw:	62.329	yaw rate:	-3.043	Roll:	-30.000	Pitch:	-16.177	Yaw:	89.422	Thrust:	100.000
Time:	2.712	Roll Set Point:	1.070	Pitch Set Point:	1.743	Yaw Set Point:	-1.088	X_WP:	0.000	Y_WP:	0.000	Y_WP:	0.750	X:	-0.008	Y:	-1.195	Z:	0.044	yaw:	62.339	yaw rate:	-1.013	Roll:	-30.000	Pitch:	-16.441	Yaw:	89.184	Thrust:	100.000
Time:	2.732	Roll Set Point:	1.070	Pitch Set Point:	1.744	Yaw Set Point:	-1.087	X_WP:	0.000	Y_WP:	0.000	Y_WP:	0.750	X:	-0.008	Y:	-1.195	Z:	0.044	yaw:	62.285	yaw rate:	5.411	Roll:	-30.000	Pitch:	-17.513	Yaw:	88.302	Thrust:	100.000
Time:	2.752	Roll Set Point:	1.070	Pitch Set Point:	1.743	Yaw Set Point:	-1.088	X_WP:	0.000	Y_WP:	0.000	Y_WP:	0.750	X:	-0.008	Y:	-1.195	Z:	0.044	yaw:	62.329	yaw rate:	-4.330	Roll:	-30.000	Pitch:	-15.882	Yaw:	89.590	Thrust:	100.000
Time:	2.772	Roll Set Point:	1.070	Pitch Set Point:	1.744	Yaw Set Point:	-1.088	X_WP:	0.000	Y_WP:	0.000	Y_WP:	0.750	X:	-0.008	Y:	-1.195	Z:	0.044	yaw:	62.311	yaw rate:	1.749	Roll:	-30.000	Pitch:	-16.935	Yaw:	88.739	Thrust:	100.000
Time:	2.793	Roll Set Point:	1.070	Pitch Set Point:	1.744	Yaw Set Point:	-1.087	X_WP:	0.000	Y_WP:	0.000	Y_WP:	0.750	X:	-0.008	Y:	-1.195	Z:	0.044	yaw:	62.287	yaw rate:	2.432	Roll:	-30.000	Pitch:	-17.088	Yaw:	88.804	Thrust:	100.000
Time:	2.813	Roll Set Point:	1.070	Pitch Set Point:	1.744	Yaw Set Point:	-1.088	X_WP:	0.000	Y_WP:	0.000	Y_WP:	0.750	X:	-0.008	Y:	-1.195	Z:	0.044	yaw:	62.313	yaw rate:	-2.635	Roll:	-30.000	Pitch:	-16.260	Yaw:	89.329	Thrust:	100.000
Time:	2.833	Roll Set Point:	1.070	Pitch Set Point:	1.744	Yaw Set Point:	-1.087	X_WP:	0.000	Y_WP:	0.000	Y_WP:	0.750	X:	-0.008	Y:	-1.195	Z:	0.044	yaw:	62.308	yaw rate:	0.547	Roll:	-30.000	Pitch:	-16.725	Yaw:	88.988	Thrust:	100.000
Time:	2.854	Roll Set Point:	1.070	Pitch Set Point:	1.744	Yaw Set Point:	-1.087	X_WP:	0.000	Y_WP:	0.000	Y_WP:	0.750	X:	-0.008	Y:	-1.195	Z:	0.044	yaw:	62.302	yaw rate:	0.529	Roll:	-30.000	Pitch:	-16.753	Yaw:	89.009	Thrust:	100.000
Time:	2.871	Roll Set Point:	1.070	Pitch Set Point:	1.744	Yaw Set Point:	-1.087	X_WP:	0.000	Y_WP:	0.000	Y_WP:	0.750	X:	-0.008	Y:	-1.195	Z:	0.044	yaw:	62.309	yaw rate:	-0.672	Roll:	-30.000	Pitch:	-16.457	Yaw:	88.826	Thrust:	100.000
Time:	2.892	Roll Set Point:	1.070	Pitch Set Point:	1.744	Yaw Set Point:	-1.087	X_WP:	0.000	Y_WP:	0.000	Y_WP:	0.750	X:	-0.008	Y:	-1.195	Z:	0.044	yaw:	62.305	yaw rate:	0.369	Roll:	-30.000	Pitch:	-16.738	Yaw:	88.988	Thrust:	100.000
Time:	2.912	Roll Set Point:	1.069	Pitch Set Point:	1.745	Yaw Set Point:	-1.087	X_WP:	0.000	Y_WP:	0.000	Y_WP:	0.750	X:	-0.008	Y:	-1.195	Z:	0.044	yaw:	62.267	yaw rate:	3.795	Roll:	-30.000	Pitch:	-17.266	Yaw:	88.458	Thrust:	100.000
Time:	2.932	Roll Set Point:	1.070	Pitch Set Point:	1.744	Yaw Set Point:	-1.087	X_WP:	0.000	Y_WP:	0.000	Y_WP:	0.750	X:	-0.008	Y:	-1.195	Z:	0.044	yaw:	62.306	yaw rate:	-3.888	Roll:	-30.000	Pitch:	-16.045	Yaw:	89.451	Thrust:	100.000
Time:	2.952	Roll Set Point:	1.070	Pitch Set Point:	1.744	Yaw Set Point:	-1.087	X_WP:	0.000	Y_WP:	0.000	Y_WP:	0.750	X:	-0.008	Y:	-1.195	Z:	0.044	yaw:	62.295	yaw rate:	1.158	Roll:	-30.000	Pitch:	-16.901	Yaw:	88.904	Thrust:	100.000
Time:	2.972	Roll Set Point:	1.070	Pitch Set Point:	1.744	Yaw Set Point:	-1.088	X_WP:	0.000	Y_WP:	0.000	Y_WP:	0.750	X:	-0.008	Y:	-1.195	Z:	0.044	yaw:	62.309	yaw rate:	-1.463	Roll:	-30.000	Pitch:	-16.385	Yaw:	89.169	Thrust:	100.000
Time:	2.992	Roll Set Point:	1.070	Pitch Set Point:	1.744	Yaw Set Point:	-1.087	X_WP:	0.000	Y_WP:	0.000	Y_WP:	0.750	X:	-0.008	Y:	-1.195	Z:	0.044	yaw:	62.290	yaw rate:	1.924	Roll:	-30.000	Pitch:	-16.939	Yaw:	88.806	Thrust:	100.000
Time:	3.013	Roll Set Point:	1.070	Pitch Set Point:	1.744	Yaw Set Point:	-1.088	X_WP:	0.000	Y_WP:	0.000	Y_WP:	0.750	X:	-0.008	Y:	-1.195	Z:	0.044	yaw:	62.311	yaw rate:	-2.100	Roll:	-30.000	Pitch:	-16.404	Yaw:	89.313	Thrust:	100.000
Time:	3.033	Roll Set Point:	1.070	Pitch Set Point:	1.743	Yaw Set Point:	-1.088	X_WP:	0.000	Y_WP:	0.000	Y_WP:	0.750	X:	-0.008	Y:	-1.195	Z:	0.044	yaw:	62.326	yaw rate:	-1.487	Roll:	-30.000	Pitch:	-16.398	Yaw:	89.142	Thrust:	100.000
Time:	3.054	Roll Set Point:	1.070	Pitch Set Point:	1.744	Yaw Set Point:	-1.087	X_WP:	0.000	Y_WP:	0.000	Y_WP:	0.750	X:	-0.008	Y:	-1.195	Z:	0.044	yaw:	62.288	yaw rate:	3.781	Roll:	-30.000	Pitch:	-17.279	Yaw:	88.779	Thrust:	100.000
Time:	3.072	Roll Set Point:	1.070	Pitch Set Point:	1.744	Yaw Set Point:	-1.087	X_WP:	0.000	Y_WP:	0.000	Y_WP:	0.750	X:	-0.008	Y:	-1.195	Z:	0.044	yaw:	62.305	yaw rate:	-1.674	Roll:	-30.000	Pitch:	-16.233	Yaw:	88.926	Thrust:	100.000
Time:	3.091	Roll Set Point:	1.070	Pitch Set Point:	1.744	Yaw Set Point:	-1.088	X_WP:	0.000	Y_WP:	0.000	Y_WP:	0.750	X:	-0.008	Y:	-1.195	Z:	0.044	yaw:	62.311	yaw rate:	-0.620	Roll:	-30.000	Pitch:	-16.566	Yaw:	89.066	Thrust:	100.000
Time:	3.112	Roll Set Point:	1.070	Pitch Set Point:	1.744	Yaw Set Point:	-1.088	X_WP:	0.000	Y_WP:	0.000	Y_WP:	0.750	X:	-0.008	Y:	-1.195	Z:	0.044	yaw:	62.317	yaw rate:	-0.631	Roll:	-30.000	Pitch:	-16.536	Yaw:	89.099	Thrust:	100.000
Time:	3.131	Roll Set Point:	1.070	Pitch Set Point:	1.744	Yaw Set Point:	-1.087	X_WP:	0.000	Y_WP:	0.000	Y_WP:	0.750	X:	-0.008	Y:	-1.195	Z:	0.044	yaw:	62.299	yaw rate:	1.825	Roll:	-30.000	Pitch:	-16.951	Yaw:	88.706	Thrust:	100.000
Time:	3.151	Roll Set Point:	1.070	Pitch Set Point:	1.744	Yaw Set Point:	-1.087	X_WP:	0.000	Y_WP:	0.000	Y_WP:	0.750	X:	-0.008	Y:	-1.195	Z:	0.044	yaw:	62.300	yaw rate:	-0.048	Roll:	-30.000	Pitch:	-16.675	Yaw:	89.053	Thrust:	100.000
Time:	3.172	Roll Set Point:	1.070	Pitch Set Point:	1.744	Yaw Set Point:	-1.088	X_WP:	0.000	Y_WP:	0.000	Y_WP:	0.750	X:	-0.008	Y:	-1.195	Z:	0.044	yaw:	62.314	yaw rate:	-1.473	Roll:	-30.000	Pitch:	-16.394	Yaw:	89.254	Thrust:	100.000
Time:	3.192	Roll Set Point:	1.070	Pitch Set Point:	1.744	Yaw Set Point:	-1.087	X_WP:	0.000	Y_WP:	0.000	Y_WP:	0.750	X:	-0.008	Y:	-1.195	Z:	0.044	yaw:	62.302	yaw rate:	1.216	Roll:	-30.000	Pitch:	-16.848	Yaw:	88.795	Thrust:	100.000
Time:	3.212	Roll Set Point:	1.070	Pitch Set Point:	1.744	Yaw Set Point:	-1.087	X_WP:	0.000	Y_WP:	0.000	Y_WP:	0.750	X:	-0.008	Y:	-1.195	Z:	0.044	yaw:	62.305	yaw rate:	-0.271	Roll:	-30.000	Pitch:	-16.650	Yaw:	89.054	Thrust:	100.000
Time:	3.231	Roll Set Point:	1.070	Pitch Set Point:	1.744	Yaw Set Point:	-1.087	X_WP:	0.000	Y_WP:	0.000	Y_WP:	0.750	X:	-0.008	Y:	-1.195	Z:	0.044	yaw:	62.304	yaw rate:	0.119	Roll:	-30.000	Pitch:	-16.661	Yaw:	88.903	Thrust:	100.000
Time:	3.253	Roll Set Point:	1.070	Pitch Set Point:	1.744	Yaw Set Point:	-1.087	X_WP:	0.000	Y_WP:	0.000	Y_WP:	0.750	X:	-0.008	Y:	-1.195	Z:	0.044	yaw:	62.285	yaw rate:	1.873	Roll:	-30.000	Pitch:	-16.993	Yaw:	88.914	Thrust:	100.000
Time:	3.271	Roll Set Point:	1.070	Pitch Set Point:	1.744	Yaw Set Point:	-1.087	X_WP:	0.000	Y_WP:	0.000	Y_WP:	0.750	X:	-0.008	Y:	-1.195	Z:	0.044	yaw:	62.309	yaw rate:	-2.386	Roll:	-30.000	Pitch:	-16.211	Yaw:	89.197	Thrust:	100.000
Time:	3.291	Roll Set Point:	1.070	Pitch Set Point:	1.743	Yaw Set Point:	-1.088	X_WP:	0.000	Y_WP:	0.000	Y_WP:	0.750	X:	-0.008	Y:	-1.195	Z:	0.044	yaw:	62.321	yaw rate:	-1.219	Roll:	-30.000	Pitch:	-16.405	Yaw:	89.136	Thrust:	100.000
Time:	3.310	Roll Set Point:	1.070	Pitch Set Point:	1.743	Yaw Set Point:	-1.088	X_WP:	0.000	Y_WP:	0.000	Y_WP:	0.750	X:	-0.008	Y:	-1.195	Z:	0.044	yaw:	62.325	yaw rate:	-0.404	Roll:	-30.000	Pitch:	-16.593	Yaw:	88.983	Thrust:	100.000
Time:	3.331	Roll Set Point:	1.070	Pitch Set Point:	1.744	Yaw Set Point:	-1.087	X_WP:	0.000	Y_WP:	0.000	Y_WP:	0.750	X:	-0.008	Y:	-1.195	Z:	0.044	yaw:	62.304	yaw rate:	2.108	Roll:	-30.000	Pitch:	-16.989	Yaw:	88.859	Thrust:	100.000
Time:	3.352	Roll Set Point:	1.070	Pitch Set Point:	1.744	Yaw Set Point:	-1.087	X_WP:	0.000	Y_WP:	0.000	Y_WP:	0.750	X:	-0.008	Y:	-1.195	Z:	0.044	yaw:	62.302	yaw rate:	0.233	Roll:	-30.000	Pitch:	-16.749	Yaw:	88.947	Thrust:	100.000
Time:	3.371	Roll Set Point:	1.070	Pitch Set Point:	1.744	Yaw Set Point:	-1.088	X_WP:	0.000	Y_WP:	0.000	Y_WP:	0.750	X:	-0.008	Y:	-1.195	Z:	0.044	yaw:	62.316	yaw rate:	-1.419	Roll:	-30.000	Pitch:	-16.379	Yaw:	89.189	Thrust:	100.000
Time:	3.391	Roll Set Point:	1.070	Pitch Set Point:	1.744	Yaw Set Point:	-1.087	X_WP:	0.000	Y_WP:	0.000	Y_WP:	0.750	X:	-0.008	Y:	-1.195	Z:	0.044	yaw:	62.291	yaw rate:	2.454	Roll:	-30.000	Pitch:	-17.081	Yaw:	88.703	Thrust:	100.000
Time:	3.412	Roll Set Point:	1.070	Pitch Set Point:	1.744	Yaw Set Point:	-1.087	X_WP:	0.000	Y_WP:	0.000	Y_WP:	0.750	X:	-0.008	Y:	-1.195	Z:	0.044	yaw:	62.308	yaw rate:	-1.647	Roll:	-30.000	Pitch:	-16.427	Yaw:	89.237	Thrust:	100.000
Time:	3.432	Roll Set Point:	1.070	Pitch Set Point:	1.744	Yaw Set Point:	-1.087	X_WP:	0.000	Y_WP:	0.000	Y_WP:	0.750	X:	-0.008	Y:	-1.195	Z:	0.044	yaw:	62.308	yaw rate:	-0.009	Roll:	-30.000	Pitch:	-16.646	Yaw:	89.037	Thrust:	100.000
Time:	3.453	Roll Set Point:	1.070	Pitch Set Point:	1.744	Yaw Set Point:	-1.087	X_WP:	0.000	Y_WP:	0.000	Y_WP:	0.750	X:	-0.008	Y:	-1.195	Z:	0.044	yaw:	62.290	yaw rate:	1.813	Roll:	-30.000	Pitch:	-16.963	Yaw:	88.870	Thrust:	100.000
Time:	3.471	Roll Set Point:	1.070	Pitch Set Point:	1.744	Yaw Set Point:	-1.087	X_WP:	0.000	Y_WP:	0.000	Y_WP:	0.750	X:	-0.008	Y:	-1.195	Z:	0.044	yaw:	62.299	yaw rate:	-0.896	Roll:	-30.000	Pitch:	-16.497	Yaw:	88.882	Thrust:	100.000
Time:	3.490	Roll Set Point:	1.070	Pitch Set Point:	1.744	Yaw Set Point:	-1.088	X_WP:	0.000	Y_WP:	0.000	Y_WP:	0.750	X:	-0.008	Y:	-1.195	Z:	0.044	yaw:	62.310	yaw rate:	-1.138	Roll:	-30.000	Pitch:	-16.436	Yaw:	89.086	Thrust:	100.000
Time:	3.510	Roll Set Point:	1.070	Pitch Set Point:	1.744	Yaw Set Point:	-1.088	X_WP:	0.000	Y_WP:	0.000	Y_WP:	0.750	X:	-0.008	Y:	-1.195	Z:	0.044	yaw:	62.311	yaw rate:	-0.115	Roll:	-30.000	Pitch:	-16.648	Yaw:	89.023	Thrust:	100.000
Time:	3.531	Roll Set Point:	1.070	Pitch Set Point:	1.744	Yaw Set Point:	-1.088	X_WP:	0.000	Y_WP:	0.000	Y_WP:	0.750	X:	-0.008	Y:	-1.195	Z:	0.044	yaw:	62.320	yaw rate:	-0.895	Roll:	-30.000	Pitch:	-16.516	Yaw:	89.196	Thrust:	100.000
Time:	3.551	Roll Set Point:	1.070	Pitch Set Point:	1.744	Yaw Set Point:	-1.087	X_WP:	0.000	Y_WP:	0.000	Y_WP:	0.750	X:	-0.008	Y:	-1.195	Z:	0.044	yaw:	62.304	yaw rate:	1.572	Roll:	-30.000	Pitch:	-16.916	Yaw:	88.764	Thrust:	100.000
Time:	3.571	Roll Set Point:	1.070	Pitch Set Point:	1.744	Yaw Set Point:	-1.088	X_WP:	0.000	Y_WP:	0.000	Y_WP:	0.750	X:	-0.008	Y:	-1.195	Z:	0.044	yaw:	62.316	yaw rate:	-1.151	Roll:	-30.000	Pitch:	-16.452	Yaw:	89.133	Thrust:	100.000
Time:	3.590	Roll Set Point:	1.070	Pitch Set Point:	1.744	Yaw Set Point:	-1.087	X_WP:	0.000	Y_WP:	0.000	Y_WP:	0.750	X:	-0.008	Y:	-1.195	Z:	0.044	yaw:	62.305	yaw rate:	1.112	Roll:	-30.000	Pitch:	-16.820	Yaw:	88.813	Thrust:	100.000
Time:	3.612	Roll Set Point:	1.070	Pitch Set Point:	1.744	Yaw Set Point:	-1.087	X_WP:	0.000	Y_WP:	0.000	Y_WP:	0.750	X:	-0.008	Y:	-1.195	Z:	0.044	yaw:	62.305	yaw rate:	0.010	Roll:	-30.000	Pitch:	-16.703	Yaw:	89.077	Thrust:	100.000
Time:	3.632	Roll Set Point:	1.070	Pitch Set Point:	1.744	Yaw Set Point:	-1.088	X_WP:	0.000	Y_WP:	0.000	Y_WP:	0.750	X:	-0.008	Y:	-1.195	Z:	0.044	yaw:	62.316	yaw rate:	-1.152	Roll:	-30.000	Pitch:	-16.444	Yaw:	89.245	Thrust:	100.000
Time:	3.654	Roll Set Point:	1.070	Pitch Set Point:	1.744	Yaw Set Point:	-1.087	X_WP:	0.000	Y_WP:	0.000	Y_WP:	0.750	X:	-0.008	Y:	-1.195	Z:	0.044	yaw:	62.307	yaw rate:	0.931	Roll:	-30.000	Pitch:	-16.907	Yaw:	89.069	Thrust:	100.000
Time:	3.672	Roll Set Point:	1.070	Pitch Set Point:	1.744	Yaw Set Point:	-1.087	X_WP:	0.000	Y_WP:	0.000	Y_WP:	0.750	X:	-0.008	Y:	-1.195	Z:	0.044	yaw:	62.307	yaw rate:	0.005	Roll:	-30.000	Pitch:	-16.588	Yaw:	88.803	Thrust:	100.000
Time:	3.691	Roll Set Point:	1.070	Pitch Set Point:	1.744	Yaw Set Point:	-1.087	X_WP:	0.000	Y_WP:	0.000	Y_WP:	0.750	X:	-0.008	Y:	-1.195	Z:	0.044	yaw:	62.308	yaw rate:	-0.140	Roll:	-30.000	Pitch:	-16.590	Yaw:	88.918	Thrust:	100.000
Time:	3.712	Roll Set Point:	1.070	Pitch Set Point:	1.743	Yaw Set Point:	-1.088	X_WP:	0.000	Y_WP:	0.000	Y_WP:	0.750	X:	-0.008	Y:	-1.195	Z:	0.044	yaw:	62.339	yaw rate:	-3.095	Roll:	-30.000	Pitch:	-16.139	Yaw:	89.455	Thrust:	100.000
Time:	3.732	Roll Set Point:	1.070	Pitch Set Point:	1.744	Yaw Set Point:	-1.088	X_WP:	0.000	Y_WP:	0.000	Y_WP:	0.750	X:	-0.008	Y:	-1.195	Z:	0.044	yaw:	62.322	yaw rate:	1.760	Roll:	-30.000	Pitch:	-16.957	Yaw:	88.920	Thrust:	100.000
Time:	3.752	Roll Set Point:	1.070	Pitch Set Point:	1.743	Yaw Set Point:	-1.088	X_WP:	0.000	Y_WP:	0.000	Y_WP:	0.750	X:	-0.008	Y:	-1.195	Z:	0.044	yaw:	62.343	yaw rate:	-2.091	Roll:	-30.000	Pitch:	-16.255	Yaw:	89.205	Thrust:	100.000
Time:	3.772	Roll Set Point:	1.070	Pitch Set Point:	1.743	Yaw Set Point:	-1.088	X_WP:	0.000	Y_WP:	0.000	Y_WP:	0.750	X:	-0.008	Y:	-1.195	Z:	0.044	yaw:	62.328	yaw rate:	1.504	Roll:	-30.000	Pitch:	-16.907	Yaw:	88.899	Thrust:	100.000
Time:	3.791	Roll Set Point:	1.070	Pitch Set Point:	1.744	Yaw Set Point:	-1.087	X_WP:	0.000	Y_WP:	0.000	Y_WP:	0.750	X:	-0.008	Y:	-1.195	Z:	0.044	yaw:	62.286	yaw rate:	4.158	Roll:	-30.000	Pitch:	-17.346	Yaw:	88.399	Thrust:	100.000
Time:	3.812	Roll Set Point:	1.070	Pitch Set Point:	1.744	Yaw Set Point:	-1.087	X_WP:	0.000	Y_WP:	0.000	Y_WP:	0.750	X:	-0.008	Y:	-1.195	Z:	0.044	yaw:	62.290	yaw rate:	-0.426	Roll:	-30.000	Pitch:	-16.600	Yaw:	89.071	Thrust:	100.000
Time:	3.832	Roll Set Point:	1.070	Pitch Set Point:	1.743	Yaw Set Point:	-1.088	X_WP:	0.000	Y_WP:	0.000	Y_WP:	0.750	X:	-0.008	Y:	-1.195	Z:	0.044	yaw:	62.325	yaw rate:	-3.443	Roll:	-30.000	Pitch:	-16.080	Yaw:	89.501	Thrust:	100.000
Time:	3.853	Roll Set Point:	1.070	Pitch Set Point:	1.744	Yaw Set Point:	-1.088	X_WP:	0.000	Y_WP:	0.000	Y_WP:	0.750	X:	-0.008	Y:	-1.195	Z:	0.044	yaw:	62.310	yaw rate:	1.437	Roll:	-30.000	Pitch:	-16.887	Yaw:	88.887	Thrust:	100.000
Time:	3.872	Roll Set Point:	1.070	Pitch Set Point:	1.744	Yaw Set Point:	-1.087	X_WP:	0.000	Y_WP:	0.000	Y_WP:	0.750	X:	-0.008	Y:	-1.195	Z:	0.044	yaw:	62.306	yaw rate:	0.465	Roll:	-30.000	Pitch:	-16.745	Yaw:	88.838	Thrust:	100.000
Time:	3.892	Roll Set Point:	1.070	Pitch Set Point:	1.743	Yaw Set Point:	-1.088	X_WP:	0.000	Y_WP:	0.000	Y_WP:	0.750	X:	-0.008	Y:	-1.195	Z:	0.044	yaw:	62.324	yaw rate:	-1.840	Roll:	-30.000	Pitch:	-16.297	Yaw:	89.249	Thrust:	100.000
Time:	3.912	Roll Set Point:	1.070	Pitch Set Point:	1.744	Yaw Set Point:	-1.088	X_WP:	0.000	Y_WP:	0.000	Y_WP:	0.750	X:	-0.008	Y:	-1.195	Z:	0.044	yaw:	62.311	yaw rate:	1.327	Roll:	-30.000	Pitch:	-16.892	Yaw:	88.838	Thrust:	100.000
Time:	3.931	Roll Set Point:	1.070	Pitch Set Point:	1.743	Yaw Set Point:	-1.088	X_WP:	0.000	Y_WP:	0.000	Y_WP:	0.750	X:	-0.008	Y:	-1.195	Z:	0.044	yaw:	62.326	yaw rate:	-1.521	Roll:	-30.000	Pitch:	-16.417	Yaw:	89.195	Thrust:	100.000
Time:	3.952	Roll Set Point:	1.070	Pitch Set Point:	1.744	Yaw Set Point:	-1.087	X_WP:	0.000	Y_WP:	0.000	Y_WP:	0.750	X:	-0.008	Y:	-1.195	Z:	0.044	yaw:	62.304	yaw rate:	2.154	Roll:	-30.000	Pitch:	-17.026	Yaw:	88.824	Thrust:	100.000
Time:	3.972	Roll Set Point:	1.070	Pitch Set Point:	1.743	Yaw Set Point:	-1.088	X_WP:	0.000	Y_WP:	0.000	Y_WP:	0.750	X:	-0.008	Y:	-1.195	Z:	0.044	yaw:	62.330	yaw rate:	-2.543	Roll:	-30.000	Pitch:	-16.186	Yaw:	89.299	Thrust:	100.000
Time:	3.991	Roll Set Point:	1.070	Pitch Set Point:	1.744	Yaw Set Point:	-1.088	X_WP:	0.000	Y_WP:	0.000	Y_WP:	0.750	X:	-0.008	Y:	-1.195	Z:	0.044	yaw:	62.314	yaw rate:	1.635	Roll:	-30.000	Pitch:	-16.940	Yaw:	88.749	Thrust:	100.000
Time:	4.011	Roll Set Point:	1.070	Pitch Set Point:	1.744	Yaw Set Point:	-1.087	X_WP:	0.000	Y_WP:	0.000	Y_WP:	0.750	X:	-0.008	Y:	-1.195	Z:	0.044	yaw:	62.274	yaw rate:	3.966	Roll:	-30.000	Pitch:	-17.319	Yaw:	88.453	Thrust:	100.000
Time:	4.031	Roll Set Point:	1.070	Pitch Set Point:	1.744	Yaw Set Point:	-1.088	X_WP:	0.000	Y_WP:	0.000	Y_WP:	0.750	X:	-0.008	Y:	-1.195	Z:	0.044	yaw:	62.323	yaw rate:	-4.906	Roll:	-30.000	Pitch:	-15.856	Yaw:	89.643	Thrust:	100.000
Time:	4.053	Roll Set Point:	1.070	Pitch Set Point:	1.744	Yaw Set Point:	-1.088	X_WP:	0.000	Y_WP:	0.000	Y_WP:	0.750	X:	-0.008	Y:	-1.195	Z:	0.044	yaw:	62.318	yaw rate:	0.455	Roll:	-30.000	Pitch:	-16.729	Yaw:	89.115	Thrust:	100.000
Time:	4.072	Roll Set Point:	1.070	Pitch Set Point:	1.744	Yaw Set Point:	-1.087	X_WP:	0.000	Y_WP:	0.000	Y_WP:	0.750	X:	-0.008	Y:	-1.195	Z:	0.044	yaw:	62.305	yaw rate:	1.361	Roll:	-30.000	Pitch:	-16.848	Yaw:	88.658	Thrust:	100.000
Time:	4.092	Roll Set Point:	1.070	Pitch Set Point:	1.744	Yaw Set Point:	-1.087	X_WP:	0.000	Y_WP:	0.000	Y_WP:	0.750	X:	-0.008	Y:	-1.195	Z:	0.044	yaw:	62.307	yaw rate:	-0.211	Roll:	-30.000	Pitch:	-16.635	Yaw:	89.002	Thrust:	100.000
Time:	4.111	Roll Set Point:	1.070	Pitch Set Point:	1.744	Yaw Set Point:	-1.087	X_WP:	0.000	Y_WP:	0.000	Y_WP:	0.750	X:	-0.008	Y:	-1.195	Z:	0.044	yaw:	62.298	yaw rate:	0.843	Roll:	-30.000	Pitch:	-16.765	Yaw:	88.884	Thrust:	100.000
Time:	4.140	Roll Set Point:	1.070	Pitch Set Point:	1.744	Yaw Set Point:	-1.087	X_WP:	0.000	Y_WP:	0.000	Y_WP:	0.750	X:	-0.008	Y:	-1.195	Z:	0.044	yaw:	62.300	yaw rate:	-0.158	Roll:	-30.000	Pitch:	-17.022	Yaw:	89.910	Thrust:	100.000
Time:	4.151	Roll Set Point:	1.070	Pitch Set Point:	1.744	Yaw Set Point:	-1.088	X_WP:	0.000	Y_WP:	0.000	Y_WP:	0.750	X:	-0.008	Y:	-1.195	Z:	0.044	yaw:	62.311	yaw rate:	-1.084	Roll:	-30.000	Pitch:	-15.959	Yaw:	88.325	Thrust:	100.000
Time:	4.171	Roll Set Point:	1.070	Pitch Set Point:	1.744	Yaw Set Point:	-1.087	X_WP:	0.000	Y_WP:	0.000	Y_WP:	0.750	X:	-0.008	Y:	-1.195	Z:	0.044	yaw:	62.292	yaw rate:	1.878	Roll:	-30.000	Pitch:	-16.978	Yaw:	88.735	Thrust:	100.000
Time:	4.191	Roll Set Point:	1.070	Pitch Set Point:	1.743	Yaw Set Point:	-1.088	X_WP:	0.000	Y_WP:	0.000	Y_WP:	0.750	X:	-0.008	Y:	-1.195	Z:	0.044	yaw:	62.332	yaw rate:	-4.020	Roll:	-30.000	Pitch:	-15.974	Yaw:	89.542	Thrust:	100.000
Time:	4.211	Roll Set Point:	1.070	Pitch Set Point:	1.743	Yaw Set Point:	-1.088	X_WP:	0.000	Y_WP:	0.000	Y_WP:	0.750	X:	-0.008	Y:	-1.195	Z:	0.044	yaw:	62.337	yaw rate:	-0.425	Roll:	-30.000	Pitch:	-16.553	Yaw:	89.107	Thrust:	100.000
Time:	4.231	Roll Set Point:	1.070	Pitch Set Point:	1.743	Yaw Set Point:	-1.088	X_WP:	0.000	Y_WP:	0.000	Y_WP:	0.750	X:	-0.008	Y:	-1.195	Z:	0.044	yaw:	62.329	yaw rate:	0.705	Roll:	-30.000	Pitch:	-16.789	Yaw:	88.950	Thrust:	100.000
Time:	4.253	Roll Set Point:	1.070	Pitch Set Point:	1.744	Yaw Set Point:	-1.088	X_WP:	0.000	Y_WP:	0.000	Y_WP:	0.750	X:	-0.008	Y:	-1.195	Z:	0.044	yaw:	62.312	yaw rate:	1.764	Roll:	-30.000	Pitch:	-16.963	Yaw:	89.029	Thrust:	100.000
Time:	4.272	Roll Set Point:	1.070	Pitch Set Point:	1.744	Yaw Set Point:	-1.087	X_WP:	0.000	Y_WP:	0.000	Y_WP:	0.750	X:	-0.008	Y:	-1.195	Z:	0.044	yaw:	62.305	yaw rate:	0.688	Roll:	-30.000	Pitch:	-16.724	Yaw:	88.737	Thrust:	100.000
Time:	4.301	Roll Set Point:	1.070	Pitch Set Point:	1.743	Yaw Set Point:	-1.088	X_WP:	0.000	Y_WP:	0.000	Y_WP:	0.750	X:	-0.008	Y:	-1.195	Z:	0.044	yaw:	62.324	yaw rate:	-1.949	Roll:	-30.000	Pitch:	-16.774	Yaw:	90.149	Thrust:	100.000
Time:	4.317	Roll Set Point:	1.070	Pitch Set Point:	1.744	Yaw Set Point:	-1.087	X_WP:	0.000	Y_WP:	0.000	Y_WP:	0.750	X:	-0.008	Y:	-1.195	Z:	0.044	yaw:	62.305	yaw rate:	1.904	Roll:	-30.000	Pitch:	-16.932	Yaw:	88.247	Thrust:	100.000
Time:	4.331	Roll Set Point:	1.070	Pitch Set Point:	1.743	Yaw Set Point:	-1.088	X_WP:	0.000	Y_WP:	0.000	Y_WP:	0.750	X:	-0.008	Y:	-1.195	Z:	0.044	yaw:	62.329	yaw rate:	-2.344	Roll:	-30.000	Pitch:	-15.807	Yaw:	88.810	Thrust:	100.000
Time:	4.351	Roll Set Point:	1.070	Pitch Set Point:	1.743	Yaw Set Point:	-1.088	X_WP:	0.000	Y_WP:	0.000	Y_WP:	0.750	X:	-0.008	Y:	-1.195	Z:	0.044	yaw:	62.322	yaw rate:	0.711	Roll:	-30.000	Pitch:	-16.780	Yaw:	89.011	Thrust:	100.000
Time:	4.371	Roll Set Point:	1.070	Pitch Set Point:	1.744	Yaw Set Point:	-1.087	X_WP:	0.000	Y_WP:	0.000	Y_WP:	0.750	X:	-0.008	Y:	-1.195	Z:	0.044	yaw:	62.306	yaw rate:	1.601	Roll:	-30.000	Pitch:	-16.918	Yaw:	88.771	Thrust:	100.000
Time:	4.391	Roll Set Point:	1.070	Pitch Set Point:	1.744	Yaw Set Point:	-1.087	X_WP:	0.000	Y_WP:	0.000	Y_WP:	0.750	X:	-0.008	Y:	-1.195	Z:	0.044	yaw:	62.283	yaw rate:	2.288	Roll:	-30.000	Pitch:	-17.050	Yaw:	88.646	Thrust:	100.000
Time:	4.411	Roll Set Point:	1.070	Pitch Set Point:	1.743	Yaw Set Point:	-1.088	X_WP:	0.000	Y_WP:	0.000	Y_WP:	0.750	X:	-0.008	Y:	-1.195	Z:	0.044	yaw:	62.329	yaw rate:	-4.581	Roll:	-30.000	Pitch:	-15.882	Yaw:	89.609	Thrust:	100.000
Time:	4.434	Roll Set Point:	1.070	Pitch Set Point:	1.744	Yaw Set Point:	-1.088	X_WP:	0.000	Y_WP:	0.000	Y_WP:	0.750	X:	-0.008	Y:	-1.195	Z:	0.044	yaw:	62.313	yaw rate:	1.571	Roll:	-30.000	Pitch:	-16.950	Yaw:	89.053	Thrust:	100.000
Time:	4.453	Roll Set Point:	1.070	Pitch Set Point:	1.744	Yaw Set Point:	-1.087	X_WP:	0.000	Y_WP:	0.000	Y_WP:	0.750	X:	-0.008	Y:	-1.195	Z:	0.044	yaw:	62.299	yaw rate:	1.431	Roll:	-30.000	Pitch:	-16.918	Yaw:	88.797	Thrust:	100.000
Time:	4.471	Roll Set Point:	1.070	Pitch Set Point:	1.744	Yaw Set Point:	-1.087	X_WP:	0.000	Y_WP:	0.000	Y_WP:	0.750	X:	-0.008	Y:	-1.195	Z:	0.044	yaw:	62.287	yaw rate:	1.198	Roll:	-30.000	Pitch:	-16.810	Yaw:	88.657	Thrust:	100.000
Time:	4.492	Roll Set Point:	1.070	Pitch Set Point:	1.744	Yaw Set Point:	-1.088	X_WP:	0.000	Y_WP:	0.000	Y_WP:	0.750	X:	-0.008	Y:	-1.195	Z:	0.044	yaw:	62.315	yaw rate:	-2.845	Roll:	-30.000	Pitch:	-16.175	Yaw:	89.345	Thrust:	100.000
Time:	4.511	Roll Set Point:	1.070	Pitch Set Point:	1.744	Yaw Set Point:	-1.088	X_WP:	0.000	Y_WP:	0.000	Y_WP:	0.750	X:	-0.008	Y:	-1.195	Z:	0.044	yaw:	62.310	yaw rate:	0.525	Roll:	-30.000	Pitch:	-16.727	Yaw:	88.938	Thrust:	100.000
Time:	4.531	Roll Set Point:	1.070	Pitch Set Point:	1.744	Yaw Set Point:	-1.088	X_WP:	0.000	Y_WP:	0.000	Y_WP:	0.750	X:	-0.008	Y:	-1.195	Z:	0.044	yaw:	62.310	yaw rate:	0.033	Roll:	-30.000	Pitch:	-16.677	Yaw:	88.993	Thrust:	100.000
Time:	4.552	Roll Set Point:	1.070	Pitch Set Point:	1.743	Yaw Set Point:	-1.088	X_WP:	0.000	Y_WP:	0.000	Y_WP:	0.750	X:	-0.008	Y:	-1.195	Z:	0.044	yaw:	62.326	yaw rate:	-1.687	Roll:	-30.000	Pitch:	-16.382	Yaw:	89.387	Thrust:	100.000
Time:	4.571	Roll Set Point:	1.070	Pitch Set Point:	1.744	Yaw Set Point:	-1.087	X_WP:	0.000	Y_WP:	0.000	Y_WP:	0.750	X:	-0.008	Y:	-1.195	Z:	0.044	yaw:	62.297	yaw rate:	2.912	Roll:	-30.000	Pitch:	-17.129	Yaw:	88.429	Thrust:	100.000
Time:	4.592	Roll Set Point:	1.070	Pitch Set Point:	1.744	Yaw Set Point:	-1.088	X_WP:	0.000	Y_WP:	0.000	Y_WP:	0.750	X:	-0.008	Y:	-1.195	Z:	0.044	yaw:	62.317	yaw rate:	-2.017	Roll:	-30.000	Pitch:	-16.355	Yaw:	89.287	Thrust:	100.000
Time:	4.611	Roll Set Point:	1.070	Pitch Set Point:	1.743	Yaw Set Point:	-1.088	X_WP:	0.000	Y_WP:	0.000	Y_WP:	0.750	X:	-0.008	Y:	-1.195	Z:	0.044	yaw:	62.322	yaw rate:	-0.430	Roll:	-30.000	Pitch:	-16.569	Yaw:	89.079	Thrust:	100.000
Time:	4.631	Roll Set Point:	1.070	Pitch Set Point:	1.743	Yaw Set Point:	-1.088	X_WP:	0.000	Y_WP:	0.000	Y_WP:	0.750	X:	-0.008	Y:	-1.195	Z:	0.044	yaw:	62.332	yaw rate:	-0.990	Roll:	-30.000	Pitch:	-16.479	Yaw:	89.166	Thrust:	100.000
Time:	4.653	Roll Set Point:	1.070	Pitch Set Point:	1.744	Yaw Set Point:	-1.088	X_WP:	0.000	Y_WP:	0.000	Y_WP:	0.750	X:	-0.008	Y:	-1.195	Z:	0.044	yaw:	62.317	yaw rate:	1.463	Roll:	-30.000	Pitch:	-16.898	Yaw:	88.980	Thrust:	100.000
Time:	4.672	Roll Set Point:	1.070	Pitch Set Point:	1.744	Yaw Set Point:	-1.087	X_WP:	0.000	Y_WP:	0.000	Y_WP:	0.750	X:	-0.008	Y:	-1.195	Z:	0.044	yaw:	62.306	yaw rate:	1.054	Roll:	-30.000	Pitch:	-16.859	Yaw:	88.757	Thrust:	100.000
Time:	4.691	Roll Set Point:	1.070	Pitch Set Point:	1.744	Yaw Set Point:	-1.087	X_WP:	0.000	Y_WP:	0.000	Y_WP:	0.750	X:	-0.008	Y:	-1.195	Z:	0.044	yaw:	62.304	yaw rate:	0.286	Roll:	-30.000	Pitch:	-16.644	Yaw:	88.858	Thrust:	100.000
Time:	4.712	Roll Set Point:	1.070	Pitch Set Point:	1.744	Yaw Set Point:	-1.087	X_WP:	0.000	Y_WP:	0.000	Y_WP:	0.750	X:	-0.008	Y:	-1.195	Z:	0.044	yaw:	62.284	yaw rate:	1.971	Roll:	-30.000	Pitch:	-16.990	Yaw:	88.825	Thrust:	100.000
Time:	4.731	Roll Set Point:	1.070	Pitch Set Point:	1.743	Yaw Set Point:	-1.088	X_WP:	0.000	Y_WP:	0.000	Y_WP:	0.750	X:	-0.008	Y:	-1.195	Z:	0.044	yaw:	62.332	yaw rate:	-4.806	Roll:	-30.000	Pitch:	-15.865	Yaw:	89.589	Thrust:	100.000
Time:	4.757	Roll Set Point:	1.070	Pitch Set Point:	1.743	Yaw Set Point:	-1.088	X_WP:	0.000	Y_WP:	0.000	Y_WP:	0.750	X:	-0.008	Y:	-1.195	Z:	0.044	yaw:	62.323	yaw rate:	0.858	Roll:	-30.000	Pitch:	-16.810	Yaw:	89.542	Thrust:	100.000
Time:	4.771	Roll Set Point:	1.070	Pitch Set Point:	1.743	Yaw Set Point:	-1.088	X_WP:	0.000	Y_WP:	0.000	Y_WP:	0.750	X:	-0.008	Y:	-1.195	Z:	0.044	yaw:	62.327	yaw rate:	-0.400	Roll:	-30.000	Pitch:	-16.530	Yaw:	88.504	Thrust:	100.000
Time:	4.791	Roll Set Point:	1.070	Pitch Set Point:	1.744	Yaw Set Point:	-1.087	X_WP:	0.000	Y_WP:	0.000	Y_WP:	0.750	X:	-0.008	Y:	-1.195	Z:	0.044	yaw:	62.293	yaw rate:	3.402	Roll:	-30.000	Pitch:	-17.231	Yaw:	88.508	Thrust:	100.000
Time:	4.815	Roll Set Point:	1.070	Pitch Set Point:	1.744	Yaw Set Point:	-1.087	X_WP:	0.000	Y_WP:	0.000	Y_WP:	0.750	X:	-0.008	Y:	-1.195	Z:	0.044	yaw:	62.303	yaw rate:	-0.915	Roll:	-30.000	Pitch:	-16.682	Yaw:	89.512	Thrust:	100.000
Time:	4.831	Roll Set Point:	1.070	Pitch Set Point:	1.744	Yaw Set Point:	-1.087	X_WP:	0.000	Y_WP:	0.000	Y_WP:	0.750	X:	-0.008	Y:	-1.195	Z:	0.044	yaw:	62.294	yaw rate:	0.895	Roll:	-30.000	Pitch:	-16.672	Yaw:	88.334	Thrust:	100.000
Time:	4.853	Roll Set Point:	1.070	Pitch Set Point:	1.744	Yaw Set Point:	-1.087	X_WP:	0.000	Y_WP:	0.000	Y_WP:	0.750	X:	-0.008	Y:	-1.195	Z:	0.044	yaw:	62.295	yaw rate:	-0.171	Roll:	-30.000	Pitch:	-16.707	Yaw:	89.277	Thrust:	100.000
Time:	4.871	Roll Set Point:	1.070	Pitch Set Point:	1.744	Yaw Set Point:	-1.087	X_WP:	0.000	Y_WP:	0.000	Y_WP:	0.750	X:	-0.008	Y:	-1.195	Z:	0.044	yaw:	62.293	yaw rate:	0.210	Roll:	-30.000	Pitch:	-16.657	Yaw:	88.752	Thrust:	100.000
Time:	4.892	Roll Set Point:	1.070	Pitch Set Point:	1.744	Yaw Set Point:	-1.087	X_WP:	0.000	Y_WP:	0.000	Y_WP:	0.750	X:	-0.008	Y:	-1.195	Z:	0.044	yaw:	62.305	yaw rate:	-1.152	Roll:	-30.000	Pitch:	-16.471	Yaw:	89.140	Thrust:	100.000
Time:	4.911	Roll Set Point:	1.070	Pitch Set Point:	1.744	Yaw Set Point:	-1.088	X_WP:	0.000	Y_WP:	0.000	Y_WP:	0.750	X:	-0.008	Y:	-1.195	Z:	0.044	yaw:	62.313	yaw rate:	-0.841	Roll:	-30.000	Pitch:	-16.524	Yaw:	89.120	Thrust:	100.000
Time:	4.931	Roll Set Point:	1.070	Pitch Set Point:	1.743	Yaw Set Point:	-1.088	X_WP:	0.000	Y_WP:	0.000	Y_WP:	0.750	X:	-0.008	Y:	-1.195	Z:	0.044	yaw:	62.323	yaw rate:	-0.969	Roll:	-30.000	Pitch:	-16.489	Yaw:	89.149	Thrust:	100.000
Time:	4.951	Roll Set Point:	1.070	Pitch Set Point:	1.744	Yaw Set Point:	-1.087	X_WP:	0.000	Y_WP:	0.000	Y_WP:	0.750	X:	-0.008	Y:	-1.195	Z:	0.044	yaw:	62.305	yaw rate:	1.781	Roll:	-30.000	Pitch:	-16.943	Yaw:	88.718	Thrust:	100.000
Time:	4.974	Roll Set Point:	1.070	Pitch Set Point:	1.744	Yaw Set Point:	-1.088	X_WP:	0.000	Y_WP:	0.000	Y_WP:	0.750	X:	-0.008	Y:	-1.195	Z:	0.044	yaw:	62.320	yaw rate:	-1.491	Roll:	-30.000	Pitch:	-16.505	Yaw:	89.454	Thrust:	100.000
Time:	4.994	Roll Set Point:	1.070	Pitch Set Point:	1.744	Yaw Set Point:	-1.087	X_WP:	0.000	Y_WP:	0.000	Y_WP:	0.750	X:	-0.008	Y:	-1.195	Z:	0.044	yaw:	62.305	yaw rate:	1.450	Roll:	-30.000	Pitch:	-16.909	Yaw:	88.895	Thrust:	100.000
Time:	5.012	Roll Set Point:	1.070	Pitch Set Point:	1.744	Yaw Set Point:	-1.087	X_WP:	0.000	Y_WP:	0.000	Y_WP:	0.750	X:	-0.008	Y:	-1.195	Z:	0.044	yaw:	62.306	yaw rate:	-0.066	Roll:	-30.000	Pitch:	-16.589	Yaw:	88.787	Thrust:	100.000
Time:	5.033	Roll Set Point:	1.070	Pitch Set Point:	1.744	Yaw Set Point:	-1.087	X_WP:	0.000	Y_WP:	0.000	Y_WP:	0.750	X:	-0.008	Y:	-1.195	Z:	0.044	yaw:	62.294	yaw rate:	1.167	Roll:	-30.000	Pitch:	-16.848	Yaw:	88.857	Thrust:	100.000
Time:	5.054	Roll Set Point:	1.070	Pitch Set Point:	1.744	Yaw Set Point:	-1.088	X_WP:	0.000	Y_WP:	0.000	Y_WP:	0.750	X:	-0.008	Y:	-1.195	Z:	0.044	yaw:	62.319	yaw rate:	-2.487	Roll:	-30.000	Pitch:	-16.340	Yaw:	89.474	Thrust:	100.000
Time:	5.072	Roll Set Point:	1.070	Pitch Set Point:	1.744	Yaw Set Point:	-1.087	X_WP:	0.000	Y_WP:	0.000	Y_WP:	0.750	X:	-0.008	Y:	-1.195	Z:	0.044	yaw:	62.308	yaw rate:	1.168	Roll:	-30.000	Pitch:	-16.799	Yaw:	88.707	Thrust:	100.000
Time:	5.092	Roll Set Point:	1.070	Pitch Set Point:	1.744	Yaw Set Point:	-1.087	X_WP:	0.000	Y_WP:	0.000	Y_WP:	0.750	X:	-0.008	Y:	-1.195	Z:	0.044	yaw:	62.307	yaw rate:	0.089	Roll:	-30.000	Pitch:	-16.662	Yaw:	88.979	Thrust:	100.000
Time:	5.112	Roll Set Point:	1.070	Pitch Set Point:	1.744	Yaw Set Point:	-1.087	X_WP:	0.000	Y_WP:	0.000	Y_WP:	0.750	X:	-0.008	Y:	-1.195	Z:	0.044	yaw:	62.290	yaw rate:	1.624	Roll:	-30.000	Pitch:	-16.942	Yaw:	88.767	Thrust:	100.000
Time:	5.132	Roll Set Point:	1.070	Pitch Set Point:	1.744	Yaw Set Point:	-1.088	X_WP:	0.000	Y_WP:	0.000	Y_WP:	0.750	X:	-0.008	Y:	-1.195	Z:	0.044	yaw:	62.314	yaw rate:	-2.390	Roll:	-30.000	Pitch:	-16.262	Yaw:	89.253	Thrust:	100.000
Time:	5.153	Roll Set Point:	1.070	Pitch Set Point:	1.744	Yaw Set Point:	-1.088	X_WP:	0.000	Y_WP:	0.000	Y_WP:	0.750	X:	-0.008	Y:	-1.195	Z:	0.044	yaw:	62.321	yaw rate:	-0.678	Roll:	-30.000	Pitch:	-16.565	Yaw:	89.193	Thrust:	100.000
Time:	5.173	Roll Set Point:	1.070	Pitch Set Point:	1.744	Yaw Set Point:	-1.087	X_WP:	0.000	Y_WP:	0.000	Y_WP:	0.750	X:	-0.008	Y:	-1.195	Z:	0.044	yaw:	62.284	yaw rate:	3.665	Roll:	-30.000	Pitch:	-17.261	Yaw:	88.458	Thrust:	100.000
Time:	5.194	Roll Set Point:	1.070	Pitch Set Point:	1.744	Yaw Set Point:	-1.087	X_WP:	0.000	Y_WP:	0.000	Y_WP:	0.750	X:	-0.008	Y:	-1.195	Z:	0.044	yaw:	62.298	yaw rate:	-1.376	Roll:	-30.000	Pitch:	-16.514	Yaw:	89.366	Thrust:	100.000
Time:	5.213	Roll Set Point:	1.070	Pitch Set Point:	1.743	Yaw Set Point:	-1.088	X_WP:	0.000	Y_WP:	0.000	Y_WP:	0.750	X:	-0.008	Y:	-1.195	Z:	0.044	yaw:	62.330	yaw rate:	-3.222	Roll:	-30.000	Pitch:	-16.010	Yaw:	89.275	Thrust:	100.000
Time:	5.233	Roll Set Point:	1.070	Pitch Set Point:	1.744	Yaw Set Point:	-1.087	X_WP:	0.000	Y_WP:	0.000	Y_WP:	0.750	X:	-0.008	Y:	-1.195	Z:	0.044	yaw:	62.302	yaw rate:	2.842	Roll:	-30.000	Pitch:	-17.147	Yaw:	88.747	Thrust:	100.000
