Time:	0.032	Roll Set Point:	-0.060	Pitch Set Point:	-0.041	Yaw Set Point:	-0.019	X_WP:	0.000	Y_WP:	0.000	Y_WP:	0.000	X:	0.030	Y:	0.021	Z:	0.049	yaw:	1.082	yaw rate:	-0.739	Roll:	1.050	Pitch:	0.706	Yaw:	1.511	Thrust:	0.000
Time:	0.043	Roll Set Point:	-0.060	Pitch Set Point:	-0.041	Yaw Set Point:	-0.019	X_WP:	0.000	Y_WP:	0.000	Y_WP:	0.000	X:	0.030	Y:	0.021	Z:	0.049	yaw:	1.074	yaw rate:	0.855	Roll:	1.083	Pitch:	0.743	Yaw:	1.300	Thrust:	0.000
Time:	0.062	Roll Set Point:	-0.060	Pitch Set Point:	-0.041	Yaw Set Point:	-0.018	X_WP:	0.000	Y_WP:	0.000	Y_WP:	0.000	X:	0.030	Y:	0.021	Z:	0.049	yaw:	1.056	yaw rate:	1.738	Roll:	1.108	Pitch:	0.701	Yaw:	1.253	Thrust:	0.000
Time:	0.074	Roll Set Point:	-0.060	Pitch Set Point:	-0.041	Yaw Set Point:	-0.019	X_WP:	0.000	Y_WP:	0.000	Y_WP:	0.000	X:	0.030	Y:	0.021	Z:	0.049	yaw:	1.081	yaw rate:	-2.454	Roll:	1.057	Pitch:	0.765	Yaw:	2.056	Thrust:	0.000
Time:	0.085	Roll Set Point:	-0.060	Pitch Set Point:	-0.041	Yaw Set Point:	-0.019	X_WP:	0.000	Y_WP:	0.000	Y_WP:	0.000	X:	0.030	Y:	0.021	Z:	0.049	yaw:	1.072	yaw rate:	0.895	Roll:	1.148	Pitch:	0.779	Yaw:	1.299	Thrust:	0.000
Time:	0.096	Roll Set Point:	-0.060	Pitch Set Point:	-0.041	Yaw Set Point:	-0.019	X_WP:	0.000	Y_WP:	0.000	Y_WP:	0.000	X:	0.030	Y:	0.021	Z:	0.049	yaw:	1.091	yaw rate:	-1.889	Roll:	1.175	Pitch:	0.705	Yaw:	1.990	Thrust:	0.000
Time:	0.113	Roll Set Point:	-0.060	Pitch Set Point:	-0.041	Yaw Set Point:	-0.019	X_WP:	0.000	Y_WP:	0.000	Y_WP:	0.000	X:	0.030	Y:	0.021	Z:	0.049	yaw:	1.083	yaw rate:	-3.021	Roll:	1.116	Pitch:	0.821	Yaw:	1.413	Thrust:	0.000
Time:	0.127	Roll Set Point:	-0.060	Pitch Set Point:	-0.041	Yaw Set Point:	-0.019	X_WP:	0.000	Y_WP:	0.000	Y_WP:	0.000	X:	0.030	Y:	0.021	Z:	0.049	yaw:	1.076	yaw rate:	0.629	Roll:	1.255	Pitch:	0.824	Yaw:	1.417	Thrust:	0.000
Time:	0.138	Roll Set Point:	-0.060	Pitch Set Point:	-0.041	Yaw Set Point:	-0.018	X_WP:	0.000	Y_WP:	0.000	Y_WP:	0.000	X:	0.030	Y:	0.021	Z:	0.049	yaw:	1.031	yaw rate:	4.531	Roll:	1.161	Pitch:	0.861	Yaw:	0.444	Thrust:	0.000
Time:	0.149	Roll Set Point:	-0.060	Pitch Set Point:	-0.041	Yaw Set Point:	-0.018	X_WP:	0.000	Y_WP:	0.000	Y_WP:	0.000	X:	0.030	Y:	0.021	Z:	0.049	yaw:	1.058	yaw rate:	-2.713	Roll:	1.223	Pitch:	0.788	Yaw:	2.158	Thrust:	0.000
Time:	0.160	Roll Set Point:	-0.060	Pitch Set Point:	-0.041	Yaw Set Point:	-0.019	X_WP:	0.000	Y_WP:	0.000	Y_WP:	0.000	X:	0.030	Y:	0.021	Z:	0.049	yaw:	1.073	yaw rate:	-1.534	Roll:	1.222	Pitch:	0.776	Yaw:	1.918	Thrust:	0.000
Time:	0.172	Roll Set Point:	-0.060	Pitch Set Point:	-0.041	Yaw Set Point:	-0.019	X_WP:	0.000	Y_WP:	0.000	Y_WP:	0.000	X:	0.030	Y:	0.021	Z:	0.049	yaw:	1.098	yaw rate:	-7.464	Roll:	1.321	Pitch:	0.783	Yaw:	2.079	Thrust:	0.000
Time:	0.195	Roll Set Point:	-0.060	Pitch Set Point:	-0.041	Yaw Set Point:	-0.018	X_WP:	0.000	Y_WP:	0.000	Y_WP:	0.000	X:	0.030	Y:	0.021	Z:	0.049	yaw:	1.032	yaw rate:	6.581	Roll:	1.364	Pitch:	1.008	Yaw:	0.798	Thrust:	0.000
Time:	0.207	Roll Set Point:	-0.060	Pitch Set Point:	-0.041	Yaw Set Point:	-0.018	X_WP:	0.000	Y_WP:	0.000	Y_WP:	0.000	X:	0.030	Y:	0.021	Z:	0.049	yaw:	1.055	yaw rate:	1.933	Roll:	1.305	Pitch:	0.872	Yaw:	2.055	Thrust:	0.000
Time:	0.217	Roll Set Point:	-0.060	Pitch Set Point:	-0.041	Yaw Set Point:	-0.019	X_WP:	0.000	Y_WP:	0.000	Y_WP:	0.000	X:	0.030	Y:	0.021	Z:	0.049	yaw:	1.077	yaw rate:	-2.167	Roll:	1.383	Pitch:	0.817	Yaw:	2.093	Thrust:	0.000
Time:	0.228	Roll Set Point:	-0.060	Pitch Set Point:	-0.041	Yaw Set Point:	-0.020	X_WP:	0.000	Y_WP:	0.000	Y_WP:	0.000	X:	0.030	Y:	0.021	Z:	0.049	yaw:	1.119	yaw rate:	-4.259	Roll:	1.346	Pitch:	0.837	Yaw:	2.681	Thrust:	0.000
Time:	0.239	Roll Set Point:	-0.060	Pitch Set Point:	-0.041	Yaw Set Point:	-0.018	X_WP:	0.000	Y_WP:	0.000	Y_WP:	0.000	X:	0.030	Y:	0.021	Z:	0.049	yaw:	1.047	yaw rate:	7.194	Roll:	1.185	Pitch:	0.951	Yaw:	-0.183	Thrust:	0.000
Time:	0.253	Roll Set Point:	-0.060	Pitch Set Point:	-0.041	Yaw Set Point:	-0.020	X_WP:	0.000	Y_WP:	0.000	Y_WP:	0.000	X:	0.030	Y:	0.021	Z:	0.048	yaw:	1.119	yaw rate:	-7.129	Roll:	1.496	Pitch:	0.690	Yaw:	3.129	Thrust:	0.000
Time:	0.271	Roll Set Point:	-0.060	Pitch Set Point:	-0.041	Yaw Set Point:	-0.019	X_WP:	0.000	Y_WP:	0.000	Y_WP:	0.000	X:	0.030	Y:	0.021	Z:	0.049	yaw:	1.073	yaw rate:	4.518	Roll:	1.536	Pitch:	1.199	Yaw:	1.038	Thrust:	0.000
Time:	0.282	Roll Set Point:	-0.060	Pitch Set Point:	-0.041	Yaw Set Point:	-0.019	X_WP:	0.000	Y_WP:	0.000	Y_WP:	0.000	X:	0.030	Y:	0.021	Z:	0.049	yaw:	1.110	yaw rate:	-3.694	Roll:	1.394	Pitch:	0.878	Yaw:	2.538	Thrust:	0.000
Time:	0.293	Roll Set Point:	-0.060	Pitch Set Point:	-0.041	Yaw Set Point:	-0.019	X_WP:	0.000	Y_WP:	0.000	Y_WP:	0.000	X:	0.030	Y:	0.021	Z:	0.049	yaw:	1.106	yaw rate:	0.469	Roll:	1.419	Pitch:	0.886	Yaw:	1.513	Thrust:	0.000
Time:	0.304	Roll Set Point:	-0.060	Pitch Set Point:	-0.041	Yaw Set Point:	-0.019	X_WP:	0.000	Y_WP:	0.000	Y_WP:	0.000	X:	0.030	Y:	0.021	Z:	0.049	yaw:	1.080	yaw rate:	2.565	Roll:	1.333	Pitch:	1.034	Yaw:	0.986	Thrust:	0.000
Time:	0.315	Roll Set Point:	-0.060	Pitch Set Point:	-0.041	Yaw Set Point:	-0.019	X_WP:	0.000	Y_WP:	0.000	Y_WP:	0.000	X:	0.030	Y:	0.021	Z:	0.049	yaw:	1.068	yaw rate:	1.214	Roll:	1.443	Pitch:	0.897	Yaw:	1.317	Thrust:	0.000
Time:	0.330	Roll Set Point:	-0.060	Pitch Set Point:	-0.041	Yaw Set Point:	-0.019	X_WP:	0.000	Y_WP:	0.000	Y_WP:	0.000	X:	0.030	Y:	0.021	Z:	0.049	yaw:	1.072	yaw rate:	-0.371	Roll:	1.529	Pitch:	0.999	Yaw:	1.687	Thrust:	0.000
Time:	0.340	Roll Set Point:	-0.060	Pitch Set Point:	-0.041	Yaw Set Point:	-0.019	X_WP:	0.000	Y_WP:	0.000	Y_WP:	0.000	X:	0.030	Y:	0.021	Z:	0.048	yaw:	1.084	yaw rate:	-1.282	Roll:	1.569	Pitch:	0.925	Yaw:	1.938	Thrust:	0.000
Time:	0.351	Roll Set Point:	-0.060	Pitch Set Point:	-0.041	Yaw Set Point:	-0.019	X_WP:	0.000	Y_WP:	0.000	Y_WP:	0.000	X:	0.030	Y:	0.021	Z:	0.049	yaw:	1.081	yaw rate:	0.358	Roll:	1.295	Pitch:	1.059	Yaw:	1.530	Thrust:	0.000
Time:	0.362	Roll Set Point:	-0.060	Pitch Set Point:	-0.041	Yaw Set Point:	-0.019	X_WP:	0.000	Y_WP:	0.000	Y_WP:	0.000	X:	0.030	Y:	0.021	Z:	0.049	yaw:	1.064	yaw rate:	3.085	Roll:	1.548	Pitch:	1.018	Yaw:	1.189	Thrust:	0.000
Time:	0.373	Roll Set Point:	-0.060	Pitch Set Point:	-0.041	Yaw Set Point:	-0.019	X_WP:	0.000	Y_WP:	0.000	Y_WP:	0.000	X:	0.030	Y:	0.021	Z:	0.049	yaw:	1.074	yaw rate:	-1.025	Roll:	1.436	Pitch:	0.964	Yaw:	1.869	Thrust:	0.000
Time:	0.395	Roll Set Point:	-0.060	Pitch Set Point:	-0.041	Yaw Set Point:	-0.016	X_WP:	0.000	Y_WP:	0.000	Y_WP:	0.000	X:	0.030	Y:	0.021	Z:	0.048	yaw:	0.906	yaw rate:	16.836	Roll:	1.784	Pitch:	1.274	Yaw:	-0.638	Thrust:	0.000
Time:	0.406	Roll Set Point:	-0.060	Pitch Set Point:	-0.041	Yaw Set Point:	-0.020	X_WP:	0.000	Y_WP:	0.000	Y_WP:	0.000	X:	0.030	Y:	0.021	Z:	0.048	yaw:	1.128	yaw rate:	-4.281	Roll:	1.879	Pitch:	0.918	Yaw:	6.114	Thrust:	0.000
Time:	0.417	Roll Set Point:	-0.060	Pitch Set Point:	-0.041	Yaw Set Point:	-0.019	X_WP:	0.000	Y_WP:	0.000	Y_WP:	0.000	X:	0.030	Y:	0.021	Z:	0.049	yaw:	1.096	yaw rate:	3.240	Roll:	1.519	Pitch:	1.131	Yaw:	0.880	Thrust:	0.000
Time:	0.428	Roll Set Point:	-0.060	Pitch Set Point:	-0.041	Yaw Set Point:	-0.018	X_WP:	0.000	Y_WP:	0.000	Y_WP:	0.000	X:	0.030	Y:	0.021	Z:	0.049	yaw:	1.031	yaw rate:	6.460	Roll:	1.423	Pitch:	1.253	Yaw:	-0.030	Thrust:	0.000
Time:	0.439	Roll Set Point:	-0.060	Pitch Set Point:	-0.041	Yaw Set Point:	-0.019	X_WP:	0.000	Y_WP:	0.000	Y_WP:	0.000	X:	0.030	Y:	0.021	Z:	0.049	yaw:	1.070	yaw rate:	-3.855	Roll:	1.547	Pitch:	0.914	Yaw:	2.541	Thrust:	0.000
Time:	0.451	Roll Set Point:	-0.060	Pitch Set Point:	-0.041	Yaw Set Point:	-0.019	X_WP:	0.000	Y_WP:	0.000	Y_WP:	0.000	X:	0.030	Y:	0.021	Z:	0.049	yaw:	1.078	yaw rate:	-0.771	Roll:	1.635	Pitch:	1.161	Yaw:	1.821	Thrust:	0.000
Time:	0.465	Roll Set Point:	-0.060	Pitch Set Point:	-0.041	Yaw Set Point:	-0.021	X_WP:	0.000	Y_WP:	0.000	Y_WP:	0.000	X:	0.030	Y:	0.021	Z:	0.048	yaw:	1.179	yaw rate:	-10.159	Roll:	1.914	Pitch:	0.973	Yaw:	3.747	Thrust:	0.000
Time:	0.476	Roll Set Point:	-0.060	Pitch Set Point:	-0.041	Yaw Set Point:	-0.019	X_WP:	0.000	Y_WP:	0.000	Y_WP:	0.000	X:	0.030	Y:	0.021	Z:	0.049	yaw:	1.089	yaw rate:	8.985	Roll:	1.543	Pitch:	1.294	Yaw:	-0.324	Thrust:	0.000
Time:	0.487	Roll Set Point:	-0.060	Pitch Set Point:	-0.041	Yaw Set Point:	-0.018	X_WP:	0.000	Y_WP:	0.000	Y_WP:	0.000	X:	0.030	Y:	0.021	Z:	0.049	yaw:	1.054	yaw rate:	3.570	Roll:	1.576	Pitch:	1.207	Yaw:	0.710	Thrust:	0.000
Time:	0.498	Roll Set Point:	-0.060	Pitch Set Point:	-0.041	Yaw Set Point:	-0.019	X_WP:	0.000	Y_WP:	0.000	Y_WP:	0.000	X:	0.030	Y:	0.021	Z:	0.049	yaw:	1.065	yaw rate:	-1.091	Roll:	1.675	Pitch:	1.099	Yaw:	1.901	Thrust:	0.000
Time:	0.509	Roll Set Point:	-0.060	Pitch Set Point:	-0.041	Yaw Set Point:	-0.020	X_WP:	0.000	Y_WP:	0.000	Y_WP:	0.000	X:	0.030	Y:	0.021	Z:	0.048	yaw:	1.143	yaw rate:	-7.800	Roll:	1.848	Pitch:	0.888	Yaw:	3.665	Thrust:	0.000
Time:	0.528	Roll Set Point:	-0.060	Pitch Set Point:	-0.041	Yaw Set Point:	-0.019	X_WP:	0.000	Y_WP:	0.000	Y_WP:	0.000	X:	0.030	Y:	0.021	Z:	0.049	yaw:	1.072	yaw rate:	7.050	Roll:	2.059	Pitch:	1.602	Yaw:	0.874	Thrust:	0.000
Time:	0.539	Roll Set Point:	-0.060	Pitch Set Point:	-0.041	Yaw Set Point:	-0.018	X_WP:	0.000	Y_WP:	0.000	Y_WP:	0.000	X:	0.030	Y:	0.021	Z:	0.049	yaw:	1.041	yaw rate:	3.094	Roll:	1.786	Pitch:	1.147	Yaw:	0.884	Thrust:	0.000
Time:	0.551	Roll Set Point:	-0.060	Pitch Set Point:	-0.041	Yaw Set Point:	-0.020	X_WP:	0.000	Y_WP:	0.000	Y_WP:	0.000	X:	0.030	Y:	0.021	Z:	0.048	yaw:	1.143	yaw rate:	-10.152	Roll:	1.900	Pitch:	1.019	Yaw:	4.077	Thrust:	0.000
Time:	0.562	Roll Set Point:	-0.060	Pitch Set Point:	-0.041	Yaw Set Point:	-0.020	X_WP:	0.000	Y_WP:	0.000	Y_WP:	0.000	X:	0.030	Y:	0.021	Z:	0.048	yaw:	1.149	yaw rate:	-0.616	Roll:	1.809	Pitch:	1.144	Yaw:	1.926	Thrust:	0.000
Time:	0.575	Roll Set Point:	-0.060	Pitch Set Point:	-0.041	Yaw Set Point:	-0.019	X_WP:	0.000	Y_WP:	0.000	Y_WP:	0.000	X:	0.030	Y:	0.021	Z:	0.049	yaw:	1.075	yaw rate:	7.424	Roll:	1.656	Pitch:	1.445	Yaw:	0.221	Thrust:	0.000
Time:	0.604	Roll Set Point:	-0.060	Pitch Set Point:	-0.041	Yaw Set Point:	-0.019	X_WP:	0.000	Y_WP:	0.000	Y_WP:	0.000	X:	0.030	Y:	0.021	Z:	0.049	yaw:	1.077	yaw rate:	-0.266	Roll:	2.891	Pitch:	1.973	Yaw:	2.015	Thrust:	0.000
Time:	0.617	Roll Set Point:	-0.060	Pitch Set Point:	-0.041	Yaw Set Point:	-0.020	X_WP:	0.000	Y_WP:	0.000	Y_WP:	0.000	X:	0.030	Y:	0.021	Z:	0.048	yaw:	1.138	yaw rate:	-7.524	Roll:	2.189	Pitch:	1.128	Yaw:	3.064	Thrust:	0.000
Time:	0.628	Roll Set Point:	-0.060	Pitch Set Point:	-0.041	Yaw Set Point:	-0.020	X_WP:	0.000	Y_WP:	0.000	Y_WP:	0.000	X:	0.030	Y:	0.021	Z:	0.048	yaw:	1.122	yaw rate:	1.615	Roll:	1.868	Pitch:	1.239	Yaw:	1.393	Thrust:	0.000
Time:	0.641	Roll Set Point:	-0.060	Pitch Set Point:	-0.041	Yaw Set Point:	-0.019	X_WP:	0.000	Y_WP:	0.000	Y_WP:	0.000	X:	0.030	Y:	0.021	Z:	0.049	yaw:	1.077	yaw rate:	4.433	Roll:	1.790	Pitch:	1.440	Yaw:	0.846	Thrust:	0.000
Time:	0.664	Roll Set Point:	-0.060	Pitch Set Point:	-0.041	Yaw Set Point:	-0.020	X_WP:	0.000	Y_WP:	0.000	Y_WP:	0.000	X:	0.030	Y:	0.021	Z:	0.048	yaw:	1.138	yaw rate:	-6.079	Roll:	2.800	Pitch:	1.746	Yaw:	2.700	Thrust:	0.000
Time:	0.675	Roll Set Point:	-0.060	Pitch Set Point:	-0.041	Yaw Set Point:	-0.019	X_WP:	0.000	Y_WP:	0.000	Y_WP:	0.000	X:	0.030	Y:	0.021	Z:	0.049	yaw:	1.107	yaw rate:	-4.425	Roll:	1.721	Pitch:	1.405	Yaw:	1.021	Thrust:	0.000
Time:	0.687	Roll Set Point:	-0.060	Pitch Set Point:	-0.041	Yaw Set Point:	-0.019	X_WP:	0.000	Y_WP:	0.000	Y_WP:	0.000	X:	0.030	Y:	0.021	Z:	0.049	yaw:	1.088	yaw rate:	1.975	Roll:	1.891	Pitch:	1.272	Yaw:	1.287	Thrust:	0.000
Time:	0.698	Roll Set Point:	-0.060	Pitch Set Point:	-0.041	Yaw Set Point:	-0.015	X_WP:	0.000	Y_WP:	0.000	Y_WP:	0.000	X:	0.030	Y:	0.021	Z:	0.049	yaw:	0.876	yaw rate:	21.154	Roll:	1.748	Pitch:	1.366	Yaw:	-3.410	Thrust:	0.000
Time:	0.711	Roll Set Point:	-0.060	Pitch Set Point:	-0.041	Yaw Set Point:	-0.019	X_WP:	0.000	Y_WP:	0.000	Y_WP:	0.000	X:	0.030	Y:	0.021	Z:	0.049	yaw:	1.061	yaw rate:	-18.506	Roll:	2.005	Pitch:	1.294	Yaw:	5.712	Thrust:	0.000
Time:	0.729	Roll Set Point:	-0.060	Pitch Set Point:	-0.041	Yaw Set Point:	-0.019	X_WP:	0.000	Y_WP:	0.000	Y_WP:	0.000	X:	0.030	Y:	0.021	Z:	0.049	yaw:	1.097	yaw rate:	-3.553	Roll:	2.491	Pitch:	1.631	Yaw:	2.409	Thrust:	0.000
Time:	0.739	Roll Set Point:	-0.060	Pitch Set Point:	-0.041	Yaw Set Point:	-0.019	X_WP:	0.000	Y_WP:	0.000	Y_WP:	0.000	X:	0.030	Y:	0.021	Z:	0.049	yaw:	1.082	yaw rate:	1.459	Roll:	2.122	Pitch:	1.284	Yaw:	1.389	Thrust:	0.000
Time:	0.750	Roll Set Point:	-0.060	Pitch Set Point:	-0.041	Yaw Set Point:	-0.019	X_WP:	0.000	Y_WP:	0.000	Y_WP:	0.000	X:	0.030	Y:	0.021	Z:	0.049	yaw:	1.086	yaw rate:	-0.379	Roll:	1.938	Pitch:	1.331	Yaw:	1.834	Thrust:	0.000
Time:	0.762	Roll Set Point:	-0.060	Pitch Set Point:	-0.041	Yaw Set Point:	-0.019	X_WP:	0.000	Y_WP:	0.000	Y_WP:	0.000	X:	0.030	Y:	0.021	Z:	0.049	yaw:	1.068	yaw rate:	-0.803	Roll:	1.907	Pitch:	1.311	Yaw:	1.282	Thrust:	0.000
Time:	0.775	Roll Set Point:	-0.060	Pitch Set Point:	-0.041	Yaw Set Point:	-0.019	X_WP:	0.000	Y_WP:	0.000	Y_WP:	0.000	X:	0.030	Y:	0.021	Z:	0.049	yaw:	1.108	yaw rate:	-3.973	Roll:	2.244	Pitch:	1.467	Yaw:	2.589	Thrust:	0.000
Time:	0.796	Roll Set Point:	-0.060	Pitch Set Point:	-0.041	Yaw Set Point:	-0.019	X_WP:	0.000	Y_WP:	0.000	Y_WP:	0.000	X:	0.030	Y:	0.021	Z:	0.049	yaw:	1.081	yaw rate:	2.657	Roll:	2.878	Pitch:	1.897	Yaw:	1.601	Thrust:	0.000
Time:	0.806	Roll Set Point:	-0.060	Pitch Set Point:	-0.041	Yaw Set Point:	-0.018	X_WP:	0.000	Y_WP:	0.000	Y_WP:	0.000	X:	0.030	Y:	0.021	Z:	0.049	yaw:	1.054	yaw rate:	1.492	Roll:	1.911	Pitch:	1.413	Yaw:	1.066	Thrust:	0.000
Time:	0.817	Roll Set Point:	-0.060	Pitch Set Point:	-0.041	Yaw Set Point:	-0.019	X_WP:	0.000	Y_WP:	0.000	Y_WP:	0.000	X:	0.030	Y:	0.021	Z:	0.049	yaw:	1.087	yaw rate:	-3.353	Roll:	2.049	Pitch:	1.398	Yaw:	2.557	Thrust:	0.000
Time:	0.829	Roll Set Point:	-0.060	Pitch Set Point:	-0.041	Yaw Set Point:	-0.019	X_WP:	0.000	Y_WP:	0.000	Y_WP:	0.000	X:	0.030	Y:	0.021	Z:	0.049	yaw:	1.090	yaw rate:	-0.287	Roll:	2.228	Pitch:	1.355	Yaw:	1.851	Thrust:	0.000
Time:	0.842	Roll Set Point:	-0.060	Pitch Set Point:	-0.041	Yaw Set Point:	-0.019	X_WP:	0.000	Y_WP:	0.000	Y_WP:	0.000	X:	0.030	Y:	0.021	Z:	0.049	yaw:	1.067	yaw rate:	2.332	Roll:	2.112	Pitch:	1.501	Yaw:	1.263	Thrust:	0.000
Time:	0.865	Roll Set Point:	-0.060	Pitch Set Point:	-0.041	Yaw Set Point:	-0.019	X_WP:	0.000	Y_WP:	0.000	Y_WP:	0.000	X:	0.030	Y:	0.021	Z:	0.049	yaw:	1.068	yaw rate:	-0.100	Roll:	3.178	Pitch:	2.191	Yaw:	2.080	Thrust:	0.000
Time:	0.877	Roll Set Point:	-0.060	Pitch Set Point:	-0.041	Yaw Set Point:	-0.019	X_WP:	0.000	Y_WP:	0.000	Y_WP:	0.000	X:	0.030	Y:	0.021	Z:	0.049	yaw:	1.094	yaw rate:	-0.446	Roll:	2.293	Pitch:	1.453	Yaw:	2.387	Thrust:	0.000
Time:	0.888	Roll Set Point:	-0.060	Pitch Set Point:	-0.041	Yaw Set Point:	-0.019	X_WP:	0.000	Y_WP:	0.000	Y_WP:	0.000	X:	0.030	Y:	0.021	Z:	0.049	yaw:	1.089	yaw rate:	0.410	Roll:	2.143	Pitch:	1.362	Yaw:	1.693	Thrust:	0.000
Time:	0.899	Roll Set Point:	-0.060	Pitch Set Point:	-0.041	Yaw Set Point:	-0.018	X_WP:	0.000	Y_WP:	0.000	Y_WP:	0.000	X:	0.030	Y:	0.021	Z:	0.049	yaw:	1.056	yaw rate:	3.399	Roll:	2.155	Pitch:	1.503	Yaw:	0.940	Thrust:	0.000
Time:	0.915	Roll Set Point:	-0.060	Pitch Set Point:	-0.041	Yaw Set Point:	-0.018	X_WP:	0.000	Y_WP:	0.000	Y_WP:	0.000	X:	0.030	Y:	0.021	Z:	0.049	yaw:	1.059	yaw rate:	-0.358	Roll:	2.300	Pitch:	1.703	Yaw:	1.929	Thrust:	0.000
Time:	0.930	Roll Set Point:	-0.060	Pitch Set Point:	-0.041	Yaw Set Point:	-0.019	X_WP:	0.000	Y_WP:	0.000	Y_WP:	0.000	X:	0.030	Y:	0.021	Z:	0.049	yaw:	1.086	yaw rate:	-2.670	Roll:	2.931	Pitch:	1.882	Yaw:	2.363	Thrust:	0.000
Time:	0.941	Roll Set Point:	-0.060	Pitch Set Point:	-0.041	Yaw Set Point:	-0.019	X_WP:	0.000	Y_WP:	0.000	Y_WP:	0.000	X:	0.030	Y:	0.021	Z:	0.049	yaw:	1.075	yaw rate:	-18.761	Roll:	2.239	Pitch:	1.484	Yaw:	1.543	Thrust:	0.000
Time:	0.951	Roll Set Point:	-0.060	Pitch Set Point:	-0.041	Yaw Set Point:	-0.019	X_WP:	0.000	Y_WP:	0.000	Y_WP:	0.000	X:	0.030	Y:	0.021	Z:	0.049	yaw:	1.067	yaw rate:	0.838	Roll:	2.116	Pitch:	1.433	Yaw:	1.558	Thrust:	0.000
Time:	0.963	Roll Set Point:	-0.059	Pitch Set Point:	-0.041	Yaw Set Point:	-0.016	X_WP:	0.000	Y_WP:	0.000	Y_WP:	0.000	X:	0.030	Y:	0.021	Z:	0.048	yaw:	0.896	yaw rate:	17.074	Roll:	2.140	Pitch:	1.588	Yaw:	-2.345	Thrust:	0.000
Time:	0.975	Roll Set Point:	-0.060	Pitch Set Point:	-0.041	Yaw Set Point:	-0.017	X_WP:	0.000	Y_WP:	0.000	Y_WP:	0.000	X:	0.030	Y:	0.021	Z:	0.048	yaw:	0.978	yaw rate:	-8.212	Roll:	2.493	Pitch:	1.380	Yaw:	3.478	Thrust:	0.000
Time:	0.996	Roll Set Point:	-0.060	Pitch Set Point:	-0.041	Yaw Set Point:	-0.016	X_WP:	0.000	Y_WP:	0.000	Y_WP:	0.000	X:	0.030	Y:	0.021	Z:	0.048	yaw:	0.903	yaw rate:	7.563	Roll:	3.281	Pitch:	2.309	Yaw:	0.860	Thrust:	0.000
Time:	1.007	Roll Set Point:	-0.060	Pitch Set Point:	-0.041	Yaw Set Point:	-0.020	X_WP:	0.000	Y_WP:	0.000	Y_WP:	0.000	X:	0.030	Y:	0.021	Z:	0.048	yaw:	1.139	yaw rate:	-7.816	Roll:	2.587	Pitch:	1.294	Yaw:	7.356	Thrust:	0.000
Time:	1.018	Roll Set Point:	-0.060	Pitch Set Point:	-0.041	Yaw Set Point:	-0.019	X_WP:	0.000	Y_WP:	0.000	Y_WP:	0.000	X:	0.030	Y:	0.021	Z:	0.049	yaw:	1.063	yaw rate:	7.588	Roll:	2.081	Pitch:	1.655	Yaw:	-0.080	Thrust:	0.000
Time:	1.028	Roll Set Point:	-0.060	Pitch Set Point:	-0.041	Yaw Set Point:	-0.019	X_WP:	0.000	Y_WP:	0.000	Y_WP:	0.000	X:	0.030	Y:	0.021	Z:	0.049	yaw:	1.060	yaw rate:	0.343	Roll:	2.218	Pitch:	1.626	Yaw:	1.691	Thrust:	0.000
Time:	1.042	Roll Set Point:	-0.060	Pitch Set Point:	-0.041	Yaw Set Point:	-0.020	X_WP:	0.000	Y_WP:	0.000	Y_WP:	0.000	X:	0.030	Y:	0.021	Z:	0.048	yaw:	1.164	yaw rate:	-10.388	Roll:	2.783	Pitch:	1.503	Yaw:	4.087	Thrust:	0.000
Time:	1.064	Roll Set Point:	-0.060	Pitch Set Point:	-0.041	Yaw Set Point:	-0.018	X_WP:	0.000	Y_WP:	0.000	Y_WP:	0.000	X:	0.030	Y:	0.021	Z:	0.049	yaw:	1.038	yaw rate:	12.591	Roll:	3.469	Pitch:	2.574	Yaw:	0.661	Thrust:	0.000
Time:	1.076	Roll Set Point:	-0.060	Pitch Set Point:	-0.041	Yaw Set Point:	-0.016	X_WP:	0.000	Y_WP:	0.000	Y_WP:	0.000	X:	0.030	Y:	0.021	Z:	0.049	yaw:	0.916	yaw rate:	15.021	Roll:	2.507	Pitch:	1.717	Yaw:	-0.860	Thrust:	0.000
Time:	1.088	Roll Set Point:	-0.060	Pitch Set Point:	-0.041	Yaw Set Point:	-0.019	X_WP:	0.000	Y_WP:	0.000	Y_WP:	0.000	X:	0.030	Y:	0.021	Z:	0.049	yaw:	1.066	yaw rate:	-14.926	Roll:	2.639	Pitch:	1.583	Yaw:	5.207	Thrust:	0.000
Time:	1.099	Roll Set Point:	-0.060	Pitch Set Point:	-0.041	Yaw Set Point:	-0.018	X_WP:	0.000	Y_WP:	0.000	Y_WP:	0.000	X:	0.030	Y:	0.021	Z:	0.049	yaw:	1.056	yaw rate:	0.942	Roll:	2.253	Pitch:	1.570	Yaw:	1.562	Thrust:	0.000
Time:	1.115	Roll Set Point:	-0.060	Pitch Set Point:	-0.041	Yaw Set Point:	-0.018	X_WP:	0.000	Y_WP:	0.000	Y_WP:	0.000	X:	0.030	Y:	0.021	Z:	0.049	yaw:	1.055	yaw rate:	0.165	Roll:	2.847	Pitch:	2.027	Yaw:	1.954	Thrust:	0.000
Time:	1.130	Roll Set Point:	-0.060	Pitch Set Point:	-0.041	Yaw Set Point:	-0.020	X_WP:	0.000	Y_WP:	0.000	Y_WP:	0.000	X:	0.030	Y:	0.021	Z:	0.048	yaw:	1.162	yaw rate:	-10.704	Roll:	3.269	Pitch:	1.865	Yaw:	3.997	Thrust:	0.000
Time:	1.141	Roll Set Point:	-0.060	Pitch Set Point:	-0.041	Yaw Set Point:	-0.018	X_WP:	0.000	Y_WP:	0.000	Y_WP:	0.000	X:	0.030	Y:	0.021	Z:	0.049	yaw:	1.056	yaw rate:	10.578	Roll:	2.317	Pitch:	1.920	Yaw:	-0.575	Thrust:	0.000
Time:	1.152	Roll Set Point:	-0.060	Pitch Set Point:	-0.041	Yaw Set Point:	-0.019	X_WP:	0.000	Y_WP:	0.000	Y_WP:	0.000	X:	0.030	Y:	0.021	Z:	0.049	yaw:	1.088	yaw rate:	-3.250	Roll:	2.480	Pitch:	1.533	Yaw:	2.644	Thrust:	0.000
Time:	1.163	Roll Set Point:	-0.060	Pitch Set Point:	-0.041	Yaw Set Point:	-0.019	X_WP:	0.000	Y_WP:	0.000	Y_WP:	0.000	X:	0.030	Y:	0.021	Z:	0.049	yaw:	1.063	yaw rate:	2.931	Roll:	2.503	Pitch:	1.768	Yaw:	1.196	Thrust:	0.000
Time:	1.175	Roll Set Point:	-0.060	Pitch Set Point:	-0.041	Yaw Set Point:	-0.018	X_WP:	0.000	Y_WP:	0.000	Y_WP:	0.000	X:	0.030	Y:	0.021	Z:	0.049	yaw:	1.040	yaw rate:	2.231	Roll:	2.363	Pitch:	1.738	Yaw:	1.359	Thrust:	0.000
Time:	1.193	Roll Set Point:	-0.060	Pitch Set Point:	-0.041	Yaw Set Point:	-0.020	X_WP:	0.000	Y_WP:	0.000	Y_WP:	0.000	X:	0.030	Y:	0.021	Z:	0.048	yaw:	1.134	yaw rate:	-9.368	Roll:	3.512	Pitch:	2.054	Yaw:	3.534	Thrust:	0.000
Time:	1.205	Roll Set Point:	-0.060	Pitch Set Point:	-0.041	Yaw Set Point:	-0.019	X_WP:	0.000	Y_WP:	0.000	Y_WP:	0.000	X:	0.030	Y:	0.021	Z:	0.049	yaw:	1.079	yaw rate:	5.489	Roll:	2.614	Pitch:	2.007	Yaw:	0.659	Thrust:	0.000
Time:	1.216	Roll Set Point:	-0.060	Pitch Set Point:	-0.041	Yaw Set Point:	-0.020	X_WP:	0.000	Y_WP:	0.000	Y_WP:	0.000	X:	0.030	Y:	0.021	Z:	0.048	yaw:	1.140	yaw rate:	-6.077	Roll:	2.751	Pitch:	1.543	Yaw:	3.376	Thrust:	0.000
Time:	1.227	Roll Set Point:	-0.060	Pitch Set Point:	-0.041	Yaw Set Point:	-0.019	X_WP:	0.000	Y_WP:	0.000	Y_WP:	0.000	X:	0.030	Y:	0.021	Z:	0.049	yaw:	1.072	yaw rate:	6.772	Roll:	2.401	Pitch:	1.923	Yaw:	0.196	Thrust:	0.000
Time:	1.238	Roll Set Point:	-0.060	Pitch Set Point:	-0.041	Yaw Set Point:	-0.018	X_WP:	0.000	Y_WP:	0.000	Y_WP:	0.000	X:	0.030	Y:	0.021	Z:	0.049	yaw:	1.041	yaw rate:	3.073	Roll:	2.534	Pitch:	1.695	Yaw:	1.099	Thrust:	0.000
Time:	1.253	Roll Set Point:	-0.060	Pitch Set Point:	-0.041	Yaw Set Point:	-0.019	X_WP:	0.000	Y_WP:	0.000	Y_WP:	0.000	X:	0.030	Y:	0.021	Z:	0.048	yaw:	1.091	yaw rate:	-4.908	Roll:	2.800	Pitch:	1.748	Yaw:	2.912	Thrust:	0.000
Time:	1.265	Roll Set Point:	-0.060	Pitch Set Point:	-0.041	Yaw Set Point:	-0.016	X_WP:	0.000	Y_WP:	0.000	Y_WP:	0.000	X:	0.030	Y:	0.021	Z:	0.048	yaw:	0.904	yaw rate:	18.630	Roll:	3.059	Pitch:	2.256	Yaw:	-2.098	Thrust:	0.000
Time:	1.276	Roll Set Point:	-0.060	Pitch Set Point:	-0.041	Yaw Set Point:	-0.018	X_WP:	0.000	Y_WP:	0.000	Y_WP:	0.000	X:	0.030	Y:	0.021	Z:	0.049	yaw:	1.049	yaw rate:	-14.511	Roll:	2.740	Pitch:	1.771	Yaw:	5.311	Thrust:	0.000
Time:	1.288	Roll Set Point:	-0.060	Pitch Set Point:	-0.041	Yaw Set Point:	-0.016	X_WP:	0.000	Y_WP:	0.000	Y_WP:	0.000	X:	0.030	Y:	0.021	Z:	0.048	yaw:	0.905	yaw rate:	14.464	Roll:	2.633	Pitch:	1.781	Yaw:	-1.461	Thrust:	0.000
Time:	1.298	Roll Set Point:	-0.060	Pitch Set Point:	-0.041	Yaw Set Point:	-0.019	X_WP:	0.000	Y_WP:	0.000	Y_WP:	0.000	X:	0.030	Y:	0.021	Z:	0.048	yaw:	1.098	yaw rate:	-19.351	Roll:	2.812	Pitch:	1.522	Yaw:	6.710	Thrust:	0.000
Time:	1.311	Roll Set Point:	-0.060	Pitch Set Point:	-0.041	Yaw Set Point:	-0.018	X_WP:	0.000	Y_WP:	0.000	Y_WP:	0.000	X:	0.030	Y:	0.021	Z:	0.049	yaw:	1.051	yaw rate:	4.694	Roll:	2.673	Pitch:	2.131	Yaw:	0.924	Thrust:	0.000
Time:	1.328	Roll Set Point:	-0.060	Pitch Set Point:	-0.041	Yaw Set Point:	-0.020	X_WP:	0.000	Y_WP:	0.000	Y_WP:	0.000	X:	0.030	Y:	0.021	Z:	0.048	yaw:	1.129	yaw rate:	-7.814	Roll:	3.564	Pitch:	2.181	Yaw:	3.428	Thrust:	0.000
Time:	1.339	Roll Set Point:	-0.060	Pitch Set Point:	-0.041	Yaw Set Point:	-0.019	X_WP:	0.000	Y_WP:	0.000	Y_WP:	0.000	X:	0.030	Y:	0.021	Z:	0.049	yaw:	1.074	yaw rate:	5.518	Roll:	2.978	Pitch:	2.191	Yaw:	0.782	Thrust:	0.000
Time:	1.350	Roll Set Point:	-0.060	Pitch Set Point:	-0.041	Yaw Set Point:	-0.018	X_WP:	0.000	Y_WP:	0.000	Y_WP:	0.000	X:	0.030	Y:	0.021	Z:	0.049	yaw:	1.051	yaw rate:	2.379	Roll:	2.559	Pitch:	1.752	Yaw:	1.271	Thrust:	0.000
Time:	1.361	Roll Set Point:	-0.060	Pitch Set Point:	-0.041	Yaw Set Point:	-0.019	X_WP:	0.000	Y_WP:	0.000	Y_WP:	0.000	X:	0.030	Y:	0.021	Z:	0.049	yaw:	1.090	yaw rate:	-3.965	Roll:	2.788	Pitch:	1.822	Yaw:	2.904	Thrust:	0.000
Time:	1.372	Roll Set Point:	-0.060	Pitch Set Point:	-0.041	Yaw Set Point:	-0.019	X_WP:	0.000	Y_WP:	0.000	Y_WP:	0.000	X:	0.030	Y:	0.021	Z:	0.049	yaw:	1.076	yaw rate:	1.458	Roll:	2.533	Pitch:	1.744	Yaw:	1.580	Thrust:	0.000
Time:	1.387	Roll Set Point:	-0.060	Pitch Set Point:	-0.041	Yaw Set Point:	-0.018	X_WP:	0.000	Y_WP:	0.000	Y_WP:	0.000	X:	0.030	Y:	0.021	Z:	0.049	yaw:	1.039	yaw rate:	3.673	Roll:	2.901	Pitch:	2.076	Yaw:	1.221	Thrust:	0.000
Time:	1.404	Roll Set Point:	-0.060	Pitch Set Point:	-0.041	Yaw Set Point:	-0.019	X_WP:	0.000	Y_WP:	0.000	Y_WP:	0.000	X:	0.030	Y:	0.021	Z:	0.049	yaw:	1.072	yaw rate:	-3.297	Roll:	4.363	Pitch:	2.826	Yaw:	2.702	Thrust:	0.000
Time:	1.416	Roll Set Point:	-0.060	Pitch Set Point:	-0.041	Yaw Set Point:	-0.019	X_WP:	0.000	Y_WP:	0.000	Y_WP:	0.000	X:	0.030	Y:	0.021	Z:	0.049	yaw:	1.071	yaw rate:	0.056	Roll:	2.936	Pitch:	2.010	Yaw:	1.947	Thrust:	0.000
Time:	1.427	Roll Set Point:	-0.060	Pitch Set Point:	-0.041	Yaw Set Point:	-0.019	X_WP:	0.000	Y_WP:	0.000	Y_WP:	0.000	X:	0.030	Y:	0.021	Z:	0.049	yaw:	1.088	yaw rate:	-1.641	Roll:	2.993	Pitch:	1.910	Yaw:	2.352	Thrust:	0.000
Time:	1.439	Roll Set Point:	-0.060	Pitch Set Point:	-0.041	Yaw Set Point:	-0.018	X_WP:	0.000	Y_WP:	0.000	Y_WP:	0.000	X:	0.030	Y:	0.021	Z:	0.049	yaw:	1.053	yaw rate:	3.526	Roll:	2.986	Pitch:	2.013	Yaw:	1.188	Thrust:	0.000
Time:	1.461	Roll Set Point:	-0.060	Pitch Set Point:	-0.041	Yaw Set Point:	-0.019	X_WP:	0.000	Y_WP:	0.000	Y_WP:	0.000	X:	0.030	Y:	0.021	Z:	0.049	yaw:	1.074	yaw rate:	-5.033	Roll:	4.185	Pitch:	2.879	Yaw:	2.616	Thrust:	0.000
Time:	1.472	Roll Set Point:	-0.060	Pitch Set Point:	-0.041	Yaw Set Point:	-0.016	X_WP:	0.000	Y_WP:	0.000	Y_WP:	0.000	X:	0.030	Y:	0.021	Z:	0.049	yaw:	0.907	yaw rate:	15.591	Roll:	3.150	Pitch:	2.144	Yaw:	-1.874	Thrust:	0.000
Time:	1.483	Roll Set Point:	-0.060	Pitch Set Point:	-0.041	Yaw Set Point:	-0.019	X_WP:	0.000	Y_WP:	0.000	Y_WP:	0.000	X:	0.030	Y:	0.021	Z:	0.049	yaw:	1.083	yaw rate:	-17.614	Roll:	3.027	Pitch:	1.991	Yaw:	6.108	Thrust:	0.000
Time:	1.494	Roll Set Point:	-0.060	Pitch Set Point:	-0.041	Yaw Set Point:	-0.019	X_WP:	0.000	Y_WP:	0.000	Y_WP:	0.000	X:	0.030	Y:	0.021	Z:	0.049	yaw:	1.085	yaw rate:	-0.187	Roll:	2.807	Pitch:	1.778	Yaw:	2.001	Thrust:	0.000
Time:	1.506	Roll Set Point:	-0.060	Pitch Set Point:	-0.041	Yaw Set Point:	-0.019	X_WP:	0.000	Y_WP:	0.000	Y_WP:	0.000	X:	0.030	Y:	0.021	Z:	0.048	yaw:	1.103	yaw rate:	-1.836	Roll:	3.113	Pitch:	1.903	Yaw:	2.443	Thrust:	0.000
Time:	1.527	Roll Set Point:	-0.060	Pitch Set Point:	-0.041	Yaw Set Point:	-0.018	X_WP:	0.000	Y_WP:	0.000	Y_WP:	0.000	X:	0.030	Y:	0.021	Z:	0.049	yaw:	1.047	yaw rate:	5.580	Roll:	3.080	Pitch:	3.014	Yaw:	1.705	Thrust:	0.000
Time:	1.538	Roll Set Point:	-0.060	Pitch Set Point:	-0.041	Yaw Set Point:	-0.021	X_WP:	0.000	Y_WP:	0.000	Y_WP:	0.000	X:	0.030	Y:	0.021	Z:	0.048	yaw:	1.197	yaw rate:	-14.953	Roll:	4.627	Pitch:	2.166	Yaw:	5.696	Thrust:	0.000
Time:	1.550	Roll Set Point:	-0.060	Pitch Set Point:	-0.041	Yaw Set Point:	-0.019	X_WP:	0.000	Y_WP:	0.000	Y_WP:	0.000	X:	0.030	Y:	0.021	Z:	0.049	yaw:	1.072	yaw rate:	1.690	Roll:	2.957	Pitch:	2.230	Yaw:	-0.875	Thrust:	0.000
Time:	1.561	Roll Set Point:	-0.060	Pitch Set Point:	-0.041	Yaw Set Point:	-0.019	X_WP:	0.000	Y_WP:	0.000	Y_WP:	0.000	X:	0.030	Y:	0.021	Z:	0.049	yaw:	1.070	yaw rate:	0.175	Roll:	3.021	Pitch:	2.013	Yaw:	1.937	Thrust:	0.000
Time:	1.572	Roll Set Point:	-0.060	Pitch Set Point:	-0.041	Yaw Set Point:	-0.019	X_WP:	0.000	Y_WP:	0.000	Y_WP:	0.000	X:	0.030	Y:	0.021	Z:	0.049	yaw:	1.067	yaw rate:	0.281	Roll:	2.836	Pitch:	1.869	Yaw:	1.910	Thrust:	0.000
Time:	1.591	Roll Set Point:	-0.060	Pitch Set Point:	-0.041	Yaw Set Point:	-0.019	X_WP:	0.000	Y_WP:	0.000	Y_WP:	0.000	X:	0.030	Y:	0.021	Z:	0.049	yaw:	1.081	yaw rate:	-1.410	Roll:	4.564	Pitch:	3.089	Yaw:	2.554	Thrust:	0.000
Time:	1.603	Roll Set Point:	-0.060	Pitch Set Point:	-0.041	Yaw Set Point:	-0.019	X_WP:	0.000	Y_WP:	0.000	Y_WP:	0.000	X:	0.030	Y:	0.021	Z:	0.049	yaw:	1.095	yaw rate:	-1.349	Roll:	3.232	Pitch:	2.153	Yaw:	2.362	Thrust:	0.000
Time:	1.614	Roll Set Point:	-0.060	Pitch Set Point:	-0.041	Yaw Set Point:	-0.018	X_WP:	0.000	Y_WP:	0.000	Y_WP:	0.000	X:	0.030	Y:	0.021	Z:	0.049	yaw:	1.020	yaw rate:	5.972	Roll:	3.090	Pitch:	2.167	Yaw:	0.271	Thrust:	0.000
Time:	1.625	Roll Set Point:	-0.060	Pitch Set Point:	-0.041	Yaw Set Point:	-0.019	X_WP:	0.000	Y_WP:	0.000	Y_WP:	0.000	X:	0.030	Y:	0.021	Z:	0.049	yaw:	1.076	yaw rate:	-5.617	Roll:	3.076	Pitch:	1.939	Yaw:	3.415	Thrust:	0.000
Time:	1.635	Roll Set Point:	-0.060	Pitch Set Point:	-0.041	Yaw Set Point:	-0.018	X_WP:	0.000	Y_WP:	0.000	Y_WP:	0.000	X:	0.030	Y:	0.021	Z:	0.049	yaw:	1.034	yaw rate:	4.261	Roll:	2.845	Pitch:	2.026	Yaw:	0.797	Thrust:	0.000
Time:	1.648	Roll Set Point:	-0.060	Pitch Set Point:	-0.041	Yaw Set Point:	-0.015	X_WP:	0.000	Y_WP:	0.000	Y_WP:	0.000	X:	0.030	Y:	0.021	Z:	0.049	yaw:	0.876	yaw rate:	15.754	Roll:	3.385	Pitch:	2.356	Yaw:	-1.196	Thrust:	0.000
Time:	1.663	Roll Set Point:	-0.060	Pitch Set Point:	-0.041	Yaw Set Point:	-0.019	X_WP:	0.000	Y_WP:	0.000	Y_WP:	0.000	X:	0.030	Y:	0.021	Z:	0.049	yaw:	1.094	yaw rate:	-21.756	Roll:	3.925	Pitch:	2.492	Yaw:	6.115	Thrust:	0.000
Time:	1.674	Roll Set Point:	-0.060	Pitch Set Point:	-0.041	Yaw Set Point:	-0.016	X_WP:	0.000	Y_WP:	0.000	Y_WP:	0.000	X:	0.030	Y:	0.021	Z:	0.049	yaw:	0.905	yaw rate:	18.916	Roll:	3.015	Pitch:	2.201	Yaw:	-2.767	Thrust:	0.000
Time:	1.684	Roll Set Point:	-0.060	Pitch Set Point:	-0.041	Yaw Set Point:	-0.020	X_WP:	0.000	Y_WP:	0.000	Y_WP:	0.000	X:	0.030	Y:	0.021	Z:	0.048	yaw:	1.137	yaw rate:	-23.277	Roll:	3.304	Pitch:	1.748	Yaw:	7.868	Thrust:	0.000
Time:	1.695	Roll Set Point:	-0.060	Pitch Set Point:	-0.041	Yaw Set Point:	-0.018	X_WP:	0.000	Y_WP:	0.000	Y_WP:	0.000	X:	0.030	Y:	0.021	Z:	0.049	yaw:	1.047	yaw rate:	9.066	Roll:	2.993	Pitch:	2.332	Yaw:	-0.183	Thrust:	0.000
Time:	1.707	Roll Set Point:	-0.060	Pitch Set Point:	-0.041	Yaw Set Point:	-0.018	X_WP:	0.000	Y_WP:	0.000	Y_WP:	0.000	X:	0.030	Y:	0.021	Z:	0.049	yaw:	1.058	yaw rate:	-1.133	Roll:	3.383	Pitch:	2.185	Yaw:	2.301	Thrust:	0.000
Time:	1.729	Roll Set Point:	-0.060	Pitch Set Point:	-0.041	Yaw Set Point:	-0.019	X_WP:	0.000	Y_WP:	0.000	Y_WP:	0.000	X:	0.030	Y:	0.021	Z:	0.049	yaw:	1.072	yaw rate:	-1.415	Roll:	5.126	Pitch:	3.532	Yaw:	2.704	Thrust:	0.000
Time:	1.740	Roll Set Point:	-0.060	Pitch Set Point:	-0.041	Yaw Set Point:	-0.019	X_WP:	0.000	Y_WP:	0.000	Y_WP:	0.000	X:	0.030	Y:	0.021	Z:	0.049	yaw:	1.113	yaw rate:	-2.728	Roll:	3.485	Pitch:	2.130	Yaw:	3.040	Thrust:	0.000
Time:	1.751	Roll Set Point:	-0.060	Pitch Set Point:	-0.041	Yaw Set Point:	-0.018	X_WP:	0.000	Y_WP:	0.000	Y_WP:	0.000	X:	0.030	Y:	0.021	Z:	0.049	yaw:	1.050	yaw rate:	6.207	Roll:	3.053	Pitch:	2.206	Yaw:	0.424	Thrust:	0.000
Time:	1.762	Roll Set Point:	-0.060	Pitch Set Point:	-0.041	Yaw Set Point:	-0.020	X_WP:	0.000	Y_WP:	0.000	Y_WP:	0.000	X:	0.030	Y:	0.021	Z:	0.048	yaw:	1.147	yaw rate:	-9.648	Roll:	3.506	Pitch:	2.037	Yaw:	4.372	Thrust:	0.000
Time:	1.773	Roll Set Point:	-0.060	Pitch Set Point:	-0.041	Yaw Set Point:	-0.020	X_WP:	0.000	Y_WP:	0.000	Y_WP:	0.000	X:	0.030	Y:	0.021	Z:	0.048	yaw:	1.160	yaw rate:	-1.307	Roll:	3.114	Pitch:	2.028	Yaw:	2.481	Thrust:	0.000
Time:	1.792	Roll Set Point:	-0.060	Pitch Set Point:	-0.041	Yaw Set Point:	-0.019	X_WP:	0.000	Y_WP:	0.000	Y_WP:	0.000	X:	0.030	Y:	0.021	Z:	0.049	yaw:	1.073	yaw rate:	8.723	Roll:	3.647	Pitch:	2.881	Yaw:	1.325	Thrust:	0.000
Time:	1.805	Roll Set Point:	-0.060	Pitch Set Point:	-0.041	Yaw Set Point:	-0.019	X_WP:	0.000	Y_WP:	0.000	Y_WP:	0.000	X:	0.030	Y:	0.021	Z:	0.049	yaw:	1.072	yaw rate:	2.797	Roll:	4.887	Pitch:	3.207	Yaw:	2.135	Thrust:	0.000
Time:	1.817	Roll Set Point:	-0.060	Pitch Set Point:	-0.041	Yaw Set Point:	-0.018	X_WP:	0.000	Y_WP:	0.000	Y_WP:	0.000	X:	0.030	Y:	0.021	Z:	0.049	yaw:	1.054	yaw rate:	1.762	Roll:	3.580	Pitch:	2.381	Yaw:	1.669	Thrust:	0.000
Time:	1.828	Roll Set Point:	-0.060	Pitch Set Point:	-0.041	Yaw Set Point:	-0.020	X_WP:	0.000	Y_WP:	0.000	Y_WP:	0.000	X:	0.030	Y:	0.021	Z:	0.048	yaw:	1.154	yaw rate:	-10.020	Roll:	3.536	Pitch:	1.988	Yaw:	4.624	Thrust:	0.000
Time:	1.841	Roll Set Point:	-0.060	Pitch Set Point:	-0.041	Yaw Set Point:	-0.019	X_WP:	0.000	Y_WP:	0.000	Y_WP:	0.000	X:	0.030	Y:	0.021	Z:	0.049	yaw:	1.064	yaw rate:	9.075	Roll:	3.622	Pitch:	2.705	Yaw:	0.339	Thrust:	0.000
Time:	1.862	Roll Set Point:	-0.060	Pitch Set Point:	-0.041	Yaw Set Point:	-0.019	X_WP:	0.000	Y_WP:	0.000	Y_WP:	0.000	X:	0.030	Y:	0.021	Z:	0.049	yaw:	1.074	yaw rate:	-1.032	Roll:	5.537	Pitch:	3.685	Yaw:	2.761	Thrust:	0.000
Time:	1.873	Roll Set Point:	-0.060	Pitch Set Point:	-0.041	Yaw Set Point:	-0.019	X_WP:	0.000	Y_WP:	0.000	Y_WP:	0.000	X:	0.030	Y:	0.021	Z:	0.049	yaw:	1.077	yaw rate:	-1.384	Roll:	3.363	Pitch:	2.331	Yaw:	2.134	Thrust:	0.000
Time:	1.885	Roll Set Point:	-0.060	Pitch Set Point:	-0.041	Yaw Set Point:	-0.019	X_WP:	0.000	Y_WP:	0.000	Y_WP:	0.000	X:	0.030	Y:	0.021	Z:	0.049	yaw:	1.073	yaw rate:	0.381	Roll:	3.444	Pitch:	2.224	Yaw:	2.031	Thrust:	0.000
Time:	1.895	Roll Set Point:	-0.060	Pitch Set Point:	-0.041	Yaw Set Point:	-0.019	X_WP:	0.000	Y_WP:	0.000	Y_WP:	0.000	X:	0.030	Y:	0.021	Z:	0.049	yaw:	1.088	yaw rate:	-1.480	Roll:	3.322	Pitch:	2.363	Yaw:	2.451	Thrust:	0.000
Time:	1.909	Roll Set Point:	-0.060	Pitch Set Point:	-0.041	Yaw Set Point:	-0.019	X_WP:	0.000	Y_WP:	0.000	Y_WP:	0.000	X:	0.030	Y:	0.021	Z:	0.049	yaw:	1.088	yaw rate:	-0.033	Roll:	3.888	Pitch:	2.541	Yaw:	2.253	Thrust:	0.000
Time:	1.930	Roll Set Point:	-0.060	Pitch Set Point:	-0.041	Yaw Set Point:	-0.020	X_WP:	0.000	Y_WP:	0.000	Y_WP:	0.000	X:	0.030	Y:	0.021	Z:	0.048	yaw:	1.122	yaw rate:	-3.410	Roll:	5.809	Pitch:	3.733	Yaw:	3.115	Thrust:	0.000
Time:	1.940	Roll Set Point:	-0.060	Pitch Set Point:	-0.041	Yaw Set Point:	-0.020	X_WP:	0.000	Y_WP:	0.000	Y_WP:	0.000	X:	0.030	Y:	0.021	Z:	0.048	yaw:	1.135	yaw rate:	0.167	Roll:	3.464	Pitch:	2.278	Yaw:	2.470	Thrust:	0.000
Time:	1.951	Roll Set Point:	-0.060	Pitch Set Point:	-0.041	Yaw Set Point:	-0.019	X_WP:	0.000	Y_WP:	0.000	Y_WP:	0.000	X:	0.030	Y:	0.021	Z:	0.049	yaw:	1.083	yaw rate:	5.162	Roll:	3.025	Pitch:	2.532	Yaw:	0.808	Thrust:	0.000
Time:	1.962	Roll Set Point:	-0.060	Pitch Set Point:	-0.041	Yaw Set Point:	-0.019	X_WP:	0.000	Y_WP:	0.000	Y_WP:	0.000	X:	0.030	Y:	0.021	Z:	0.049	yaw:	1.075	yaw rate:	0.783	Roll:	3.671	Pitch:	2.287	Yaw:	1.931	Thrust:	0.000
Time:	1.974	Roll Set Point:	-0.060	Pitch Set Point:	-0.041	Yaw Set Point:	-0.019	X_WP:	0.000	Y_WP:	0.000	Y_WP:	0.000	X:	0.030	Y:	0.021	Z:	0.049	yaw:	1.082	yaw rate:	-0.703	Roll:	3.525	Pitch:	2.428	Yaw:	2.334	Thrust:	0.000
Time:	1.995	Roll Set Point:	-0.060	Pitch Set Point:	-0.041	Yaw Set Point:	-0.018	X_WP:	0.000	Y_WP:	0.000	Y_WP:	0.000	X:	0.030	Y:	0.021	Z:	0.049	yaw:	1.059	yaw rate:	2.268	Roll:	5.413	Pitch:	3.819	Yaw:	2.343	Thrust:	0.000
Time:	2.006	Roll Set Point:	-0.060	Pitch Set Point:	-0.041	Yaw Set Point:	-0.019	X_WP:	0.000	Y_WP:	0.000	Y_WP:	0.000	X:	0.030	Y:	0.021	Z:	0.049	yaw:	1.062	yaw rate:	5.581	Roll:	3.906	Pitch:	2.425	Yaw:	2.158	Thrust:	0.000
Time:	2.016	Roll Set Point:	-0.060	Pitch Set Point:	-0.041	Yaw Set Point:	-0.019	X_WP:	0.000	Y_WP:	0.000	Y_WP:	0.000	X:	0.030	Y:	0.021	Z:	0.048	yaw:	1.106	yaw rate:	-4.388	Roll:	3.734	Pitch:	2.269	Yaw:	3.216	Thrust:	0.000
Time:	2.028	Roll Set Point:	-0.060	Pitch Set Point:	-0.041	Yaw Set Point:	-0.019	X_WP:	0.000	Y_WP:	0.000	Y_WP:	0.000	X:	0.030	Y:	0.021	Z:	0.049	yaw:	1.101	yaw rate:	0.503	Roll:	3.637	Pitch:	2.573	Yaw:	2.068	Thrust:	0.000
Time:	2.039	Roll Set Point:	-0.060	Pitch Set Point:	-0.041	Yaw Set Point:	-0.019	X_WP:	0.000	Y_WP:	0.000	Y_WP:	0.000	X:	0.030	Y:	0.021	Z:	0.049	yaw:	1.067	yaw rate:	3.361	Roll:	3.306	Pitch:	2.346	Yaw:	1.327	Thrust:	0.000
Time:	2.061	Roll Set Point:	-0.060	Pitch Set Point:	-0.041	Yaw Set Point:	-0.018	X_WP:	0.000	Y_WP:	0.000	Y_WP:	0.000	X:	0.030	Y:	0.021	Z:	0.049	yaw:	1.032	yaw rate:	3.483	Roll:	4.241	Pitch:	4.255	Yaw:	2.349	Thrust:	0.000
Time:	2.071	Roll Set Point:	-0.060	Pitch Set Point:	-0.041	Yaw Set Point:	-0.019	X_WP:	0.000	Y_WP:	0.000	Y_WP:	0.000	X:	0.030	Y:	0.021	Z:	0.049	yaw:	1.091	yaw rate:	-1.853	Roll:	5.771	Pitch:	2.336	Yaw:	3.659	Thrust:	0.000
Time:	2.083	Roll Set Point:	-0.060	Pitch Set Point:	-0.041	Yaw Set Point:	-0.018	X_WP:	0.000	Y_WP:	0.000	Y_WP:	0.000	X:	0.030	Y:	0.021	Z:	0.049	yaw:	1.023	yaw rate:	6.877	Roll:	3.613	Pitch:	2.647	Yaw:	0.564	Thrust:	0.000
Time:	2.095	Roll Set Point:	-0.060	Pitch Set Point:	-0.041	Yaw Set Point:	-0.018	X_WP:	0.000	Y_WP:	0.000	Y_WP:	0.000	X:	0.030	Y:	0.021	Z:	0.049	yaw:	1.058	yaw rate:	-3.555	Roll:	3.767	Pitch:	2.372	Yaw:	2.971	Thrust:	0.000
Time:	2.106	Roll Set Point:	-0.060	Pitch Set Point:	-0.041	Yaw Set Point:	-0.019	X_WP:	0.000	Y_WP:	0.000	Y_WP:	0.000	X:	0.030	Y:	0.021	Z:	0.048	yaw:	1.110	yaw rate:	-5.137	Roll:	3.761	Pitch:	2.341	Yaw:	3.424	Thrust:	0.000
Time:	2.128	Roll Set Point:	-0.060	Pitch Set Point:	-0.041	Yaw Set Point:	-0.020	X_WP:	0.000	Y_WP:	0.000	Y_WP:	0.000	X:	0.030	Y:	0.021	Z:	0.048	yaw:	1.126	yaw rate:	-1.619	Roll:	6.172	Pitch:	4.209	Yaw:	3.090	Thrust:	0.000
Time:	2.139	Roll Set Point:	-0.060	Pitch Set Point:	-0.041	Yaw Set Point:	-0.019	X_WP:	0.000	Y_WP:	0.000	Y_WP:	0.000	X:	0.030	Y:	0.021	Z:	0.049	yaw:	1.084	yaw rate:	4.204	Roll:	3.900	Pitch:	2.699	Yaw:	1.190	Thrust:	0.000
Time:	2.150	Roll Set Point:	-0.060	Pitch Set Point:	-0.041	Yaw Set Point:	-0.020	X_WP:	0.000	Y_WP:	0.000	Y_WP:	0.000	X:	0.030	Y:	0.021	Z:	0.048	yaw:	1.124	yaw rate:	-5.016	Roll:	3.993	Pitch:	2.391	Yaw:	3.177	Thrust:	0.000
Time:	2.162	Roll Set Point:	-0.060	Pitch Set Point:	-0.041	Yaw Set Point:	-0.019	X_WP:	0.000	Y_WP:	0.000	Y_WP:	0.000	X:	0.030	Y:	0.021	Z:	0.049	yaw:	1.090	yaw rate:	3.440	Roll:	3.834	Pitch:	2.762	Yaw:	1.406	Thrust:	0.000
Time:	2.174	Roll Set Point:	-0.060	Pitch Set Point:	-0.041	Yaw Set Point:	-0.018	X_WP:	0.000	Y_WP:	0.000	Y_WP:	0.000	X:	0.030	Y:	0.021	Z:	0.049	yaw:	1.052	yaw rate:	3.786	Roll:	3.673	Pitch:	2.602	Yaw:	1.246	Thrust:	0.000
Time:	2.194	Roll Set Point:	-0.059	Pitch Set Point:	-0.041	Yaw Set Point:	-0.016	X_WP:	0.000	Y_WP:	0.000	Y_WP:	0.000	X:	0.030	Y:	0.021	Z:	0.049	yaw:	0.890	yaw rate:	16.165	Roll:	5.952	Pitch:	4.093	Yaw:	0.614	Thrust:	0.000
Time:	2.205	Roll Set Point:	-0.060	Pitch Set Point:	-0.041	Yaw Set Point:	-0.019	X_WP:	0.000	Y_WP:	0.000	Y_WP:	0.000	X:	0.030	Y:	0.021	Z:	0.049	yaw:	1.065	yaw rate:	-17.507	Roll:	4.133	Pitch:	2.602	Yaw:	6.349	Thrust:	0.000
Time:	2.216	Roll Set Point:	-0.060	Pitch Set Point:	-0.041	Yaw Set Point:	-0.019	X_WP:	0.000	Y_WP:	0.000	Y_WP:	0.000	X:	0.030	Y:	0.021	Z:	0.049	yaw:	1.073	yaw rate:	-0.824	Roll:	3.755	Pitch:	2.544	Yaw:	2.363	Thrust:	0.000
Time:	2.226	Roll Set Point:	-0.060	Pitch Set Point:	-0.041	Yaw Set Point:	-0.018	X_WP:	0.000	Y_WP:	0.000	Y_WP:	0.000	X:	0.030	Y:	0.021	Z:	0.049	yaw:	1.059	yaw rate:	1.495	Roll:	3.838	Pitch:	2.516	Yaw:	1.771	Thrust:	0.000
Time:	2.237	Roll Set Point:	-0.060	Pitch Set Point:	-0.041	Yaw Set Point:	-0.019	X_WP:	0.000	Y_WP:	0.000	Y_WP:	0.000	X:	0.030	Y:	0.021	Z:	0.049	yaw:	1.061	yaw rate:	-0.253	Roll:	3.589	Pitch:	2.589	Yaw:	2.238	Thrust:	0.000
Time:	2.258	Roll Set Point:	-0.060	Pitch Set Point:	-0.041	Yaw Set Point:	-0.019	X_WP:	0.000	Y_WP:	0.000	Y_WP:	0.000	X:	0.030	Y:	0.021	Z:	0.049	yaw:	1.085	yaw rate:	-2.411	Roll:	5.054	Pitch:	3.241	Yaw:	3.081	Thrust:	0.000
Time:	2.268	Roll Set Point:	-0.060	Pitch Set Point:	-0.041	Yaw Set Point:	-0.020	X_WP:	0.000	Y_WP:	0.000	Y_WP:	0.000	X:	0.030	Y:	0.021	Z:	0.048	yaw:	1.126	yaw rate:	-6.567	Roll:	5.257	Pitch:	3.281	Yaw:	3.241	Thrust:	0.000
Time:	2.280	Roll Set Point:	-0.060	Pitch Set Point:	-0.041	Yaw Set Point:	-0.019	X_WP:	0.000	Y_WP:	0.000	Y_WP:	0.000	X:	0.030	Y:	0.021	Z:	0.049	yaw:	1.067	yaw rate:	5.881	Roll:	3.738	Pitch:	2.853	Yaw:	0.910	Thrust:	0.000
Time:	2.290	Roll Set Point:	-0.060	Pitch Set Point:	-0.041	Yaw Set Point:	-0.018	X_WP:	0.000	Y_WP:	0.000	Y_WP:	0.000	X:	0.030	Y:	0.021	Z:	0.049	yaw:	1.042	yaw rate:	2.471	Roll:	3.780	Pitch:	2.594	Yaw:	1.519	Thrust:	0.000
Time:	2.302	Roll Set Point:	-0.060	Pitch Set Point:	-0.041	Yaw Set Point:	-0.020	X_WP:	0.000	Y_WP:	0.000	Y_WP:	0.000	X:	0.030	Y:	0.021	Z:	0.048	yaw:	1.130	yaw rate:	-8.776	Roll:	4.097	Pitch:	2.435	Yaw:	4.310	Thrust:	0.000
Time:	2.317	Roll Set Point:	-0.060	Pitch Set Point:	-0.041	Yaw Set Point:	-0.018	X_WP:	0.000	Y_WP:	0.000	Y_WP:	0.000	X:	0.030	Y:	0.021	Z:	0.049	yaw:	1.056	yaw rate:	7.388	Roll:	4.900	Pitch:	3.556	Yaw:	1.176	Thrust:	0.000
Time:	2.337	Roll Set Point:	-0.060	Pitch Set Point:	-0.041	Yaw Set Point:	-0.019	X_WP:	0.000	Y_WP:	0.000	Y_WP:	0.000	X:	0.030	Y:	0.021	Z:	0.049	yaw:	1.098	yaw rate:	-5.416	Roll:	6.428	Pitch:	4.141	Yaw:	3.383	Thrust:	0.000
Time:	2.348	Roll Set Point:	-0.060	Pitch Set Point:	-0.041	Yaw Set Point:	-0.019	X_WP:	0.000	Y_WP:	0.000	Y_WP:	0.000	X:	0.030	Y:	0.021	Z:	0.049	yaw:	1.079	yaw rate:	1.888	Roll:	4.005	Pitch:	2.724	Yaw:	1.811	Thrust:	0.000
Time:	2.358	Roll Set Point:	-0.060	Pitch Set Point:	-0.041	Yaw Set Point:	-0.018	X_WP:	0.000	Y_WP:	0.000	Y_WP:	0.000	X:	0.030	Y:	0.021	Z:	0.049	yaw:	1.052	yaw rate:	2.640	Roll:	3.903	Pitch:	2.611	Yaw:	1.450	Thrust:	0.000
Time:	2.369	Roll Set Point:	-0.060	Pitch Set Point:	-0.041	Yaw Set Point:	-0.018	X_WP:	0.000	Y_WP:	0.000	Y_WP:	0.000	X:	0.030	Y:	0.021	Z:	0.049	yaw:	1.053	yaw rate:	-0.010	Roll:	3.780	Pitch:	2.637	Yaw:	2.234	Thrust:	0.000
Time:	2.386	Roll Set Point:	-0.060	Pitch Set Point:	-0.041	Yaw Set Point:	-0.019	X_WP:	0.000	Y_WP:	0.000	Y_WP:	0.000	X:	0.030	Y:	0.021	Z:	0.049	yaw:	1.076	yaw rate:	-2.334	Roll:	5.301	Pitch:	3.619	Yaw:	2.986	Thrust:	0.000
Time:	2.400	Roll Set Point:	-0.060	Pitch Set Point:	-0.041	Yaw Set Point:	-0.019	X_WP:	0.000	Y_WP:	0.000	Y_WP:	0.000	X:	0.030	Y:	0.021	Z:	0.049	yaw:	1.079	yaw rate:	0.064	Roll:	5.353	Pitch:	3.417	Yaw:	2.525	Thrust:	0.000
Time:	2.411	Roll Set Point:	-0.060	Pitch Set Point:	-0.041	Yaw Set Point:	-0.019	X_WP:	0.000	Y_WP:	0.000	Y_WP:	0.000	X:	0.030	Y:	0.021	Z:	0.049	yaw:	1.073	yaw rate:	0.593	Roll:	3.865	Pitch:	2.734	Yaw:	2.078	Thrust:	0.000
Time:	2.422	Roll Set Point:	-0.060	Pitch Set Point:	-0.041	Yaw Set Point:	-0.019	X_WP:	0.000	Y_WP:	0.000	Y_WP:	0.000	X:	0.030	Y:	0.021	Z:	0.049	yaw:	1.070	yaw rate:	0.268	Roll:	4.128	Pitch:	2.803	Yaw:	2.185	Thrust:	0.000
Time:	2.433	Roll Set Point:	-0.060	Pitch Set Point:	-0.041	Yaw Set Point:	-0.016	X_WP:	0.000	Y_WP:	0.000	Y_WP:	0.000	X:	0.030	Y:	0.021	Z:	0.048	yaw:	0.911	yaw rate:	12.309	Roll:	4.091	Pitch:	2.730	Yaw:	-1.778	Thrust:	0.000
Time:	2.446	Roll Set Point:	-0.060	Pitch Set Point:	-0.041	Yaw Set Point:	-0.019	X_WP:	0.000	Y_WP:	0.000	Y_WP:	0.000	X:	0.030	Y:	0.021	Z:	0.049	yaw:	1.090	yaw rate:	-17.874	Roll:	4.422	Pitch:	3.004	Yaw:	6.004	Thrust:	0.000
Time:	2.462	Roll Set Point:	-0.060	Pitch Set Point:	-0.041	Yaw Set Point:	-0.020	X_WP:	0.000	Y_WP:	0.000	Y_WP:	0.000	X:	0.030	Y:	0.021	Z:	0.048	yaw:	1.136	yaw rate:	-4.536	Roll:	5.869	Pitch:	3.598	Yaw:	3.453	Thrust:	0.000
Time:	2.472	Roll Set Point:	-0.060	Pitch Set Point:	-0.041	Yaw Set Point:	-0.020	X_WP:	0.000	Y_WP:	0.000	Y_WP:	0.000	X:	0.030	Y:	0.021	Z:	0.048	yaw:	1.144	yaw rate:	-0.811	Roll:	4.207	Pitch:	2.826	Yaw:	2.509	Thrust:	0.000
Time:	2.483	Roll Set Point:	-0.060	Pitch Set Point:	-0.041	Yaw Set Point:	-0.018	X_WP:	0.000	Y_WP:	0.000	Y_WP:	0.000	X:	0.030	Y:	0.021	Z:	0.049	yaw:	1.052	yaw rate:	9.191	Roll:	3.662	Pitch:	2.955	Yaw:	-0.061	Thrust:	0.000
Time:	2.494	Roll Set Point:	-0.060	Pitch Set Point:	-0.041	Yaw Set Point:	-0.018	X_WP:	0.000	Y_WP:	0.000	Y_WP:	0.000	X:	0.030	Y:	0.021	Z:	0.049	yaw:	1.053	yaw rate:	-0.145	Roll:	4.148	Pitch:	2.730	Yaw:	2.289	Thrust:	0.000
Time:	2.506	Roll Set Point:	-0.060	Pitch Set Point:	-0.041	Yaw Set Point:	-0.019	X_WP:	0.000	Y_WP:	0.000	Y_WP:	0.000	X:	0.030	Y:	0.021	Z:	0.049	yaw:	1.062	yaw rate:	-0.892	Roll:	4.573	Pitch:	3.004	Yaw:	2.548	Thrust:	0.000
Time:	2.529	Roll Set Point:	-0.060	Pitch Set Point:	-0.041	Yaw Set Point:	-0.019	X_WP:	0.000	Y_WP:	0.000	Y_WP:	0.000	X:	0.030	Y:	0.021	Z:	0.048	yaw:	1.108	yaw rate:	-4.588	Roll:	7.283	Pitch:	4.827	Yaw:	3.708	Thrust:	0.000
Time:	2.540	Roll Set Point:	-0.060	Pitch Set Point:	-0.041	Yaw Set Point:	-0.020	X_WP:	0.000	Y_WP:	0.000	Y_WP:	0.000	X:	0.030	Y:	0.021	Z:	0.048	yaw:	1.137	yaw rate:	0.704	Roll:	4.717	Pitch:	3.008	Yaw:	3.063	Thrust:	0.000
Time:	2.550	Roll Set Point:	-0.060	Pitch Set Point:	-0.041	Yaw Set Point:	-0.018	X_WP:	0.000	Y_WP:	0.000	Y_WP:	0.000	X:	0.030	Y:	0.021	Z:	0.049	yaw:	1.034	yaw rate:	10.309	Roll:	3.713	Pitch:	2.973	Yaw:	-0.358	Thrust:	0.000
Time:	2.561	Roll Set Point:	-0.060	Pitch Set Point:	-0.041	Yaw Set Point:	-0.019	X_WP:	0.000	Y_WP:	0.000	Y_WP:	0.000	X:	0.030	Y:	0.021	Z:	0.049	yaw:	1.073	yaw rate:	-3.941	Roll:	4.433	Pitch:	2.854	Yaw:	3.235	Thrust:	0.000
Time:	2.572	Roll Set Point:	-0.060	Pitch Set Point:	-0.041	Yaw Set Point:	-0.018	X_WP:	0.000	Y_WP:	0.000	Y_WP:	0.000	X:	0.030	Y:	0.021	Z:	0.049	yaw:	1.040	yaw rate:	3.340	Roll:	3.933	Pitch:	2.659	Yaw:	1.311	Thrust:	0.000
Time:	2.591	Roll Set Point:	-0.060	Pitch Set Point:	-0.041	Yaw Set Point:	-0.019	X_WP:	0.000	Y_WP:	0.000	Y_WP:	0.000	X:	0.030	Y:	0.021	Z:	0.049	yaw:	1.063	yaw rate:	-2.262	Roll:	4.620	Pitch:	3.264	Yaw:	3.137	Thrust:	0.000
Time:	2.604	Roll Set Point:	-0.060	Pitch Set Point:	-0.041	Yaw Set Point:	-0.019	X_WP:	0.000	Y_WP:	0.000	Y_WP:	0.000	X:	0.030	Y:	0.021	Z:	0.049	yaw:	1.081	yaw rate:	-1.823	Roll:	7.096	Pitch:	4.534	Yaw:	2.896	Thrust:	0.000
Time:	2.615	Roll Set Point:	-0.060	Pitch Set Point:	-0.041	Yaw Set Point:	-0.019	X_WP:	0.000	Y_WP:	0.000	Y_WP:	0.000	X:	0.030	Y:	0.021	Z:	0.049	yaw:	1.073	yaw rate:	0.736	Roll:	4.084	Pitch:	2.834	Yaw:	2.140	Thrust:	0.000
Time:	2.626	Roll Set Point:	-0.060	Pitch Set Point:	-0.041	Yaw Set Point:	-0.019	X_WP:	0.000	Y_WP:	0.000	Y_WP:	0.000	X:	0.030	Y:	0.021	Z:	0.049	yaw:	1.090	yaw rate:	-1.627	Roll:	4.436	Pitch:	2.832	Yaw:	2.751	Thrust:	0.000
Time:	2.637	Roll Set Point:	-0.060	Pitch Set Point:	-0.041	Yaw Set Point:	-0.019	X_WP:	0.000	Y_WP:	0.000	Y_WP:	0.000	X:	0.030	Y:	0.021	Z:	0.049	yaw:	1.066	yaw rate:	-1.699	Roll:	4.369	Pitch:	3.183	Yaw:	1.754	Thrust:	0.000
Time:	2.660	Roll Set Point:	-0.060	Pitch Set Point:	-0.041	Yaw Set Point:	-0.019	X_WP:	0.000	Y_WP:	0.000	Y_WP:	0.000	X:	0.030	Y:	0.021	Z:	0.049	yaw:	1.082	yaw rate:	-1.572	Roll:	6.266	Pitch:	4.786	Yaw:	3.370	Thrust:	0.000
Time:	2.670	Roll Set Point:	-0.060	Pitch Set Point:	-0.041	Yaw Set Point:	-0.019	X_WP:	0.000	Y_WP:	0.000	Y_WP:	0.000	X:	0.030	Y:	0.021	Z:	0.049	yaw:	1.079	yaw rate:	-0.373	Roll:	6.059	Pitch:	3.268	Yaw:	2.243	Thrust:	0.000
Time:	2.681	Roll Set Point:	-0.060	Pitch Set Point:	-0.041	Yaw Set Point:	-0.020	X_WP:	0.000	Y_WP:	0.000	Y_WP:	0.000	X:	0.030	Y:	0.021	Z:	0.048	yaw:	1.151	yaw rate:	-7.210	Roll:	4.389	Pitch:	2.630	Yaw:	4.166	Thrust:	0.000
Time:	2.692	Roll Set Point:	-0.060	Pitch Set Point:	-0.041	Yaw Set Point:	-0.020	X_WP:	0.000	Y_WP:	0.000	Y_WP:	0.000	X:	0.030	Y:	0.021	Z:	0.048	yaw:	1.125	yaw rate:	2.574	Roll:	4.490	Pitch:	3.079	Yaw:	1.752	Thrust:	0.000
Time:	2.703	Roll Set Point:	-0.060	Pitch Set Point:	-0.041	Yaw Set Point:	-0.019	X_WP:	0.000	Y_WP:	0.000	Y_WP:	0.000	X:	0.030	Y:	0.021	Z:	0.049	yaw:	1.081	yaw rate:	4.441	Roll:	4.067	Pitch:	2.964	Yaw:	1.276	Thrust:	0.000
Time:	2.717	Roll Set Point:	-0.060	Pitch Set Point:	-0.041	Yaw Set Point:	-0.018	X_WP:	0.000	Y_WP:	0.000	Y_WP:	0.000	X:	0.030	Y:	0.021	Z:	0.049	yaw:	1.053	yaw rate:	2.829	Roll:	5.331	Pitch:	3.679	Yaw:	2.024	Thrust:	0.000
Time:	2.738	Roll Set Point:	-0.060	Pitch Set Point:	-0.041	Yaw Set Point:	-0.019	X_WP:	0.000	Y_WP:	0.000	Y_WP:	0.000	X:	0.030	Y:	0.021	Z:	0.049	yaw:	1.099	yaw rate:	-4.602	Roll:	7.736	Pitch:	5.147	Yaw:	3.726	Thrust:	0.000
Time:	2.748	Roll Set Point:	-0.060	Pitch Set Point:	-0.041	Yaw Set Point:	-0.018	X_WP:	0.000	Y_WP:	0.000	Y_WP:	0.000	X:	0.030	Y:	0.021	Z:	0.049	yaw:	1.055	yaw rate:	4.413	Roll:	4.102	Pitch:	2.826	Yaw:	1.194	Thrust:	0.000
Time:	2.759	Roll Set Point:	-0.060	Pitch Set Point:	-0.041	Yaw Set Point:	-0.019	X_WP:	0.000	Y_WP:	0.000	Y_WP:	0.000	X:	0.030	Y:	0.021	Z:	0.049	yaw:	1.098	yaw rate:	-4.308	Roll:	4.668	Pitch:	3.091	Yaw:	3.420	Thrust:	0.000
Time:	2.770	Roll Set Point:	-0.060	Pitch Set Point:	-0.041	Yaw Set Point:	-0.019	X_WP:	0.000	Y_WP:	0.000	Y_WP:	0.000	X:	0.030	Y:	0.021	Z:	0.049	yaw:	1.069	yaw rate:	2.923	Roll:	4.184	Pitch:	2.750	Yaw:	1.665	Thrust:	0.000
Time:	2.783	Roll Set Point:	-0.060	Pitch Set Point:	-0.041	Yaw Set Point:	-0.018	X_WP:	0.000	Y_WP:	0.000	Y_WP:	0.000	X:	0.030	Y:	0.021	Z:	0.049	yaw:	1.058	yaw rate:	1.094	Roll:	5.316	Pitch:	3.640	Yaw:	2.288	Thrust:	0.000
Time:	2.797	Roll Set Point:	-0.060	Pitch Set Point:	-0.041	Yaw Set Point:	-0.018	X_WP:	0.000	Y_WP:	0.000	Y_WP:	0.000	X:	0.030	Y:	0.021	Z:	0.049	yaw:	1.051	yaw rate:	0.673	Roll:	5.185	Pitch:	3.620	Yaw:	2.380	Thrust:	0.000
Time:	2.808	Roll Set Point:	-0.060	Pitch Set Point:	-0.041	Yaw Set Point:	-0.019	X_WP:	0.000	Y_WP:	0.000	Y_WP:	0.000	X:	0.030	Y:	0.021	Z:	0.049	yaw:	1.090	yaw rate:	-0.318	Roll:	4.778	Pitch:	3.026	Yaw:	3.328	Thrust:	0.000
Time:	2.818	Roll Set Point:	-0.060	Pitch Set Point:	-0.041	Yaw Set Point:	-0.019	X_WP:	0.000	Y_WP:	0.000	Y_WP:	0.000	X:	0.030	Y:	0.021	Z:	0.048	yaw:	1.114	yaw rate:	-2.403	Roll:	4.624	Pitch:	2.830	Yaw:	2.996	Thrust:	0.000
Time:	2.828	Roll Set Point:	-0.060	Pitch Set Point:	-0.041	Yaw Set Point:	-0.018	X_WP:	0.000	Y_WP:	0.000	Y_WP:	0.000	X:	0.030	Y:	0.021	Z:	0.049	yaw:	1.052	yaw rate:	6.157	Roll:	4.281	Pitch:	3.171	Yaw:	0.672	Thrust:	0.000
Time:	2.840	Roll Set Point:	-0.060	Pitch Set Point:	-0.041	Yaw Set Point:	-0.018	X_WP:	0.000	Y_WP:	0.000	Y_WP:	0.000	X:	0.030	Y:	0.021	Z:	0.049	yaw:	1.054	yaw rate:	-0.161	Roll:	4.572	Pitch:	3.009	Yaw:	2.479	Thrust:	0.000
Time:	2.861	Roll Set Point:	-0.060	Pitch Set Point:	-0.041	Yaw Set Point:	-0.018	X_WP:	0.000	Y_WP:	0.000	Y_WP:	0.000	X:	0.030	Y:	0.021	Z:	0.049	yaw:	1.039	yaw rate:	1.493	Roll:	7.718	Pitch:	5.231	Yaw:	2.925	Thrust:	0.000
Time:	2.871	Roll Set Point:	-0.060	Pitch Set Point:	-0.041	Yaw Set Point:	-0.019	X_WP:	0.000	Y_WP:	0.000	Y_WP:	0.000	X:	0.030	Y:	0.021	Z:	0.049	yaw:	1.083	yaw rate:	-1.202	Roll:	4.927	Pitch:	3.155	Yaw:	3.468	Thrust:	0.000
Time:	2.882	Roll Set Point:	-0.060	Pitch Set Point:	-0.041	Yaw Set Point:	-0.019	X_WP:	0.000	Y_WP:	0.000	Y_WP:	0.000	X:	0.030	Y:	0.021	Z:	0.049	yaw:	1.068	yaw rate:	1.529	Roll:	4.300	Pitch:	3.128	Yaw:	1.973	Thrust:	0.000
Time:	2.893	Roll Set Point:	-0.060	Pitch Set Point:	-0.041	Yaw Set Point:	-0.019	X_WP:	0.000	Y_WP:	0.000	Y_WP:	0.000	X:	0.030	Y:	0.021	Z:	0.049	yaw:	1.069	yaw rate:	-0.131	Roll:	4.851	Pitch:	3.137	Yaw:	2.434	Thrust:	0.000
Time:	2.905	Roll Set Point:	-0.060	Pitch Set Point:	-0.041	Yaw Set Point:	-0.019	X_WP:	0.000	Y_WP:	0.000	Y_WP:	0.000	X:	0.030	Y:	0.021	Z:	0.049	yaw:	1.093	yaw rate:	-2.329	Roll:	4.821	Pitch:	3.228	Yaw:	3.033	Thrust:	0.000
Time:	2.922	Roll Set Point:	-0.060	Pitch Set Point:	-0.041	Yaw Set Point:	-0.019	X_WP:	0.000	Y_WP:	0.000	Y_WP:	0.000	X:	0.030	Y:	0.021	Z:	0.049	yaw:	1.079	yaw rate:	1.313	Roll:	5.672	Pitch:	4.004	Yaw:	2.626	Thrust:	0.000
Time:	2.935	Roll Set Point:	-0.060	Pitch Set Point:	-0.041	Yaw Set Point:	-0.020	X_WP:	0.000	Y_WP:	0.000	Y_WP:	0.000	X:	0.030	Y:	0.021	Z:	0.048	yaw:	1.145	yaw rate:	-6.550	Roll:	6.764	Pitch:	4.071	Yaw:	3.995	Thrust:	0.000
Time:	2.945	Roll Set Point:	-0.060	Pitch Set Point:	-0.041	Yaw Set Point:	-0.019	X_WP:	0.000	Y_WP:	0.000	Y_WP:	0.000	X:	0.030	Y:	0.021	Z:	0.049	yaw:	1.091	yaw rate:	5.427	Roll:	4.138	Pitch:	3.159	Yaw:	1.050	Thrust:	0.000
Time:	2.956	Roll Set Point:	-0.060	Pitch Set Point:	-0.041	Yaw Set Point:	-0.019	X_WP:	0.000	Y_WP:	0.000	Y_WP:	0.000	X:	0.030	Y:	0.021	Z:	0.049	yaw:	1.064	yaw rate:	2.701	Roll:	4.811	Pitch:	3.164	Yaw:	1.773	Thrust:	0.000
Time:	2.967	Roll Set Point:	-0.060	Pitch Set Point:	-0.041	Yaw Set Point:	-0.019	X_WP:	0.000	Y_WP:	0.000	Y_WP:	0.000	X:	0.030	Y:	0.021	Z:	0.049	yaw:	1.085	yaw rate:	-2.140	Roll:	4.780	Pitch:	3.161	Yaw:	2.938	Thrust:	0.000
Time:	2.980	Roll Set Point:	-0.060	Pitch Set Point:	-0.041	Yaw Set Point:	-0.018	X_WP:	0.000	Y_WP:	0.000	Y_WP:	0.000	X:	0.030	Y:	0.021	Z:	0.049	yaw:	1.053	yaw rate:	3.192	Roll:	4.908	Pitch:	3.543	Yaw:	1.937	Thrust:	0.000
Time:	2.997	Roll Set Point:	-0.060	Pitch Set Point:	-0.041	Yaw Set Point:	-0.019	X_WP:	0.000	Y_WP:	0.000	Y_WP:	0.000	X:	0.030	Y:	0.021	Z:	0.049	yaw:	1.079	yaw rate:	-2.585	Roll:	7.245	Pitch:	4.729	Yaw:	3.329	Thrust:	0.000
Time:	3.008	Roll Set Point:	-0.060	Pitch Set Point:	-0.041	Yaw Set Point:	-0.019	X_WP:	0.000	Y_WP:	0.000	Y_WP:	1.000	X:	0.030	Y:	0.021	Z:	0.049	yaw:	1.075	yaw rate:	-4.169	Roll:	4.891	Pitch:	3.299	Yaw:	2.410	Thrust:	100.000
Time:	3.019	Roll Set Point:	-0.060	Pitch Set Point:	-0.041	Yaw Set Point:	-0.020	X_WP:	0.000	Y_WP:	0.000	Y_WP:	1.000	X:	0.030	Y:	0.021	Z:	0.048	yaw:	1.123	yaw rate:	-4.808	Roll:	4.923	Pitch:	2.906	Yaw:	3.669	Thrust:	53.664
Time:	3.029	Roll Set Point:	-0.060	Pitch Set Point:	-0.041	Yaw Set Point:	-0.019	X_WP:	0.000	Y_WP:	0.000	Y_WP:	1.000	X:	0.030	Y:	0.021	Z:	0.049	yaw:	1.072	yaw rate:	5.113	Roll:	4.834	Pitch:	3.534	Yaw:	1.182	Thrust:	53.967
Time:	3.041	Roll Set Point:	-0.060	Pitch Set Point:	-0.041	Yaw Set Point:	-0.015	X_WP:	0.000	Y_WP:	0.000	Y_WP:	1.000	X:	0.030	Y:	0.021	Z:	0.048	yaw:	0.874	yaw rate:	19.776	Roll:	4.879	Pitch:	3.297	Yaw:	-2.042	Thrust:	56.933
Time:	3.059	Roll Set Point:	-0.060	Pitch Set Point:	-0.041	Yaw Set Point:	-0.014	X_WP:	0.000	Y_WP:	0.000	Y_WP:	1.000	X:	0.030	Y:	0.021	Z:	0.048	yaw:	0.781	yaw rate:	9.306	Roll:	7.177	Pitch:	5.187	Yaw:	1.235	Thrust:	59.853
Time:	3.071	Roll Set Point:	-0.059	Pitch Set Point:	-0.041	Yaw Set Point:	-0.009	X_WP:	0.000	Y_WP:	0.000	Y_WP:	1.000	X:	0.030	Y:	0.021	Z:	0.048	yaw:	0.488	yaw rate:	29.303	Roll:	5.215	Pitch:	3.581	Yaw:	-4.764	Thrust:	61.455
Time:	3.083	Roll Set Point:	-0.060	Pitch Set Point:	-0.041	Yaw Set Point:	-0.011	X_WP:	0.000	Y_WP:	0.000	Y_WP:	1.000	X:	0.030	Y:	0.021	Z:	0.048	yaw:	0.644	yaw rate:	5.591	Roll:	5.713	Pitch:	3.684	Yaw:	5.357	Thrust:	57.403
Time:	3.094	Roll Set Point:	-0.060	Pitch Set Point:	-0.041	Yaw Set Point:	-0.009	X_WP:	0.000	Y_WP:	0.000	Y_WP:	1.000	X:	0.030	Y:	0.021	Z:	0.048	yaw:	0.506	yaw rate:	13.799	Roll:	4.923	Pitch:	2.995	Yaw:	-1.563	Thrust:	61.999
Time:	3.118	Roll Set Point:	-0.060	Pitch Set Point:	-0.041	Yaw Set Point:	-0.011	X_WP:	0.000	Y_WP:	0.000	Y_WP:	1.000	X:	0.030	Y:	0.021	Z:	0.048	yaw:	0.642	yaw rate:	-13.675	Roll:	4.887	Pitch:	3.547	Yaw:	4.477	Thrust:	60.700
Time:	3.133	Roll Set Point:	-0.060	Pitch Set Point:	-0.041	Yaw Set Point:	-0.013	X_WP:	0.000	Y_WP:	0.000	Y_WP:	1.000	X:	0.030	Y:	0.021	Z:	0.048	yaw:	0.731	yaw rate:	-8.845	Roll:	11.284	Pitch:	7.437	Yaw:	3.879	Thrust:	80.450
Time:	3.145	Roll Set Point:	-0.060	Pitch Set Point:	-0.041	Yaw Set Point:	-0.016	X_WP:	0.000	Y_WP:	0.000	Y_WP:	1.000	X:	0.030	Y:	0.021	Z:	0.049	yaw:	0.930	yaw rate:	-19.920	Roll:	4.955	Pitch:	3.467	Yaw:	6.793	Thrust:	64.328
Time:	3.157	Roll Set Point:	-0.060	Pitch Set Point:	-0.041	Yaw Set Point:	-0.014	X_WP:	0.000	Y_WP:	0.000	Y_WP:	1.000	X:	0.030	Y:	0.021	Z:	0.048	yaw:	0.815	yaw rate:	11.517	Roll:	5.293	Pitch:	3.664	Yaw:	-0.375	Thrust:	67.599
Time:	3.167	Roll Set Point:	-0.060	Pitch Set Point:	-0.041	Yaw Set Point:	-0.010	X_WP:	0.000	Y_WP:	0.000	Y_WP:	1.000	X:	0.030	Y:	0.021	Z:	0.048	yaw:	0.577	yaw rate:	23.765	Roll:	5.210	Pitch:	3.237	Yaw:	-4.163	Thrust:	66.737
Time:	3.191	Roll Set Point:	-0.060	Pitch Set Point:	-0.041	Yaw Set Point:	-0.013	X_WP:	0.000	Y_WP:	0.000	Y_WP:	1.000	X:	0.030	Y:	0.021	Z:	0.049	yaw:	0.726	yaw rate:	-14.876	Roll:	6.629	Pitch:	4.549	Yaw:	4.796	Thrust:	76.479
Time:	3.203	Roll Set Point:	-0.060	Pitch Set Point:	-0.041	Yaw Set Point:	-0.006	X_WP:	0.000	Y_WP:	0.000	Y_WP:	1.000	X:	0.030	Y:	0.021	Z:	0.049	yaw:	0.346	yaw rate:	46.748	Roll:	8.468	Pitch:	5.984	Yaw:	-3.218	Thrust:	80.614
Time:	3.215	Roll Set Point:	-0.060	Pitch Set Point:	-0.041	Yaw Set Point:	-0.007	X_WP:	0.000	Y_WP:	0.000	Y_WP:	1.000	X:	0.030	Y:	0.021	Z:	0.051	yaw:	0.389	yaw rate:	-4.213	Roll:	5.623	Pitch:	3.139	Yaw:	2.533	Thrust:	66.066
Time:	3.226	Roll Set Point:	-0.060	Pitch Set Point:	-0.040	Yaw Set Point:	-0.007	X_WP:	0.000	Y_WP:	0.000	Y_WP:	1.000	X:	0.030	Y:	0.020	Z:	0.053	yaw:	0.428	yaw rate:	-27.230	Roll:	5.181	Pitch:	2.862	Yaw:	2.518	Thrust:	61.370
Time:	3.236	Roll Set Point:	-0.060	Pitch Set Point:	-0.040	Yaw Set Point:	-0.004	X_WP:	0.000	Y_WP:	0.000	Y_WP:	1.000	X:	0.030	Y:	0.020	Z:	0.054	yaw:	0.201	yaw rate:	22.682	Roll:	4.521	Pitch:	3.294	Yaw:	-4.746	Thrust:	64.057
Time:	3.248	Roll Set Point:	-0.060	Pitch Set Point:	-0.040	Yaw Set Point:	-0.004	X_WP:	0.000	Y_WP:	0.000	Y_WP:	1.000	X:	0.030	Y:	0.020	Z:	0.056	yaw:	0.236	yaw rate:	-3.532	Roll:	5.232	Pitch:	3.102	Yaw:	2.182	Thrust:	69.689
Time:	3.261	Roll Set Point:	-0.060	Pitch Set Point:	-0.040	Yaw Set Point:	-0.004	X_WP:	0.000	Y_WP:	0.000	Y_WP:	1.000	X:	0.030	Y:	0.020	Z:	0.058	yaw:	0.248	yaw rate:	-1.167	Roll:	5.417	Pitch:	3.775	Yaw:	1.756	Thrust:	73.131
Time:	3.271	Roll Set Point:	-0.059	Pitch Set Point:	-0.039	Yaw Set Point:	-0.006	X_WP:	0.000	Y_WP:	0.000	Y_WP:	1.000	X:	0.029	Y:	0.020	Z:	0.061	yaw:	0.333	yaw rate:	-8.528	Roll:	4.786	Pitch:	2.980	Yaw:	3.596	Thrust:	62.779
Time:	3.282	Roll Set Point:	-0.059	Pitch Set Point:	-0.039	Yaw Set Point:	-0.006	X_WP:	0.000	Y_WP:	0.000	Y_WP:	1.000	X:	0.029	Y:	0.019	Z:	0.064	yaw:	0.352	yaw rate:	-1.870	Roll:	4.583	Pitch:	2.783	Yaw:	1.915	Thrust:	64.929
Time:	3.294	Roll Set Point:	-0.059	Pitch Set Point:	-0.038	Yaw Set Point:	-0.013	X_WP:	0.000	Y_WP:	0.000	Y_WP:	1.000	X:	0.029	Y:	0.019	Z:	0.067	yaw:	0.720	yaw rate:	-36.762	Roll:	5.073	Pitch:	2.771	Yaw:	10.109	Thrust:	67.982
Time:	3.307	Roll Set Point:	-0.058	Pitch Set Point:	-0.037	Yaw Set Point:	-0.013	X_WP:	0.000	Y_WP:	0.000	Y_WP:	1.000	X:	0.029	Y:	0.019	Z:	0.070	yaw:	0.736	yaw rate:	-1.649	Roll:	5.515	Pitch:	3.513	Yaw:	2.525	Thrust:	73.037
Time:	3.330	Roll Set Point:	-0.057	Pitch Set Point:	-0.037	Yaw Set Point:	-0.014	X_WP:	0.000	Y_WP:	0.000	Y_WP:	1.000	X:	0.028	Y:	0.018	Z:	0.074	yaw:	0.830	yaw rate:	-9.343	Roll:	7.735	Pitch:	5.467	Yaw:	4.284	Thrust:	100.000
Time:	3.341	Roll Set Point:	-0.054	Pitch Set Point:	-0.034	Yaw Set Point:	-0.014	X_WP:	0.000	Y_WP:	0.000	Y_WP:	1.000	X:	0.027	Y:	0.017	Z:	0.086	yaw:	0.788	yaw rate:	6.133	Roll:	4.706	Pitch:	1.836	Yaw:	1.312	Thrust:	33.516
Time:	3.352	Roll Set Point:	-0.052	Pitch Set Point:	-0.033	Yaw Set Point:	-0.016	X_WP:	0.000	Y_WP:	0.000	Y_WP:	1.000	X:	0.026	Y:	0.016	Z:	0.090	yaw:	0.919	yaw rate:	-13.124	Roll:	4.170	Pitch:	2.612	Yaw:	5.401	Thrust:	65.829
Time:	3.364	Roll Set Point:	-0.051	Pitch Set Point:	-0.031	Yaw Set Point:	-0.023	X_WP:	0.000	Y_WP:	0.000	Y_WP:	1.000	X:	0.025	Y:	0.016	Z:	0.095	yaw:	1.294	yaw rate:	-37.527	Roll:	4.007	Pitch:	1.815	Yaw:	12.316	Thrust:	61.405
Time:	3.382	Roll Set Point:	-0.049	Pitch Set Point:	-0.030	Yaw Set Point:	-0.023	X_WP:	0.000	Y_WP:	0.000	Y_WP:	1.000	X:	0.024	Y:	0.015	Z:	0.100	yaw:	1.341	yaw rate:	-4.737	Roll:	3.399	Pitch:	2.398	Yaw:	4.225	Thrust:	81.793
Time:	3.396	Roll Set Point:	-0.048	Pitch Set Point:	-0.028	Yaw Set Point:	-0.025	X_WP:	0.000	Y_WP:	0.000	Y_WP:	1.000	X:	0.024	Y:	0.015	Z:	0.106	yaw:	1.424	yaw rate:	-8.249	Roll:	8.044	Pitch:	5.061	Yaw:	4.819	Thrust:	92.549
Time:	3.408	Roll Set Point:	-0.042	Pitch Set Point:	-0.023	Yaw Set Point:	-0.039	X_WP:	0.000	Y_WP:	0.000	Y_WP:	1.000	X:	0.021	Y:	0.012	Z:	0.122	yaw:	2.207	yaw rate:	-9.727	Roll:	1.614	Pitch:	-0.650	Yaw:	21.598	Thrust:	28.020
Time:	3.420	Roll Set Point:	-0.040	Pitch Set Point:	-0.021	Yaw Set Point:	-0.039	X_WP:	0.000	Y_WP:	0.000	Y_WP:	1.000	X:	0.020	Y:	0.011	Z:	0.128	yaw:	2.211	yaw rate:	-0.324	Roll:	2.986	Pitch:	1.647	Yaw:	4.247	Thrust:	63.717
Time:	3.431	Roll Set Point:	-0.038	Pitch Set Point:	-0.019	Yaw Set Point:	-0.043	X_WP:	0.000	Y_WP:	0.000	Y_WP:	1.000	X:	0.019	Y:	0.010	Z:	0.135	yaw:	2.453	yaw rate:	-24.201	Roll:	3.393	Pitch:	1.661	Yaw:	9.870	Thrust:	60.621
Time:	3.446	Roll Set Point:	-0.036	Pitch Set Point:	-0.018	Yaw Set Point:	-0.050	X_WP:	0.000	Y_WP:	0.000	Y_WP:	1.000	X:	0.018	Y:	0.009	Z:	0.141	yaw:	2.863	yaw rate:	-41.056	Roll:	2.933	Pitch:	1.784	Yaw:	13.751	Thrust:	71.082
Time:	3.461	Roll Set Point:	-0.033	Pitch Set Point:	-0.015	Yaw Set Point:	-0.054	X_WP:	0.000	Y_WP:	0.000	Y_WP:	1.000	X:	0.016	Y:	0.008	Z:	0.147	yaw:	3.099	yaw rate:	-23.587	Roll:	6.198	Pitch:	3.694	Yaw:	9.540	Thrust:	100.000
Time:	3.473	Roll Set Point:	-0.028	Pitch Set Point:	-0.011	Yaw Set Point:	-0.055	X_WP:	0.000	Y_WP:	0.000	Y_WP:	1.000	X:	0.014	Y:	0.006	Z:	0.161	yaw:	3.151	yaw rate:	7.335	Roll:	1.740	Pitch:	0.113	Yaw:	6.695	Thrust:	34.966
Time:	3.484	Roll Set Point:	-0.025	Pitch Set Point:	-0.009	Yaw Set Point:	-0.061	X_WP:	0.000	Y_WP:	0.000	Y_WP:	1.000	X:	0.012	Y:	0.005	Z:	0.167	yaw:	3.489	yaw rate:	-33.812	Roll:	2.245	Pitch:	1.623	Yaw:	13.986	Thrust:	64.713
Time:	3.496	Roll Set Point:	-0.022	Pitch Set Point:	-0.007	Yaw Set Point:	-0.061	X_WP:	0.000	Y_WP:	0.000	Y_WP:	1.000	X:	0.011	Y:	0.004	Z:	0.174	yaw:	3.490	yaw rate:	-0.154	Roll:	2.476	Pitch:	1.228	Yaw:	6.068	Thrust:	65.624
Time:	3.508	Roll Set Point:	-0.020	Pitch Set Point:	-0.004	Yaw Set Point:	-0.061	X_WP:	0.000	Y_WP:	0.000	Y_WP:	1.000	X:	0.010	Y:	0.003	Z:	0.181	yaw:	3.509	yaw rate:	-1.842	Roll:	2.210	Pitch:	0.785	Yaw:	6.470	Thrust:	67.290
Time:	3.531	Roll Set Point:	-0.017	Pitch Set Point:	-0.002	Yaw Set Point:	-0.064	X_WP:	0.000	Y_WP:	0.000	Y_WP:	1.000	X:	0.008	Y:	0.002	Z:	0.188	yaw:	3.676	yaw rate:	-16.691	Roll:	6.771	Pitch:	4.741	Yaw:	9.316	Thrust:	100.000
Time:	3.543	Roll Set Point:	-0.007	Pitch Set Point:	0.005	Yaw Set Point:	-0.061	X_WP:	0.000	Y_WP:	0.000	Y_WP:	1.000	X:	0.004	Y:	-0.002	Z:	0.210	yaw:	3.476	yaw rate:	39.120	Roll:	0.322	Pitch:	-1.490	Yaw:	2.440	Thrust:	27.000
