Time:	0.032	Roll Set Point:	-0.883	Pitch Set Point:	0.895	Yaw Set Point:	-1.658	X_WP:	0.000	Y_WP:	0.000	Y_WP:	0.750	X:	0.930	Y:	0.034	Z:	0.397	yaw:	94.985	yaw rate:	1.599	Roll:	-1.351	Pitch:	-26.942	Yaw:	132.624	Thrust:	19.432
Time:	0.057	Roll Set Point:	-0.883	Pitch Set Point:	0.895	Yaw Set Point:	-1.658	X_WP:	0.000	Y_WP:	0.000	Y_WP:	0.750	X:	0.930	Y:	0.034	Z:	0.397	yaw:	94.992	yaw rate:	-0.633	Roll:	-1.340	Pitch:	-27.021	Yaw:	133.512	Thrust:	20.180
Time:	0.073	Roll Set Point:	-0.883	Pitch Set Point:	0.895	Yaw Set Point:	-1.658	X_WP:	0.000	Y_WP:	0.000	Y_WP:	0.750	X:	0.930	Y:	0.034	Z:	0.397	yaw:	95.001	yaw rate:	-0.946	Roll:	-1.644	Pitch:	-26.949	Yaw:	133.866	Thrust:	21.100
Time:	0.092	Roll Set Point:	-0.883	Pitch Set Point:	0.895	Yaw Set Point:	-1.658	X_WP:	0.000	Y_WP:	0.000	Y_WP:	0.750	X:	0.930	Y:	0.034	Z:	0.397	yaw:	94.996	yaw rate:	0.527	Roll:	-1.274	Pitch:	-27.118	Yaw:	134.498	Thrust:	22.046
Time:	0.113	Roll Set Point:	-0.883	Pitch Set Point:	0.895	Yaw Set Point:	-1.658	X_WP:	0.000	Y_WP:	0.000	Y_WP:	0.750	X:	0.930	Y:	0.034	Z:	0.397	yaw:	94.971	yaw rate:	2.451	Roll:	-0.937	Pitch:	-27.176	Yaw:	134.339	Thrust:	22.614
Time:	0.133	Roll Set Point:	-0.883	Pitch Set Point:	0.895	Yaw Set Point:	-1.658	X_WP:	0.000	Y_WP:	0.000	Y_WP:	0.750	X:	0.930	Y:	0.034	Z:	0.397	yaw:	94.985	yaw rate:	-1.408	Roll:	-1.665	Pitch:	-27.106	Yaw:	134.797	Thrust:	23.952
Time:	0.152	Roll Set Point:	-0.883	Pitch Set Point:	0.895	Yaw Set Point:	-1.658	X_WP:	0.000	Y_WP:	0.000	Y_WP:	0.750	X:	0.930	Y:	0.034	Z:	0.397	yaw:	95.002	yaw rate:	-1.678	Roll:	-1.608	Pitch:	-27.207	Yaw:	134.828	Thrust:	24.386
Time:	0.172	Roll Set Point:	-0.883	Pitch Set Point:	0.895	Yaw Set Point:	-1.658	X_WP:	0.000	Y_WP:	0.000	Y_WP:	0.750	X:	0.930	Y:	0.034	Z:	0.397	yaw:	95.009	yaw rate:	-0.676	Roll:	-1.454	Pitch:	-27.290	Yaw:	134.787	Thrust:	25.518
Time:	0.193	Roll Set Point:	-0.883	Pitch Set Point:	0.895	Yaw Set Point:	-1.658	X_WP:	0.000	Y_WP:	0.000	Y_WP:	0.750	X:	0.930	Y:	0.034	Z:	0.397	yaw:	94.997	yaw rate:	1.153	Roll:	-1.232	Pitch:	-27.309	Yaw:	134.560	Thrust:	26.438
Time:	0.213	Roll Set Point:	-0.882	Pitch Set Point:	0.895	Yaw Set Point:	-1.659	X_WP:	0.000	Y_WP:	0.000	Y_WP:	0.750	X:	0.930	Y:	0.034	Z:	0.397	yaw:	95.027	yaw rate:	-2.920	Roll:	-1.796	Pitch:	-27.327	Yaw:	135.039	Thrust:	26.917
Time:	0.232	Roll Set Point:	-0.883	Pitch Set Point:	0.895	Yaw Set Point:	-1.658	X_WP:	0.000	Y_WP:	0.000	Y_WP:	0.750	X:	0.930	Y:	0.034	Z:	0.397	yaw:	94.972	yaw rate:	5.484	Roll:	-0.541	Pitch:	-27.443	Yaw:	133.827	Thrust:	27.735
Time:	0.252	Roll Set Point:	-0.883	Pitch Set Point:	0.895	Yaw Set Point:	-1.658	X_WP:	0.000	Y_WP:	0.000	Y_WP:	0.750	X:	0.930	Y:	0.034	Z:	0.397	yaw:	94.982	yaw rate:	-1.064	Roll:	-1.514	Pitch:	-27.481	Yaw:	134.762	Thrust:	28.748
Time:	0.272	Roll Set Point:	-0.883	Pitch Set Point:	0.895	Yaw Set Point:	-1.658	X_WP:	0.000	Y_WP:	0.000	Y_WP:	0.750	X:	0.930	Y:	0.034	Z:	0.397	yaw:	95.006	yaw rate:	-2.319	Roll:	-1.628	Pitch:	-27.471	Yaw:	134.921	Thrust:	29.149
Time:	0.292	Roll Set Point:	-0.883	Pitch Set Point:	0.895	Yaw Set Point:	-1.658	X_WP:	0.000	Y_WP:	0.000	Y_WP:	0.750	X:	0.930	Y:	0.034	Z:	0.397	yaw:	95.001	yaw rate:	0.457	Roll:	-1.404	Pitch:	-27.533	Yaw:	134.619	Thrust:	30.831
Time:	0.312	Roll Set Point:	-0.883	Pitch Set Point:	0.895	Yaw Set Point:	-1.658	X_WP:	0.000	Y_WP:	0.000	Y_WP:	0.750	X:	0.930	Y:	0.034	Z:	0.397	yaw:	94.982	yaw rate:	1.925	Roll:	-1.126	Pitch:	-27.627	Yaw:	134.383	Thrust:	31.441
Time:	0.333	Roll Set Point:	-0.883	Pitch Set Point:	0.895	Yaw Set Point:	-1.658	X_WP:	0.000	Y_WP:	0.000	Y_WP:	0.750	X:	0.930	Y:	0.034	Z:	0.397	yaw:	95.003	yaw rate:	-2.152	Roll:	-1.676	Pitch:	-27.636	Yaw:	134.971	Thrust:	32.453
Time:	0.352	Roll Set Point:	-0.883	Pitch Set Point:	0.895	Yaw Set Point:	-1.658	X_WP:	0.000	Y_WP:	0.000	Y_WP:	0.750	X:	0.930	Y:	0.034	Z:	0.397	yaw:	95.004	yaw rate:	-0.034	Roll:	-1.405	Pitch:	-27.659	Yaw:	134.603	Thrust:	32.614
Time:	0.374	Roll Set Point:	-0.883	Pitch Set Point:	0.895	Yaw Set Point:	-1.658	X_WP:	0.000	Y_WP:	0.000	Y_WP:	0.750	X:	0.930	Y:	0.034	Z:	0.397	yaw:	94.978	yaw rate:	2.549	Roll:	-1.047	Pitch:	-27.751	Yaw:	134.469	Thrust:	34.284
Time:	0.393	Roll Set Point:	-0.883	Pitch Set Point:	0.895	Yaw Set Point:	-1.658	X_WP:	0.000	Y_WP:	0.000	Y_WP:	0.750	X:	0.930	Y:	0.034	Z:	0.397	yaw:	94.985	yaw rate:	-0.732	Roll:	-1.488	Pitch:	-27.663	Yaw:	134.563	Thrust:	34.207
Time:	0.412	Roll Set Point:	-0.883	Pitch Set Point:	0.895	Yaw Set Point:	-1.658	X_WP:	0.000	Y_WP:	0.000	Y_WP:	0.750	X:	0.930	Y:	0.034	Z:	0.397	yaw:	94.978	yaw rate:	0.757	Roll:	-1.301	Pitch:	-27.663	Yaw:	134.475	Thrust:	35.286
Time:	0.432	Roll Set Point:	-0.883	Pitch Set Point:	0.895	Yaw Set Point:	-1.658	X_WP:	0.000	Y_WP:	0.000	Y_WP:	0.750	X:	0.930	Y:	0.034	Z:	0.397	yaw:	95.003	yaw rate:	-2.497	Roll:	-1.722	Pitch:	-27.690	Yaw:	134.996	Thrust:	36.491
Time:	0.452	Roll Set Point:	-0.883	Pitch Set Point:	0.895	Yaw Set Point:	-1.658	X_WP:	0.000	Y_WP:	0.000	Y_WP:	0.750	X:	0.930	Y:	0.034	Z:	0.397	yaw:	94.986	yaw rate:	1.687	Roll:	-1.173	Pitch:	-27.712	Yaw:	134.411	Thrust:	37.350
Time:	0.473	Roll Set Point:	-0.883	Pitch Set Point:	0.895	Yaw Set Point:	-1.658	X_WP:	0.000	Y_WP:	0.000	Y_WP:	0.750	X:	0.930	Y:	0.034	Z:	0.397	yaw:	94.998	yaw rate:	-1.175	Roll:	-1.469	Pitch:	-27.726	Yaw:	134.844	Thrust:	38.284
Time:	0.492	Roll Set Point:	-0.882	Pitch Set Point:	0.895	Yaw Set Point:	-1.658	X_WP:	0.000	Y_WP:	0.000	Y_WP:	0.750	X:	0.930	Y:	0.034	Z:	0.397	yaw:	95.024	yaw rate:	-2.627	Roll:	-1.885	Pitch:	-27.627	Yaw:	134.988	Thrust:	38.819
Time:	0.512	Roll Set Point:	-0.882	Pitch Set Point:	0.895	Yaw Set Point:	-1.658	X_WP:	0.000	Y_WP:	0.000	Y_WP:	0.750	X:	0.930	Y:	0.034	Z:	0.397	yaw:	95.019	yaw rate:	0.514	Roll:	-1.363	Pitch:	-27.676	Yaw:	134.561	Thrust:	39.381
Time:	0.533	Roll Set Point:	-0.883	Pitch Set Point:	0.895	Yaw Set Point:	-1.658	X_WP:	0.000	Y_WP:	0.000	Y_WP:	0.750	X:	0.930	Y:	0.034	Z:	0.397	yaw:	95.016	yaw rate:	0.274	Roll:	-1.374	Pitch:	-27.701	Yaw:	134.721	Thrust:	41.480
Time:	0.552	Roll Set Point:	-0.883	Pitch Set Point:	0.895	Yaw Set Point:	-1.658	X_WP:	0.000	Y_WP:	0.000	Y_WP:	0.750	X:	0.930	Y:	0.034	Z:	0.397	yaw:	95.020	yaw rate:	-0.417	Roll:	-1.416	Pitch:	-27.713	Yaw:	134.669	Thrust:	40.666
Time:	0.572	Roll Set Point:	-0.884	Pitch Set Point:	0.895	Yaw Set Point:	-1.657	X_WP:	0.000	Y_WP:	0.000	Y_WP:	0.750	X:	0.930	Y:	0.034	Z:	0.397	yaw:	94.957	yaw rate:	6.339	Roll:	-0.538	Pitch:	-27.751	Yaw:	133.768	Thrust:	42.580
Time:	0.594	Roll Set Point:	-0.883	Pitch Set Point:	0.895	Yaw Set Point:	-1.658	X_WP:	0.000	Y_WP:	0.000	Y_WP:	0.750	X:	0.930	Y:	0.034	Z:	0.397	yaw:	95.007	yaw rate:	-5.041	Roll:	-2.002	Pitch:	-27.725	Yaw:	135.466	Thrust:	45.552
Time:	0.612	Roll Set Point:	-0.883	Pitch Set Point:	0.895	Yaw Set Point:	-1.658	X_WP:	0.000	Y_WP:	0.000	Y_WP:	0.750	X:	0.930	Y:	0.034	Z:	0.397	yaw:	95.002	yaw rate:	0.556	Roll:	-1.399	Pitch:	-27.613	Yaw:	134.373	Thrust:	41.860
Time:	0.633	Roll Set Point:	-0.883	Pitch Set Point:	0.895	Yaw Set Point:	-1.658	X_WP:	0.000	Y_WP:	0.000	Y_WP:	0.750	X:	0.930	Y:	0.034	Z:	0.397	yaw:	94.982	yaw rate:	2.000	Roll:	-1.133	Pitch:	-27.685	Yaw:	134.363	Thrust:	44.953
Time:	0.653	Roll Set Point:	-0.883	Pitch Set Point:	0.895	Yaw Set Point:	-1.658	X_WP:	0.000	Y_WP:	0.000	Y_WP:	0.750	X:	0.930	Y:	0.034	Z:	0.397	yaw:	94.992	yaw rate:	-1.011	Roll:	-1.592	Pitch:	-27.665	Yaw:	134.768	Thrust:	45.809
Time:	0.673	Roll Set Point:	-0.883	Pitch Set Point:	0.895	Yaw Set Point:	-1.658	X_WP:	0.000	Y_WP:	0.000	Y_WP:	0.750	X:	0.930	Y:	0.034	Z:	0.397	yaw:	95.005	yaw rate:	-1.294	Roll:	-1.601	Pitch:	-27.710	Yaw:	134.831	Thrust:	45.220
Time:	0.693	Roll Set Point:	-0.883	Pitch Set Point:	0.895	Yaw Set Point:	-1.658	X_WP:	0.000	Y_WP:	0.000	Y_WP:	0.750	X:	0.930	Y:	0.034	Z:	0.397	yaw:	95.009	yaw rate:	-0.458	Roll:	-1.504	Pitch:	-27.694	Yaw:	134.725	Thrust:	49.037
Time:	0.712	Roll Set Point:	-0.883	Pitch Set Point:	0.895	Yaw Set Point:	-1.658	X_WP:	0.000	Y_WP:	0.000	Y_WP:	0.750	X:	0.930	Y:	0.034	Z:	0.397	yaw:	95.008	yaw rate:	0.091	Roll:	-1.407	Pitch:	-27.704	Yaw:	134.567	Thrust:	47.066
Time:	0.732	Roll Set Point:	-0.882	Pitch Set Point:	0.895	Yaw Set Point:	-1.658	X_WP:	0.000	Y_WP:	0.000	Y_WP:	0.750	X:	0.930	Y:	0.034	Z:	0.397	yaw:	95.023	yaw rate:	-1.453	Roll:	-1.683	Pitch:	-27.648	Yaw:	134.911	Thrust:	49.843
Time:	0.753	Roll Set Point:	-0.883	Pitch Set Point:	0.895	Yaw Set Point:	-1.658	X_WP:	0.000	Y_WP:	0.000	Y_WP:	0.750	X:	0.930	Y:	0.034	Z:	0.397	yaw:	94.996	yaw rate:	2.660	Roll:	-0.970	Pitch:	-27.775	Yaw:	134.351	Thrust:	50.449
Time:	0.772	Roll Set Point:	-0.883	Pitch Set Point:	0.895	Yaw Set Point:	-1.658	X_WP:	0.000	Y_WP:	0.000	Y_WP:	0.750	X:	0.930	Y:	0.034	Z:	0.397	yaw:	94.995	yaw rate:	0.130	Roll:	-1.537	Pitch:	-27.670	Yaw:	134.577	Thrust:	50.414
Time:	0.793	Roll Set Point:	-0.883	Pitch Set Point:	0.895	Yaw Set Point:	-1.658	X_WP:	0.000	Y_WP:	0.000	Y_WP:	0.750	X:	0.930	Y:	0.034	Z:	0.397	yaw:	94.993	yaw rate:	0.167	Roll:	-1.409	Pitch:	-27.716	Yaw:	134.679	Thrust:	52.660
Time:	0.813	Roll Set Point:	-0.882	Pitch Set Point:	0.895	Yaw Set Point:	-1.658	X_WP:	0.000	Y_WP:	0.000	Y_WP:	0.750	X:	0.930	Y:	0.034	Z:	0.397	yaw:	95.015	yaw rate:	-2.177	Roll:	-1.786	Pitch:	-27.616	Yaw:	134.867	Thrust:	50.891
Time:	0.832	Roll Set Point:	-0.882	Pitch Set Point:	0.895	Yaw Set Point:	-1.659	X_WP:	0.000	Y_WP:	0.000	Y_WP:	0.750	X:	0.930	Y:	0.034	Z:	0.397	yaw:	95.033	yaw rate:	-1.750	Roll:	-1.697	Pitch:	-27.711	Yaw:	134.947	Thrust:	53.892
Time:	0.852	Roll Set Point:	-0.883	Pitch Set Point:	0.895	Yaw Set Point:	-1.658	X_WP:	0.000	Y_WP:	0.000	Y_WP:	0.750	X:	0.930	Y:	0.034	Z:	0.397	yaw:	95.020	yaw rate:	1.273	Roll:	-1.199	Pitch:	-27.691	Yaw:	134.512	Thrust:	52.143
Time:	0.872	Roll Set Point:	-0.883	Pitch Set Point:	0.895	Yaw Set Point:	-1.658	X_WP:	0.000	Y_WP:	0.000	Y_WP:	0.750	X:	0.930	Y:	0.034	Z:	0.397	yaw:	94.974	yaw rate:	4.582	Roll:	-0.931	Pitch:	-27.725	Yaw:	133.999	Thrust:	57.032
Time:	0.893	Roll Set Point:	-0.883	Pitch Set Point:	0.895	Yaw Set Point:	-1.658	X_WP:	0.000	Y_WP:	0.000	Y_WP:	0.750	X:	0.930	Y:	0.034	Z:	0.397	yaw:	94.978	yaw rate:	-0.382	Roll:	-1.487	Pitch:	-27.711	Yaw:	134.656	Thrust:	55.722
Time:	0.912	Roll Set Point:	-0.883	Pitch Set Point:	0.895	Yaw Set Point:	-1.658	X_WP:	0.000	Y_WP:	0.000	Y_WP:	0.750	X:	0.930	Y:	0.034	Z:	0.397	yaw:	95.010	yaw rate:	-3.182	Roll:	-1.819	Pitch:	-27.672	Yaw:	135.046	Thrust:	55.793
Time:	0.931	Roll Set Point:	-0.883	Pitch Set Point:	0.895	Yaw Set Point:	-1.658	X_WP:	0.000	Y_WP:	0.000	Y_WP:	0.750	X:	0.930	Y:	0.034	Z:	0.397	yaw:	95.009	yaw rate:	0.111	Roll:	-1.527	Pitch:	-27.634	Yaw:	134.564	Thrust:	56.351
Time:	0.952	Roll Set Point:	-0.883	Pitch Set Point:	0.895	Yaw Set Point:	-1.658	X_WP:	0.000	Y_WP:	0.000	Y_WP:	0.750	X:	0.930	Y:	0.034	Z:	0.397	yaw:	95.010	yaw rate:	-0.143	Roll:	-1.512	Pitch:	-27.739	Yaw:	134.807	Thrust:	60.975
Time:	0.974	Roll Set Point:	-0.883	Pitch Set Point:	0.895	Yaw Set Point:	-1.658	X_WP:	0.000	Y_WP:	0.000	Y_WP:	0.750	X:	0.930	Y:	0.034	Z:	0.397	yaw:	94.986	yaw rate:	2.441	Roll:	-1.116	Pitch:	-27.767	Yaw:	134.447	Thrust:	61.752
Time:	0.993	Roll Set Point:	-0.883	Pitch Set Point:	0.895	Yaw Set Point:	-1.658	X_WP:	0.000	Y_WP:	0.000	Y_WP:	0.750	X:	0.930	Y:	0.034	Z:	0.397	yaw:	95.014	yaw rate:	-2.843	Roll:	-1.791	Pitch:	-27.629	Yaw:	134.979	Thrust:	57.340
Time:	1.013	Roll Set Point:	-0.883	Pitch Set Point:	0.895	Yaw Set Point:	-1.658	X_WP:	0.000	Y_WP:	0.000	Y_WP:	0.750	X:	0.930	Y:	0.034	Z:	0.397	yaw:	95.000	yaw rate:	1.405	Roll:	-1.360	Pitch:	-27.659	Yaw:	134.357	Thrust:	60.316
Time:	1.033	Roll Set Point:	-0.883	Pitch Set Point:	0.895	Yaw Set Point:	-1.658	X_WP:	0.000	Y_WP:	0.000	Y_WP:	0.750	X:	0.930	Y:	0.034	Z:	0.397	yaw:	95.002	yaw rate:	-0.235	Roll:	-1.431	Pitch:	-27.735	Yaw:	134.725	Thrust:	62.580
Time:	1.053	Roll Set Point:	-0.883	Pitch Set Point:	0.895	Yaw Set Point:	-1.658	X_WP:	0.000	Y_WP:	0.000	Y_WP:	0.750	X:	0.930	Y:	0.034	Z:	0.397	yaw:	94.997	yaw rate:	0.582	Roll:	-1.357	Pitch:	-27.681	Yaw:	134.570	Thrust:	62.731
Time:	1.073	Roll Set Point:	-0.883	Pitch Set Point:	0.895	Yaw Set Point:	-1.658	X_WP:	0.000	Y_WP:	0.000	Y_WP:	0.750	X:	0.930	Y:	0.034	Z:	0.397	yaw:	95.017	yaw rate:	-2.087	Roll:	-1.789	Pitch:	-27.680	Yaw:	134.971	Thrust:	63.180
Time:	1.093	Roll Set Point:	-0.883	Pitch Set Point:	0.895	Yaw Set Point:	-1.658	X_WP:	0.000	Y_WP:	0.000	Y_WP:	0.750	X:	0.930	Y:	0.034	Z:	0.397	yaw:	94.976	yaw rate:	4.181	Roll:	-0.954	Pitch:	-27.703	Yaw:	134.023	Thrust:	63.906
Time:	1.113	Roll Set Point:	-0.883	Pitch Set Point:	0.895	Yaw Set Point:	-1.658	X_WP:	0.000	Y_WP:	0.000	Y_WP:	0.750	X:	0.930	Y:	0.034	Z:	0.397	yaw:	94.996	yaw rate:	-2.075	Roll:	-1.682	Pitch:	-27.698	Yaw:	134.906	Thrust:	65.943
Time:	1.132	Roll Set Point:	-0.883	Pitch Set Point:	0.895	Yaw Set Point:	-1.658	X_WP:	0.000	Y_WP:	0.000	Y_WP:	0.750	X:	0.930	Y:	0.034	Z:	0.397	yaw:	94.994	yaw rate:	0.224	Roll:	-1.450	Pitch:	-27.715	Yaw:	134.568	Thrust:	65.154
Time:	1.153	Roll Set Point:	-0.883	Pitch Set Point:	0.895	Yaw Set Point:	-1.658	X_WP:	0.000	Y_WP:	0.000	Y_WP:	0.750	X:	0.930	Y:	0.034	Z:	0.397	yaw:	95.022	yaw rate:	-2.804	Roll:	-1.885	Pitch:	-27.671	Yaw:	135.081	Thrust:	67.994
Time:	1.173	Roll Set Point:	-0.882	Pitch Set Point:	0.895	Yaw Set Point:	-1.659	X_WP:	0.000	Y_WP:	0.000	Y_WP:	0.750	X:	0.930	Y:	0.034	Z:	0.397	yaw:	95.031	yaw rate:	-0.916	Roll:	-1.718	Pitch:	-27.668	Yaw:	134.825	Thrust:	68.506
Time:	1.193	Roll Set Point:	-0.883	Pitch Set Point:	0.895	Yaw Set Point:	-1.658	X_WP:	0.000	Y_WP:	0.000	Y_WP:	0.750	X:	0.930	Y:	0.034	Z:	0.397	yaw:	95.010	yaw rate:	2.173	Roll:	-1.199	Pitch:	-27.741	Yaw:	134.421	Thrust:	69.600
Time:	1.212	Roll Set Point:	-0.882	Pitch Set Point:	0.895	Yaw Set Point:	-1.658	X_WP:	0.000	Y_WP:	0.000	Y_WP:	0.750	X:	0.930	Y:	0.034	Z:	0.397	yaw:	95.017	yaw rate:	-0.734	Roll:	-1.600	Pitch:	-27.623	Yaw:	134.647	Thrust:	66.383
Time:	1.232	Roll Set Point:	-0.883	Pitch Set Point:	0.895	Yaw Set Point:	-1.658	X_WP:	0.000	Y_WP:	0.000	Y_WP:	0.750	X:	0.930	Y:	0.034	Z:	0.397	yaw:	95.010	yaw rate:	0.681	Roll:	-1.409	Pitch:	-27.677	Yaw:	134.531	Thrust:	69.310
Time:	1.254	Roll Set Point:	-0.882	Pitch Set Point:	0.895	Yaw Set Point:	-1.659	X_WP:	0.000	Y_WP:	0.000	Y_WP:	0.750	X:	0.930	Y:	0.034	Z:	0.397	yaw:	95.028	yaw rate:	-1.806	Roll:	-1.752	Pitch:	-27.733	Yaw:	135.105	Thrust:	76.490
Time:	1.274	Roll Set Point:	-0.883	Pitch Set Point:	0.895	Yaw Set Point:	-1.658	X_WP:	0.000	Y_WP:	0.000	Y_WP:	0.750	X:	0.930	Y:	0.034	Z:	0.397	yaw:	95.005	yaw rate:	2.277	Roll:	-1.190	Pitch:	-27.750	Yaw:	134.396	Thrust:	72.954
Time:	1.293	Roll Set Point:	-0.882	Pitch Set Point:	0.895	Yaw Set Point:	-1.658	X_WP:	0.000	Y_WP:	0.000	Y_WP:	0.750	X:	0.930	Y:	0.034	Z:	0.397	yaw:	95.024	yaw rate:	-1.832	Roll:	-1.784	Pitch:	-27.605	Yaw:	134.808	Thrust:	68.099
Time:	1.313	Roll Set Point:	-0.883	Pitch Set Point:	0.895	Yaw Set Point:	-1.658	X_WP:	0.000	Y_WP:	0.000	Y_WP:	0.750	X:	0.930	Y:	0.034	Z:	0.397	yaw:	94.992	yaw rate:	3.121	Roll:	-0.972	Pitch:	-27.728	Yaw:	134.251	Thrust:	75.379
Time:	1.333	Roll Set Point:	-0.883	Pitch Set Point:	0.895	Yaw Set Point:	-1.658	X_WP:	0.000	Y_WP:	0.000	Y_WP:	0.750	X:	0.930	Y:	0.034	Z:	0.397	yaw:	95.008	yaw rate:	-1.517	Roll:	-1.802	Pitch:	-27.675	Yaw:	134.853	Thrust:	72.047
Time:	1.353	Roll Set Point:	-0.883	Pitch Set Point:	0.895	Yaw Set Point:	-1.658	X_WP:	0.000	Y_WP:	0.000	Y_WP:	0.750	X:	0.930	Y:	0.034	Z:	0.397	yaw:	95.009	yaw rate:	-0.136	Roll:	-1.446	Pitch:	-27.733	Yaw:	134.636	Thrust:	76.796
Time:	1.373	Roll Set Point:	-0.883	Pitch Set Point:	0.895	Yaw Set Point:	-1.658	X_WP:	0.000	Y_WP:	0.000	Y_WP:	0.750	X:	0.930	Y:	0.034	Z:	0.397	yaw:	94.997	yaw rate:	1.216	Roll:	-1.438	Pitch:	-27.673	Yaw:	134.499	Thrust:	76.939
Time:	1.394	Roll Set Point:	-0.883	Pitch Set Point:	0.895	Yaw Set Point:	-1.658	X_WP:	0.000	Y_WP:	0.000	Y_WP:	0.750	X:	0.930	Y:	0.034	Z:	0.397	yaw:	94.986	yaw rate:	1.059	Roll:	-1.372	Pitch:	-27.716	Yaw:	134.563	Thrust:	77.734
Time:	1.413	Roll Set Point:	-0.883	Pitch Set Point:	0.895	Yaw Set Point:	-1.658	X_WP:	0.000	Y_WP:	0.000	Y_WP:	0.750	X:	0.930	Y:	0.034	Z:	0.397	yaw:	94.991	yaw rate:	-0.462	Roll:	-1.571	Pitch:	-27.674	Yaw:	134.621	Thrust:	77.201
Time:	1.432	Roll Set Point:	-0.883	Pitch Set Point:	0.895	Yaw Set Point:	-1.658	X_WP:	0.000	Y_WP:	0.000	Y_WP:	0.750	X:	0.930	Y:	0.034	Z:	0.397	yaw:	94.969	yaw rate:	2.183	Roll:	-1.200	Pitch:	-27.694	Yaw:	134.256	Thrust:	77.216
Time:	1.452	Roll Set Point:	-0.883	Pitch Set Point:	0.895	Yaw Set Point:	-1.658	X_WP:	0.000	Y_WP:	0.000	Y_WP:	0.750	X:	0.930	Y:	0.034	Z:	0.397	yaw:	95.003	yaw rate:	-3.437	Roll:	-2.010	Pitch:	-27.665	Yaw:	135.102	Thrust:	79.780
Time:	1.473	Roll Set Point:	-0.883	Pitch Set Point:	0.895	Yaw Set Point:	-1.658	X_WP:	0.000	Y_WP:	0.000	Y_WP:	0.750	X:	0.930	Y:	0.034	Z:	0.397	yaw:	94.988	yaw rate:	1.555	Roll:	-1.297	Pitch:	-27.746	Yaw:	134.494	Thrust:	82.353
Time:	1.493	Roll Set Point:	-0.883	Pitch Set Point:	0.895	Yaw Set Point:	-1.658	X_WP:	0.000	Y_WP:	0.000	Y_WP:	0.750	X:	0.930	Y:	0.034	Z:	0.397	yaw:	94.984	yaw rate:	0.420	Roll:	-1.481	Pitch:	-27.641	Yaw:	134.546	Thrust:	80.740
Time:	1.513	Roll Set Point:	-0.883	Pitch Set Point:	0.895	Yaw Set Point:	-1.658	X_WP:	0.000	Y_WP:	0.000	Y_WP:	0.750	X:	0.930	Y:	0.034	Z:	0.397	yaw:	94.998	yaw rate:	-1.433	Roll:	-1.703	Pitch:	-27.723	Yaw:	134.851	Thrust:	82.818
Time:	1.533	Roll Set Point:	-0.883	Pitch Set Point:	0.895	Yaw Set Point:	-1.658	X_WP:	0.000	Y_WP:	0.000	Y_WP:	0.750	X:	0.930	Y:	0.034	Z:	0.397	yaw:	94.996	yaw rate:	0.214	Roll:	-1.424	Pitch:	-27.679	Yaw:	134.620	Thrust:	79.912
Time:	1.553	Roll Set Point:	-0.883	Pitch Set Point:	0.895	Yaw Set Point:	-1.658	X_WP:	0.000	Y_WP:	0.000	Y_WP:	0.750	X:	0.930	Y:	0.034	Z:	0.397	yaw:	94.991	yaw rate:	0.470	Roll:	-1.552	Pitch:	-27.707	Yaw:	134.561	Thrust:	83.781
Time:	1.573	Roll Set Point:	-0.883	Pitch Set Point:	0.895	Yaw Set Point:	-1.658	X_WP:	0.000	Y_WP:	0.000	Y_WP:	0.750	X:	0.930	Y:	0.034	Z:	0.397	yaw:	94.985	yaw rate:	0.606	Roll:	-1.470	Pitch:	-27.706	Yaw:	134.576	Thrust:	85.723
Time:	1.594	Roll Set Point:	-0.883	Pitch Set Point:	0.895	Yaw Set Point:	-1.658	X_WP:	0.000	Y_WP:	0.000	Y_WP:	0.750	X:	0.930	Y:	0.034	Z:	0.397	yaw:	94.993	yaw rate:	-0.768	Roll:	-1.626	Pitch:	-27.670	Yaw:	134.744	Thrust:	84.173
Time:	1.613	Roll Set Point:	-0.883	Pitch Set Point:	0.895	Yaw Set Point:	-1.658	X_WP:	0.000	Y_WP:	0.000	Y_WP:	0.750	X:	0.930	Y:	0.034	Z:	0.397	yaw:	94.989	yaw rate:	0.349	Roll:	-1.484	Pitch:	-27.711	Yaw:	134.540	Thrust:	86.644
Time:	1.632	Roll Set Point:	-0.883	Pitch Set Point:	0.895	Yaw Set Point:	-1.658	X_WP:	0.000	Y_WP:	0.000	Y_WP:	0.750	X:	0.930	Y:	0.034	Z:	0.397	yaw:	94.996	yaw rate:	-0.635	Roll:	-1.565	Pitch:	-27.681	Yaw:	134.684	Thrust:	85.647
Time:	1.653	Roll Set Point:	-0.882	Pitch Set Point:	0.895	Yaw Set Point:	-1.659	X_WP:	0.000	Y_WP:	0.000	Y_WP:	0.750	X:	0.930	Y:	0.034	Z:	0.397	yaw:	95.026	yaw rate:	-3.044	Roll:	-2.045	Pitch:	-27.658	Yaw:	135.084	Thrust:	88.493
Time:	1.673	Roll Set Point:	-0.883	Pitch Set Point:	0.895	Yaw Set Point:	-1.657	X_WP:	0.000	Y_WP:	0.000	Y_WP:	0.750	X:	0.930	Y:	0.034	Z:	0.397	yaw:	94.964	yaw rate:	6.242	Roll:	-0.666	Pitch:	-27.745	Yaw:	133.863	Thrust:	91.121
Time:	1.693	Roll Set Point:	-0.883	Pitch Set Point:	0.895	Yaw Set Point:	-1.658	X_WP:	0.000	Y_WP:	0.000	Y_WP:	0.750	X:	0.930	Y:	0.034	Z:	0.397	yaw:	94.998	yaw rate:	-3.398	Roll:	-2.004	Pitch:	-27.672	Yaw:	135.060	Thrust:	88.584
Time:	1.712	Roll Set Point:	-0.883	Pitch Set Point:	0.895	Yaw Set Point:	-1.658	X_WP:	0.000	Y_WP:	0.000	Y_WP:	0.750	X:	0.930	Y:	0.034	Z:	0.397	yaw:	95.016	yaw rate:	-1.790	Roll:	-1.740	Pitch:	-27.673	Yaw:	134.850	Thrust:	88.362
Time:	1.733	Roll Set Point:	-0.883	Pitch Set Point:	0.895	Yaw Set Point:	-1.658	X_WP:	0.000	Y_WP:	0.000	Y_WP:	0.750	X:	0.930	Y:	0.034	Z:	0.397	yaw:	94.982	yaw rate:	3.325	Roll:	-1.157	Pitch:	-27.719	Yaw:	134.235	Thrust:	93.212
Time:	1.753	Roll Set Point:	-0.883	Pitch Set Point:	0.895	Yaw Set Point:	-1.658	X_WP:	0.000	Y_WP:	0.000	Y_WP:	0.750	X:	0.930	Y:	0.034	Z:	0.397	yaw:	94.989	yaw rate:	-0.713	Roll:	-1.665	Pitch:	-27.694	Yaw:	134.737	Thrust:	92.829
Time:	1.773	Roll Set Point:	-0.882	Pitch Set Point:	0.895	Yaw Set Point:	-1.659	X_WP:	0.000	Y_WP:	0.000	Y_WP:	0.750	X:	0.930	Y:	0.034	Z:	0.397	yaw:	95.035	yaw rate:	-4.600	Roll:	-2.213	Pitch:	-27.612	Yaw:	135.315	Thrust:	94.166
Time:	1.793	Roll Set Point:	-0.883	Pitch Set Point:	0.895	Yaw Set Point:	-1.658	X_WP:	0.000	Y_WP:	0.000	Y_WP:	0.750	X:	0.930	Y:	0.034	Z:	0.397	yaw:	94.993	yaw rate:	4.235	Roll:	-1.008	Pitch:	-27.753	Yaw:	134.115	Thrust:	95.032
Time:	1.813	Roll Set Point:	-0.883	Pitch Set Point:	0.895	Yaw Set Point:	-1.658	X_WP:	0.000	Y_WP:	0.000	Y_WP:	0.750	X:	0.930	Y:	0.034	Z:	0.397	yaw:	95.010	yaw rate:	-1.696	Roll:	-1.813	Pitch:	-27.675	Yaw:	134.884	Thrust:	94.981
Time:	1.832	Roll Set Point:	-0.883	Pitch Set Point:	0.895	Yaw Set Point:	-1.658	X_WP:	0.000	Y_WP:	0.000	Y_WP:	0.750	X:	0.930	Y:	0.034	Z:	0.397	yaw:	94.982	yaw rate:	2.812	Roll:	-1.145	Pitch:	-27.728	Yaw:	134.154	Thrust:	92.582
Time:	1.852	Roll Set Point:	-0.883	Pitch Set Point:	0.895	Yaw Set Point:	-1.658	X_WP:	0.000	Y_WP:	0.000	Y_WP:	0.750	X:	0.930	Y:	0.034	Z:	0.397	yaw:	94.981	yaw rate:	0.058	Roll:	-1.546	Pitch:	-27.685	Yaw:	134.617	Thrust:	96.847
Time:	1.873	Roll Set Point:	-0.882	Pitch Set Point:	0.895	Yaw Set Point:	-1.659	X_WP:	0.000	Y_WP:	0.000	Y_WP:	0.750	X:	0.930	Y:	0.034	Z:	0.397	yaw:	95.040	yaw rate:	-5.825	Roll:	-2.370	Pitch:	-27.647	Yaw:	135.493	Thrust:	99.234
Time:	1.893	Roll Set Point:	-0.883	Pitch Set Point:	0.895	Yaw Set Point:	-1.658	X_WP:	0.000	Y_WP:	0.000	Y_WP:	0.750	X:	0.930	Y:	0.034	Z:	0.397	yaw:	94.998	yaw rate:	4.141	Roll:	-1.026	Pitch:	-27.723	Yaw:	134.106	Thrust:	98.526
Time:	1.913	Roll Set Point:	-0.883	Pitch Set Point:	0.895	Yaw Set Point:	-1.658	X_WP:	0.000	Y_WP:	0.000	Y_WP:	0.750	X:	0.930	Y:	0.034	Z:	0.397	yaw:	95.010	yaw rate:	-1.226	Roll:	-1.723	Pitch:	-27.694	Yaw:	134.867	Thrust:	100.000
Time:	1.932	Roll Set Point:	-0.883	Pitch Set Point:	0.895	Yaw Set Point:	-1.658	X_WP:	0.000	Y_WP:	0.000	Y_WP:	0.750	X:	0.930	Y:	0.034	Z:	0.397	yaw:	94.990	yaw rate:	2.034	Roll:	-1.282	Pitch:	-27.691	Yaw:	134.221	Thrust:	94.879
Time:	1.953	Roll Set Point:	-0.883	Pitch Set Point:	0.895	Yaw Set Point:	-1.658	X_WP:	0.000	Y_WP:	0.000	Y_WP:	0.750	X:	0.930	Y:	0.034	Z:	0.397	yaw:	94.995	yaw rate:	-0.494	Roll:	-1.585	Pitch:	-27.701	Yaw:	134.777	Thrust:	100.000
Time:	1.973	Roll Set Point:	-0.883	Pitch Set Point:	0.895	Yaw Set Point:	-1.658	X_WP:	0.000	Y_WP:	0.000	Y_WP:	0.750	X:	0.930	Y:	0.034	Z:	0.397	yaw:	95.003	yaw rate:	-0.826	Roll:	-1.778	Pitch:	-27.695	Yaw:	134.731	Thrust:	100.000
Time:	1.993	Roll Set Point:	-0.883	Pitch Set Point:	0.895	Yaw Set Point:	-1.658	X_WP:	0.000	Y_WP:	0.000	Y_WP:	0.750	X:	0.930	Y:	0.034	Z:	0.397	yaw:	95.003	yaw rate:	0.024	Roll:	-1.584	Pitch:	-27.703	Yaw:	134.667	Thrust:	100.000
Time:	2.013	Roll Set Point:	-0.883	Pitch Set Point:	0.895	Yaw Set Point:	-1.658	X_WP:	0.000	Y_WP:	0.000	Y_WP:	0.750	X:	0.930	Y:	0.034	Z:	0.397	yaw:	95.003	yaw rate:	-0.028	Roll:	-1.605	Pitch:	-27.625	Yaw:	134.616	Thrust:	100.000
Time:	2.033	Roll Set Point:	-0.883	Pitch Set Point:	0.895	Yaw Set Point:	-1.658	X_WP:	0.000	Y_WP:	0.000	Y_WP:	0.750	X:	0.930	Y:	0.034	Z:	0.397	yaw:	94.984	yaw rate:	1.887	Roll:	-1.328	Pitch:	-27.732	Yaw:	134.463	Thrust:	100.000
Time:	2.052	Roll Set Point:	-0.883	Pitch Set Point:	0.895	Yaw Set Point:	-1.658	X_WP:	0.000	Y_WP:	0.000	Y_WP:	0.750	X:	0.930	Y:	0.034	Z:	0.397	yaw:	94.992	yaw rate:	-0.701	Roll:	-1.594	Pitch:	-27.729	Yaw:	134.637	Thrust:	100.000
Time:	2.074	Roll Set Point:	-0.883	Pitch Set Point:	0.895	Yaw Set Point:	-1.658	X_WP:	0.000	Y_WP:	0.000	Y_WP:	0.750	X:	0.930	Y:	0.034	Z:	0.397	yaw:	95.002	yaw rate:	-1.067	Roll:	-1.817	Pitch:	-27.725	Yaw:	134.966	Thrust:	100.000
Time:	2.093	Roll Set Point:	-0.883	Pitch Set Point:	0.895	Yaw Set Point:	-1.658	X_WP:	0.000	Y_WP:	0.000	Y_WP:	0.750	X:	0.930	Y:	0.034	Z:	0.397	yaw:	95.001	yaw rate:	0.077	Roll:	-1.501	Pitch:	-27.630	Yaw:	134.491	Thrust:	100.000
Time:	2.113	Roll Set Point:	-0.883	Pitch Set Point:	0.895	Yaw Set Point:	-1.658	X_WP:	0.000	Y_WP:	0.000	Y_WP:	0.750	X:	0.930	Y:	0.034	Z:	0.397	yaw:	95.011	yaw rate:	-0.913	Roll:	-1.726	Pitch:	-27.697	Yaw:	134.832	Thrust:	100.000
Time:	2.134	Roll Set Point:	-0.883	Pitch Set Point:	0.895	Yaw Set Point:	-1.658	X_WP:	0.000	Y_WP:	0.000	Y_WP:	0.750	X:	0.930	Y:	0.034	Z:	0.397	yaw:	94.995	yaw rate:	1.538	Roll:	-1.484	Pitch:	-27.734	Yaw:	134.510	Thrust:	100.000
Time:	2.153	Roll Set Point:	-0.882	Pitch Set Point:	0.895	Yaw Set Point:	-1.659	X_WP:	0.000	Y_WP:	0.000	Y_WP:	0.750	X:	0.930	Y:	0.034	Z:	0.397	yaw:	95.032	yaw rate:	-3.663	Roll:	-2.170	Pitch:	-27.595	Yaw:	135.023	Thrust:	100.000
Time:	2.173	Roll Set Point:	-0.883	Pitch Set Point:	0.895	Yaw Set Point:	-1.658	X_WP:	0.000	Y_WP:	0.000	Y_WP:	0.750	X:	0.930	Y:	0.034	Z:	0.397	yaw:	95.005	yaw rate:	2.682	Roll:	-1.259	Pitch:	-27.747	Yaw:	134.426	Thrust:	100.000
Time:	2.192	Roll Set Point:	-0.883	Pitch Set Point:	0.895	Yaw Set Point:	-1.658	X_WP:	0.000	Y_WP:	0.000	Y_WP:	0.750	X:	0.930	Y:	0.034	Z:	0.397	yaw:	94.998	yaw rate:	0.735	Roll:	-1.509	Pitch:	-27.684	Yaw:	134.462	Thrust:	100.000
Time:	2.212	Roll Set Point:	-0.883	Pitch Set Point:	0.895	Yaw Set Point:	-1.658	X_WP:	0.000	Y_WP:	0.000	Y_WP:	0.750	X:	0.930	Y:	0.034	Z:	0.397	yaw:	94.995	yaw rate:	0.222	Roll:	-1.571	Pitch:	-27.690	Yaw:	134.604	Thrust:	100.000
Time:	2.232	Roll Set Point:	-0.883	Pitch Set Point:	0.895	Yaw Set Point:	-1.658	X_WP:	0.000	Y_WP:	0.000	Y_WP:	0.750	X:	0.930	Y:	0.034	Z:	0.397	yaw:	94.998	yaw rate:	-0.305	Roll:	-1.585	Pitch:	-27.694	Yaw:	134.681	Thrust:	100.000
Time:	2.252	Roll Set Point:	-0.883	Pitch Set Point:	0.895	Yaw Set Point:	-1.658	X_WP:	0.000	Y_WP:	0.000	Y_WP:	0.750	X:	0.930	Y:	0.034	Z:	0.397	yaw:	95.009	yaw rate:	-1.023	Roll:	-1.829	Pitch:	-27.687	Yaw:	134.799	Thrust:	100.000
Time:	2.272	Roll Set Point:	-0.883	Pitch Set Point:	0.895	Yaw Set Point:	-1.658	X_WP:	0.000	Y_WP:	0.000	Y_WP:	0.750	X:	0.930	Y:	0.034	Z:	0.397	yaw:	95.004	yaw rate:	0.446	Roll:	-1.491	Pitch:	-27.706	Yaw:	134.571	Thrust:	100.000
Time:	2.292	Roll Set Point:	-0.883	Pitch Set Point:	0.895	Yaw Set Point:	-1.658	X_WP:	0.000	Y_WP:	0.000	Y_WP:	0.750	X:	0.930	Y:	0.034	Z:	0.397	yaw:	95.005	yaw rate:	-0.124	Roll:	-1.721	Pitch:	-27.664	Yaw:	134.682	Thrust:	100.000
Time:	2.319	Roll Set Point:	-0.883	Pitch Set Point:	0.895	Yaw Set Point:	-1.658	X_WP:	0.000	Y_WP:	0.000	Y_WP:	0.750	X:	0.930	Y:	0.034	Z:	0.397	yaw:	95.004	yaw rate:	0.175	Roll:	-1.713	Pitch:	-27.962	Yaw:	135.335	Thrust:	100.000
Time:	2.332	Roll Set Point:	-0.883	Pitch Set Point:	0.895	Yaw Set Point:	-1.658	X_WP:	0.000	Y_WP:	0.000	Y_WP:	0.750	X:	0.930	Y:	0.034	Z:	0.397	yaw:	94.990	yaw rate:	1.398	Roll:	-1.084	Pitch:	-27.494	Yaw:	133.654	Thrust:	82.589
Time:	2.352	Roll Set Point:	-0.883	Pitch Set Point:	0.895	Yaw Set Point:	-1.658	X_WP:	0.000	Y_WP:	0.000	Y_WP:	0.750	X:	0.930	Y:	0.034	Z:	0.397	yaw:	94.998	yaw rate:	-0.780	Roll:	-1.833	Pitch:	-27.643	Yaw:	134.729	Thrust:	100.000
Time:	2.372	Roll Set Point:	-0.883	Pitch Set Point:	0.895	Yaw Set Point:	-1.658	X_WP:	0.000	Y_WP:	0.000	Y_WP:	0.750	X:	0.930	Y:	0.034	Z:	0.397	yaw:	94.983	yaw rate:	1.428	Roll:	-1.414	Pitch:	-27.692	Yaw:	134.403	Thrust:	100.000
Time:	2.394	Roll Set Point:	-0.883	Pitch Set Point:	0.895	Yaw Set Point:	-1.658	X_WP:	0.000	Y_WP:	0.000	Y_WP:	0.750	X:	0.930	Y:	0.034	Z:	0.397	yaw:	94.995	yaw rate:	-1.128	Roll:	-1.790	Pitch:	-27.752	Yaw:	134.998	Thrust:	100.000
Time:	2.412	Roll Set Point:	-0.882	Pitch Set Point:	0.895	Yaw Set Point:	-1.658	X_WP:	0.000	Y_WP:	0.000	Y_WP:	0.750	X:	0.930	Y:	0.034	Z:	0.397	yaw:	95.020	yaw rate:	-2.562	Roll:	-2.017	Pitch:	-27.621	Yaw:	134.839	Thrust:	100.000
Time:	2.433	Roll Set Point:	-0.883	Pitch Set Point:	0.895	Yaw Set Point:	-1.658	X_WP:	0.000	Y_WP:	0.000	Y_WP:	0.750	X:	0.930	Y:	0.034	Z:	0.397	yaw:	94.995	yaw rate:	2.504	Roll:	-1.225	Pitch:	-27.748	Yaw:	134.362	Thrust:	100.000
Time:	2.453	Roll Set Point:	-0.883	Pitch Set Point:	0.895	Yaw Set Point:	-1.658	X_WP:	0.000	Y_WP:	0.000	Y_WP:	0.750	X:	0.930	Y:	0.034	Z:	0.397	yaw:	94.982	yaw rate:	1.275	Roll:	-1.517	Pitch:	-27.632	Yaw:	134.456	Thrust:	100.000
Time:	2.472	Roll Set Point:	-0.883	Pitch Set Point:	0.895	Yaw Set Point:	-1.658	X_WP:	0.000	Y_WP:	0.000	Y_WP:	0.750	X:	0.930	Y:	0.034	Z:	0.397	yaw:	95.001	yaw rate:	-1.856	Roll:	-1.925	Pitch:	-27.694	Yaw:	134.840	Thrust:	100.000
Time:	2.492	Roll Set Point:	-0.883	Pitch Set Point:	0.895	Yaw Set Point:	-1.658	X_WP:	0.000	Y_WP:	0.000	Y_WP:	0.750	X:	0.930	Y:	0.034	Z:	0.397	yaw:	95.003	yaw rate:	-0.222	Roll:	-1.561	Pitch:	-27.738	Yaw:	134.701	Thrust:	100.000
Time:	2.513	Roll Set Point:	-0.883	Pitch Set Point:	0.895	Yaw Set Point:	-1.658	X_WP:	0.000	Y_WP:	0.000	Y_WP:	0.750	X:	0.930	Y:	0.034	Z:	0.397	yaw:	95.002	yaw rate:	0.080	Roll:	-1.638	Pitch:	-27.664	Yaw:	134.610	Thrust:	100.000
Time:	2.532	Roll Set Point:	-0.883	Pitch Set Point:	0.895	Yaw Set Point:	-1.658	X_WP:	0.000	Y_WP:	0.000	Y_WP:	0.750	X:	0.930	Y:	0.034	Z:	0.397	yaw:	95.012	yaw rate:	-1.018	Roll:	-1.799	Pitch:	-27.713	Yaw:	134.833	Thrust:	100.000
Time:	2.552	Roll Set Point:	-0.883	Pitch Set Point:	0.895	Yaw Set Point:	-1.658	X_WP:	0.000	Y_WP:	0.000	Y_WP:	0.750	X:	0.930	Y:	0.034	Z:	0.397	yaw:	95.002	yaw rate:	1.042	Roll:	-1.585	Pitch:	-27.681	Yaw:	134.490	Thrust:	100.000
Time:	2.572	Roll Set Point:	-0.883	Pitch Set Point:	0.895	Yaw Set Point:	-1.658	X_WP:	0.000	Y_WP:	0.000	Y_WP:	0.750	X:	0.930	Y:	0.034	Z:	0.397	yaw:	94.977	yaw rate:	2.479	Roll:	-1.313	Pitch:	-27.694	Yaw:	134.303	Thrust:	100.000
Time:	2.592	Roll Set Point:	-0.883	Pitch Set Point:	0.895	Yaw Set Point:	-1.658	X_WP:	0.000	Y_WP:	0.000	Y_WP:	0.750	X:	0.930	Y:	0.034	Z:	0.397	yaw:	94.992	yaw rate:	-1.482	Roll:	-1.759	Pitch:	-27.718	Yaw:	134.842	Thrust:	100.000
Time:	2.612	Roll Set Point:	-0.883	Pitch Set Point:	0.895	Yaw Set Point:	-1.658	X_WP:	0.000	Y_WP:	0.000	Y_WP:	0.750	X:	0.930	Y:	0.034	Z:	0.397	yaw:	94.993	yaw rate:	-0.115	Roll:	-1.677	Pitch:	-27.685	Yaw:	134.627	Thrust:	100.000
Time:	2.632	Roll Set Point:	-0.883	Pitch Set Point:	0.895	Yaw Set Point:	-1.658	X_WP:	0.000	Y_WP:	0.000	Y_WP:	0.750	X:	0.930	Y:	0.034	Z:	0.397	yaw:	95.009	yaw rate:	-1.540	Roll:	-1.948	Pitch:	-27.652	Yaw:	134.870	Thrust:	100.000
Time:	2.652	Roll Set Point:	-0.883	Pitch Set Point:	0.895	Yaw Set Point:	-1.658	X_WP:	0.000	Y_WP:	0.000	Y_WP:	0.750	X:	0.930	Y:	0.034	Z:	0.397	yaw:	94.981	yaw rate:	2.775	Roll:	-1.250	Pitch:	-27.725	Yaw:	134.265	Thrust:	100.000
Time:	2.673	Roll Set Point:	-0.883	Pitch Set Point:	0.895	Yaw Set Point:	-1.658	X_WP:	0.000	Y_WP:	0.000	Y_WP:	0.750	X:	0.930	Y:	0.034	Z:	0.397	yaw:	94.972	yaw rate:	0.855	Roll:	-1.555	Pitch:	-27.708	Yaw:	134.534	Thrust:	100.000
Time:	2.693	Roll Set Point:	-0.883	Pitch Set Point:	0.895	Yaw Set Point:	-1.658	X_WP:	0.000	Y_WP:	0.000	Y_WP:	0.750	X:	0.930	Y:	0.034	Z:	0.397	yaw:	94.980	yaw rate:	-0.781	Roll:	-1.766	Pitch:	-27.671	Yaw:	134.716	Thrust:	100.000
Time:	2.712	Roll Set Point:	-0.883	Pitch Set Point:	0.895	Yaw Set Point:	-1.658	X_WP:	0.000	Y_WP:	0.000	Y_WP:	0.750	X:	0.930	Y:	0.034	Z:	0.397	yaw:	95.000	yaw rate:	-1.969	Roll:	-1.926	Pitch:	-27.671	Yaw:	134.836	Thrust:	100.000
Time:	2.732	Roll Set Point:	-0.883	Pitch Set Point:	0.895	Yaw Set Point:	-1.658	X_WP:	0.000	Y_WP:	0.000	Y_WP:	0.750	X:	0.930	Y:	0.034	Z:	0.397	yaw:	95.000	yaw rate:	-0.061	Roll:	-1.695	Pitch:	-27.680	Yaw:	134.647	Thrust:	100.000
Time:	2.752	Roll Set Point:	-0.883	Pitch Set Point:	0.895	Yaw Set Point:	-1.658	X_WP:	0.000	Y_WP:	0.000	Y_WP:	0.750	X:	0.930	Y:	0.034	Z:	0.397	yaw:	94.989	yaw rate:	1.171	Roll:	-1.510	Pitch:	-27.720	Yaw:	134.539	Thrust:	100.000
Time:	2.772	Roll Set Point:	-0.883	Pitch Set Point:	0.895	Yaw Set Point:	-1.658	X_WP:	0.000	Y_WP:	0.000	Y_WP:	0.750	X:	0.930	Y:	0.034	Z:	0.397	yaw:	94.986	yaw rate:	0.237	Roll:	-1.635	Pitch:	-27.695	Yaw:	134.551	Thrust:	100.000
Time:	2.793	Roll Set Point:	-0.883	Pitch Set Point:	0.895	Yaw Set Point:	-1.658	X_WP:	0.000	Y_WP:	0.000	Y_WP:	0.750	X:	0.930	Y:	0.034	Z:	0.397	yaw:	95.009	yaw rate:	-2.246	Roll:	-1.982	Pitch:	-27.697	Yaw:	135.019	Thrust:	100.000
Time:	2.812	Roll Set Point:	-0.883	Pitch Set Point:	0.895	Yaw Set Point:	-1.658	X_WP:	0.000	Y_WP:	0.000	Y_WP:	0.750	X:	0.930	Y:	0.034	Z:	0.397	yaw:	95.005	yaw rate:	0.414	Roll:	-1.551	Pitch:	-27.670	Yaw:	134.481	Thrust:	100.000
Time:	2.833	Roll Set Point:	-0.883	Pitch Set Point:	0.895	Yaw Set Point:	-1.658	X_WP:	0.000	Y_WP:	0.000	Y_WP:	0.750	X:	0.930	Y:	0.034	Z:	0.397	yaw:	95.010	yaw rate:	-0.518	Roll:	-1.836	Pitch:	-27.705	Yaw:	134.809	Thrust:	100.000
Time:	2.852	Roll Set Point:	-0.883	Pitch Set Point:	0.895	Yaw Set Point:	-1.658	X_WP:	0.000	Y_WP:	0.000	Y_WP:	0.750	X:	0.930	Y:	0.034	Z:	0.397	yaw:	94.974	yaw rate:	3.573	Roll:	-1.146	Pitch:	-27.700	Yaw:	134.023	Thrust:	100.000
Time:	2.872	Roll Set Point:	-0.883	Pitch Set Point:	0.895	Yaw Set Point:	-1.658	X_WP:	0.000	Y_WP:	0.000	Y_WP:	0.750	X:	0.930	Y:	0.034	Z:	0.397	yaw:	94.998	yaw rate:	-2.428	Roll:	-1.938	Pitch:	-27.680	Yaw:	134.969	Thrust:	100.000
Time:	2.892	Roll Set Point:	-0.883	Pitch Set Point:	0.895	Yaw Set Point:	-1.658	X_WP:	0.000	Y_WP:	0.000	Y_WP:	0.750	X:	0.930	Y:	0.034	Z:	0.397	yaw:	94.991	yaw rate:	0.734	Roll:	-1.680	Pitch:	-27.691	Yaw:	134.592	Thrust:	100.000
Time:	2.913	Roll Set Point:	-0.883	Pitch Set Point:	0.895	Yaw Set Point:	-1.658	X_WP:	0.000	Y_WP:	0.000	Y_WP:	0.750	X:	0.930	Y:	0.034	Z:	0.397	yaw:	94.990	yaw rate:	0.106	Roll:	-1.591	Pitch:	-27.778	Yaw:	134.737	Thrust:	100.000
Time:	2.932	Roll Set Point:	-0.883	Pitch Set Point:	0.895	Yaw Set Point:	-1.658	X_WP:	0.000	Y_WP:	0.000	Y_WP:	0.750	X:	0.930	Y:	0.034	Z:	0.397	yaw:	94.993	yaw rate:	-0.337	Roll:	-1.733	Pitch:	-27.628	Yaw:	134.560	Thrust:	100.000
Time:	2.953	Roll Set Point:	-0.883	Pitch Set Point:	0.895	Yaw Set Point:	-1.658	X_WP:	0.000	Y_WP:	0.000	Y_WP:	0.750	X:	0.930	Y:	0.034	Z:	0.397	yaw:	95.006	yaw rate:	-1.230	Roll:	-1.869	Pitch:	-27.684	Yaw:	134.816	Thrust:	100.000
Time:	2.972	Roll Set Point:	-0.883	Pitch Set Point:	0.895	Yaw Set Point:	-1.658	X_WP:	0.000	Y_WP:	0.000	Y_WP:	0.750	X:	0.930	Y:	0.034	Z:	0.397	yaw:	94.973	yaw rate:	3.269	Roll:	-1.316	Pitch:	-27.701	Yaw:	134.131	Thrust:	100.000
Time:	2.993	Roll Set Point:	-0.883	Pitch Set Point:	0.895	Yaw Set Point:	-1.658	X_WP:	0.000	Y_WP:	0.000	Y_WP:	0.750	X:	0.930	Y:	0.034	Z:	0.397	yaw:	95.002	yaw rate:	-2.943	Roll:	-2.105	Pitch:	-27.701	Yaw:	135.116	Thrust:	100.000
Time:	3.012	Roll Set Point:	-0.883	Pitch Set Point:	0.895	Yaw Set Point:	-1.658	X_WP:	0.000	Y_WP:	0.000	Y_WP:	0.750	X:	0.930	Y:	0.034	Z:	0.397	yaw:	94.992	yaw rate:	1.017	Roll:	-1.555	Pitch:	-27.653	Yaw:	134.418	Thrust:	100.000
Time:	3.032	Roll Set Point:	-0.883	Pitch Set Point:	0.895	Yaw Set Point:	-1.658	X_WP:	0.000	Y_WP:	0.000	Y_WP:	0.750	X:	0.930	Y:	0.034	Z:	0.397	yaw:	94.991	yaw rate:	0.098	Roll:	-1.678	Pitch:	-27.688	Yaw:	134.564	Thrust:	100.000
Time:	3.052	Roll Set Point:	-0.883	Pitch Set Point:	0.895	Yaw Set Point:	-1.658	X_WP:	0.000	Y_WP:	0.000	Y_WP:	0.750	X:	0.930	Y:	0.034	Z:	0.397	yaw:	94.996	yaw rate:	-0.521	Roll:	-1.781	Pitch:	-27.704	Yaw:	134.717	Thrust:	100.000
Time:	3.072	Roll Set Point:	-0.883	Pitch Set Point:	0.895	Yaw Set Point:	-1.658	X_WP:	0.000	Y_WP:	0.000	Y_WP:	0.750	X:	0.930	Y:	0.034	Z:	0.397	yaw:	94.969	yaw rate:	2.757	Roll:	-1.336	Pitch:	-27.715	Yaw:	134.296	Thrust:	100.000
Time:	3.093	Roll Set Point:	-0.883	Pitch Set Point:	0.895	Yaw Set Point:	-1.658	X_WP:	0.000	Y_WP:	0.000	Y_WP:	0.750	X:	0.930	Y:	0.034	Z:	0.397	yaw:	95.008	yaw rate:	-3.873	Roll:	-2.262	Pitch:	-27.644	Yaw:	135.203	Thrust:	100.000
Time:	3.112	Roll Set Point:	-0.883	Pitch Set Point:	0.895	Yaw Set Point:	-1.657	X_WP:	0.000	Y_WP:	0.000	Y_WP:	0.750	X:	0.930	Y:	0.034	Z:	0.397	yaw:	94.967	yaw rate:	4.048	Roll:	-1.143	Pitch:	-27.768	Yaw:	134.043	Thrust:	100.000
Time:	3.132	Roll Set Point:	-0.883	Pitch Set Point:	0.895	Yaw Set Point:	-1.658	X_WP:	0.000	Y_WP:	0.000	Y_WP:	0.750	X:	0.930	Y:	0.034	Z:	0.397	yaw:	94.996	yaw rate:	-2.926	Roll:	-2.130	Pitch:	-27.641	Yaw:	135.001	Thrust:	100.000
Time:	3.153	Roll Set Point:	-0.883	Pitch Set Point:	0.895	Yaw Set Point:	-1.658	X_WP:	0.000	Y_WP:	0.000	Y_WP:	0.750	X:	0.930	Y:	0.034	Z:	0.397	yaw:	95.009	yaw rate:	-1.250	Roll:	-1.906	Pitch:	-27.673	Yaw:	134.823	Thrust:	100.000
Time:	3.173	Roll Set Point:	-0.883	Pitch Set Point:	0.895	Yaw Set Point:	-1.658	X_WP:	0.000	Y_WP:	0.000	Y_WP:	0.750	X:	0.930	Y:	0.034	Z:	0.397	yaw:	94.984	yaw rate:	2.497	Roll:	-1.361	Pitch:	-27.742	Yaw:	134.366	Thrust:	100.000
Time:	3.194	Roll Set Point:	-0.883	Pitch Set Point:	0.895	Yaw Set Point:	-1.658	X_WP:	0.000	Y_WP:	0.000	Y_WP:	0.750	X:	0.930	Y:	0.034	Z:	0.397	yaw:	94.998	yaw rate:	-1.423	Roll:	-1.937	Pitch:	-27.749	Yaw:	134.981	Thrust:	100.000
Time:	3.212	Roll Set Point:	-0.883	Pitch Set Point:	0.895	Yaw Set Point:	-1.658	X_WP:	0.000	Y_WP:	0.000	Y_WP:	0.750	X:	0.930	Y:	0.034	Z:	0.397	yaw:	94.971	yaw rate:	2.724	Roll:	-1.262	Pitch:	-27.627	Yaw:	133.959	Thrust:	100.000
Time:	3.232	Roll Set Point:	-0.883	Pitch Set Point:	0.895	Yaw Set Point:	-1.658	X_WP:	0.000	Y_WP:	0.000	Y_WP:	0.750	X:	0.930	Y:	0.034	Z:	0.397	yaw:	95.012	yaw rate:	-4.110	Roll:	-2.304	Pitch:	-27.674	Yaw:	135.223	Thrust:	100.000
Time:	3.252	Roll Set Point:	-0.883	Pitch Set Point:	0.895	Yaw Set Point:	-1.658	X_WP:	0.000	Y_WP:	0.000	Y_WP:	0.750	X:	0.930	Y:	0.034	Z:	0.397	yaw:	94.992	yaw rate:	1.989	Roll:	-1.434	Pitch:	-27.696	Yaw:	134.383	Thrust:	100.000
Time:	3.272	Roll Set Point:	-0.883	Pitch Set Point:	0.895	Yaw Set Point:	-1.658	X_WP:	0.000	Y_WP:	0.000	Y_WP:	0.750	X:	0.930	Y:	0.034	Z:	0.397	yaw:	94.993	yaw rate:	-0.099	Roll:	-1.750	Pitch:	-27.685	Yaw:	134.614	Thrust:	100.000
Time:	3.293	Roll Set Point:	-0.883	Pitch Set Point:	0.895	Yaw Set Point:	-1.658	X_WP:	0.000	Y_WP:	0.000	Y_WP:	0.750	X:	0.930	Y:	0.034	Z:	0.397	yaw:	94.996	yaw rate:	-0.267	Roll:	-1.771	Pitch:	-27.706	Yaw:	134.682	Thrust:	100.000
Time:	3.312	Roll Set Point:	-0.883	Pitch Set Point:	0.895	Yaw Set Point:	-1.658	X_WP:	0.000	Y_WP:	0.000	Y_WP:	0.750	X:	0.930	Y:	0.034	Z:	0.397	yaw:	95.001	yaw rate:	-0.542	Roll:	-1.740	Pitch:	-27.666	Yaw:	134.686	Thrust:	100.000
Time:	3.333	Roll Set Point:	-0.883	Pitch Set Point:	0.895	Yaw Set Point:	-1.658	X_WP:	0.000	Y_WP:	0.000	Y_WP:	0.750	X:	0.930	Y:	0.034	Z:	0.397	yaw:	94.981	yaw rate:	2.023	Roll:	-1.524	Pitch:	-27.701	Yaw:	134.475	Thrust:	100.000
Time:	3.353	Roll Set Point:	-0.883	Pitch Set Point:	0.895	Yaw Set Point:	-1.658	X_WP:	0.000	Y_WP:	0.000	Y_WP:	0.750	X:	0.930	Y:	0.034	Z:	0.397	yaw:	95.015	yaw rate:	-3.429	Roll:	-2.136	Pitch:	-27.724	Yaw:	135.099	Thrust:	100.000
Time:	3.372	Roll Set Point:	-0.883	Pitch Set Point:	0.895	Yaw Set Point:	-1.658	X_WP:	0.000	Y_WP:	0.000	Y_WP:	0.750	X:	0.930	Y:	0.034	Z:	0.397	yaw:	94.999	yaw rate:	1.666	Roll:	-1.604	Pitch:	-27.664	Yaw:	134.376	Thrust:	100.000
Time:	3.395	Roll Set Point:	-0.883	Pitch Set Point:	0.895	Yaw Set Point:	-1.658	X_WP:	0.000	Y_WP:	0.000	Y_WP:	0.750	X:	0.930	Y:	0.034	Z:	0.397	yaw:	94.994	yaw rate:	0.506	Roll:	-1.672	Pitch:	-27.789	Yaw:	134.814	Thrust:	100.000
Time:	3.413	Roll Set Point:	-0.883	Pitch Set Point:	0.895	Yaw Set Point:	-1.658	X_WP:	0.000	Y_WP:	0.000	Y_WP:	0.750	X:	0.930	Y:	0.034	Z:	0.397	yaw:	95.001	yaw rate:	-0.702	Roll:	-1.792	Pitch:	-27.625	Yaw:	134.554	Thrust:	100.000
Time:	3.432	Roll Set Point:	-0.883	Pitch Set Point:	0.895	Yaw Set Point:	-1.658	X_WP:	0.000	Y_WP:	0.000	Y_WP:	0.750	X:	0.930	Y:	0.034	Z:	0.397	yaw:	95.002	yaw rate:	-0.156	Roll:	-1.845	Pitch:	-27.654	Yaw:	134.651	Thrust:	100.000
Time:	3.452	Roll Set Point:	-0.883	Pitch Set Point:	0.895	Yaw Set Point:	-1.658	X_WP:	0.000	Y_WP:	0.000	Y_WP:	0.750	X:	0.930	Y:	0.034	Z:	0.397	yaw:	95.011	yaw rate:	-0.856	Roll:	-1.812	Pitch:	-27.681	Yaw:	134.683	Thrust:	100.000
Time:	3.471	Roll Set Point:	-0.883	Pitch Set Point:	0.895	Yaw Set Point:	-1.658	X_WP:	0.000	Y_WP:	0.000	Y_WP:	0.750	X:	0.930	Y:	0.034	Z:	0.397	yaw:	95.009	yaw rate:	0.209	Roll:	-1.821	Pitch:	-27.664	Yaw:	134.621	Thrust:	100.000
Time:	3.492	Roll Set Point:	-0.883	Pitch Set Point:	0.895	Yaw Set Point:	-1.658	X_WP:	0.000	Y_WP:	0.000	Y_WP:	0.750	X:	0.930	Y:	0.034	Z:	0.397	yaw:	94.979	yaw rate:	3.002	Roll:	-1.246	Pitch:	-27.806	Yaw:	134.324	Thrust:	100.000
Time:	3.511	Roll Set Point:	-0.883	Pitch Set Point:	0.895	Yaw Set Point:	-1.658	X_WP:	0.000	Y_WP:	0.000	Y_WP:	0.750	X:	0.930	Y:	0.034	Z:	0.397	yaw:	94.982	yaw rate:	-0.314	Roll:	-1.873	Pitch:	-27.621	Yaw:	134.568	Thrust:	100.000
Time:	3.532	Roll Set Point:	-0.883	Pitch Set Point:	0.895	Yaw Set Point:	-1.658	X_WP:	0.000	Y_WP:	0.000	Y_WP:	0.750	X:	0.930	Y:	0.034	Z:	0.397	yaw:	94.992	yaw rate:	-1.069	Roll:	-1.854	Pitch:	-27.695	Yaw:	134.829	Thrust:	100.000
Time:	3.558	Roll Set Point:	-0.883	Pitch Set Point:	0.895	Yaw Set Point:	-1.658	X_WP:	0.000	Y_WP:	0.000	Y_WP:	0.750	X:	0.930	Y:	0.034	Z:	0.397	yaw:	94.977	yaw rate:	1.544	Roll:	-1.673	Pitch:	-27.939	Yaw:	135.036	Thrust:	100.000
Time:	3.572	Roll Set Point:	-0.883	Pitch Set Point:	0.895	Yaw Set Point:	-1.658	X_WP:	0.000	Y_WP:	0.000	Y_WP:	0.750	X:	0.930	Y:	0.034	Z:	0.397	yaw:	95.005	yaw rate:	-2.807	Roll:	-2.187	Pitch:	-27.467	Yaw:	134.578	Thrust:	100.000
Time:	3.594	Roll Set Point:	-0.883	Pitch Set Point:	0.895	Yaw Set Point:	-1.658	X_WP:	0.000	Y_WP:	0.000	Y_WP:	0.750	X:	0.930	Y:	0.034	Z:	0.397	yaw:	94.981	yaw rate:	2.395	Roll:	-1.585	Pitch:	-27.728	Yaw:	134.601	Thrust:	100.000
Time:	3.612	Roll Set Point:	-0.883	Pitch Set Point:	0.895	Yaw Set Point:	-1.658	X_WP:	0.000	Y_WP:	0.000	Y_WP:	0.750	X:	0.930	Y:	0.034	Z:	0.397	yaw:	94.978	yaw rate:	0.317	Roll:	-1.661	Pitch:	-27.631	Yaw:	134.285	Thrust:	100.000
Time:	3.632	Roll Set Point:	-0.883	Pitch Set Point:	0.895	Yaw Set Point:	-1.658	X_WP:	0.000	Y_WP:	0.000	Y_WP:	0.750	X:	0.930	Y:	0.034	Z:	0.397	yaw:	95.010	yaw rate:	-3.187	Roll:	-2.138	Pitch:	-27.713	Yaw:	135.076	Thrust:	100.000
Time:	3.652	Roll Set Point:	-0.883	Pitch Set Point:	0.895	Yaw Set Point:	-1.658	X_WP:	0.000	Y_WP:	0.000	Y_WP:	0.750	X:	0.930	Y:	0.034	Z:	0.397	yaw:	95.002	yaw rate:	0.810	Roll:	-1.666	Pitch:	-27.678	Yaw:	134.547	Thrust:	100.000
Time:	3.671	Roll Set Point:	-0.883	Pitch Set Point:	0.895	Yaw Set Point:	-1.658	X_WP:	0.000	Y_WP:	0.000	Y_WP:	0.750	X:	0.930	Y:	0.034	Z:	0.397	yaw:	94.985	yaw rate:	1.700	Roll:	-1.623	Pitch:	-27.680	Yaw:	134.389	Thrust:	100.000
Time:	3.692	Roll Set Point:	-0.883	Pitch Set Point:	0.895	Yaw Set Point:	-1.658	X_WP:	0.000	Y_WP:	0.000	Y_WP:	0.750	X:	0.930	Y:	0.034	Z:	0.397	yaw:	95.016	yaw rate:	-3.147	Roll:	-2.223	Pitch:	-27.684	Yaw:	135.141	Thrust:	100.000
Time:	3.712	Roll Set Point:	-0.883	Pitch Set Point:	0.895	Yaw Set Point:	-1.658	X_WP:	0.000	Y_WP:	0.000	Y_WP:	0.750	X:	0.930	Y:	0.034	Z:	0.397	yaw:	94.980	yaw rate:	3.639	Roll:	-1.279	Pitch:	-27.730	Yaw:	134.144	Thrust:	100.000
Time:	3.732	Roll Set Point:	-0.883	Pitch Set Point:	0.895	Yaw Set Point:	-1.658	X_WP:	0.000	Y_WP:	0.000	Y_WP:	0.750	X:	0.930	Y:	0.034	Z:	0.397	yaw:	95.002	yaw rate:	-2.203	Roll:	-2.078	Pitch:	-27.656	Yaw:	134.879	Thrust:	100.000
Time:	3.752	Roll Set Point:	-0.883	Pitch Set Point:	0.895	Yaw Set Point:	-1.658	X_WP:	0.000	Y_WP:	0.000	Y_WP:	0.750	X:	0.930	Y:	0.034	Z:	0.397	yaw:	95.011	yaw rate:	-0.922	Roll:	-1.937	Pitch:	-27.697	Yaw:	134.831	Thrust:	100.000
Time:	3.772	Roll Set Point:	-0.883	Pitch Set Point:	0.895	Yaw Set Point:	-1.658	X_WP:	0.000	Y_WP:	0.000	Y_WP:	0.750	X:	0.930	Y:	0.034	Z:	0.397	yaw:	95.003	yaw rate:	0.839	Roll:	-1.688	Pitch:	-27.684	Yaw:	134.500	Thrust:	100.000
Time:	3.793	Roll Set Point:	-0.883	Pitch Set Point:	0.895	Yaw Set Point:	-1.658	X_WP:	0.000	Y_WP:	0.000	Y_WP:	0.750	X:	0.930	Y:	0.034	Z:	0.397	yaw:	94.974	yaw rate:	2.900	Roll:	-1.426	Pitch:	-27.777	Yaw:	134.423	Thrust:	100.000
Time:	3.812	Roll Set Point:	-0.883	Pitch Set Point:	0.895	Yaw Set Point:	-1.658	X_WP:	0.000	Y_WP:	0.000	Y_WP:	0.750	X:	0.930	Y:	0.034	Z:	0.397	yaw:	94.981	yaw rate:	-0.738	Roll:	-1.844	Pitch:	-27.637	Yaw:	134.587	Thrust:	100.000
Time:	3.833	Roll Set Point:	-0.883	Pitch Set Point:	0.895	Yaw Set Point:	-1.658	X_WP:	0.000	Y_WP:	0.000	Y_WP:	0.750	X:	0.930	Y:	0.034	Z:	0.397	yaw:	94.983	yaw rate:	-0.198	Roll:	-1.851	Pitch:	-27.669	Yaw:	134.703	Thrust:	100.000
Time:	3.852	Roll Set Point:	-0.883	Pitch Set Point:	0.895	Yaw Set Point:	-1.658	X_WP:	0.000	Y_WP:	0.000	Y_WP:	0.750	X:	0.930	Y:	0.034	Z:	0.397	yaw:	95.006	yaw rate:	-2.293	Roll:	-2.021	Pitch:	-27.712	Yaw:	134.874	Thrust:	100.000
Time:	3.873	Roll Set Point:	-0.883	Pitch Set Point:	0.895	Yaw Set Point:	-1.658	X_WP:	0.000	Y_WP:	0.000	Y_WP:	0.750	X:	0.930	Y:	0.034	Z:	0.397	yaw:	95.010	yaw rate:	-0.373	Roll:	-1.846	Pitch:	-27.733	Yaw:	134.786	Thrust:	100.000
Time:	3.892	Roll Set Point:	-0.883	Pitch Set Point:	0.895	Yaw Set Point:	-1.658	X_WP:	0.000	Y_WP:	0.000	Y_WP:	0.750	X:	0.930	Y:	0.034	Z:	0.397	yaw:	94.987	yaw rate:	2.278	Roll:	-1.592	Pitch:	-27.646	Yaw:	134.283	Thrust:	100.000
Time:	3.911	Roll Set Point:	-0.883	Pitch Set Point:	0.895	Yaw Set Point:	-1.658	X_WP:	0.000	Y_WP:	0.000	Y_WP:	0.750	X:	0.930	Y:	0.034	Z:	0.397	yaw:	94.984	yaw rate:	0.275	Roll:	-1.767	Pitch:	-27.667	Yaw:	134.499	Thrust:	100.000
Time:	3.932	Roll Set Point:	-0.882	Pitch Set Point:	0.895	Yaw Set Point:	-1.658	X_WP:	0.000	Y_WP:	0.000	Y_WP:	0.750	X:	0.930	Y:	0.034	Z:	0.397	yaw:	95.022	yaw rate:	-3.746	Roll:	-2.331	Pitch:	-27.697	Yaw:	135.218	Thrust:	100.000
Time:	3.952	Roll Set Point:	-0.883	Pitch Set Point:	0.895	Yaw Set Point:	-1.658	X_WP:	0.000	Y_WP:	0.000	Y_WP:	0.750	X:	0.930	Y:	0.034	Z:	0.397	yaw:	94.999	yaw rate:	2.263	Roll:	-1.382	Pitch:	-27.730	Yaw:	134.375	Thrust:	100.000
Time:	3.972	Roll Set Point:	-0.883	Pitch Set Point:	0.895	Yaw Set Point:	-1.658	X_WP:	0.000	Y_WP:	0.000	Y_WP:	0.750	X:	0.930	Y:	0.034	Z:	0.397	yaw:	94.996	yaw rate:	0.263	Roll:	-1.916	Pitch:	-27.653	Yaw:	134.588	Thrust:	100.000
Time:	3.993	Roll Set Point:	-0.883	Pitch Set Point:	0.895	Yaw Set Point:	-1.658	X_WP:	0.000	Y_WP:	0.000	Y_WP:	0.750	X:	0.930	Y:	0.034	Z:	0.397	yaw:	94.997	yaw rate:	-0.045	Roll:	-1.716	Pitch:	-27.795	Yaw:	134.757	Thrust:	100.000
Time:	4.012	Roll Set Point:	-0.883	Pitch Set Point:	0.895	Yaw Set Point:	-1.658	X_WP:	0.000	Y_WP:	0.000	Y_WP:	0.750	X:	0.930	Y:	0.034	Z:	0.397	yaw:	95.000	yaw rate:	-0.280	Roll:	-1.956	Pitch:	-27.583	Yaw:	134.595	Thrust:	100.000
Time:	4.033	Roll Set Point:	-0.883	Pitch Set Point:	0.895	Yaw Set Point:	-1.658	X_WP:	0.000	Y_WP:	0.000	Y_WP:	0.750	X:	0.930	Y:	0.034	Z:	0.397	yaw:	94.977	yaw rate:	2.229	Roll:	-1.500	Pitch:	-27.731	Yaw:	134.367	Thrust:	100.000
Time:	4.053	Roll Set Point:	-0.883	Pitch Set Point:	0.895	Yaw Set Point:	-1.658	X_WP:	0.000	Y_WP:	0.000	Y_WP:	0.750	X:	0.930	Y:	0.034	Z:	0.397	yaw:	95.006	yaw rate:	-2.916	Roll:	-2.233	Pitch:	-27.654	Yaw:	134.957	Thrust:	100.000
Time:	4.072	Roll Set Point:	-0.883	Pitch Set Point:	0.895	Yaw Set Point:	-1.658	X_WP:	0.000	Y_WP:	0.000	Y_WP:	0.750	X:	0.930	Y:	0.034	Z:	0.397	yaw:	94.995	yaw rate:	1.157	Roll:	-1.667	Pitch:	-27.692	Yaw:	134.471	Thrust:	100.000
Time:	4.093	Roll Set Point:	-0.883	Pitch Set Point:	0.895	Yaw Set Point:	-1.658	X_WP:	0.000	Y_WP:	0.000	Y_WP:	0.750	X:	0.930	Y:	0.034	Z:	0.397	yaw:	94.973	yaw rate:	2.213	Roll:	-1.455	Pitch:	-27.773	Yaw:	134.451	Thrust:	100.000
Time:	4.112	Roll Set Point:	-0.882	Pitch Set Point:	0.895	Yaw Set Point:	-1.659	X_WP:	0.000	Y_WP:	0.000	Y_WP:	0.750	X:	0.930	Y:	0.034	Z:	0.397	yaw:	95.039	yaw rate:	-6.590	Roll:	-2.926	Pitch:	-27.543	Yaw:	135.486	Thrust:	100.000
Time:	4.133	Roll Set Point:	-0.883	Pitch Set Point:	0.895	Yaw Set Point:	-1.658	X_WP:	0.000	Y_WP:	0.000	Y_WP:	0.750	X:	0.930	Y:	0.034	Z:	0.397	yaw:	94.985	yaw rate:	5.374	Roll:	-1.116	Pitch:	-27.802	Yaw:	134.173	Thrust:	100.000
Time:	4.152	Roll Set Point:	-0.883	Pitch Set Point:	0.895	Yaw Set Point:	-1.658	X_WP:	0.000	Y_WP:	0.000	Y_WP:	0.750	X:	0.930	Y:	0.034	Z:	0.397	yaw:	94.998	yaw rate:	-1.326	Roll:	-2.025	Pitch:	-27.645	Yaw:	134.699	Thrust:	100.000
Time:	4.172	Roll Set Point:	-0.883	Pitch Set Point:	0.895	Yaw Set Point:	-1.658	X_WP:	0.000	Y_WP:	0.000	Y_WP:	0.750	X:	0.930	Y:	0.034	Z:	0.397	yaw:	94.996	yaw rate:	0.242	Roll:	-1.707	Pitch:	-27.695	Yaw:	134.587	Thrust:	100.000
Time:	4.193	Roll Set Point:	-0.883	Pitch Set Point:	0.895	Yaw Set Point:	-1.658	X_WP:	0.000	Y_WP:	0.000	Y_WP:	0.750	X:	0.930	Y:	0.034	Z:	0.397	yaw:	95.000	yaw rate:	-0.387	Roll:	-1.988	Pitch:	-27.735	Yaw:	134.801	Thrust:	100.000
Time:	4.212	Roll Set Point:	-0.883	Pitch Set Point:	0.895	Yaw Set Point:	-1.658	X_WP:	0.000	Y_WP:	0.000	Y_WP:	0.750	X:	0.930	Y:	0.034	Z:	0.397	yaw:	94.988	yaw rate:	1.133	Roll:	-1.590	Pitch:	-27.697	Yaw:	134.394	Thrust:	100.000
Time:	4.233	Roll Set Point:	-0.883	Pitch Set Point:	0.895	Yaw Set Point:	-1.658	X_WP:	0.000	Y_WP:	0.000	Y_WP:	0.750	X:	0.930	Y:	0.034	Z:	0.397	yaw:	95.002	yaw rate:	-1.348	Roll:	-2.126	Pitch:	-27.670	Yaw:	134.889	Thrust:	100.000
Time:	4.252	Roll Set Point:	-0.883	Pitch Set Point:	0.895	Yaw Set Point:	-1.658	X_WP:	0.000	Y_WP:	0.000	Y_WP:	0.750	X:	0.930	Y:	0.034	Z:	0.397	yaw:	94.976	yaw rate:	2.627	Roll:	-1.434	Pitch:	-27.682	Yaw:	134.155	Thrust:	100.000
Time:	4.271	Roll Set Point:	-0.883	Pitch Set Point:	0.895	Yaw Set Point:	-1.658	X_WP:	0.000	Y_WP:	0.000	Y_WP:	0.750	X:	0.930	Y:	0.034	Z:	0.397	yaw:	95.015	yaw rate:	-3.984	Roll:	-2.412	Pitch:	-27.660	Yaw:	135.146	Thrust:	100.000
Time:	4.292	Roll Set Point:	-0.883	Pitch Set Point:	0.895	Yaw Set Point:	-1.658	X_WP:	0.000	Y_WP:	0.000	Y_WP:	0.750	X:	0.930	Y:	0.034	Z:	0.397	yaw:	94.998	yaw rate:	1.739	Roll:	-1.568	Pitch:	-27.733	Yaw:	134.491	Thrust:	100.000
Time:	4.312	Roll Set Point:	-0.883	Pitch Set Point:	0.895	Yaw Set Point:	-1.658	X_WP:	0.000	Y_WP:	0.000	Y_WP:	0.750	X:	0.930	Y:	0.034	Z:	0.397	yaw:	94.995	yaw rate:	0.276	Roll:	-1.885	Pitch:	-27.643	Yaw:	134.645	Thrust:	100.000
Time:	4.332	Roll Set Point:	-0.883	Pitch Set Point:	0.895	Yaw Set Point:	-1.657	X_WP:	0.000	Y_WP:	0.000	Y_WP:	0.750	X:	0.930	Y:	0.034	Z:	0.397	yaw:	94.967	yaw rate:	2.818	Roll:	-1.403	Pitch:	-27.777	Yaw:	134.215	Thrust:	100.000
Time:	4.352	Roll Set Point:	-0.883	Pitch Set Point:	0.895	Yaw Set Point:	-1.658	X_WP:	0.000	Y_WP:	0.000	Y_WP:	0.750	X:	0.930	Y:	0.034	Z:	0.397	yaw:	94.995	yaw rate:	-2.820	Roll:	-2.237	Pitch:	-27.697	Yaw:	135.022	Thrust:	100.000
Time:	4.372	Roll Set Point:	-0.883	Pitch Set Point:	0.895	Yaw Set Point:	-1.658	X_WP:	0.000	Y_WP:	0.000	Y_WP:	0.750	X:	0.930	Y:	0.034	Z:	0.397	yaw:	94.981	yaw rate:	1.401	Roll:	-1.761	Pitch:	-27.654	Yaw:	134.394	Thrust:	100.000
Time:	4.392	Roll Set Point:	-0.883	Pitch Set Point:	0.895	Yaw Set Point:	-1.658	X_WP:	0.000	Y_WP:	0.000	Y_WP:	0.750	X:	0.930	Y:	0.034	Z:	0.397	yaw:	94.994	yaw rate:	-1.295	Roll:	-1.954	Pitch:	-27.692	Yaw:	134.857	Thrust:	100.000
Time:	4.412	Roll Set Point:	-0.883	Pitch Set Point:	0.895	Yaw Set Point:	-1.658	X_WP:	0.000	Y_WP:	0.000	Y_WP:	0.750	X:	0.930	Y:	0.034	Z:	0.397	yaw:	94.992	yaw rate:	0.196	Roll:	-1.934	Pitch:	-27.688	Yaw:	134.560	Thrust:	100.000
Time:	4.432	Roll Set Point:	-0.883	Pitch Set Point:	0.895	Yaw Set Point:	-1.658	X_WP:	0.000	Y_WP:	0.000	Y_WP:	0.750	X:	0.930	Y:	0.034	Z:	0.397	yaw:	94.990	yaw rate:	0.175	Roll:	-1.831	Pitch:	-27.719	Yaw:	134.656	Thrust:	100.000
Time:	4.453	Roll Set Point:	-0.883	Pitch Set Point:	0.895	Yaw Set Point:	-1.658	X_WP:	0.000	Y_WP:	0.000	Y_WP:	0.750	X:	0.930	Y:	0.034	Z:	0.397	yaw:	94.986	yaw rate:	0.400	Roll:	-1.830	Pitch:	-27.680	Yaw:	134.584	Thrust:	100.000
Time:	4.474	Roll Set Point:	-0.883	Pitch Set Point:	0.895	Yaw Set Point:	-1.658	X_WP:	0.000	Y_WP:	0.000	Y_WP:	0.750	X:	0.930	Y:	0.034	Z:	0.397	yaw:	94.993	yaw rate:	-0.679	Roll:	-1.905	Pitch:	-27.742	Yaw:	134.863	Thrust:	100.000
Time:	4.493	Roll Set Point:	-0.883	Pitch Set Point:	0.895	Yaw Set Point:	-1.658	X_WP:	0.000	Y_WP:	0.000	Y_WP:	0.750	X:	0.930	Y:	0.034	Z:	0.397	yaw:	95.002	yaw rate:	-0.886	Roll:	-2.063	Pitch:	-27.636	Yaw:	134.659	Thrust:	100.000
Time:	4.513	Roll Set Point:	-0.883	Pitch Set Point:	0.895	Yaw Set Point:	-1.658	X_WP:	0.000	Y_WP:	0.000	Y_WP:	0.750	X:	0.930	Y:	0.034	Z:	0.397	yaw:	94.997	yaw rate:	0.550	Roll:	-1.784	Pitch:	-27.672	Yaw:	134.567	Thrust:	100.000
Time:	4.534	Roll Set Point:	-0.883	Pitch Set Point:	0.895	Yaw Set Point:	-1.658	X_WP:	0.000	Y_WP:	0.000	Y_WP:	0.750	X:	0.930	Y:	0.034	Z:	0.397	yaw:	95.000	yaw rate:	-0.377	Roll:	-1.969	Pitch:	-27.722	Yaw:	134.767	Thrust:	100.000
Time:	4.553	Roll Set Point:	-0.883	Pitch Set Point:	0.895	Yaw Set Point:	-1.658	X_WP:	0.000	Y_WP:	0.000	Y_WP:	0.750	X:	0.930	Y:	0.034	Z:	0.397	yaw:	94.990	yaw rate:	1.048	Roll:	-1.706	Pitch:	-27.692	Yaw:	134.398	Thrust:	100.000
Time:	4.573	Roll Set Point:	-0.883	Pitch Set Point:	0.895	Yaw Set Point:	-1.658	X_WP:	0.000	Y_WP:	0.000	Y_WP:	0.750	X:	0.930	Y:	0.034	Z:	0.397	yaw:	94.973	yaw rate:	1.714	Roll:	-1.639	Pitch:	-27.747	Yaw:	134.449	Thrust:	100.000
Time:	4.594	Roll Set Point:	-0.883	Pitch Set Point:	0.895	Yaw Set Point:	-1.658	X_WP:	0.000	Y_WP:	0.000	Y_WP:	0.750	X:	0.930	Y:	0.034	Z:	0.397	yaw:	94.984	yaw rate:	-1.102	Roll:	-1.966	Pitch:	-27.700	Yaw:	134.798	Thrust:	100.000
Time:	4.613	Roll Set Point:	-0.883	Pitch Set Point:	0.895	Yaw Set Point:	-1.658	X_WP:	0.000	Y_WP:	0.000	Y_WP:	0.750	X:	0.930	Y:	0.034	Z:	0.397	yaw:	95.000	yaw rate:	-1.643	Roll:	-2.117	Pitch:	-27.647	Yaw:	134.798	Thrust:	100.000
Time:	4.637	Roll Set Point:	-0.883	Pitch Set Point:	0.895	Yaw Set Point:	-1.657	X_WP:	0.000	Y_WP:	0.000	Y_WP:	0.750	X:	0.930	Y:	0.034	Z:	0.397	yaw:	94.967	yaw rate:	3.342	Roll:	-1.560	Pitch:	-27.846	Yaw:	134.622	Thrust:	100.000
Time:	4.653	Roll Set Point:	-0.883	Pitch Set Point:	0.895	Yaw Set Point:	-1.658	X_WP:	0.000	Y_WP:	0.000	Y_WP:	0.750	X:	0.930	Y:	0.034	Z:	0.397	yaw:	95.008	yaw rate:	-4.132	Roll:	-2.509	Pitch:	-27.525	Yaw:	134.935	Thrust:	100.000
Time:	4.683	Roll Set Point:	-0.883	Pitch Set Point:	0.895	Yaw Set Point:	-1.658	X_WP:	0.000	Y_WP:	0.000	Y_WP:	0.750	X:	0.930	Y:	0.034	Z:	0.397	yaw:	95.007	yaw rate:	0.159	Roll:	-2.245	Pitch:	-28.053	Yaw:	135.646	Thrust:	100.000
Time:	4.695	Roll Set Point:	-0.883	Pitch Set Point:	0.895	Yaw Set Point:	-1.658	X_WP:	0.000	Y_WP:	0.000	Y_WP:	0.750	X:	0.930	Y:	0.034	Z:	0.397	yaw:	94.989	yaw rate:	1.804	Roll:	-1.248	Pitch:	-27.430	Yaw:	133.459	Thrust:	100.000
Time:	4.711	Roll Set Point:	-0.883	Pitch Set Point:	0.895	Yaw Set Point:	-1.658	X_WP:	0.000	Y_WP:	0.000	Y_WP:	0.750	X:	0.930	Y:	0.034	Z:	0.397	yaw:	94.990	yaw rate:	-0.196	Roll:	-1.729	Pitch:	-27.586	Yaw:	134.275	Thrust:	100.000
Time:	4.732	Roll Set Point:	-0.883	Pitch Set Point:	0.895	Yaw Set Point:	-1.658	X_WP:	0.000	Y_WP:	0.000	Y_WP:	0.750	X:	0.930	Y:	0.034	Z:	0.397	yaw:	94.987	yaw rate:	0.385	Roll:	-1.943	Pitch:	-27.678	Yaw:	134.623	Thrust:	100.000
Time:	4.755	Roll Set Point:	-0.883	Pitch Set Point:	0.895	Yaw Set Point:	-1.658	X_WP:	0.000	Y_WP:	0.000	Y_WP:	0.750	X:	0.930	Y:	0.034	Z:	0.397	yaw:	94.997	yaw rate:	-1.044	Roll:	-1.973	Pitch:	-27.709	Yaw:	135.037	Thrust:	100.000
Time:	4.772	Roll Set Point:	-0.883	Pitch Set Point:	0.895	Yaw Set Point:	-1.658	X_WP:	0.000	Y_WP:	0.000	Y_WP:	0.750	X:	0.930	Y:	0.034	Z:	0.397	yaw:	94.983	yaw rate:	1.444	Roll:	-1.758	Pitch:	-27.694	Yaw:	134.176	Thrust:	100.000
Time:	4.794	Roll Set Point:	-0.883	Pitch Set Point:	0.895	Yaw Set Point:	-1.658	X_WP:	0.000	Y_WP:	0.000	Y_WP:	0.750	X:	0.930	Y:	0.034	Z:	0.397	yaw:	94.981	yaw rate:	0.199	Roll:	-1.849	Pitch:	-27.776	Yaw:	134.753	Thrust:	100.000
Time:	4.813	Roll Set Point:	-0.883	Pitch Set Point:	0.895	Yaw Set Point:	-1.658	X_WP:	0.000	Y_WP:	0.000	Y_WP:	0.750	X:	0.930	Y:	0.034	Z:	0.397	yaw:	95.007	yaw rate:	-2.591	Roll:	-2.370	Pitch:	-27.603	Yaw:	134.940	Thrust:	100.000
Time:	4.834	Roll Set Point:	-0.883	Pitch Set Point:	0.895	Yaw Set Point:	-1.658	X_WP:	0.000	Y_WP:	0.000	Y_WP:	0.750	X:	0.930	Y:	0.034	Z:	0.397	yaw:	94.981	yaw rate:	2.568	Roll:	-1.582	Pitch:	-27.706	Yaw:	134.353	Thrust:	100.000
Time:	4.854	Roll Set Point:	-0.883	Pitch Set Point:	0.895	Yaw Set Point:	-1.658	X_WP:	0.000	Y_WP:	0.000	Y_WP:	0.750	X:	0.930	Y:	0.034	Z:	0.397	yaw:	94.996	yaw rate:	-1.542	Roll:	-2.134	Pitch:	-27.693	Yaw:	134.843	Thrust:	100.000
Time:	4.874	Roll Set Point:	-0.883	Pitch Set Point:	0.895	Yaw Set Point:	-1.658	X_WP:	0.000	Y_WP:	0.000	Y_WP:	0.750	X:	0.930	Y:	0.034	Z:	0.397	yaw:	95.002	yaw rate:	-0.530	Roll:	-1.987	Pitch:	-27.708	Yaw:	134.702	Thrust:	100.000
Time:	4.893	Roll Set Point:	-0.883	Pitch Set Point:	0.895	Yaw Set Point:	-1.658	X_WP:	0.000	Y_WP:	0.000	Y_WP:	0.750	X:	0.930	Y:	0.034	Z:	0.397	yaw:	94.983	yaw rate:	1.868	Roll:	-1.569	Pitch:	-27.713	Yaw:	134.345	Thrust:	100.000
Time:	4.913	Roll Set Point:	-0.882	Pitch Set Point:	0.895	Yaw Set Point:	-1.658	X_WP:	0.000	Y_WP:	0.000	Y_WP:	0.750	X:	0.930	Y:	0.034	Z:	0.397	yaw:	95.025	yaw rate:	-4.179	Roll:	-2.597	Pitch:	-27.636	Yaw:	135.171	Thrust:	100.000
Time:	4.934	Roll Set Point:	-0.884	Pitch Set Point:	0.895	Yaw Set Point:	-1.657	X_WP:	0.000	Y_WP:	0.000	Y_WP:	0.750	X:	0.930	Y:	0.034	Z:	0.397	yaw:	94.960	yaw rate:	6.430	Roll:	-0.947	Pitch:	-27.781	Yaw:	133.803	Thrust:	100.000
Time:	4.954	Roll Set Point:	-0.883	Pitch Set Point:	0.895	Yaw Set Point:	-1.658	X_WP:	0.000	Y_WP:	0.000	Y_WP:	0.750	X:	0.930	Y:	0.034	Z:	0.397	yaw:	95.007	yaw rate:	-4.645	Roll:	-2.676	Pitch:	-27.618	Yaw:	135.302	Thrust:	100.000
Time:	4.973	Roll Set Point:	-0.883	Pitch Set Point:	0.895	Yaw Set Point:	-1.658	X_WP:	0.000	Y_WP:	0.000	Y_WP:	0.750	X:	0.930	Y:	0.034	Z:	0.397	yaw:	94.981	yaw rate:	2.628	Roll:	-1.565	Pitch:	-27.732	Yaw:	134.238	Thrust:	100.000
Time:	4.995	Roll Set Point:	-0.882	Pitch Set Point:	0.895	Yaw Set Point:	-1.658	X_WP:	0.000	Y_WP:	0.000	Y_WP:	0.750	X:	0.930	Y:	0.034	Z:	0.397	yaw:	95.018	yaw rate:	-3.724	Roll:	-2.469	Pitch:	-27.682	Yaw:	135.247	Thrust:	100.000
Time:	5.013	Roll Set Point:	-0.883	Pitch Set Point:	0.895	Yaw Set Point:	-1.658	X_WP:	0.000	Y_WP:	0.000	Y_WP:	0.750	X:	0.930	Y:	0.034	Z:	0.397	yaw:	94.988	yaw rate:	2.936	Roll:	-1.483	Pitch:	-27.677	Yaw:	134.120	Thrust:	100.000
Time:	5.034	Roll Set Point:	-0.882	Pitch Set Point:	0.895	Yaw Set Point:	-1.659	X_WP:	0.000	Y_WP:	0.000	Y_WP:	0.750	X:	0.930	Y:	0.034	Z:	0.397	yaw:	95.027	yaw rate:	-3.860	Roll:	-2.399	Pitch:	-27.670	Yaw:	135.203	Thrust:	100.000
Time:	5.058	Roll Set Point:	-0.883	Pitch Set Point:	0.895	Yaw Set Point:	-1.658	X_WP:	0.000	Y_WP:	0.000	Y_WP:	0.750	X:	0.930	Y:	0.034	Z:	0.397	yaw:	94.995	yaw rate:	3.191	Roll:	-1.590	Pitch:	-27.754	Yaw:	134.562	Thrust:	100.000
Time:	5.078	Roll Set Point:	-0.883	Pitch Set Point:	0.895	Yaw Set Point:	-1.658	X_WP:	0.000	Y_WP:	0.000	Y_WP:	0.750	X:	0.930	Y:	0.034	Z:	0.397	yaw:	94.982	yaw rate:	1.318	Roll:	-1.837	Pitch:	-27.771	Yaw:	134.539	Thrust:	100.000
Time:	5.094	Roll Set Point:	-0.883	Pitch Set Point:	0.895	Yaw Set Point:	-1.658	X_WP:	0.000	Y_WP:	0.000	Y_WP:	0.750	X:	0.930	Y:	0.034	Z:	0.397	yaw:	95.012	yaw rate:	-2.969	Roll:	-2.333	Pitch:	-27.548	Yaw:	134.740	Thrust:	100.000
Time:	5.113	Roll Set Point:	-0.882	Pitch Set Point:	0.895	Yaw Set Point:	-1.658	X_WP:	0.000	Y_WP:	0.000	Y_WP:	0.750	X:	0.930	Y:	0.034	Z:	0.397	yaw:	95.018	yaw rate:	-0.629	Roll:	-2.055	Pitch:	-27.704	Yaw:	134.775	Thrust:	100.000
Time:	5.133	Roll Set Point:	-0.883	Pitch Set Point:	0.895	Yaw Set Point:	-1.658	X_WP:	0.000	Y_WP:	0.000	Y_WP:	0.750	X:	0.930	Y:	0.034	Z:	0.397	yaw:	95.009	yaw rate:	0.879	Roll:	-1.822	Pitch:	-27.655	Yaw:	134.456	Thrust:	100.000
Time:	5.154	Roll Set Point:	-0.883	Pitch Set Point:	0.895	Yaw Set Point:	-1.658	X_WP:	0.000	Y_WP:	0.000	Y_WP:	0.750	X:	0.930	Y:	0.034	Z:	0.397	yaw:	95.001	yaw rate:	0.862	Roll:	-1.770	Pitch:	-27.764	Yaw:	134.677	Thrust:	100.000
Time:	5.173	Roll Set Point:	-0.883	Pitch Set Point:	0.895	Yaw Set Point:	-1.657	X_WP:	0.000	Y_WP:	0.000	Y_WP:	0.750	X:	0.930	Y:	0.034	Z:	0.397	yaw:	94.965	yaw rate:	3.550	Roll:	-1.498	Pitch:	-27.672	Yaw:	134.077	Thrust:	100.000
Time:	5.193	Roll Set Point:	-0.883	Pitch Set Point:	0.895	Yaw Set Point:	-1.657	X_WP:	0.000	Y_WP:	0.000	Y_WP:	0.750	X:	0.930	Y:	0.034	Z:	0.397	yaw:	94.964	yaw rate:	0.089	Roll:	-1.937	Pitch:	-27.690	Yaw:	134.529	Thrust:	100.000
Time:	5.214	Roll Set Point:	-0.883	Pitch Set Point:	0.895	Yaw Set Point:	-1.658	X_WP:	0.000	Y_WP:	0.000	Y_WP:	0.750	X:	0.930	Y:	0.034	Z:	0.397	yaw:	95.000	yaw rate:	-3.560	Roll:	-2.454	Pitch:	-27.705	Yaw:	135.160	Thrust:	100.000
Time:	5.235	Roll Set Point:	-0.883	Pitch Set Point:	0.895	Yaw Set Point:	-1.658	X_WP:	0.000	Y_WP:	0.000	Y_WP:	0.750	X:	0.930	Y:	0.034	Z:	0.397	yaw:	94.999	yaw rate:	0.074	Roll:	-1.884	Pitch:	-27.690	Yaw:	134.651	Thrust:	100.000
Time:	5.256	Roll Set Point:	-0.883	Pitch Set Point:	0.895	Yaw Set Point:	-1.658	X_WP:	0.000	Y_WP:	0.000	Y_WP:	0.750	X:	0.930	Y:	0.034	Z:	0.397	yaw:	95.016	yaw rate:	-1.709	Roll:	-2.210	Pitch:	-27.667	Yaw:	134.972	Thrust:	100.000
Time:	5.276	Roll Set Point:	-0.883	Pitch Set Point:	0.895	Yaw Set Point:	-1.658	X_WP:	0.000	Y_WP:	0.000	Y_WP:	0.750	X:	0.930	Y:	0.034	Z:	0.397	yaw:	95.015	yaw rate:	0.107	Roll:	-2.041	Pitch:	-27.723	Yaw:	134.686	Thrust:	100.000
