Time:	0.036	Roll Set Point:	-0.132	Pitch Set Point:	1.815	Yaw Set Point:	-0.026	X_WP:	0.000	Y_WP:	0.000	Y_WP:	0.750	X:	0.078	Y:	-0.907	Z:	0.403	yaw:	1.515	yaw rate:	-0.987	Roll:	1.566	Pitch:	-26.347	Yaw:	2.115	Thrust:	19.104
Time:	0.056	Roll Set Point:	-0.132	Pitch Set Point:	1.815	Yaw Set Point:	-0.026	X_WP:	0.000	Y_WP:	0.000	Y_WP:	0.750	X:	0.078	Y:	-0.907	Z:	0.402	yaw:	1.506	yaw rate:	0.876	Roll:	1.531	Pitch:	-26.315	Yaw:	1.999	Thrust:	20.401
Time:	0.076	Roll Set Point:	-0.133	Pitch Set Point:	1.815	Yaw Set Point:	-0.026	X_WP:	0.000	Y_WP:	0.000	Y_WP:	0.750	X:	0.078	Y:	-0.907	Z:	0.403	yaw:	1.482	yaw rate:	2.437	Roll:	2.077	Pitch:	-26.510	Yaw:	1.764	Thrust:	20.280
Time:	0.097	Roll Set Point:	-0.112	Pitch Set Point:	1.816	Yaw Set Point:	-0.049	X_WP:	0.000	Y_WP:	0.000	Y_WP:	0.750	X:	0.078	Y:	-0.906	Z:	0.402	yaw:	2.796	yaw rate:	-131.432	Roll:	-16.612	Pitch:	-27.064	Yaw:	20.172	Thrust:	22.860
Time:	0.118	Roll Set Point:	-0.131	Pitch Set Point:	1.815	Yaw Set Point:	-0.027	X_WP:	0.000	Y_WP:	0.000	Y_WP:	0.750	X:	0.078	Y:	-0.907	Z:	0.402	yaw:	1.544	yaw rate:	125.185	Roll:	16.908	Pitch:	-26.016	Yaw:	-13.248	Thrust:	22.123
Time:	0.135	Roll Set Point:	-0.130	Pitch Set Point:	1.815	Yaw Set Point:	-0.028	X_WP:	0.000	Y_WP:	0.000	Y_WP:	0.750	X:	0.078	Y:	-0.907	Z:	0.402	yaw:	1.597	yaw rate:	-5.281	Roll:	0.730	Pitch:	-26.574	Yaw:	3.086	Thrust:	22.676
Time:	0.155	Roll Set Point:	-0.132	Pitch Set Point:	1.815	Yaw Set Point:	-0.026	X_WP:	0.000	Y_WP:	0.000	Y_WP:	0.750	X:	0.078	Y:	-0.907	Z:	0.403	yaw:	1.490	yaw rate:	10.685	Roll:	3.185	Pitch:	-26.625	Yaw:	0.767	Thrust:	23.732
Time:	0.175	Roll Set Point:	-0.131	Pitch Set Point:	1.815	Yaw Set Point:	-0.028	X_WP:	0.000	Y_WP:	0.000	Y_WP:	0.750	X:	0.078	Y:	-0.907	Z:	0.403	yaw:	1.584	yaw rate:	-9.427	Roll:	0.151	Pitch:	-26.679	Yaw:	3.526	Thrust:	25.311
Time:	0.196	Roll Set Point:	-0.132	Pitch Set Point:	1.815	Yaw Set Point:	-0.027	X_WP:	0.000	Y_WP:	0.000	Y_WP:	0.750	X:	0.078	Y:	-0.907	Z:	0.403	yaw:	1.521	yaw rate:	6.323	Roll:	2.579	Pitch:	-26.729	Yaw:	1.418	Thrust:	25.653
Time:	0.216	Roll Set Point:	-0.131	Pitch Set Point:	1.815	Yaw Set Point:	-0.027	X_WP:	0.000	Y_WP:	0.000	Y_WP:	0.750	X:	0.078	Y:	-0.907	Z:	0.402	yaw:	1.573	yaw rate:	-5.219	Roll:	0.732	Pitch:	-26.729	Yaw:	2.992	Thrust:	26.893
Time:	0.235	Roll Set Point:	-0.134	Pitch Set Point:	1.815	Yaw Set Point:	-0.025	X_WP:	0.000	Y_WP:	0.000	Y_WP:	0.750	X:	0.078	Y:	-0.907	Z:	0.403	yaw:	1.411	yaw rate:	16.197	Roll:	3.969	Pitch:	-26.713	Yaw:	-0.095	Thrust:	26.888
Time:	0.256	Roll Set Point:	-0.131	Pitch Set Point:	1.815	Yaw Set Point:	-0.027	X_WP:	0.000	Y_WP:	0.000	Y_WP:	0.750	X:	0.078	Y:	-0.907	Z:	0.402	yaw:	1.572	yaw rate:	-16.106	Roll:	-0.697	Pitch:	-26.920	Yaw:	4.372	Thrust:	28.924
Time:	0.276	Roll Set Point:	-0.132	Pitch Set Point:	1.815	Yaw Set Point:	-0.026	X_WP:	0.000	Y_WP:	0.000	Y_WP:	0.750	X:	0.078	Y:	-0.907	Z:	0.403	yaw:	1.508	yaw rate:	6.432	Roll:	2.635	Pitch:	-26.907	Yaw:	1.408	Thrust:	28.472
Time:	0.296	Roll Set Point:	-0.132	Pitch Set Point:	1.815	Yaw Set Point:	-0.027	X_WP:	0.000	Y_WP:	0.000	Y_WP:	0.750	X:	0.078	Y:	-0.907	Z:	0.402	yaw:	1.523	yaw rate:	-1.448	Roll:	1.261	Pitch:	-26.877	Yaw:	2.462	Thrust:	30.792
Time:	0.317	Roll Set Point:	-0.132	Pitch Set Point:	1.815	Yaw Set Point:	-0.026	X_WP:	0.000	Y_WP:	0.000	Y_WP:	0.750	X:	0.078	Y:	-0.907	Z:	0.403	yaw:	1.492	yaw rate:	3.086	Roll:	2.181	Pitch:	-27.058	Yaw:	1.855	Thrust:	30.512
Time:	0.336	Roll Set Point:	-0.131	Pitch Set Point:	1.815	Yaw Set Point:	-0.028	X_WP:	0.000	Y_WP:	0.000	Y_WP:	0.750	X:	0.078	Y:	-0.907	Z:	0.402	yaw:	1.584	yaw rate:	-9.223	Roll:	0.173	Pitch:	-27.001	Yaw:	3.627	Thrust:	31.851
Time:	0.356	Roll Set Point:	-0.131	Pitch Set Point:	1.815	Yaw Set Point:	-0.027	X_WP:	0.000	Y_WP:	0.000	Y_WP:	0.750	X:	0.078	Y:	-0.907	Z:	0.402	yaw:	1.574	yaw rate:	0.985	Roll:	1.744	Pitch:	-27.075	Yaw:	2.249	Thrust:	32.422
Time:	0.376	Roll Set Point:	-0.133	Pitch Set Point:	1.815	Yaw Set Point:	-0.025	X_WP:	0.000	Y_WP:	0.000	Y_WP:	0.750	X:	0.078	Y:	-0.907	Z:	0.403	yaw:	1.431	yaw rate:	14.295	Roll:	3.719	Pitch:	-27.041	Yaw:	0.276	Thrust:	32.686
Time:	0.396	Roll Set Point:	-0.133	Pitch Set Point:	1.815	Yaw Set Point:	-0.025	X_WP:	0.000	Y_WP:	0.000	Y_WP:	0.750	X:	0.078	Y:	-0.907	Z:	0.403	yaw:	1.450	yaw rate:	-1.837	Roll:	1.375	Pitch:	-27.112	Yaw:	2.464	Thrust:	34.372
Time:	0.417	Roll Set Point:	-0.132	Pitch Set Point:	1.815	Yaw Set Point:	-0.026	X_WP:	0.000	Y_WP:	0.000	Y_WP:	0.750	X:	0.078	Y:	-0.907	Z:	0.403	yaw:	1.487	yaw rate:	-3.779	Roll:	1.143	Pitch:	-27.143	Yaw:	2.772	Thrust:	35.136
Time:	0.437	Roll Set Point:	-0.133	Pitch Set Point:	1.815	Yaw Set Point:	-0.025	X_WP:	0.000	Y_WP:	0.000	Y_WP:	0.750	X:	0.078	Y:	-0.907	Z:	0.403	yaw:	1.430	yaw rate:	5.751	Roll:	2.468	Pitch:	-27.028	Yaw:	1.472	Thrust:	35.551
Time:	0.456	Roll Set Point:	-0.131	Pitch Set Point:	1.815	Yaw Set Point:	-0.027	X_WP:	0.000	Y_WP:	0.000	Y_WP:	0.750	X:	0.078	Y:	-0.907	Z:	0.402	yaw:	1.574	yaw rate:	-14.413	Roll:	-0.542	Pitch:	-27.146	Yaw:	4.374	Thrust:	37.250
Time:	0.477	Roll Set Point:	-0.131	Pitch Set Point:	1.815	Yaw Set Point:	-0.027	X_WP:	0.000	Y_WP:	0.000	Y_WP:	0.750	X:	0.078	Y:	-0.907	Z:	0.402	yaw:	1.545	yaw rate:	2.919	Roll:	2.022	Pitch:	-27.089	Yaw:	2.020	Thrust:	37.501
Time:	0.497	Roll Set Point:	-0.132	Pitch Set Point:	1.815	Yaw Set Point:	-0.026	X_WP:	0.000	Y_WP:	0.000	Y_WP:	0.750	X:	0.078	Y:	-0.907	Z:	0.403	yaw:	1.496	yaw rate:	4.921	Roll:	2.426	Pitch:	-27.149	Yaw:	1.715	Thrust:	38.320
Time:	0.519	Roll Set Point:	-0.132	Pitch Set Point:	1.815	Yaw Set Point:	-0.026	X_WP:	0.000	Y_WP:	0.000	Y_WP:	0.750	X:	0.078	Y:	-0.907	Z:	0.403	yaw:	1.496	yaw rate:	-0.069	Roll:	1.645	Pitch:	-27.170	Yaw:	2.394	Thrust:	41.201
Time:	0.540	Roll Set Point:	-0.131	Pitch Set Point:	1.815	Yaw Set Point:	-0.027	X_WP:	0.000	Y_WP:	0.000	Y_WP:	0.750	X:	0.078	Y:	-0.907	Z:	0.402	yaw:	1.565	yaw rate:	-6.870	Roll:	0.581	Pitch:	-27.149	Yaw:	3.326	Thrust:	42.024
Time:	0.556	Roll Set Point:	-0.134	Pitch Set Point:	1.815	Yaw Set Point:	-0.024	X_WP:	0.000	Y_WP:	0.000	Y_WP:	0.750	X:	0.078	Y:	-0.907	Z:	0.402	yaw:	1.367	yaw rate:	19.838	Roll:	4.927	Pitch:	-26.641	Yaw:	-1.099	Thrust:	36.120
Time:	0.575	Roll Set Point:	-0.133	Pitch Set Point:	1.815	Yaw Set Point:	-0.024	X_WP:	0.000	Y_WP:	0.000	Y_WP:	0.750	X:	0.078	Y:	-0.907	Z:	0.402	yaw:	1.394	yaw rate:	-2.736	Roll:	1.214	Pitch:	-27.158	Yaw:	2.602	Thrust:	41.314
Time:	0.595	Roll Set Point:	-0.132	Pitch Set Point:	1.815	Yaw Set Point:	-0.026	X_WP:	0.000	Y_WP:	0.000	Y_WP:	0.750	X:	0.078	Y:	-0.907	Z:	0.403	yaw:	1.497	yaw rate:	-10.298	Roll:	0.517	Pitch:	-27.255	Yaw:	3.762	Thrust:	41.283
Time:	0.615	Roll Set Point:	-0.133	Pitch Set Point:	1.815	Yaw Set Point:	-0.025	X_WP:	0.000	Y_WP:	0.000	Y_WP:	0.750	X:	0.078	Y:	-0.907	Z:	0.402	yaw:	1.435	yaw rate:	6.196	Roll:	2.275	Pitch:	-26.936	Yaw:	1.515	Thrust:	44.228
Time:	0.636	Roll Set Point:	-0.132	Pitch Set Point:	1.815	Yaw Set Point:	-0.026	X_WP:	0.000	Y_WP:	0.000	Y_WP:	0.750	X:	0.078	Y:	-0.907	Z:	0.403	yaw:	1.489	yaw rate:	-5.393	Roll:	1.176	Pitch:	-27.230	Yaw:	3.120	Thrust:	42.615
Time:	0.655	Roll Set Point:	-0.130	Pitch Set Point:	1.815	Yaw Set Point:	-0.028	X_WP:	0.000	Y_WP:	0.000	Y_WP:	0.750	X:	0.078	Y:	-0.907	Z:	0.402	yaw:	1.633	yaw rate:	-14.374	Roll:	-0.524	Pitch:	-27.145	Yaw:	4.450	Thrust:	46.231
Time:	0.675	Roll Set Point:	-0.132	Pitch Set Point:	1.815	Yaw Set Point:	-0.026	X_WP:	0.000	Y_WP:	0.000	Y_WP:	0.750	X:	0.078	Y:	-0.907	Z:	0.403	yaw:	1.493	yaw rate:	13.981	Roll:	3.720	Pitch:	-27.070	Yaw:	0.618	Thrust:	45.545
Time:	0.696	Roll Set Point:	-0.132	Pitch Set Point:	1.815	Yaw Set Point:	-0.026	X_WP:	0.000	Y_WP:	0.000	Y_WP:	0.750	X:	0.078	Y:	-0.907	Z:	0.403	yaw:	1.500	yaw rate:	-0.734	Roll:	1.554	Pitch:	-27.106	Yaw:	2.550	Thrust:	46.986
Time:	0.717	Roll Set Point:	-0.132	Pitch Set Point:	1.815	Yaw Set Point:	-0.026	X_WP:	0.000	Y_WP:	0.000	Y_WP:	0.750	X:	0.078	Y:	-0.907	Z:	0.403	yaw:	1.488	yaw rate:	1.257	Roll:	1.856	Pitch:	-27.135	Yaw:	2.307	Thrust:	48.947
Time:	0.736	Roll Set Point:	-0.132	Pitch Set Point:	1.815	Yaw Set Point:	-0.026	X_WP:	0.000	Y_WP:	0.000	Y_WP:	0.750	X:	0.078	Y:	-0.907	Z:	0.403	yaw:	1.504	yaw rate:	-1.605	Roll:	1.417	Pitch:	-27.094	Yaw:	2.680	Thrust:	47.063
Time:	0.755	Roll Set Point:	-0.132	Pitch Set Point:	1.815	Yaw Set Point:	-0.026	X_WP:	0.000	Y_WP:	0.000	Y_WP:	0.750	X:	0.078	Y:	-0.907	Z:	0.403	yaw:	1.507	yaw rate:	-0.320	Roll:	1.613	Pitch:	-27.045	Yaw:	2.523	Thrust:	48.182
Time:	0.775	Roll Set Point:	-0.131	Pitch Set Point:	1.815	Yaw Set Point:	-0.027	X_WP:	0.000	Y_WP:	0.000	Y_WP:	0.750	X:	0.078	Y:	-0.907	Z:	0.402	yaw:	1.559	yaw rate:	-5.207	Roll:	0.774	Pitch:	-27.064	Yaw:	3.266	Thrust:	49.354
Time:	0.796	Roll Set Point:	-0.112	Pitch Set Point:	1.816	Yaw Set Point:	-0.048	X_WP:	0.000	Y_WP:	0.000	Y_WP:	0.750	X:	0.078	Y:	-0.906	Z:	0.402	yaw:	2.773	yaw rate:	-121.421	Roll:	-15.302	Pitch:	-27.641	Yaw:	19.451	Thrust:	53.805
Time:	0.815	Roll Set Point:	-0.132	Pitch Set Point:	1.815	Yaw Set Point:	-0.026	X_WP:	0.000	Y_WP:	0.000	Y_WP:	0.750	X:	0.078	Y:	-0.907	Z:	0.403	yaw:	1.497	yaw rate:	127.580	Roll:	18.801	Pitch:	-26.616	Yaw:	-14.335	Thrust:	48.496
Time:	0.835	Roll Set Point:	-0.131	Pitch Set Point:	1.815	Yaw Set Point:	-0.027	X_WP:	0.000	Y_WP:	0.000	Y_WP:	0.750	X:	0.078	Y:	-0.907	Z:	0.402	yaw:	1.530	yaw rate:	-3.300	Roll:	1.035	Pitch:	-27.014	Yaw:	3.008	Thrust:	53.400
Time:	0.855	Roll Set Point:	-0.132	Pitch Set Point:	1.815	Yaw Set Point:	-0.026	X_WP:	0.000	Y_WP:	0.000	Y_WP:	0.750	X:	0.078	Y:	-0.907	Z:	0.402	yaw:	1.498	yaw rate:	3.213	Roll:	2.167	Pitch:	-27.103	Yaw:	2.110	Thrust:	52.743
Time:	0.876	Roll Set Point:	-0.133	Pitch Set Point:	1.815	Yaw Set Point:	-0.025	X_WP:	0.000	Y_WP:	0.000	Y_WP:	0.750	X:	0.078	Y:	-0.907	Z:	0.403	yaw:	1.426	yaw rate:	7.245	Roll:	2.767	Pitch:	-27.127	Yaw:	1.609	Thrust:	56.604
Time:	0.897	Roll Set Point:	-0.132	Pitch Set Point:	1.815	Yaw Set Point:	-0.026	X_WP:	0.000	Y_WP:	0.000	Y_WP:	0.750	X:	0.078	Y:	-0.907	Z:	0.403	yaw:	1.497	yaw rate:	-7.162	Roll:	0.725	Pitch:	-27.173	Yaw:	3.492	Thrust:	55.421
Time:	0.919	Roll Set Point:	-0.133	Pitch Set Point:	1.815	Yaw Set Point:	-0.025	X_WP:	0.000	Y_WP:	0.000	Y_WP:	0.750	X:	0.078	Y:	-0.907	Z:	0.403	yaw:	1.451	yaw rate:	4.603	Roll:	2.297	Pitch:	-27.123	Yaw:	1.997	Thrust:	58.164
Time:	0.937	Roll Set Point:	-0.131	Pitch Set Point:	1.815	Yaw Set Point:	-0.027	X_WP:	0.000	Y_WP:	0.000	Y_WP:	0.750	X:	0.078	Y:	-0.907	Z:	0.402	yaw:	1.547	yaw rate:	-9.606	Roll:	0.043	Pitch:	-27.037	Yaw:	4.046	Thrust:	52.753
Time:	0.956	Roll Set Point:	-0.136	Pitch Set Point:	1.815	Yaw Set Point:	-0.022	X_WP:	0.000	Y_WP:	0.000	Y_WP:	0.750	X:	0.078	Y:	-0.907	Z:	0.403	yaw:	1.272	yaw rate:	27.586	Roll:	5.691	Pitch:	-26.914	Yaw:	-1.214	Thrust:	58.326
Time:	0.976	Roll Set Point:	-0.130	Pitch Set Point:	1.815	Yaw Set Point:	-0.028	X_WP:	0.000	Y_WP:	0.000	Y_WP:	0.750	X:	0.078	Y:	-0.907	Z:	0.402	yaw:	1.580	yaw rate:	-30.841	Roll:	-2.779	Pitch:	-27.248	Yaw:	6.819	Thrust:	58.231
Time:	0.997	Roll Set Point:	-0.132	Pitch Set Point:	1.815	Yaw Set Point:	-0.026	X_WP:	0.000	Y_WP:	0.000	Y_WP:	0.750	X:	0.078	Y:	-0.907	Z:	0.403	yaw:	1.518	yaw rate:	6.233	Roll:	2.812	Pitch:	-27.168	Yaw:	1.891	Thrust:	60.450
Time:	1.016	Roll Set Point:	-0.132	Pitch Set Point:	1.815	Yaw Set Point:	-0.026	X_WP:	0.000	Y_WP:	0.000	Y_WP:	0.750	X:	0.078	Y:	-0.907	Z:	0.403	yaw:	1.492	yaw rate:	2.547	Roll:	2.054	Pitch:	-27.087	Yaw:	2.244	Thrust:	58.271
Time:	1.037	Roll Set Point:	-0.131	Pitch Set Point:	1.815	Yaw Set Point:	-0.028	X_WP:	0.000	Y_WP:	0.000	Y_WP:	0.750	X:	0.078	Y:	-0.907	Z:	0.402	yaw:	1.589	yaw rate:	-9.728	Roll:	0.214	Pitch:	-27.101	Yaw:	4.013	Thrust:	62.483
Time:	1.057	Roll Set Point:	-0.132	Pitch Set Point:	1.815	Yaw Set Point:	-0.026	X_WP:	0.000	Y_WP:	0.000	Y_WP:	0.750	X:	0.078	Y:	-0.907	Z:	0.403	yaw:	1.512	yaw rate:	7.781	Roll:	2.857	Pitch:	-27.115	Yaw:	1.647	Thrust:	61.297
Time:	1.079	Roll Set Point:	-0.133	Pitch Set Point:	1.815	Yaw Set Point:	-0.025	X_WP:	0.000	Y_WP:	0.000	Y_WP:	0.750	X:	0.078	Y:	-0.907	Z:	0.403	yaw:	1.429	yaw rate:	8.216	Roll:	2.830	Pitch:	-27.049	Yaw:	1.569	Thrust:	63.715
Time:	1.099	Roll Set Point:	-0.132	Pitch Set Point:	1.815	Yaw Set Point:	-0.027	X_WP:	0.000	Y_WP:	0.000	Y_WP:	0.750	X:	0.078	Y:	-0.907	Z:	0.403	yaw:	1.519	yaw rate:	-8.935	Roll:	0.516	Pitch:	-27.238	Yaw:	3.838	Thrust:	64.390
Time:	1.118	Roll Set Point:	-0.132	Pitch Set Point:	1.815	Yaw Set Point:	-0.027	X_WP:	0.000	Y_WP:	0.000	Y_WP:	0.750	X:	0.078	Y:	-0.907	Z:	0.403	yaw:	1.524	yaw rate:	-0.499	Roll:	1.623	Pitch:	-27.055	Yaw:	2.739	Thrust:	62.952
Time:	1.142	Roll Set Point:	-0.132	Pitch Set Point:	1.815	Yaw Set Point:	-0.026	X_WP:	0.000	Y_WP:	0.000	Y_WP:	0.750	X:	0.078	Y:	-0.907	Z:	0.403	yaw:	1.507	yaw rate:	1.706	Roll:	1.936	Pitch:	-27.229	Yaw:	2.639	Thrust:	74.546
Time:	1.156	Roll Set Point:	-0.134	Pitch Set Point:	1.815	Yaw Set Point:	-0.023	X_WP:	0.000	Y_WP:	0.000	Y_WP:	0.750	X:	0.078	Y:	-0.907	Z:	0.402	yaw:	1.340	yaw rate:	16.659	Roll:	4.561	Pitch:	-26.614	Yaw:	-0.683	Thrust:	54.110
Time:	1.176	Roll Set Point:	-0.133	Pitch Set Point:	1.815	Yaw Set Point:	-0.025	X_WP:	0.000	Y_WP:	0.000	Y_WP:	0.750	X:	0.078	Y:	-0.907	Z:	0.403	yaw:	1.461	yaw rate:	-12.074	Roll:	0.348	Pitch:	-27.256	Yaw:	4.255	Thrust:	65.067
Time:	1.196	Roll Set Point:	-0.132	Pitch Set Point:	1.815	Yaw Set Point:	-0.026	X_WP:	0.000	Y_WP:	0.000	Y_WP:	0.750	X:	0.078	Y:	-0.907	Z:	0.403	yaw:	1.504	yaw rate:	-4.341	Roll:	1.109	Pitch:	-27.125	Yaw:	3.297	Thrust:	66.656
Time:	1.217	Roll Set Point:	-0.132	Pitch Set Point:	1.815	Yaw Set Point:	-0.026	X_WP:	0.000	Y_WP:	0.000	Y_WP:	0.750	X:	0.078	Y:	-0.907	Z:	0.403	yaw:	1.503	yaw rate:	0.087	Roll:	1.729	Pitch:	-27.113	Yaw:	2.712	Thrust:	69.929
Time:	1.238	Roll Set Point:	-0.133	Pitch Set Point:	1.815	Yaw Set Point:	-0.025	X_WP:	0.000	Y_WP:	0.000	Y_WP:	0.750	X:	0.078	Y:	-0.907	Z:	0.403	yaw:	1.450	yaw rate:	5.333	Roll:	2.484	Pitch:	-27.072	Yaw:	2.087	Thrust:	71.170
Time:	1.258	Roll Set Point:	-0.133	Pitch Set Point:	1.815	Yaw Set Point:	-0.026	X_WP:	0.000	Y_WP:	0.000	Y_WP:	0.750	X:	0.078	Y:	-0.907	Z:	0.403	yaw:	1.487	yaw rate:	-3.703	Roll:	1.272	Pitch:	-27.161	Yaw:	3.210	Thrust:	69.817
Time:	1.278	Roll Set Point:	-0.132	Pitch Set Point:	1.815	Yaw Set Point:	-0.026	X_WP:	0.000	Y_WP:	0.000	Y_WP:	0.750	X:	0.078	Y:	-0.907	Z:	0.403	yaw:	1.495	yaw rate:	-0.783	Roll:	1.612	Pitch:	-27.083	Yaw:	2.887	Thrust:	72.304
Time:	1.299	Roll Set Point:	-0.133	Pitch Set Point:	1.815	Yaw Set Point:	-0.025	X_WP:	0.000	Y_WP:	0.000	Y_WP:	0.750	X:	0.078	Y:	-0.907	Z:	0.403	yaw:	1.435	yaw rate:	5.975	Roll:	2.566	Pitch:	-27.081	Yaw:	1.975	Thrust:	73.168
Time:	1.319	Roll Set Point:	-0.132	Pitch Set Point:	1.815	Yaw Set Point:	-0.026	X_WP:	0.000	Y_WP:	0.000	Y_WP:	0.750	X:	0.078	Y:	-0.907	Z:	0.403	yaw:	1.501	yaw rate:	-6.586	Roll:	0.913	Pitch:	-27.181	Yaw:	3.648	Thrust:	74.204
Time:	1.336	Roll Set Point:	-0.131	Pitch Set Point:	1.815	Yaw Set Point:	-0.027	X_WP:	0.000	Y_WP:	0.000	Y_WP:	0.750	X:	0.078	Y:	-0.907	Z:	0.402	yaw:	1.575	yaw rate:	-7.420	Roll:	0.317	Pitch:	-26.949	Yaw:	3.920	Thrust:	64.406
Time:	1.356	Roll Set Point:	-0.132	Pitch Set Point:	1.815	Yaw Set Point:	-0.026	X_WP:	0.000	Y_WP:	0.000	Y_WP:	0.750	X:	0.078	Y:	-0.907	Z:	0.403	yaw:	1.501	yaw rate:	7.392	Roll:	2.898	Pitch:	-27.115	Yaw:	1.791	Thrust:	74.917
Time:	1.376	Roll Set Point:	-0.132	Pitch Set Point:	1.815	Yaw Set Point:	-0.027	X_WP:	0.000	Y_WP:	0.000	Y_WP:	0.750	X:	0.078	Y:	-0.907	Z:	0.403	yaw:	1.534	yaw rate:	-3.278	Roll:	1.311	Pitch:	-27.133	Yaw:	3.285	Thrust:	73.972
Time:	1.396	Roll Set Point:	-0.131	Pitch Set Point:	1.815	Yaw Set Point:	-0.027	X_WP:	0.000	Y_WP:	0.000	Y_WP:	0.750	X:	0.078	Y:	-0.907	Z:	0.402	yaw:	1.534	yaw rate:	0.059	Roll:	1.618	Pitch:	-27.061	Yaw:	2.883	Thrust:	77.666
Time:	1.416	Roll Set Point:	-0.131	Pitch Set Point:	1.815	Yaw Set Point:	-0.027	X_WP:	0.000	Y_WP:	0.000	Y_WP:	0.750	X:	0.078	Y:	-0.907	Z:	0.402	yaw:	1.546	yaw rate:	-1.224	Roll:	1.570	Pitch:	-27.079	Yaw:	3.066	Thrust:	77.296
Time:	1.436	Roll Set Point:	-0.133	Pitch Set Point:	1.815	Yaw Set Point:	-0.025	X_WP:	0.000	Y_WP:	0.000	Y_WP:	0.750	X:	0.078	Y:	-0.907	Z:	0.403	yaw:	1.434	yaw rate:	11.169	Roll:	3.449	Pitch:	-27.048	Yaw:	1.192	Thrust:	74.561
Time:	1.459	Roll Set Point:	-0.133	Pitch Set Point:	1.815	Yaw Set Point:	-0.026	X_WP:	0.000	Y_WP:	0.000	Y_WP:	0.750	X:	0.078	Y:	-0.907	Z:	0.403	yaw:	1.480	yaw rate:	-4.544	Roll:	1.234	Pitch:	-27.245	Yaw:	3.453	Thrust:	85.985
Time:	1.478	Roll Set Point:	-0.131	Pitch Set Point:	1.815	Yaw Set Point:	-0.028	X_WP:	0.000	Y_WP:	0.000	Y_WP:	0.750	X:	0.078	Y:	-0.907	Z:	0.403	yaw:	1.587	yaw rate:	-10.792	Roll:	0.179	Pitch:	-27.087	Yaw:	4.381	Thrust:	79.986
Time:	1.499	Roll Set Point:	-0.132	Pitch Set Point:	1.815	Yaw Set Point:	-0.026	X_WP:	0.000	Y_WP:	0.000	Y_WP:	0.750	X:	0.078	Y:	-0.907	Z:	0.403	yaw:	1.518	yaw rate:	6.965	Roll:	2.861	Pitch:	-27.129	Yaw:	2.023	Thrust:	82.312
Time:	1.521	Roll Set Point:	-0.132	Pitch Set Point:	1.815	Yaw Set Point:	-0.027	X_WP:	0.000	Y_WP:	0.000	Y_WP:	0.750	X:	0.078	Y:	-0.907	Z:	0.403	yaw:	1.519	yaw rate:	-0.130	Roll:	1.771	Pitch:	-27.155	Yaw:	2.983	Thrust:	83.391
Time:	1.536	Roll Set Point:	-0.132	Pitch Set Point:	1.815	Yaw Set Point:	-0.026	X_WP:	0.000	Y_WP:	0.000	Y_WP:	0.750	X:	0.078	Y:	-0.907	Z:	0.402	yaw:	1.500	yaw rate:	1.945	Roll:	1.903	Pitch:	-26.832	Yaw:	2.422	Thrust:	68.213
Time:	1.556	Roll Set Point:	-0.132	Pitch Set Point:	1.815	Yaw Set Point:	-0.026	X_WP:	0.000	Y_WP:	0.000	Y_WP:	0.750	X:	0.078	Y:	-0.907	Z:	0.403	yaw:	1.499	yaw rate:	0.060	Roll:	1.902	Pitch:	-27.191	Yaw:	2.903	Thrust:	85.516
Time:	1.575	Roll Set Point:	-0.133	Pitch Set Point:	1.815	Yaw Set Point:	-0.026	X_WP:	0.000	Y_WP:	0.000	Y_WP:	0.750	X:	0.078	Y:	-0.907	Z:	0.403	yaw:	1.473	yaw rate:	2.653	Roll:	2.165	Pitch:	-27.059	Yaw:	2.480	Thrust:	80.366
Time:	1.596	Roll Set Point:	-0.132	Pitch Set Point:	1.815	Yaw Set Point:	-0.026	X_WP:	0.000	Y_WP:	0.000	Y_WP:	0.750	X:	0.078	Y:	-0.907	Z:	0.402	yaw:	1.509	yaw rate:	-3.604	Roll:	1.120	Pitch:	-27.077	Yaw:	3.419	Thrust:	85.559
Time:	1.616	Roll Set Point:	-0.133	Pitch Set Point:	1.815	Yaw Set Point:	-0.025	X_WP:	0.000	Y_WP:	0.000	Y_WP:	0.750	X:	0.078	Y:	-0.907	Z:	0.403	yaw:	1.441	yaw rate:	6.736	Roll:	2.831	Pitch:	-27.092	Yaw:	2.028	Thrust:	86.630
Time:	1.636	Roll Set Point:	-0.133	Pitch Set Point:	1.815	Yaw Set Point:	-0.025	X_WP:	0.000	Y_WP:	0.000	Y_WP:	0.750	X:	0.078	Y:	-0.907	Z:	0.403	yaw:	1.440	yaw rate:	0.160	Roll:	1.803	Pitch:	-27.094	Yaw:	2.838	Thrust:	85.299
Time:	1.656	Roll Set Point:	-0.133	Pitch Set Point:	1.815	Yaw Set Point:	-0.025	X_WP:	0.000	Y_WP:	0.000	Y_WP:	0.750	X:	0.078	Y:	-0.907	Z:	0.402	yaw:	1.445	yaw rate:	-0.507	Roll:	1.632	Pitch:	-27.042	Yaw:	2.956	Thrust:	85.827
Time:	1.676	Roll Set Point:	-0.132	Pitch Set Point:	1.815	Yaw Set Point:	-0.026	X_WP:	0.000	Y_WP:	0.000	Y_WP:	0.750	X:	0.078	Y:	-0.907	Z:	0.403	yaw:	1.498	yaw rate:	-5.356	Roll:	1.203	Pitch:	-27.196	Yaw:	3.666	Thrust:	87.394
Time:	1.699	Roll Set Point:	-0.131	Pitch Set Point:	1.815	Yaw Set Point:	-0.027	X_WP:	0.000	Y_WP:	0.000	Y_WP:	0.750	X:	0.078	Y:	-0.907	Z:	0.402	yaw:	1.549	yaw rate:	-5.091	Roll:	0.942	Pitch:	-27.154	Yaw:	3.762	Thrust:	95.938
Time:	1.719	Roll Set Point:	-0.132	Pitch Set Point:	1.815	Yaw Set Point:	-0.026	X_WP:	0.000	Y_WP:	0.000	Y_WP:	0.750	X:	0.078	Y:	-0.907	Z:	0.403	yaw:	1.499	yaw rate:	4.984	Roll:	2.631	Pitch:	-27.171	Yaw:	2.384	Thrust:	92.307
Time:	1.736	Roll Set Point:	-0.132	Pitch Set Point:	1.815	Yaw Set Point:	-0.026	X_WP:	0.000	Y_WP:	0.000	Y_WP:	0.750	X:	0.078	Y:	-0.907	Z:	0.403	yaw:	1.513	yaw rate:	-1.374	Roll:	1.533	Pitch:	-26.972	Yaw:	3.065	Thrust:	77.798
Time:	1.757	Roll Set Point:	-0.132	Pitch Set Point:	1.815	Yaw Set Point:	-0.026	X_WP:	0.000	Y_WP:	0.000	Y_WP:	0.750	X:	0.078	Y:	-0.907	Z:	0.403	yaw:	1.507	yaw rate:	0.594	Roll:	1.895	Pitch:	-27.116	Yaw:	2.982	Thrust:	93.495
Time:	1.777	Roll Set Point:	-0.133	Pitch Set Point:	1.815	Yaw Set Point:	-0.026	X_WP:	0.000	Y_WP:	0.000	Y_WP:	0.750	X:	0.078	Y:	-0.907	Z:	0.403	yaw:	1.483	yaw rate:	2.388	Roll:	2.132	Pitch:	-27.065	Yaw:	2.660	Thrust:	90.030
Time:	1.797	Roll Set Point:	-0.131	Pitch Set Point:	1.815	Yaw Set Point:	-0.028	X_WP:	0.000	Y_WP:	0.000	Y_WP:	0.750	X:	0.078	Y:	-0.907	Z:	0.402	yaw:	1.583	yaw rate:	-9.997	Roll:	0.247	Pitch:	-27.095	Yaw:	4.442	Thrust:	93.059
Time:	1.817	Roll Set Point:	-0.132	Pitch Set Point:	1.815	Yaw Set Point:	-0.026	X_WP:	0.000	Y_WP:	0.000	Y_WP:	0.750	X:	0.078	Y:	-0.907	Z:	0.403	yaw:	1.485	yaw rate:	9.772	Roll:	3.299	Pitch:	-27.144	Yaw:	1.703	Thrust:	95.317
Time:	1.836	Roll Set Point:	-0.132	Pitch Set Point:	1.815	Yaw Set Point:	-0.026	X_WP:	0.000	Y_WP:	0.000	Y_WP:	0.750	X:	0.078	Y:	-0.907	Z:	0.403	yaw:	1.503	yaw rate:	-1.709	Roll:	1.566	Pitch:	-27.081	Yaw:	3.258	Thrust:	91.639
Time:	1.856	Roll Set Point:	-0.111	Pitch Set Point:	1.816	Yaw Set Point:	-0.049	X_WP:	0.000	Y_WP:	0.000	Y_WP:	0.750	X:	0.078	Y:	-0.906	Z:	0.402	yaw:	2.830	yaw rate:	-132.750	Roll:	-15.698	Pitch:	-27.675	Yaw:	22.138	Thrust:	96.965
Time:	1.876	Roll Set Point:	-0.133	Pitch Set Point:	1.815	Yaw Set Point:	-0.025	X_WP:	0.000	Y_WP:	0.000	Y_WP:	0.750	X:	0.078	Y:	-0.907	Z:	0.403	yaw:	1.444	yaw rate:	138.656	Roll:	20.631	Pitch:	-26.456	Yaw:	-14.733	Thrust:	96.338
Time:	1.899	Roll Set Point:	-0.132	Pitch Set Point:	1.815	Yaw Set Point:	-0.026	X_WP:	0.000	Y_WP:	0.000	Y_WP:	0.750	X:	0.078	Y:	-0.907	Z:	0.402	yaw:	1.500	yaw rate:	-5.647	Roll:	0.933	Pitch:	-27.114	Yaw:	3.853	Thrust:	100.000
Time:	1.920	Roll Set Point:	-0.132	Pitch Set Point:	1.815	Yaw Set Point:	-0.026	X_WP:	0.000	Y_WP:	0.000	Y_WP:	0.750	X:	0.078	Y:	-0.907	Z:	0.403	yaw:	1.506	yaw rate:	-0.601	Roll:	1.913	Pitch:	-27.244	Yaw:	3.285	Thrust:	100.000
Time:	1.939	Roll Set Point:	-0.131	Pitch Set Point:	1.815	Yaw Set Point:	-0.028	X_WP:	0.000	Y_WP:	0.000	Y_WP:	0.750	X:	0.078	Y:	-0.907	Z:	0.402	yaw:	1.576	yaw rate:	-7.005	Roll:	0.628	Pitch:	-27.017	Yaw:	4.137	Thrust:	97.198
Time:	1.959	Roll Set Point:	-0.133	Pitch Set Point:	1.815	Yaw Set Point:	-0.025	X_WP:	0.000	Y_WP:	0.000	Y_WP:	0.750	X:	0.078	Y:	-0.907	Z:	0.403	yaw:	1.435	yaw rate:	14.056	Roll:	4.036	Pitch:	-27.073	Yaw:	1.218	Thrust:	95.299
Time:	1.981	Roll Set Point:	-0.131	Pitch Set Point:	1.815	Yaw Set Point:	-0.027	X_WP:	0.000	Y_WP:	0.000	Y_WP:	0.750	X:	0.078	Y:	-0.907	Z:	0.402	yaw:	1.519	yaw rate:	-8.324	Roll:	0.473	Pitch:	-27.132	Yaw:	4.253	Thrust:	100.000
Time:	1.996	Roll Set Point:	-0.132	Pitch Set Point:	1.815	Yaw Set Point:	-0.026	X_WP:	0.000	Y_WP:	0.000	Y_WP:	0.750	X:	0.078	Y:	-0.907	Z:	0.402	yaw:	1.506	yaw rate:	1.252	Roll:	2.052	Pitch:	-26.950	Yaw:	2.744	Thrust:	86.429
Time:	2.016	Roll Set Point:	-0.123	Pitch Set Point:	1.815	Yaw Set Point:	-0.036	X_WP:	0.000	Y_WP:	0.000	Y_WP:	0.750	X:	0.078	Y:	-0.907	Z:	0.402	yaw:	2.053	yaw rate:	-54.677	Roll:	-5.390	Pitch:	-27.376	Yaw:	10.993	Thrust:	100.000
Time:	2.037	Roll Set Point:	-0.130	Pitch Set Point:	1.815	Yaw Set Point:	-0.028	X_WP:	0.000	Y_WP:	0.000	Y_WP:	0.750	X:	0.078	Y:	-0.907	Z:	0.402	yaw:	1.606	yaw rate:	44.734	Roll:	7.692	Pitch:	-26.938	Yaw:	-2.310	Thrust:	100.000
Time:	2.056	Roll Set Point:	-0.133	Pitch Set Point:	1.815	Yaw Set Point:	-0.026	X_WP:	0.000	Y_WP:	0.000	Y_WP:	0.750	X:	0.078	Y:	-0.907	Z:	0.403	yaw:	1.474	yaw rate:	13.121	Roll:	3.771	Pitch:	-27.071	Yaw:	1.360	Thrust:	100.000
Time:	2.076	Roll Set Point:	-0.131	Pitch Set Point:	1.815	Yaw Set Point:	-0.028	X_WP:	0.000	Y_WP:	0.000	Y_WP:	0.750	X:	0.078	Y:	-0.907	Z:	0.402	yaw:	1.587	yaw rate:	-11.222	Roll:	0.080	Pitch:	-27.098	Yaw:	4.793	Thrust:	100.000
Time:	2.098	Roll Set Point:	-0.134	Pitch Set Point:	1.815	Yaw Set Point:	-0.025	X_WP:	0.000	Y_WP:	0.000	Y_WP:	0.750	X:	0.078	Y:	-0.907	Z:	0.403	yaw:	1.417	yaw rate:	16.996	Roll:	4.311	Pitch:	-27.068	Yaw:	0.992	Thrust:	100.000
Time:	2.121	Roll Set Point:	-0.132	Pitch Set Point:	1.815	Yaw Set Point:	-0.026	X_WP:	0.000	Y_WP:	0.000	Y_WP:	0.750	X:	0.078	Y:	-0.907	Z:	0.403	yaw:	1.511	yaw rate:	-9.397	Roll:	0.846	Pitch:	-27.294	Yaw:	4.481	Thrust:	100.000
Time:	2.136	Roll Set Point:	-0.131	Pitch Set Point:	1.815	Yaw Set Point:	-0.027	X_WP:	0.000	Y_WP:	0.000	Y_WP:	0.750	X:	0.078	Y:	-0.907	Z:	0.402	yaw:	1.553	yaw rate:	-4.211	Roll:	0.850	Pitch:	-26.875	Yaw:	3.752	Thrust:	87.596
Time:	2.157	Roll Set Point:	-0.132	Pitch Set Point:	1.815	Yaw Set Point:	-0.026	X_WP:	0.000	Y_WP:	0.000	Y_WP:	0.750	X:	0.078	Y:	-0.907	Z:	0.403	yaw:	1.489	yaw rate:	6.353	Roll:	2.865	Pitch:	-27.138	Yaw:	2.396	Thrust:	100.000
Time:	2.176	Roll Set Point:	-0.131	Pitch Set Point:	1.815	Yaw Set Point:	-0.027	X_WP:	0.000	Y_WP:	0.000	Y_WP:	0.750	X:	0.078	Y:	-0.907	Z:	0.403	yaw:	1.551	yaw rate:	-6.209	Roll:	0.963	Pitch:	-27.106	Yaw:	4.133	Thrust:	100.000
Time:	2.195	Roll Set Point:	-0.134	Pitch Set Point:	1.815	Yaw Set Point:	-0.025	X_WP:	0.000	Y_WP:	0.000	Y_WP:	0.750	X:	0.078	Y:	-0.907	Z:	0.403	yaw:	1.415	yaw rate:	13.639	Roll:	3.770	Pitch:	-26.973	Yaw:	1.183	Thrust:	100.000
Time:	2.216	Roll Set Point:	-0.110	Pitch Set Point:	1.816	Yaw Set Point:	-0.051	X_WP:	0.000	Y_WP:	0.000	Y_WP:	0.750	X:	0.078	Y:	-0.906	Z:	0.402	yaw:	2.898	yaw rate:	-148.325	Roll:	-18.745	Pitch:	-27.742	Yaw:	24.000	Thrust:	100.000
Time:	2.235	Roll Set Point:	-0.133	Pitch Set Point:	1.815	Yaw Set Point:	-0.026	X_WP:	0.000	Y_WP:	0.000	Y_WP:	0.750	X:	0.078	Y:	-0.907	Z:	0.403	yaw:	1.483	yaw rate:	141.557	Roll:	21.961	Pitch:	-26.516	Yaw:	-15.639	Thrust:	100.000
Time:	2.255	Roll Set Point:	-0.130	Pitch Set Point:	1.815	Yaw Set Point:	-0.028	X_WP:	0.000	Y_WP:	0.000	Y_WP:	0.750	X:	0.078	Y:	-0.907	Z:	0.402	yaw:	1.598	yaw rate:	-11.514	Roll:	0.118	Pitch:	-27.082	Yaw:	4.942	Thrust:	100.000
Time:	2.276	Roll Set Point:	-0.132	Pitch Set Point:	1.815	Yaw Set Point:	-0.027	X_WP:	0.000	Y_WP:	0.000	Y_WP:	0.750	X:	0.078	Y:	-0.907	Z:	0.403	yaw:	1.527	yaw rate:	7.070	Roll:	2.969	Pitch:	-27.159	Yaw:	2.485	Thrust:	100.000
Time:	2.296	Roll Set Point:	-0.132	Pitch Set Point:	1.815	Yaw Set Point:	-0.026	X_WP:	0.000	Y_WP:	0.000	Y_WP:	0.750	X:	0.078	Y:	-0.907	Z:	0.403	yaw:	1.496	yaw rate:	3.107	Roll:	2.296	Pitch:	-27.071	Yaw:	2.885	Thrust:	100.000
Time:	2.316	Roll Set Point:	-0.132	Pitch Set Point:	1.815	Yaw Set Point:	-0.026	X_WP:	0.000	Y_WP:	0.000	Y_WP:	0.750	X:	0.078	Y:	-0.907	Z:	0.403	yaw:	1.512	yaw rate:	-1.607	Roll:	1.653	Pitch:	-27.136	Yaw:	3.605	Thrust:	100.000
Time:	2.335	Roll Set Point:	-0.133	Pitch Set Point:	1.815	Yaw Set Point:	-0.025	X_WP:	0.000	Y_WP:	0.000	Y_WP:	0.750	X:	0.078	Y:	-0.907	Z:	0.403	yaw:	1.450	yaw rate:	6.159	Roll:	2.779	Pitch:	-27.002	Yaw:	2.319	Thrust:	100.000
Time:	2.356	Roll Set Point:	-0.132	Pitch Set Point:	1.815	Yaw Set Point:	-0.026	X_WP:	0.000	Y_WP:	0.000	Y_WP:	0.750	X:	0.078	Y:	-0.907	Z:	0.403	yaw:	1.500	yaw rate:	-4.936	Roll:	1.233	Pitch:	-27.164	Yaw:	4.041	Thrust:	100.000
Time:	2.376	Roll Set Point:	-0.133	Pitch Set Point:	1.815	Yaw Set Point:	-0.025	X_WP:	0.000	Y_WP:	0.000	Y_WP:	0.750	X:	0.078	Y:	-0.907	Z:	0.403	yaw:	1.446	yaw rate:	5.360	Roll:	2.646	Pitch:	-27.017	Yaw:	2.495	Thrust:	100.000
Time:	2.396	Roll Set Point:	-0.133	Pitch Set Point:	1.815	Yaw Set Point:	-0.025	X_WP:	0.000	Y_WP:	0.000	Y_WP:	0.750	X:	0.078	Y:	-0.907	Z:	0.403	yaw:	1.424	yaw rate:	2.244	Roll:	2.232	Pitch:	-27.096	Yaw:	2.984	Thrust:	100.000
Time:	2.416	Roll Set Point:	-0.131	Pitch Set Point:	1.815	Yaw Set Point:	-0.027	X_WP:	0.000	Y_WP:	0.000	Y_WP:	0.750	X:	0.078	Y:	-0.907	Z:	0.402	yaw:	1.542	yaw rate:	-11.825	Roll:	0.082	Pitch:	-27.121	Yaw:	4.982	Thrust:	100.000
Time:	2.436	Roll Set Point:	-0.132	Pitch Set Point:	1.815	Yaw Set Point:	-0.027	X_WP:	0.000	Y_WP:	0.000	Y_WP:	0.750	X:	0.078	Y:	-0.907	Z:	0.403	yaw:	1.523	yaw rate:	1.875	Roll:	2.283	Pitch:	-27.139	Yaw:	3.090	Thrust:	100.000
Time:	2.456	Roll Set Point:	-0.133	Pitch Set Point:	1.815	Yaw Set Point:	-0.025	X_WP:	0.000	Y_WP:	0.000	Y_WP:	0.750	X:	0.078	Y:	-0.907	Z:	0.403	yaw:	1.443	yaw rate:	8.051	Roll:	2.988	Pitch:	-27.058	Yaw:	2.380	Thrust:	100.000
Time:	2.476	Roll Set Point:	-0.132	Pitch Set Point:	1.815	Yaw Set Point:	-0.026	X_WP:	0.000	Y_WP:	0.000	Y_WP:	0.750	X:	0.078	Y:	-0.907	Z:	0.403	yaw:	1.500	yaw rate:	-5.682	Roll:	1.140	Pitch:	-27.141	Yaw:	4.159	Thrust:	100.000
Time:	2.497	Roll Set Point:	-0.131	Pitch Set Point:	1.815	Yaw Set Point:	-0.027	X_WP:	0.000	Y_WP:	0.000	Y_WP:	0.750	X:	0.078	Y:	-0.907	Z:	0.402	yaw:	1.571	yaw rate:	-7.109	Roll:	0.768	Pitch:	-27.097	Yaw:	4.465	Thrust:	100.000
Time:	2.517	Roll Set Point:	-0.132	Pitch Set Point:	1.815	Yaw Set Point:	-0.027	X_WP:	0.000	Y_WP:	0.000	Y_WP:	0.750	X:	0.078	Y:	-0.907	Z:	0.403	yaw:	1.526	yaw rate:	4.434	Roll:	2.617	Pitch:	-27.150	Yaw:	2.911	Thrust:	100.000
Time:	2.536	Roll Set Point:	-0.132	Pitch Set Point:	1.815	Yaw Set Point:	-0.026	X_WP:	0.000	Y_WP:	0.000	Y_WP:	0.750	X:	0.078	Y:	-0.907	Z:	0.403	yaw:	1.515	yaw rate:	1.117	Roll:	2.027	Pitch:	-27.015	Yaw:	3.231	Thrust:	100.000
Time:	2.556	Roll Set Point:	-0.123	Pitch Set Point:	1.815	Yaw Set Point:	-0.036	X_WP:	0.000	Y_WP:	0.000	Y_WP:	0.750	X:	0.078	Y:	-0.907	Z:	0.402	yaw:	2.047	yaw rate:	-53.199	Roll:	-5.273	Pitch:	-27.376	Yaw:	11.136	Thrust:	100.000
Time:	2.576	Roll Set Point:	-0.132	Pitch Set Point:	1.815	Yaw Set Point:	-0.026	X_WP:	0.000	Y_WP:	0.000	Y_WP:	0.750	X:	0.078	Y:	-0.907	Z:	0.403	yaw:	1.501	yaw rate:	54.610	Roll:	9.614	Pitch:	-26.823	Yaw:	-3.869	Thrust:	100.000
Time:	2.596	Roll Set Point:	-0.133	Pitch Set Point:	1.815	Yaw Set Point:	-0.025	X_WP:	0.000	Y_WP:	0.000	Y_WP:	0.750	X:	0.078	Y:	-0.907	Z:	0.403	yaw:	1.446	yaw rate:	5.525	Roll:	2.693	Pitch:	-27.062	Yaw:	2.712	Thrust:	100.000
Time:	2.617	Roll Set Point:	-0.133	Pitch Set Point:	1.815	Yaw Set Point:	-0.025	X_WP:	0.000	Y_WP:	0.000	Y_WP:	0.750	X:	0.078	Y:	-0.907	Z:	0.403	yaw:	1.442	yaw rate:	0.402	Roll:	1.988	Pitch:	-27.087	Yaw:	3.401	Thrust:	100.000
Time:	2.636	Roll Set Point:	-0.132	Pitch Set Point:	1.815	Yaw Set Point:	-0.025	X_WP:	0.000	Y_WP:	0.000	Y_WP:	0.750	X:	0.078	Y:	-0.907	Z:	0.402	yaw:	1.457	yaw rate:	-1.563	Roll:	1.490	Pitch:	-27.041	Yaw:	3.634	Thrust:	100.000
Time:	2.657	Roll Set Point:	-0.131	Pitch Set Point:	1.815	Yaw Set Point:	-0.027	X_WP:	0.000	Y_WP:	0.000	Y_WP:	0.750	X:	0.078	Y:	-0.907	Z:	0.402	yaw:	1.546	yaw rate:	-8.900	Roll:	0.774	Pitch:	-27.175	Yaw:	4.747	Thrust:	100.000
Time:	2.677	Roll Set Point:	-0.133	Pitch Set Point:	1.815	Yaw Set Point:	-0.025	X_WP:	0.000	Y_WP:	0.000	Y_WP:	0.750	X:	0.078	Y:	-0.907	Z:	0.403	yaw:	1.458	yaw rate:	8.796	Roll:	3.310	Pitch:	-27.095	Yaw:	2.330	Thrust:	100.000
Time:	2.696	Roll Set Point:	-0.131	Pitch Set Point:	1.815	Yaw Set Point:	-0.027	X_WP:	0.000	Y_WP:	0.000	Y_WP:	0.750	X:	0.078	Y:	-0.907	Z:	0.402	yaw:	1.541	yaw rate:	-8.280	Roll:	0.441	Pitch:	-27.083	Yaw:	4.661	Thrust:	100.000
Time:	2.717	Roll Set Point:	-0.132	Pitch Set Point:	1.815	Yaw Set Point:	-0.026	X_WP:	0.000	Y_WP:	0.000	Y_WP:	0.750	X:	0.078	Y:	-0.907	Z:	0.403	yaw:	1.495	yaw rate:	4.578	Roll:	2.768	Pitch:	-27.156	Yaw:	3.044	Thrust:	100.000
Time:	2.736	Roll Set Point:	-0.136	Pitch Set Point:	1.815	Yaw Set Point:	-0.022	X_WP:	0.000	Y_WP:	0.000	Y_WP:	0.750	X:	0.078	Y:	-0.907	Z:	0.403	yaw:	1.269	yaw rate:	22.629	Roll:	5.349	Pitch:	-26.821	Yaw:	-0.005	Thrust:	100.000
Time:	2.756	Roll Set Point:	-0.130	Pitch Set Point:	1.815	Yaw Set Point:	-0.028	X_WP:	0.000	Y_WP:	0.000	Y_WP:	0.750	X:	0.078	Y:	-0.907	Z:	0.402	yaw:	1.605	yaw rate:	-33.572	Roll:	-2.571	Pitch:	-27.348	Yaw:	8.090	Thrust:	100.000
Time:	2.777	Roll Set Point:	-0.130	Pitch Set Point:	1.815	Yaw Set Point:	-0.028	X_WP:	0.000	Y_WP:	0.000	Y_WP:	0.750	X:	0.078	Y:	-0.907	Z:	0.402	yaw:	1.602	yaw rate:	0.266	Roll:	1.940	Pitch:	-27.089	Yaw:	3.651	Thrust:	100.000
Time:	2.796	Roll Set Point:	-0.132	Pitch Set Point:	1.815	Yaw Set Point:	-0.026	X_WP:	0.000	Y_WP:	0.000	Y_WP:	0.750	X:	0.078	Y:	-0.907	Z:	0.403	yaw:	1.497	yaw rate:	10.484	Roll:	3.546	Pitch:	-27.097	Yaw:	2.272	Thrust:	100.000
Time:	2.817	Roll Set Point:	-0.133	Pitch Set Point:	1.815	Yaw Set Point:	-0.026	X_WP:	0.000	Y_WP:	0.000	Y_WP:	0.750	X:	0.078	Y:	-0.907	Z:	0.403	yaw:	1.480	yaw rate:	1.744	Roll:	2.184	Pitch:	-27.080	Yaw:	3.394	Thrust:	100.000
Time:	2.836	Roll Set Point:	-0.132	Pitch Set Point:	1.815	Yaw Set Point:	-0.026	X_WP:	0.000	Y_WP:	0.000	Y_WP:	0.750	X:	0.078	Y:	-0.907	Z:	0.403	yaw:	1.510	yaw rate:	-3.025	Roll:	1.506	Pitch:	-27.147	Yaw:	3.988	Thrust:	100.000
Time:	2.856	Roll Set Point:	-0.133	Pitch Set Point:	1.815	Yaw Set Point:	-0.026	X_WP:	0.000	Y_WP:	0.000	Y_WP:	0.750	X:	0.078	Y:	-0.907	Z:	0.403	yaw:	1.485	yaw rate:	2.550	Roll:	2.306	Pitch:	-27.055	Yaw:	3.236	Thrust:	100.000
Time:	2.876	Roll Set Point:	-0.131	Pitch Set Point:	1.815	Yaw Set Point:	-0.028	X_WP:	0.000	Y_WP:	0.000	Y_WP:	0.750	X:	0.078	Y:	-0.907	Z:	0.402	yaw:	1.583	yaw rate:	-9.803	Roll:	0.395	Pitch:	-27.085	Yaw:	5.027	Thrust:	100.000
Time:	2.896	Roll Set Point:	-0.132	Pitch Set Point:	1.815	Yaw Set Point:	-0.026	X_WP:	0.000	Y_WP:	0.000	Y_WP:	0.750	X:	0.078	Y:	-0.907	Z:	0.402	yaw:	1.482	yaw rate:	10.089	Roll:	3.316	Pitch:	-27.000	Yaw:	2.200	Thrust:	100.000
Time:	2.917	Roll Set Point:	-0.132	Pitch Set Point:	1.815	Yaw Set Point:	-0.026	X_WP:	0.000	Y_WP:	0.000	Y_WP:	0.750	X:	0.078	Y:	-0.907	Z:	0.403	yaw:	1.511	yaw rate:	-2.936	Roll:	1.753	Pitch:	-27.260	Yaw:	4.128	Thrust:	100.000
Time:	2.936	Roll Set Point:	-0.133	Pitch Set Point:	1.815	Yaw Set Point:	-0.025	X_WP:	0.000	Y_WP:	0.000	Y_WP:	0.750	X:	0.078	Y:	-0.907	Z:	0.403	yaw:	1.442	yaw rate:	6.969	Roll:	2.968	Pitch:	-26.959	Yaw:	2.570	Thrust:	100.000
Time:	2.956	Roll Set Point:	-0.134	Pitch Set Point:	1.815	Yaw Set Point:	-0.025	X_WP:	0.000	Y_WP:	0.000	Y_WP:	0.750	X:	0.078	Y:	-0.907	Z:	0.403	yaw:	1.421	yaw rate:	2.006	Roll:	2.276	Pitch:	-27.075	Yaw:	3.314	Thrust:	100.000
Time:	2.981	Roll Set Point:	-0.133	Pitch Set Point:	1.815	Yaw Set Point:	-0.026	X_WP:	0.000	Y_WP:	0.000	Y_WP:	0.750	X:	0.078	Y:	-0.907	Z:	0.403	yaw:	1.471	yaw rate:	-5.005	Roll:	1.405	Pitch:	-27.268	Yaw:	4.478	Thrust:	100.000
Time:	2.999	Roll Set Point:	-0.132	Pitch Set Point:	1.815	Yaw Set Point:	-0.026	X_WP:	0.000	Y_WP:	0.000	Y_WP:	0.750	X:	0.078	Y:	-0.907	Z:	0.403	yaw:	1.488	yaw rate:	-1.610	Roll:	1.740	Pitch:	-27.057	Yaw:	3.752	Thrust:	100.000
Time:	3.016	Roll Set Point:	-0.132	Pitch Set Point:	1.815	Yaw Set Point:	-0.026	X_WP:	0.000	Y_WP:	0.000	Y_WP:	0.750	X:	0.078	Y:	-0.907	Z:	0.403	yaw:	1.503	yaw rate:	-1.582	Roll:	1.704	Pitch:	-27.040	Yaw:	3.808	Thrust:	100.000
Time:	3.036	Roll Set Point:	-0.132	Pitch Set Point:	1.815	Yaw Set Point:	-0.026	X_WP:	0.000	Y_WP:	0.000	Y_WP:	0.750	X:	0.078	Y:	-0.907	Z:	0.403	yaw:	1.500	yaw rate:	0.326	Roll:	2.012	Pitch:	-27.123	Yaw:	3.608	Thrust:	100.000
Time:	3.057	Roll Set Point:	-0.131	Pitch Set Point:	1.815	Yaw Set Point:	-0.027	X_WP:	0.000	Y_WP:	0.000	Y_WP:	0.750	X:	0.078	Y:	-0.907	Z:	0.402	yaw:	1.572	yaw rate:	-7.186	Roll:	0.851	Pitch:	-27.099	Yaw:	4.794	Thrust:	100.000
Time:	3.077	Roll Set Point:	-0.132	Pitch Set Point:	1.815	Yaw Set Point:	-0.026	X_WP:	0.000	Y_WP:	0.000	Y_WP:	0.750	X:	0.078	Y:	-0.907	Z:	0.402	yaw:	1.504	yaw rate:	6.831	Roll:	2.885	Pitch:	-26.991	Yaw:	2.797	Thrust:	100.000
Time:	3.097	Roll Set Point:	-0.131	Pitch Set Point:	1.815	Yaw Set Point:	-0.027	X_WP:	0.000	Y_WP:	0.000	Y_WP:	0.750	X:	0.078	Y:	-0.907	Z:	0.402	yaw:	1.573	yaw rate:	-6.903	Roll:	1.023	Pitch:	-27.198	Yaw:	4.756	Thrust:	100.000
Time:	3.117	Roll Set Point:	-0.132	Pitch Set Point:	1.815	Yaw Set Point:	-0.027	X_WP:	0.000	Y_WP:	0.000	Y_WP:	0.750	X:	0.078	Y:	-0.907	Z:	0.403	yaw:	1.519	yaw rate:	5.402	Roll:	2.858	Pitch:	-27.124	Yaw:	3.087	Thrust:	100.000
Time:	3.137	Roll Set Point:	-0.132	Pitch Set Point:	1.815	Yaw Set Point:	-0.027	X_WP:	0.000	Y_WP:	0.000	Y_WP:	0.750	X:	0.078	Y:	-0.907	Z:	0.403	yaw:	1.525	yaw rate:	-0.652	Roll:	1.886	Pitch:	-27.072	Yaw:	3.823	Thrust:	100.000
Time:	3.158	Roll Set Point:	-0.132	Pitch Set Point:	1.815	Yaw Set Point:	-0.026	X_WP:	0.000	Y_WP:	0.000	Y_WP:	0.750	X:	0.078	Y:	-0.907	Z:	0.403	yaw:	1.499	yaw rate:	2.611	Roll:	2.333	Pitch:	-27.107	Yaw:	3.597	Thrust:	100.000
Time:	3.183	Roll Set Point:	-0.134	Pitch Set Point:	1.815	Yaw Set Point:	-0.025	X_WP:	0.000	Y_WP:	0.000	Y_WP:	0.750	X:	0.078	Y:	-0.907	Z:	0.403	yaw:	1.412	yaw rate:	8.745	Roll:	3.239	Pitch:	-27.111	Yaw:	3.154	Thrust:	100.000
Time:	3.199	Roll Set Point:	-0.133	Pitch Set Point:	1.815	Yaw Set Point:	-0.026	X_WP:	0.000	Y_WP:	0.000	Y_WP:	0.750	X:	0.078	Y:	-0.907	Z:	0.403	yaw:	1.469	yaw rate:	-5.685	Roll:	1.311	Pitch:	-27.102	Yaw:	4.356	Thrust:	100.000
Time:	3.217	Roll Set Point:	-0.132	Pitch Set Point:	1.815	Yaw Set Point:	-0.026	X_WP:	0.000	Y_WP:	0.000	Y_WP:	0.750	X:	0.078	Y:	-0.907	Z:	0.403	yaw:	1.506	yaw rate:	-3.706	Roll:	1.415	Pitch:	-27.081	Yaw:	4.168	Thrust:	100.000
Time:	3.236	Roll Set Point:	-0.132	Pitch Set Point:	1.815	Yaw Set Point:	-0.026	X_WP:	0.000	Y_WP:	0.000	Y_WP:	0.750	X:	0.078	Y:	-0.907	Z:	0.403	yaw:	1.509	yaw rate:	-0.349	Roll:	1.905	Pitch:	-27.093	Yaw:	3.840	Thrust:	100.000
Time:	3.256	Roll Set Point:	-0.132	Pitch Set Point:	1.815	Yaw Set Point:	-0.027	X_WP:	0.000	Y_WP:	0.000	Y_WP:	0.750	X:	0.078	Y:	-0.907	Z:	0.403	yaw:	1.525	yaw rate:	-1.634	Roll:	1.806	Pitch:	-27.101	Yaw:	4.036	Thrust:	100.000
Time:	3.275	Roll Set Point:	-0.131	Pitch Set Point:	1.815	Yaw Set Point:	-0.027	X_WP:	0.000	Y_WP:	0.000	Y_WP:	0.750	X:	0.078	Y:	-0.907	Z:	0.402	yaw:	1.562	yaw rate:	-3.632	Roll:	1.271	Pitch:	-27.032	Yaw:	4.370	Thrust:	100.000
Time:	3.296	Roll Set Point:	-0.132	Pitch Set Point:	1.815	Yaw Set Point:	-0.026	X_WP:	0.000	Y_WP:	0.000	Y_WP:	0.750	X:	0.078	Y:	-0.907	Z:	0.403	yaw:	1.495	yaw rate:	6.673	Roll:	3.041	Pitch:	-27.150	Yaw:	3.050	Thrust:	100.000
Time:	3.317	Roll Set Point:	-0.133	Pitch Set Point:	1.815	Yaw Set Point:	-0.026	X_WP:	0.000	Y_WP:	0.000	Y_WP:	0.750	X:	0.078	Y:	-0.907	Z:	0.403	yaw:	1.483	yaw rate:	1.178	Roll:	2.177	Pitch:	-27.083	Yaw:	3.744	Thrust:	100.000
Time:	3.335	Roll Set Point:	-0.133	Pitch Set Point:	1.815	Yaw Set Point:	-0.025	X_WP:	0.000	Y_WP:	0.000	Y_WP:	0.750	X:	0.078	Y:	-0.907	Z:	0.403	yaw:	1.438	yaw rate:	4.495	Roll:	2.674	Pitch:	-26.991	Yaw:	2.994	Thrust:	100.000
Time:	3.355	Roll Set Point:	-0.132	Pitch Set Point:	1.815	Yaw Set Point:	-0.026	X_WP:	0.000	Y_WP:	0.000	Y_WP:	0.750	X:	0.078	Y:	-0.907	Z:	0.403	yaw:	1.494	yaw rate:	-5.558	Roll:	1.246	Pitch:	-27.152	Yaw:	4.607	Thrust:	100.000
Time:	3.377	Roll Set Point:	-0.133	Pitch Set Point:	1.815	Yaw Set Point:	-0.026	X_WP:	0.000	Y_WP:	0.000	Y_WP:	0.750	X:	0.078	Y:	-0.907	Z:	0.403	yaw:	1.466	yaw rate:	2.751	Roll:	2.413	Pitch:	-27.092	Yaw:	3.637	Thrust:	100.000
Time:	3.398	Roll Set Point:	-0.133	Pitch Set Point:	1.815	Yaw Set Point:	-0.025	X_WP:	0.000	Y_WP:	0.000	Y_WP:	0.750	X:	0.078	Y:	-0.907	Z:	0.403	yaw:	1.447	yaw rate:	1.981	Roll:	2.322	Pitch:	-27.104	Yaw:	3.562	Thrust:	100.000
Time:	3.417	Roll Set Point:	-0.133	Pitch Set Point:	1.815	Yaw Set Point:	-0.026	X_WP:	0.000	Y_WP:	0.000	Y_WP:	0.750	X:	0.078	Y:	-0.907	Z:	0.403	yaw:	1.475	yaw rate:	-2.800	Roll:	1.619	Pitch:	-27.127	Yaw:	4.246	Thrust:	100.000
Time:	3.436	Roll Set Point:	-0.130	Pitch Set Point:	1.815	Yaw Set Point:	-0.028	X_WP:	0.000	Y_WP:	0.000	Y_WP:	0.750	X:	0.078	Y:	-0.907	Z:	0.402	yaw:	1.615	yaw rate:	-14.037	Roll:	-0.194	Pitch:	-27.100	Yaw:	5.921	Thrust:	100.000
Time:	3.456	Roll Set Point:	-0.134	Pitch Set Point:	1.815	Yaw Set Point:	-0.025	X_WP:	0.000	Y_WP:	0.000	Y_WP:	0.750	X:	0.078	Y:	-0.907	Z:	0.403	yaw:	1.419	yaw rate:	19.629	Roll:	4.805	Pitch:	-26.998	Yaw:	1.242	Thrust:	100.000
Time:	3.477	Roll Set Point:	-0.133	Pitch Set Point:	1.815	Yaw Set Point:	-0.025	X_WP:	0.000	Y_WP:	0.000	Y_WP:	0.750	X:	0.078	Y:	-0.907	Z:	0.403	yaw:	1.452	yaw rate:	-3.348	Roll:	1.639	Pitch:	-27.150	Yaw:	4.312	Thrust:	100.000
Time:	3.495	Roll Set Point:	-0.132	Pitch Set Point:	1.815	Yaw Set Point:	-0.026	X_WP:	0.000	Y_WP:	0.000	Y_WP:	0.750	X:	0.078	Y:	-0.907	Z:	0.403	yaw:	1.492	yaw rate:	-3.945	Roll:	1.493	Pitch:	-27.127	Yaw:	4.412	Thrust:	100.000
Time:	3.517	Roll Set Point:	-0.131	Pitch Set Point:	1.815	Yaw Set Point:	-0.027	X_WP:	0.000	Y_WP:	0.000	Y_WP:	0.750	X:	0.078	Y:	-0.907	Z:	0.402	yaw:	1.572	yaw rate:	-8.011	Roll:	0.807	Pitch:	-27.080	Yaw:	5.186	Thrust:	100.000
Time:	3.543	Roll Set Point:	-0.132	Pitch Set Point:	1.815	Yaw Set Point:	-0.026	X_WP:	0.000	Y_WP:	0.000	Y_WP:	0.750	X:	0.078	Y:	-0.907	Z:	0.402	yaw:	1.475	yaw rate:	9.677	Roll:	3.219	Pitch:	-27.295	Yaw:	3.533	Thrust:	100.000
Time:	3.556	Roll Set Point:	-0.132	Pitch Set Point:	1.815	Yaw Set Point:	-0.026	X_WP:	0.000	Y_WP:	0.000	Y_WP:	0.750	X:	0.078	Y:	-0.907	Z:	0.403	yaw:	1.503	yaw rate:	-2.814	Roll:	1.505	Pitch:	-26.993	Yaw:	3.897	Thrust:	100.000
Time:	3.576	Roll Set Point:	-0.110	Pitch Set Point:	1.816	Yaw Set Point:	-0.050	X_WP:	0.000	Y_WP:	0.000	Y_WP:	0.750	X:	0.078	Y:	-0.906	Z:	0.402	yaw:	2.861	yaw rate:	-135.806	Roll:	-18.140	Pitch:	-27.629	Yaw:	24.135	Thrust:	100.000
Time:	3.595	Roll Set Point:	-0.132	Pitch Set Point:	1.815	Yaw Set Point:	-0.026	X_WP:	0.000	Y_WP:	0.000	Y_WP:	0.750	X:	0.078	Y:	-0.907	Z:	0.403	yaw:	1.503	yaw rate:	135.793	Roll:	20.867	Pitch:	-26.486	Yaw:	-15.200	Thrust:	100.000
Time:	3.616	Roll Set Point:	-0.133	Pitch Set Point:	1.815	Yaw Set Point:	-0.025	X_WP:	0.000	Y_WP:	0.000	Y_WP:	0.750	X:	0.078	Y:	-0.907	Z:	0.403	yaw:	1.440	yaw rate:	6.319	Roll:	2.924	Pitch:	-27.093	Yaw:	3.386	Thrust:	100.000
Time:	3.636	Roll Set Point:	-0.133	Pitch Set Point:	1.815	Yaw Set Point:	-0.025	X_WP:	0.000	Y_WP:	0.000	Y_WP:	0.750	X:	0.078	Y:	-0.907	Z:	0.402	yaw:	1.405	yaw rate:	3.534	Roll:	2.334	Pitch:	-26.945	Yaw:	3.369	Thrust:	100.000
Time:	3.656	Roll Set Point:	-0.132	Pitch Set Point:	1.815	Yaw Set Point:	-0.026	X_WP:	0.000	Y_WP:	0.000	Y_WP:	0.750	X:	0.078	Y:	-0.907	Z:	0.403	yaw:	1.506	yaw rate:	-10.106	Roll:	0.969	Pitch:	-27.279	Yaw:	5.383	Thrust:	100.000
Time:	3.675	Roll Set Point:	-0.133	Pitch Set Point:	1.815	Yaw Set Point:	-0.025	X_WP:	0.000	Y_WP:	0.000	Y_WP:	0.750	X:	0.078	Y:	-0.907	Z:	0.403	yaw:	1.449	yaw rate:	5.621	Roll:	2.855	Pitch:	-27.005	Yaw:	3.153	Thrust:	100.000
Time:	3.697	Roll Set Point:	-0.132	Pitch Set Point:	1.815	Yaw Set Point:	-0.026	X_WP:	0.000	Y_WP:	0.000	Y_WP:	0.750	X:	0.078	Y:	-0.907	Z:	0.403	yaw:	1.498	yaw rate:	-4.865	Roll:	1.460	Pitch:	-27.187	Yaw:	4.729	Thrust:	100.000
Time:	3.718	Roll Set Point:	-0.132	Pitch Set Point:	1.815	Yaw Set Point:	-0.026	X_WP:	0.000	Y_WP:	0.000	Y_WP:	0.750	X:	0.078	Y:	-0.907	Z:	0.402	yaw:	1.505	yaw rate:	-0.703	Roll:	1.885	Pitch:	-27.148	Yaw:	4.368	Thrust:	100.000
Time:	3.735	Roll Set Point:	-0.132	Pitch Set Point:	1.815	Yaw Set Point:	-0.027	X_WP:	0.000	Y_WP:	0.000	Y_WP:	0.750	X:	0.078	Y:	-0.907	Z:	0.403	yaw:	1.524	yaw rate:	-1.886	Roll:	1.858	Pitch:	-27.049	Yaw:	4.105	Thrust:	100.000
Time:	3.758	Roll Set Point:	-0.132	Pitch Set Point:	1.815	Yaw Set Point:	-0.026	X_WP:	0.000	Y_WP:	0.000	Y_WP:	0.750	X:	0.078	Y:	-0.907	Z:	0.403	yaw:	1.507	yaw rate:	1.670	Roll:	2.320	Pitch:	-27.139	Yaw:	4.192	Thrust:	100.000
Time:	3.780	Roll Set Point:	-0.131	Pitch Set Point:	1.815	Yaw Set Point:	-0.027	X_WP:	0.000	Y_WP:	0.000	Y_WP:	0.750	X:	0.078	Y:	-0.907	Z:	0.402	yaw:	1.546	yaw rate:	-3.891	Roll:	1.359	Pitch:	-27.075	Yaw:	4.736	Thrust:	100.000
Time:	3.798	Roll Set Point:	-0.132	Pitch Set Point:	1.815	Yaw Set Point:	-0.026	X_WP:	0.000	Y_WP:	0.000	Y_WP:	0.750	X:	0.078	Y:	-0.907	Z:	0.402	yaw:	1.504	yaw rate:	4.257	Roll:	2.686	Pitch:	-27.052	Yaw:	3.445	Thrust:	100.000
Time:	3.818	Roll Set Point:	-0.132	Pitch Set Point:	1.815	Yaw Set Point:	-0.026	X_WP:	0.000	Y_WP:	0.000	Y_WP:	0.750	X:	0.078	Y:	-0.907	Z:	0.403	yaw:	1.499	yaw rate:	0.452	Roll:	2.259	Pitch:	-27.194	Yaw:	4.046	Thrust:	100.000
Time:	3.839	Roll Set Point:	-0.131	Pitch Set Point:	1.815	Yaw Set Point:	-0.027	X_WP:	0.000	Y_WP:	0.000	Y_WP:	0.750	X:	0.078	Y:	-0.907	Z:	0.402	yaw:	1.535	yaw rate:	-3.544	Roll:	1.424	Pitch:	-27.014	Yaw:	4.576	Thrust:	100.000
Time:	3.856	Roll Set Point:	-0.131	Pitch Set Point:	1.815	Yaw Set Point:	-0.027	X_WP:	0.000	Y_WP:	0.000	Y_WP:	0.750	X:	0.078	Y:	-0.907	Z:	0.402	yaw:	1.534	yaw rate:	0.069	Roll:	1.964	Pitch:	-27.041	Yaw:	3.988	Thrust:	100.000
Time:	3.877	Roll Set Point:	-0.133	Pitch Set Point:	1.815	Yaw Set Point:	-0.025	X_WP:	0.000	Y_WP:	0.000	Y_WP:	0.750	X:	0.078	Y:	-0.907	Z:	0.403	yaw:	1.438	yaw rate:	9.568	Roll:	3.655	Pitch:	-27.106	Yaw:	2.765	Thrust:	100.000
Time:	3.897	Roll Set Point:	-0.133	Pitch Set Point:	1.815	Yaw Set Point:	-0.026	X_WP:	0.000	Y_WP:	0.000	Y_WP:	0.750	X:	0.078	Y:	-0.907	Z:	0.403	yaw:	1.484	yaw rate:	-4.591	Roll:	1.473	Pitch:	-27.132	Yaw:	4.712	Thrust:	100.000
Time:	3.917	Roll Set Point:	-0.132	Pitch Set Point:	1.815	Yaw Set Point:	-0.026	X_WP:	0.000	Y_WP:	0.000	Y_WP:	0.750	X:	0.078	Y:	-0.907	Z:	0.403	yaw:	1.508	yaw rate:	-2.380	Roll:	1.776	Pitch:	-27.153	Yaw:	4.459	Thrust:	100.000
Time:	3.936	Roll Set Point:	-0.134	Pitch Set Point:	1.815	Yaw Set Point:	-0.025	X_WP:	0.000	Y_WP:	0.000	Y_WP:	0.750	X:	0.078	Y:	-0.907	Z:	0.403	yaw:	1.422	yaw rate:	8.553	Roll:	3.341	Pitch:	-27.012	Yaw:	2.750	Thrust:	100.000
Time:	3.956	Roll Set Point:	-0.132	Pitch Set Point:	1.815	Yaw Set Point:	-0.026	X_WP:	0.000	Y_WP:	0.000	Y_WP:	0.750	X:	0.078	Y:	-0.907	Z:	0.403	yaw:	1.495	yaw rate:	-7.297	Roll:	1.141	Pitch:	-27.163	Yaw:	5.038	Thrust:	100.000
Time:	3.976	Roll Set Point:	-0.132	Pitch Set Point:	1.815	Yaw Set Point:	-0.026	X_WP:	0.000	Y_WP:	0.000	Y_WP:	0.750	X:	0.078	Y:	-0.907	Z:	0.402	yaw:	1.492	yaw rate:	0.365	Roll:	1.973	Pitch:	-26.948	Yaw:	3.988	Thrust:	100.000
Time:	3.996	Roll Set Point:	-0.131	Pitch Set Point:	1.815	Yaw Set Point:	-0.027	X_WP:	0.000	Y_WP:	0.000	Y_WP:	0.750	X:	0.078	Y:	-0.907	Z:	0.402	yaw:	1.549	yaw rate:	-5.727	Roll:	1.280	Pitch:	-27.156	Yaw:	4.902	Thrust:	100.000
Time:	4.017	Roll Set Point:	-0.132	Pitch Set Point:	1.815	Yaw Set Point:	-0.026	X_WP:	0.000	Y_WP:	0.000	Y_WP:	0.750	X:	0.078	Y:	-0.907	Z:	0.403	yaw:	1.492	yaw rate:	5.718	Roll:	3.019	Pitch:	-27.187	Yaw:	3.454	Thrust:	100.000
Time:	4.039	Roll Set Point:	-0.132	Pitch Set Point:	1.815	Yaw Set Point:	-0.026	X_WP:	0.000	Y_WP:	0.000	Y_WP:	0.750	X:	0.078	Y:	-0.907	Z:	0.402	yaw:	1.510	yaw rate:	-1.769	Roll:	1.717	Pitch:	-27.063	Yaw:	4.539	Thrust:	100.000
Time:	4.056	Roll Set Point:	-0.132	Pitch Set Point:	1.815	Yaw Set Point:	-0.026	X_WP:	0.000	Y_WP:	0.000	Y_WP:	0.750	X:	0.078	Y:	-0.907	Z:	0.403	yaw:	1.518	yaw rate:	-0.802	Roll:	2.137	Pitch:	-27.129	Yaw:	3.948	Thrust:	100.000
Time:	4.077	Roll Set Point:	-0.133	Pitch Set Point:	1.815	Yaw Set Point:	-0.026	X_WP:	0.000	Y_WP:	0.000	Y_WP:	0.750	X:	0.078	Y:	-0.907	Z:	0.403	yaw:	1.477	yaw rate:	4.048	Roll:	2.669	Pitch:	-27.085	Yaw:	3.621	Thrust:	100.000
Time:	4.097	Roll Set Point:	-0.132	Pitch Set Point:	1.815	Yaw Set Point:	-0.026	X_WP:	0.000	Y_WP:	0.000	Y_WP:	0.750	X:	0.078	Y:	-0.907	Z:	0.403	yaw:	1.501	yaw rate:	-2.405	Roll:	1.801	Pitch:	-27.102	Yaw:	4.422	Thrust:	100.000
Time:	4.118	Roll Set Point:	-0.133	Pitch Set Point:	1.815	Yaw Set Point:	-0.025	X_WP:	0.000	Y_WP:	0.000	Y_WP:	0.750	X:	0.078	Y:	-0.907	Z:	0.403	yaw:	1.440	yaw rate:	6.061	Roll:	2.938	Pitch:	-27.105	Yaw:	3.440	Thrust:	100.000
Time:	4.136	Roll Set Point:	-0.132	Pitch Set Point:	1.815	Yaw Set Point:	-0.026	X_WP:	0.000	Y_WP:	0.000	Y_WP:	0.750	X:	0.078	Y:	-0.907	Z:	0.403	yaw:	1.488	yaw rate:	-4.747	Roll:	1.345	Pitch:	-27.086	Yaw:	4.529	Thrust:	100.000
Time:	4.156	Roll Set Point:	-0.130	Pitch Set Point:	1.815	Yaw Set Point:	-0.028	X_WP:	0.000	Y_WP:	0.000	Y_WP:	0.750	X:	0.078	Y:	-0.907	Z:	0.402	yaw:	1.611	yaw rate:	-12.331	Roll:	0.264	Pitch:	-27.120	Yaw:	5.875	Thrust:	100.000
Time:	4.179	Roll Set Point:	-0.132	Pitch Set Point:	1.815	Yaw Set Point:	-0.026	X_WP:	0.000	Y_WP:	0.000	Y_WP:	0.750	X:	0.078	Y:	-0.907	Z:	0.403	yaw:	1.514	yaw rate:	9.716	Roll:	3.544	Pitch:	-27.147	Yaw:	3.214	Thrust:	100.000
Time:	4.199	Roll Set Point:	-0.132	Pitch Set Point:	1.815	Yaw Set Point:	-0.026	X_WP:	0.000	Y_WP:	0.000	Y_WP:	0.750	X:	0.078	Y:	-0.907	Z:	0.403	yaw:	1.503	yaw rate:	1.125	Roll:	2.298	Pitch:	-27.107	Yaw:	3.955	Thrust:	100.000
Time:	4.218	Roll Set Point:	-0.133	Pitch Set Point:	1.815	Yaw Set Point:	-0.026	X_WP:	0.000	Y_WP:	0.000	Y_WP:	0.750	X:	0.078	Y:	-0.907	Z:	0.403	yaw:	1.461	yaw rate:	4.171	Roll:	2.714	Pitch:	-27.038	Yaw:	3.374	Thrust:	100.000
Time:	4.239	Roll Set Point:	-0.132	Pitch Set Point:	1.815	Yaw Set Point:	-0.026	X_WP:	0.000	Y_WP:	0.000	Y_WP:	0.750	X:	0.078	Y:	-0.907	Z:	0.402	yaw:	1.505	yaw rate:	-4.400	Roll:	1.317	Pitch:	-27.046	Yaw:	4.711	Thrust:	100.000
Time:	4.259	Roll Set Point:	-0.133	Pitch Set Point:	1.815	Yaw Set Point:	-0.025	X_WP:	0.000	Y_WP:	0.000	Y_WP:	0.750	X:	0.078	Y:	-0.907	Z:	0.403	yaw:	1.439	yaw rate:	6.625	Roll:	3.299	Pitch:	-27.131	Yaw:	3.222	Thrust:	100.000
Time:	4.276	Roll Set Point:	-0.133	Pitch Set Point:	1.815	Yaw Set Point:	-0.026	X_WP:	0.000	Y_WP:	0.000	Y_WP:	0.750	X:	0.078	Y:	-0.907	Z:	0.403	yaw:	1.464	yaw rate:	-2.540	Roll:	1.710	Pitch:	-27.080	Yaw:	4.178	Thrust:	100.000
Time:	4.297	Roll Set Point:	-0.131	Pitch Set Point:	1.815	Yaw Set Point:	-0.027	X_WP:	0.000	Y_WP:	0.000	Y_WP:	0.750	X:	0.078	Y:	-0.907	Z:	0.402	yaw:	1.557	yaw rate:	-9.278	Roll:	0.724	Pitch:	-27.107	Yaw:	5.412	Thrust:	100.000
Time:	4.316	Roll Set Point:	-0.132	Pitch Set Point:	1.815	Yaw Set Point:	-0.027	X_WP:	0.000	Y_WP:	0.000	Y_WP:	0.750	X:	0.078	Y:	-0.907	Z:	0.403	yaw:	1.519	yaw rate:	3.785	Roll:	2.795	Pitch:	-27.101	Yaw:	3.479	Thrust:	100.000
Time:	4.335	Roll Set Point:	-0.131	Pitch Set Point:	1.815	Yaw Set Point:	-0.027	X_WP:	0.000	Y_WP:	0.000	Y_WP:	0.750	X:	0.078	Y:	-0.907	Z:	0.402	yaw:	1.530	yaw rate:	-1.045	Roll:	1.840	Pitch:	-27.052	Yaw:	4.239	Thrust:	100.000
Time:	4.356	Roll Set Point:	-0.132	Pitch Set Point:	1.815	Yaw Set Point:	-0.026	X_WP:	0.000	Y_WP:	0.000	Y_WP:	0.750	X:	0.078	Y:	-0.907	Z:	0.403	yaw:	1.509	yaw rate:	2.076	Roll:	2.574	Pitch:	-27.158	Yaw:	3.873	Thrust:	100.000
Time:	4.375	Roll Set Point:	-0.133	Pitch Set Point:	1.815	Yaw Set Point:	-0.025	X_WP:	0.000	Y_WP:	0.000	Y_WP:	0.750	X:	0.078	Y:	-0.907	Z:	0.403	yaw:	1.456	yaw rate:	5.316	Roll:	2.892	Pitch:	-27.020	Yaw:	3.294	Thrust:	100.000
Time:	4.395	Roll Set Point:	-0.135	Pitch Set Point:	1.815	Yaw Set Point:	-0.023	X_WP:	0.000	Y_WP:	0.000	Y_WP:	0.750	X:	0.078	Y:	-0.907	Z:	0.402	yaw:	1.316	yaw rate:	13.982	Roll:	4.029	Pitch:	-26.841	Yaw:	1.880	Thrust:	100.000
Time:	4.416	Roll Set Point:	-0.132	Pitch Set Point:	1.815	Yaw Set Point:	-0.026	X_WP:	0.000	Y_WP:	0.000	Y_WP:	0.750	X:	0.078	Y:	-0.907	Z:	0.403	yaw:	1.518	yaw rate:	-20.173	Roll:	-0.354	Pitch:	-27.412	Yaw:	6.733	Thrust:	100.000
Time:	4.435	Roll Set Point:	-0.132	Pitch Set Point:	1.815	Yaw Set Point:	-0.027	X_WP:	0.000	Y_WP:	0.000	Y_WP:	0.750	X:	0.078	Y:	-0.907	Z:	0.403	yaw:	1.519	yaw rate:	-0.131	Roll:	2.117	Pitch:	-27.063	Yaw:	4.080	Thrust:	100.000
Time:	4.457	Roll Set Point:	-0.132	Pitch Set Point:	1.815	Yaw Set Point:	-0.026	X_WP:	0.000	Y_WP:	0.000	Y_WP:	0.750	X:	0.078	Y:	-0.907	Z:	0.403	yaw:	1.516	yaw rate:	0.307	Roll:	2.226	Pitch:	-27.129	Yaw:	4.231	Thrust:	100.000
Time:	4.476	Roll Set Point:	-0.133	Pitch Set Point:	1.815	Yaw Set Point:	-0.025	X_WP:	0.000	Y_WP:	0.000	Y_WP:	0.750	X:	0.078	Y:	-0.907	Z:	0.403	yaw:	1.444	yaw rate:	7.162	Roll:	3.196	Pitch:	-27.001	Yaw:	2.938	Thrust:	100.000
Time:	4.496	Roll Set Point:	-0.133	Pitch Set Point:	1.815	Yaw Set Point:	-0.025	X_WP:	0.000	Y_WP:	0.000	Y_WP:	0.750	X:	0.078	Y:	-0.907	Z:	0.403	yaw:	1.441	yaw rate:	0.357	Roll:	2.247	Pitch:	-27.115	Yaw:	4.029	Thrust:	100.000
Time:	4.517	Roll Set Point:	-0.131	Pitch Set Point:	1.815	Yaw Set Point:	-0.026	X_WP:	0.000	Y_WP:	0.000	Y_WP:	0.750	X:	0.078	Y:	-0.907	Z:	0.402	yaw:	1.517	yaw rate:	-7.586	Roll:	1.046	Pitch:	-27.141	Yaw:	5.170	Thrust:	100.000
Time:	4.536	Roll Set Point:	-0.131	Pitch Set Point:	1.815	Yaw Set Point:	-0.027	X_WP:	0.000	Y_WP:	0.000	Y_WP:	0.750	X:	0.078	Y:	-0.907	Z:	0.402	yaw:	1.563	yaw rate:	-4.617	Roll:	1.453	Pitch:	-27.078	Yaw:	4.660	Thrust:	100.000
Time:	4.555	Roll Set Point:	-0.132	Pitch Set Point:	1.815	Yaw Set Point:	-0.026	X_WP:	0.000	Y_WP:	0.000	Y_WP:	0.750	X:	0.078	Y:	-0.907	Z:	0.403	yaw:	1.510	yaw rate:	5.234	Roll:	3.028	Pitch:	-27.106	Yaw:	3.356	Thrust:	100.000
Time:	4.576	Roll Set Point:	-0.132	Pitch Set Point:	1.815	Yaw Set Point:	-0.026	X_WP:	0.000	Y_WP:	0.000	Y_WP:	0.750	X:	0.078	Y:	-0.907	Z:	0.403	yaw:	1.502	yaw rate:	0.862	Roll:	2.288	Pitch:	-27.116	Yaw:	4.043	Thrust:	100.000
Time:	4.597	Roll Set Point:	-0.133	Pitch Set Point:	1.815	Yaw Set Point:	-0.025	X_WP:	0.000	Y_WP:	0.000	Y_WP:	0.750	X:	0.078	Y:	-0.907	Z:	0.403	yaw:	1.432	yaw rate:	6.940	Roll:	3.143	Pitch:	-27.055	Yaw:	3.350	Thrust:	100.000
Time:	4.618	Roll Set Point:	-0.133	Pitch Set Point:	1.815	Yaw Set Point:	-0.025	X_WP:	0.000	Y_WP:	0.000	Y_WP:	0.750	X:	0.078	Y:	-0.907	Z:	0.403	yaw:	1.437	yaw rate:	-0.448	Roll:	2.162	Pitch:	-27.121	Yaw:	4.071	Thrust:	100.000
Time:	4.642	Roll Set Point:	-0.132	Pitch Set Point:	1.815	Yaw Set Point:	-0.026	X_WP:	0.000	Y_WP:	0.000	Y_WP:	0.750	X:	0.078	Y:	-0.907	Z:	0.403	yaw:	1.499	yaw rate:	-6.205	Roll:	1.574	Pitch:	-27.302	Yaw:	5.127	Thrust:	100.000
Time:	4.659	Roll Set Point:	-0.131	Pitch Set Point:	1.815	Yaw Set Point:	-0.027	X_WP:	0.000	Y_WP:	0.000	Y_WP:	0.750	X:	0.078	Y:	-0.907	Z:	0.402	yaw:	1.552	yaw rate:	-5.322	Roll:	1.022	Pitch:	-26.924	Yaw:	4.674	Thrust:	100.000
Time:	4.679	Roll Set Point:	-0.132	Pitch Set Point:	1.815	Yaw Set Point:	-0.026	X_WP:	0.000	Y_WP:	0.000	Y_WP:	0.750	X:	0.078	Y:	-0.907	Z:	0.403	yaw:	1.510	yaw rate:	4.192	Roll:	2.928	Pitch:	-27.127	Yaw:	3.637	Thrust:	100.000
Time:	4.697	Roll Set Point:	-0.132	Pitch Set Point:	1.815	Yaw Set Point:	-0.026	X_WP:	0.000	Y_WP:	0.000	Y_WP:	0.750	X:	0.078	Y:	-0.907	Z:	0.403	yaw:	1.511	yaw rate:	-0.042	Roll:	2.126	Pitch:	-27.034	Yaw:	3.975	Thrust:	100.000
Time:	4.718	Roll Set Point:	-0.133	Pitch Set Point:	1.815	Yaw Set Point:	-0.025	X_WP:	0.000	Y_WP:	0.000	Y_WP:	0.750	X:	0.078	Y:	-0.907	Z:	0.403	yaw:	1.448	yaw rate:	6.227	Roll:	3.075	Pitch:	-27.097	Yaw:	3.337	Thrust:	100.000
Time:	4.736	Roll Set Point:	-0.132	Pitch Set Point:	1.815	Yaw Set Point:	-0.026	X_WP:	0.000	Y_WP:	0.000	Y_WP:	0.750	X:	0.078	Y:	-0.907	Z:	0.403	yaw:	1.497	yaw rate:	-4.816	Roll:	1.490	Pitch:	-27.102	Yaw:	4.585	Thrust:	100.000
Time:	4.759	Roll Set Point:	-0.131	Pitch Set Point:	1.815	Yaw Set Point:	-0.027	X_WP:	0.000	Y_WP:	0.000	Y_WP:	0.750	X:	0.078	Y:	-0.907	Z:	0.402	yaw:	1.559	yaw rate:	-6.228	Roll:	1.158	Pitch:	-27.084	Yaw:	5.235	Thrust:	100.000
Time:	4.776	Roll Set Point:	-0.131	Pitch Set Point:	1.815	Yaw Set Point:	-0.027	X_WP:	0.000	Y_WP:	0.000	Y_WP:	0.750	X:	0.078	Y:	-0.907	Z:	0.402	yaw:	1.529	yaw rate:	2.988	Roll:	2.491	Pitch:	-27.018	Yaw:	3.251	Thrust:	100.000
Time:	4.796	Roll Set Point:	-0.132	Pitch Set Point:	1.815	Yaw Set Point:	-0.026	X_WP:	0.000	Y_WP:	0.000	Y_WP:	0.750	X:	0.078	Y:	-0.907	Z:	0.403	yaw:	1.502	yaw rate:	2.729	Roll:	2.829	Pitch:	-27.188	Yaw:	3.761	Thrust:	100.000
Time:	4.817	Roll Set Point:	-0.132	Pitch Set Point:	1.815	Yaw Set Point:	-0.026	X_WP:	0.000	Y_WP:	0.000	Y_WP:	0.750	X:	0.078	Y:	-0.907	Z:	0.403	yaw:	1.515	yaw rate:	-1.336	Roll:	2.026	Pitch:	-27.127	Yaw:	4.373	Thrust:	100.000
Time:	4.836	Roll Set Point:	-0.133	Pitch Set Point:	1.815	Yaw Set Point:	-0.025	X_WP:	0.000	Y_WP:	0.000	Y_WP:	0.750	X:	0.078	Y:	-0.907	Z:	0.403	yaw:	1.430	yaw rate:	8.532	Roll:	3.409	Pitch:	-26.945	Yaw:	2.805	Thrust:	100.000
Time:	4.856	Roll Set Point:	-0.132	Pitch Set Point:	1.815	Yaw Set Point:	-0.026	X_WP:	0.000	Y_WP:	0.000	Y_WP:	0.750	X:	0.078	Y:	-0.907	Z:	0.403	yaw:	1.512	yaw rate:	-8.227	Roll:	1.093	Pitch:	-27.201	Yaw:	5.157	Thrust:	100.000
Time:	4.876	Roll Set Point:	-0.132	Pitch Set Point:	1.815	Yaw Set Point:	-0.026	X_WP:	0.000	Y_WP:	0.000	Y_WP:	0.750	X:	0.078	Y:	-0.907	Z:	0.402	yaw:	1.491	yaw rate:	2.122	Roll:	2.378	Pitch:	-27.028	Yaw:	3.930	Thrust:	100.000
Time:	4.896	Roll Set Point:	-0.131	Pitch Set Point:	1.815	Yaw Set Point:	-0.027	X_WP:	0.000	Y_WP:	0.000	Y_WP:	0.750	X:	0.078	Y:	-0.907	Z:	0.402	yaw:	1.569	yaw rate:	-7.814	Roll:	1.145	Pitch:	-27.148	Yaw:	5.182	Thrust:	100.000
Time:	4.917	Roll Set Point:	-0.132	Pitch Set Point:	1.815	Yaw Set Point:	-0.026	X_WP:	0.000	Y_WP:	0.000	Y_WP:	0.750	X:	0.078	Y:	-0.907	Z:	0.403	yaw:	1.490	yaw rate:	7.896	Roll:	3.421	Pitch:	-27.111	Yaw:	3.207	Thrust:	100.000
Time:	4.936	Roll Set Point:	-0.133	Pitch Set Point:	1.815	Yaw Set Point:	-0.025	X_WP:	0.000	Y_WP:	0.000	Y_WP:	0.750	X:	0.078	Y:	-0.907	Z:	0.403	yaw:	1.454	yaw rate:	3.591	Roll:	2.761	Pitch:	-27.039	Yaw:	3.421	Thrust:	100.000
Time:	4.956	Roll Set Point:	-0.133	Pitch Set Point:	1.815	Yaw Set Point:	-0.025	X_WP:	0.000	Y_WP:	0.000	Y_WP:	0.750	X:	0.078	Y:	-0.907	Z:	0.403	yaw:	1.448	yaw rate:	0.575	Roll:	2.347	Pitch:	-27.110	Yaw:	3.945	Thrust:	100.000
Time:	4.978	Roll Set Point:	-0.132	Pitch Set Point:	1.815	Yaw Set Point:	-0.026	X_WP:	0.000	Y_WP:	0.000	Y_WP:	0.750	X:	0.078	Y:	-0.907	Z:	0.402	yaw:	1.483	yaw rate:	-3.448	Roll:	1.641	Pitch:	-27.036	Yaw:	4.638	Thrust:	100.000
Time:	4.995	Roll Set Point:	-0.133	Pitch Set Point:	1.815	Yaw Set Point:	-0.025	X_WP:	0.000	Y_WP:	0.000	Y_WP:	0.750	X:	0.078	Y:	-0.907	Z:	0.403	yaw:	1.447	yaw rate:	3.556	Roll:	2.909	Pitch:	-27.142	Yaw:	3.337	Thrust:	100.000
Time:	5.016	Roll Set Point:	-0.132	Pitch Set Point:	1.815	Yaw Set Point:	-0.026	X_WP:	0.000	Y_WP:	0.000	Y_WP:	0.750	X:	0.078	Y:	-0.907	Z:	0.402	yaw:	1.505	yaw rate:	-5.791	Roll:	1.310	Pitch:	-27.073	Yaw:	4.856	Thrust:	100.000
Time:	5.037	Roll Set Point:	-0.132	Pitch Set Point:	1.815	Yaw Set Point:	-0.026	X_WP:	0.000	Y_WP:	0.000	Y_WP:	0.750	X:	0.078	Y:	-0.907	Z:	0.402	yaw:	1.503	yaw rate:	0.176	Roll:	2.236	Pitch:	-27.108	Yaw:	4.124	Thrust:	100.000
Time:	5.060	Roll Set Point:	-0.132	Pitch Set Point:	1.815	Yaw Set Point:	-0.026	X_WP:	0.000	Y_WP:	0.000	Y_WP:	0.750	X:	0.078	Y:	-0.907	Z:	0.403	yaw:	1.507	yaw rate:	-0.369	Roll:	2.374	Pitch:	-27.215	Yaw:	4.496	Thrust:	100.000
Time:	5.080	Roll Set Point:	-0.132	Pitch Set Point:	1.815	Yaw Set Point:	-0.026	X_WP:	0.000	Y_WP:	0.000	Y_WP:	0.750	X:	0.078	Y:	-0.907	Z:	0.403	yaw:	1.488	yaw rate:	1.876	Roll:	2.529	Pitch:	-27.122	Yaw:	3.840	Thrust:	100.000
Time:	5.102	Roll Set Point:	-0.133	Pitch Set Point:	1.815	Yaw Set Point:	-0.026	X_WP:	0.000	Y_WP:	0.000	Y_WP:	0.750	X:	0.078	Y:	-0.907	Z:	0.403	yaw:	1.463	yaw rate:	2.492	Roll:	2.633	Pitch:	-27.092	Yaw:	3.849	Thrust:	100.000
Time:	5.121	Roll Set Point:	-0.131	Pitch Set Point:	1.815	Yaw Set Point:	-0.027	X_WP:	0.000	Y_WP:	0.000	Y_WP:	0.750	X:	0.078	Y:	-0.907	Z:	0.402	yaw:	1.561	yaw rate:	-9.759	Roll:	0.727	Pitch:	-27.093	Yaw:	5.433	Thrust:	100.000
Time:	5.136	Roll Set Point:	-0.131	Pitch Set Point:	1.815	Yaw Set Point:	-0.027	X_WP:	0.000	Y_WP:	0.000	Y_WP:	0.750	X:	0.078	Y:	-0.907	Z:	0.403	yaw:	1.572	yaw rate:	-1.069	Roll:	1.995	Pitch:	-27.001	Yaw:	4.001	Thrust:	100.000
Time:	5.158	Roll Set Point:	-0.133	Pitch Set Point:	1.815	Yaw Set Point:	-0.026	X_WP:	0.000	Y_WP:	0.000	Y_WP:	0.750	X:	0.078	Y:	-0.907	Z:	0.403	yaw:	1.462	yaw rate:	10.923	Roll:	3.848	Pitch:	-27.108	Yaw:	2.824	Thrust:	100.000
Time:	5.179	Roll Set Point:	-0.131	Pitch Set Point:	1.815	Yaw Set Point:	-0.027	X_WP:	0.000	Y_WP:	0.000	Y_WP:	0.750	X:	0.078	Y:	-0.907	Z:	0.402	yaw:	1.548	yaw rate:	-8.535	Roll:	0.896	Pitch:	-27.094	Yaw:	5.298	Thrust:	100.000
Time:	5.196	Roll Set Point:	-0.132	Pitch Set Point:	1.815	Yaw Set Point:	-0.026	X_WP:	0.000	Y_WP:	0.000	Y_WP:	0.750	X:	0.078	Y:	-0.907	Z:	0.403	yaw:	1.511	yaw rate:	3.716	Roll:	2.903	Pitch:	-27.099	Yaw:	3.398	Thrust:	100.000
Time:	5.217	Roll Set Point:	-0.131	Pitch Set Point:	1.815	Yaw Set Point:	-0.028	X_WP:	0.000	Y_WP:	0.000	Y_WP:	0.750	X:	0.078	Y:	-0.907	Z:	0.402	yaw:	1.580	yaw rate:	-6.904	Roll:	1.168	Pitch:	-27.093	Yaw:	5.123	Thrust:	100.000
Time:	5.236	Roll Set Point:	-0.132	Pitch Set Point:	1.815	Yaw Set Point:	-0.026	X_WP:	0.000	Y_WP:	0.000	Y_WP:	0.750	X:	0.078	Y:	-0.907	Z:	0.403	yaw:	1.490	yaw rate:	8.973	Roll:	3.647	Pitch:	-27.110	Yaw:	2.900	Thrust:	100.000
Time:	5.257	Roll Set Point:	-0.132	Pitch Set Point:	1.815	Yaw Set Point:	-0.026	X_WP:	0.000	Y_WP:	0.000	Y_WP:	0.750	X:	0.078	Y:	-0.907	Z:	0.403	yaw:	1.514	yaw rate:	-2.440	Roll:	1.917	Pitch:	-27.107	Yaw:	4.455	Thrust:	100.000
Time:	5.277	Roll Set Point:	-0.131	Pitch Set Point:	1.815	Yaw Set Point:	-0.027	X_WP:	0.000	Y_WP:	0.000	Y_WP:	0.750	X:	0.078	Y:	-0.907	Z:	0.402	yaw:	1.572	yaw rate:	-5.787	Roll:	1.307	Pitch:	-27.077	Yaw:	4.959	Thrust:	100.000
Time:	5.302	Roll Set Point:	-0.133	Pitch Set Point:	1.815	Yaw Set Point:	-0.025	X_WP:	0.000	Y_WP:	0.000	Y_WP:	0.750	X:	0.078	Y:	-0.907	Z:	0.403	yaw:	1.435	yaw rate:	13.742	Roll:	4.215	Pitch:	-27.172	Yaw:	2.893	Thrust:	100.000
Time:	5.321	Roll Set Point:	-0.133	Pitch Set Point:	1.815	Yaw Set Point:	-0.025	X_WP:	0.000	Y_WP:	0.000	Y_WP:	0.750	X:	0.078	Y:	-0.907	Z:	0.403	yaw:	1.430	yaw rate:	0.432	Roll:	2.363	Pitch:	-27.116	Yaw:	3.947	Thrust:	100.000
Time:	5.339	Roll Set Point:	-0.132	Pitch Set Point:	1.815	Yaw Set Point:	-0.026	X_WP:	0.000	Y_WP:	0.000	Y_WP:	0.750	X:	0.078	Y:	-0.907	Z:	0.402	yaw:	1.481	yaw rate:	-5.068	Roll:	1.252	Pitch:	-26.986	Yaw:	4.551	Thrust:	100.000
