Time:	0.033	Roll Set Point:	-0.060	Pitch Set Point:	-0.046	Yaw Set Point:	0.062	X_WP:	0.000	Y_WP:	0.000	Y_WP:	-0.100	X:	0.031	Y:	0.022	Z:	0.049	yaw:	-3.554	yaw rate:	-1.413	Roll:	0.291	Pitch:	0.239	Yaw:	-4.963	Thrust:	0.000
Time:	0.044	Roll Set Point:	-0.060	Pitch Set Point:	-0.046	Yaw Set Point:	0.063	X_WP:	0.000	Y_WP:	0.000	Y_WP:	-0.100	X:	0.030	Y:	0.022	Z:	0.049	yaw:	-3.589	yaw rate:	3.468	Roll:	0.263	Pitch:	0.243	Yaw:	-5.876	Thrust:	0.000
Time:	0.060	Roll Set Point:	-0.059	Pitch Set Point:	-0.046	Yaw Set Point:	0.063	X_WP:	0.000	Y_WP:	0.000	Y_WP:	-0.100	X:	0.030	Y:	0.022	Z:	0.049	yaw:	-3.593	yaw rate:	0.455	Roll:	0.295	Pitch:	0.243	Yaw:	-5.131	Thrust:	0.000
Time:	0.072	Roll Set Point:	-0.060	Pitch Set Point:	-0.046	Yaw Set Point:	0.063	X_WP:	0.000	Y_WP:	0.000	Y_WP:	-0.100	X:	0.030	Y:	0.022	Z:	0.049	yaw:	-3.606	yaw rate:	1.302	Roll:	0.320	Pitch:	0.262	Yaw:	-5.364	Thrust:	0.000
Time:	0.083	Roll Set Point:	-0.060	Pitch Set Point:	-0.046	Yaw Set Point:	0.062	X_WP:	0.000	Y_WP:	0.000	Y_WP:	-0.100	X:	0.030	Y:	0.022	Z:	0.049	yaw:	-3.557	yaw rate:	-4.914	Roll:	0.332	Pitch:	0.257	Yaw:	-3.786	Thrust:	0.000
Time:	0.094	Roll Set Point:	-0.060	Pitch Set Point:	-0.046	Yaw Set Point:	0.062	X_WP:	0.000	Y_WP:	0.000	Y_WP:	-0.100	X:	0.031	Y:	0.022	Z:	0.049	yaw:	-3.553	yaw rate:	-0.441	Roll:	0.351	Pitch:	0.266	Yaw:	-4.932	Thrust:	0.000
Time:	0.105	Roll Set Point:	-0.060	Pitch Set Point:	-0.046	Yaw Set Point:	0.062	X_WP:	0.000	Y_WP:	0.000	Y_WP:	-0.100	X:	0.030	Y:	0.022	Z:	0.049	yaw:	-3.576	yaw rate:	2.271	Roll:	0.296	Pitch:	0.290	Yaw:	-5.614	Thrust:	0.000
Time:	0.116	Roll Set Point:	-0.059	Pitch Set Point:	-0.046	Yaw Set Point:	0.062	X_WP:	0.000	Y_WP:	0.000	Y_WP:	-0.100	X:	0.030	Y:	0.022	Z:	0.049	yaw:	-3.564	yaw rate:	-1.112	Roll:	0.313	Pitch:	0.251	Yaw:	-4.811	Thrust:	0.000
Time:	0.135	Roll Set Point:	-0.060	Pitch Set Point:	-0.046	Yaw Set Point:	0.063	X_WP:	0.000	Y_WP:	0.000	Y_WP:	-0.100	X:	0.030	Y:	0.022	Z:	0.049	yaw:	-3.603	yaw rate:	3.847	Roll:	0.371	Pitch:	0.306	Yaw:	-5.779	Thrust:	0.000
Time:	0.146	Roll Set Point:	-0.060	Pitch Set Point:	-0.046	Yaw Set Point:	0.063	X_WP:	0.000	Y_WP:	0.000	Y_WP:	-0.100	X:	0.030	Y:	0.022	Z:	0.049	yaw:	-3.587	yaw rate:	-1.549	Roll:	0.370	Pitch:	0.306	Yaw:	-4.790	Thrust:	0.000
Time:	0.157	Roll Set Point:	-0.060	Pitch Set Point:	-0.046	Yaw Set Point:	0.063	X_WP:	0.000	Y_WP:	0.000	Y_WP:	-0.100	X:	0.030	Y:	0.022	Z:	0.049	yaw:	-3.587	yaw rate:	-0.077	Roll:	0.362	Pitch:	0.285	Yaw:	-5.127	Thrust:	0.000
Time:	0.167	Roll Set Point:	-0.060	Pitch Set Point:	-0.046	Yaw Set Point:	0.062	X_WP:	0.000	Y_WP:	0.000	Y_WP:	-0.100	X:	0.030	Y:	0.022	Z:	0.049	yaw:	-3.552	yaw rate:	-3.497	Roll:	0.361	Pitch:	0.288	Yaw:	-4.229	Thrust:	0.000
Time:	0.178	Roll Set Point:	-0.060	Pitch Set Point:	-0.046	Yaw Set Point:	0.062	X_WP:	0.000	Y_WP:	0.000	Y_WP:	-0.100	X:	0.031	Y:	0.022	Z:	0.049	yaw:	-3.557	yaw rate:	0.490	Roll:	0.387	Pitch:	0.322	Yaw:	-5.246	Thrust:	0.000
Time:	0.191	Roll Set Point:	-0.059	Pitch Set Point:	-0.046	Yaw Set Point:	0.063	X_WP:	0.000	Y_WP:	0.000	Y_WP:	-0.100	X:	0.030	Y:	0.022	Z:	0.049	yaw:	-3.612	yaw rate:	5.549	Roll:	0.303	Pitch:	0.311	Yaw:	-6.449	Thrust:	0.000
Time:	0.207	Roll Set Point:	-0.060	Pitch Set Point:	-0.046	Yaw Set Point:	0.062	X_WP:	0.000	Y_WP:	0.000	Y_WP:	-0.100	X:	0.030	Y:	0.022	Z:	0.049	yaw:	-3.567	yaw rate:	-4.523	Roll:	0.469	Pitch:	0.349	Yaw:	-4.611	Thrust:	0.000
Time:	0.218	Roll Set Point:	-0.060	Pitch Set Point:	-0.046	Yaw Set Point:	0.062	X_WP:	0.000	Y_WP:	0.000	Y_WP:	-0.100	X:	0.030	Y:	0.022	Z:	0.049	yaw:	-3.574	yaw rate:	0.700	Roll:	0.384	Pitch:	0.326	Yaw:	-5.363	Thrust:	0.000
Time:	0.230	Roll Set Point:	-0.060	Pitch Set Point:	-0.046	Yaw Set Point:	0.062	X_WP:	0.000	Y_WP:	0.000	Y_WP:	-0.100	X:	0.030	Y:	0.022	Z:	0.049	yaw:	-3.576	yaw rate:	0.248	Roll:	0.394	Pitch:	0.314	Yaw:	-5.280	Thrust:	0.000
Time:	0.241	Roll Set Point:	-0.060	Pitch Set Point:	-0.046	Yaw Set Point:	0.062	X_WP:	0.000	Y_WP:	0.000	Y_WP:	-0.100	X:	0.031	Y:	0.022	Z:	0.049	yaw:	-3.576	yaw rate:	-0.009	Roll:	0.427	Pitch:	0.348	Yaw:	-5.224	Thrust:	0.000
Time:	0.255	Roll Set Point:	-0.059	Pitch Set Point:	-0.046	Yaw Set Point:	0.063	X_WP:	0.000	Y_WP:	0.000	Y_WP:	-0.100	X:	0.030	Y:	0.022	Z:	0.049	yaw:	-3.618	yaw rate:	4.150	Roll:	0.365	Pitch:	0.338	Yaw:	-6.196	Thrust:	0.000
Time:	0.273	Roll Set Point:	-0.060	Pitch Set Point:	-0.046	Yaw Set Point:	0.062	X_WP:	0.000	Y_WP:	0.000	Y_WP:	-0.100	X:	0.031	Y:	0.022	Z:	0.049	yaw:	-3.563	yaw rate:	-5.493	Roll:	0.542	Pitch:	0.426	Yaw:	-4.672	Thrust:	0.000
Time:	0.283	Roll Set Point:	-0.060	Pitch Set Point:	-0.046	Yaw Set Point:	0.062	X_WP:	0.000	Y_WP:	0.000	Y_WP:	-0.100	X:	0.031	Y:	0.022	Z:	0.049	yaw:	-3.541	yaw rate:	-2.983	Roll:	0.426	Pitch:	0.326	Yaw:	-4.688	Thrust:	0.000
Time:	0.294	Roll Set Point:	-0.060	Pitch Set Point:	-0.046	Yaw Set Point:	0.062	X_WP:	0.000	Y_WP:	0.000	Y_WP:	-0.100	X:	0.031	Y:	0.022	Z:	0.049	yaw:	-3.568	yaw rate:	2.696	Roll:	0.411	Pitch:	0.366	Yaw:	-5.911	Thrust:	0.000
Time:	0.305	Roll Set Point:	-0.060	Pitch Set Point:	-0.046	Yaw Set Point:	0.063	X_WP:	0.000	Y_WP:	0.000	Y_WP:	-0.100	X:	0.030	Y:	0.022	Z:	0.049	yaw:	-3.588	yaw rate:	2.045	Roll:	0.392	Pitch:	0.321	Yaw:	-5.799	Thrust:	0.000
Time:	0.318	Roll Set Point:	-0.060	Pitch Set Point:	-0.046	Yaw Set Point:	0.062	X_WP:	0.000	Y_WP:	0.000	Y_WP:	-0.100	X:	0.031	Y:	0.022	Z:	0.049	yaw:	-3.571	yaw rate:	-1.701	Roll:	0.487	Pitch:	0.403	Yaw:	-4.963	Thrust:	0.000
Time:	0.338	Roll Set Point:	-0.060	Pitch Set Point:	-0.046	Yaw Set Point:	0.062	X_WP:	0.000	Y_WP:	0.000	Y_WP:	-0.100	X:	0.031	Y:	0.022	Z:	0.049	yaw:	-3.575	yaw rate:	0.360	Roll:	0.580	Pitch:	0.472	Yaw:	-5.654	Thrust:	0.000
Time:	0.349	Roll Set Point:	-0.060	Pitch Set Point:	-0.046	Yaw Set Point:	0.062	X_WP:	0.000	Y_WP:	0.000	Y_WP:	-0.100	X:	0.030	Y:	0.022	Z:	0.049	yaw:	-3.543	yaw rate:	0.047	Roll:	0.455	Pitch:	0.363	Yaw:	-4.482	Thrust:	0.000
Time:	0.361	Roll Set Point:	-0.059	Pitch Set Point:	-0.046	Yaw Set Point:	0.063	X_WP:	0.000	Y_WP:	0.000	Y_WP:	-0.100	X:	0.030	Y:	0.022	Z:	0.049	yaw:	-3.618	yaw rate:	7.563	Roll:	0.411	Pitch:	0.378	Yaw:	-7.087	Thrust:	0.000
Time:	0.372	Roll Set Point:	-0.060	Pitch Set Point:	-0.046	Yaw Set Point:	0.063	X_WP:	0.000	Y_WP:	0.000	Y_WP:	-0.100	X:	0.030	Y:	0.022	Z:	0.049	yaw:	-3.599	yaw rate:	-1.946	Roll:	0.488	Pitch:	0.379	Yaw:	-4.944	Thrust:	0.000
Time:	0.384	Roll Set Point:	-0.060	Pitch Set Point:	-0.046	Yaw Set Point:	0.063	X_WP:	0.000	Y_WP:	0.000	Y_WP:	-0.100	X:	0.030	Y:	0.022	Z:	0.049	yaw:	-3.595	yaw rate:	-0.453	Roll:	0.487	Pitch:	0.399	Yaw:	-5.343	Thrust:	0.000
Time:	0.406	Roll Set Point:	-0.060	Pitch Set Point:	-0.046	Yaw Set Point:	0.062	X_WP:	0.000	Y_WP:	0.000	Y_WP:	-0.100	X:	0.031	Y:	0.022	Z:	0.049	yaw:	-3.561	yaw rate:	-3.332	Roll:	0.660	Pitch:	0.534	Yaw:	-5.376	Thrust:	0.000
Time:	0.417	Roll Set Point:	-0.059	Pitch Set Point:	-0.046	Yaw Set Point:	0.062	X_WP:	0.000	Y_WP:	0.000	Y_WP:	-0.100	X:	0.030	Y:	0.022	Z:	0.049	yaw:	-3.557	yaw rate:	-0.434	Roll:	0.489	Pitch:	0.406	Yaw:	-5.298	Thrust:	0.000
Time:	0.428	Roll Set Point:	-0.059	Pitch Set Point:	-0.046	Yaw Set Point:	0.063	X_WP:	0.000	Y_WP:	0.000	Y_WP:	-0.100	X:	0.030	Y:	0.022	Z:	0.049	yaw:	-3.589	yaw rate:	3.141	Roll:	0.469	Pitch:	0.397	Yaw:	-6.183	Thrust:	0.000
Time:	0.439	Roll Set Point:	-0.060	Pitch Set Point:	-0.046	Yaw Set Point:	0.063	X_WP:	0.000	Y_WP:	0.000	Y_WP:	-0.100	X:	0.030	Y:	0.022	Z:	0.049	yaw:	-3.599	yaw rate:	1.059	Roll:	0.515	Pitch:	0.433	Yaw:	-5.710	Thrust:	0.000
Time:	0.449	Roll Set Point:	-0.060	Pitch Set Point:	-0.046	Yaw Set Point:	0.063	X_WP:	0.000	Y_WP:	0.000	Y_WP:	-0.100	X:	0.030	Y:	0.022	Z:	0.049	yaw:	-3.600	yaw rate:	0.073	Roll:	0.492	Pitch:	0.406	Yaw:	-5.483	Thrust:	0.000
Time:	0.470	Roll Set Point:	-0.060	Pitch Set Point:	-0.046	Yaw Set Point:	0.062	X_WP:	0.000	Y_WP:	0.000	Y_WP:	-0.100	X:	0.030	Y:	0.022	Z:	0.049	yaw:	-3.568	yaw rate:	-3.225	Roll:	0.662	Pitch:	0.557	Yaw:	-5.445	Thrust:	0.000
Time:	0.482	Roll Set Point:	-0.060	Pitch Set Point:	-0.046	Yaw Set Point:	0.063	X_WP:	0.000	Y_WP:	0.000	Y_WP:	-0.100	X:	0.030	Y:	0.022	Z:	0.049	yaw:	-3.598	yaw rate:	2.596	Roll:	0.571	Pitch:	0.472	Yaw:	-6.203	Thrust:	0.000
Time:	0.494	Roll Set Point:	-0.060	Pitch Set Point:	-0.046	Yaw Set Point:	0.062	X_WP:	0.000	Y_WP:	0.000	Y_WP:	-0.100	X:	0.031	Y:	0.022	Z:	0.049	yaw:	-3.556	yaw rate:	-4.199	Roll:	0.571	Pitch:	0.429	Yaw:	-4.532	Thrust:	0.000
Time:	0.505	Roll Set Point:	-0.060	Pitch Set Point:	-0.046	Yaw Set Point:	0.063	X_WP:	0.000	Y_WP:	0.000	Y_WP:	-0.100	X:	0.030	Y:	0.022	Z:	0.049	yaw:	-3.586	yaw rate:	2.943	Roll:	0.497	Pitch:	0.448	Yaw:	-6.215	Thrust:	0.000
Time:	0.520	Roll Set Point:	-0.059	Pitch Set Point:	-0.046	Yaw Set Point:	0.063	X_WP:	0.000	Y_WP:	0.000	Y_WP:	-0.100	X:	0.030	Y:	0.022	Z:	0.049	yaw:	-3.594	yaw rate:	0.841	Roll:	0.557	Pitch:	0.486	Yaw:	-5.826	Thrust:	0.000
Time:	0.541	Roll Set Point:	-0.060	Pitch Set Point:	-0.046	Yaw Set Point:	0.062	X_WP:	0.000	Y_WP:	0.000	Y_WP:	-0.100	X:	0.031	Y:	0.022	Z:	0.049	yaw:	-3.574	yaw rate:	-2.050	Roll:	0.829	Pitch:	0.655	Yaw:	-5.821	Thrust:	0.000
Time:	0.553	Roll Set Point:	-0.059	Pitch Set Point:	-0.046	Yaw Set Point:	0.063	X_WP:	0.000	Y_WP:	0.000	Y_WP:	-0.100	X:	0.030	Y:	0.022	Z:	0.049	yaw:	-3.590	yaw rate:	0.941	Roll:	0.513	Pitch:	0.441	Yaw:	-5.988	Thrust:	0.000
Time:	0.565	Roll Set Point:	-0.060	Pitch Set Point:	-0.046	Yaw Set Point:	0.062	X_WP:	0.000	Y_WP:	0.000	Y_WP:	-0.100	X:	0.031	Y:	0.022	Z:	0.049	yaw:	-3.576	yaw rate:	-1.430	Roll:	0.616	Pitch:	0.500	Yaw:	-5.299	Thrust:	0.000
Time:	0.578	Roll Set Point:	-0.060	Pitch Set Point:	-0.046	Yaw Set Point:	0.063	X_WP:	0.000	Y_WP:	0.000	Y_WP:	-0.100	X:	0.030	Y:	0.022	Z:	0.049	yaw:	-3.613	yaw rate:	3.692	Roll:	0.588	Pitch:	0.479	Yaw:	-6.470	Thrust:	0.000
Time:	0.618	Roll Set Point:	-0.060	Pitch Set Point:	-0.046	Yaw Set Point:	0.062	X_WP:	0.000	Y_WP:	0.000	Y_WP:	-0.100	X:	0.031	Y:	0.022	Z:	0.049	yaw:	-3.579	yaw rate:	-3.404	Roll:	1.317	Pitch:	1.077	Yaw:	-6.902	Thrust:	0.000
Time:	0.630	Roll Set Point:	-0.060	Pitch Set Point:	-0.046	Yaw Set Point:	0.062	X_WP:	0.000	Y_WP:	0.000	Y_WP:	-0.100	X:	0.030	Y:	0.022	Z:	0.049	yaw:	-3.552	yaw rate:	-2.689	Roll:	0.562	Pitch:	0.488	Yaw:	-5.037	Thrust:	0.000
Time:	0.641	Roll Set Point:	-0.060	Pitch Set Point:	-0.046	Yaw Set Point:	0.063	X_WP:	0.000	Y_WP:	0.000	Y_WP:	-0.100	X:	0.031	Y:	0.022	Z:	0.049	yaw:	-3.612	yaw rate:	4.718	Roll:	0.589	Pitch:	0.497	Yaw:	-7.057	Thrust:	0.000
Time:	0.651	Roll Set Point:	-0.060	Pitch Set Point:	-0.046	Yaw Set Point:	0.062	X_WP:	0.000	Y_WP:	0.000	Y_WP:	-0.100	X:	0.031	Y:	0.022	Z:	0.049	yaw:	-3.565	yaw rate:	-4.660	Roll:	0.593	Pitch:	0.466	Yaw:	-4.339	Thrust:	0.000
Time:	0.672	Roll Set Point:	-0.060	Pitch Set Point:	-0.046	Yaw Set Point:	0.063	X_WP:	0.000	Y_WP:	0.000	Y_WP:	-0.100	X:	0.030	Y:	0.022	Z:	0.049	yaw:	-3.596	yaw rate:	3.082	Roll:	0.786	Pitch:	0.679	Yaw:	-6.602	Thrust:	0.000
Time:	0.682	Roll Set Point:	-0.060	Pitch Set Point:	-0.046	Yaw Set Point:	0.063	X_WP:	0.000	Y_WP:	0.000	Y_WP:	-0.100	X:	0.030	Y:	0.022	Z:	0.049	yaw:	-3.600	yaw rate:	0.366	Roll:	0.645	Pitch:	0.501	Yaw:	-5.781	Thrust:	0.000
Time:	0.694	Roll Set Point:	-0.060	Pitch Set Point:	-0.046	Yaw Set Point:	0.062	X_WP:	0.000	Y_WP:	0.000	Y_WP:	-0.100	X:	0.030	Y:	0.022	Z:	0.049	yaw:	-3.576	yaw rate:	-2.402	Roll:	0.614	Pitch:	0.498	Yaw:	-5.154	Thrust:	0.000
Time:	0.705	Roll Set Point:	-0.060	Pitch Set Point:	-0.046	Yaw Set Point:	0.063	X_WP:	0.000	Y_WP:	0.000	Y_WP:	-0.100	X:	0.030	Y:	0.022	Z:	0.049	yaw:	-3.592	yaw rate:	1.580	Roll:	0.598	Pitch:	0.496	Yaw:	-6.077	Thrust:	0.000
Time:	0.716	Roll Set Point:	-0.060	Pitch Set Point:	-0.046	Yaw Set Point:	0.062	X_WP:	0.000	Y_WP:	0.000	Y_WP:	-0.100	X:	0.031	Y:	0.022	Z:	0.049	yaw:	-3.565	yaw rate:	-2.677	Roll:	0.641	Pitch:	0.540	Yaw:	-5.056	Thrust:	0.000
Time:	0.737	Roll Set Point:	-0.060	Pitch Set Point:	-0.046	Yaw Set Point:	0.063	X_WP:	0.000	Y_WP:	0.000	Y_WP:	-0.100	X:	0.030	Y:	0.022	Z:	0.049	yaw:	-3.582	yaw rate:	1.749	Roll:	0.888	Pitch:	0.735	Yaw:	-6.561	Thrust:	0.000
Time:	0.748	Roll Set Point:	-0.060	Pitch Set Point:	-0.046	Yaw Set Point:	0.063	X_WP:	0.000	Y_WP:	0.000	Y_WP:	-0.100	X:	0.030	Y:	0.022	Z:	0.049	yaw:	-3.586	yaw rate:	-0.377	Roll:	0.667	Pitch:	0.531	Yaw:	-5.840	Thrust:	0.000
Time:	0.759	Roll Set Point:	-0.060	Pitch Set Point:	-0.046	Yaw Set Point:	0.062	X_WP:	0.000	Y_WP:	0.000	Y_WP:	-0.100	X:	0.031	Y:	0.022	Z:	0.049	yaw:	-3.554	yaw rate:	-3.216	Roll:	0.673	Pitch:	0.535	Yaw:	-4.939	Thrust:	0.000
Time:	0.769	Roll Set Point:	-0.059	Pitch Set Point:	-0.046	Yaw Set Point:	0.062	X_WP:	0.000	Y_WP:	0.000	Y_WP:	-0.100	X:	0.030	Y:	0.022	Z:	0.049	yaw:	-3.571	yaw rate:	1.662	Roll:	0.565	Pitch:	0.490	Yaw:	-6.124	Thrust:	0.000
Time:	0.781	Roll Set Point:	-0.060	Pitch Set Point:	-0.046	Yaw Set Point:	0.062	X_WP:	0.000	Y_WP:	0.000	Y_WP:	-0.100	X:	0.030	Y:	0.022	Z:	0.049	yaw:	-3.569	yaw rate:	-0.134	Roll:	0.665	Pitch:	0.524	Yaw:	-5.676	Thrust:	0.000
Time:	0.797	Roll Set Point:	-0.060	Pitch Set Point:	-0.046	Yaw Set Point:	0.062	X_WP:	0.000	Y_WP:	0.000	Y_WP:	-0.100	X:	0.030	Y:	0.022	Z:	0.049	yaw:	-3.579	yaw rate:	0.932	Roll:	0.769	Pitch:	0.667	Yaw:	-6.323	Thrust:	0.000
Time:	0.809	Roll Set Point:	-0.060	Pitch Set Point:	-0.046	Yaw Set Point:	0.063	X_WP:	0.000	Y_WP:	0.000	Y_WP:	-0.100	X:	0.030	Y:	0.022	Z:	0.049	yaw:	-3.593	yaw rate:	1.444	Roll:	0.770	Pitch:	0.625	Yaw:	-6.251	Thrust:	0.000
Time:	0.820	Roll Set Point:	-0.060	Pitch Set Point:	-0.046	Yaw Set Point:	0.062	X_WP:	0.000	Y_WP:	0.000	Y_WP:	-0.100	X:	0.030	Y:	0.022	Z:	0.049	yaw:	-3.575	yaw rate:	-1.807	Roll:	0.687	Pitch:	0.530	Yaw:	-5.325	Thrust:	0.000
Time:	0.831	Roll Set Point:	-0.060	Pitch Set Point:	-0.046	Yaw Set Point:	0.062	X_WP:	0.000	Y_WP:	0.000	Y_WP:	-0.100	X:	0.030	Y:	0.022	Z:	0.049	yaw:	-3.565	yaw rate:	-0.950	Roll:	0.663	Pitch:	0.591	Yaw:	-5.623	Thrust:	0.000
Time:	0.842	Roll Set Point:	-0.060	Pitch Set Point:	-0.046	Yaw Set Point:	0.062	X_WP:	0.000	Y_WP:	0.000	Y_WP:	-0.100	X:	0.030	Y:	0.022	Z:	0.049	yaw:	-3.580	yaw rate:	1.426	Roll:	0.701	Pitch:	0.551	Yaw:	-6.156	Thrust:	0.000
Time:	0.874	Roll Set Point:	-0.060	Pitch Set Point:	-0.046	Yaw Set Point:	0.063	X_WP:	0.000	Y_WP:	0.000	Y_WP:	-0.100	X:	0.030	Y:	0.022	Z:	0.049	yaw:	-3.588	yaw rate:	0.845	Roll:	1.407	Pitch:	1.169	Yaw:	-7.565	Thrust:	0.000
Time:	0.885	Roll Set Point:	-0.060	Pitch Set Point:	-0.046	Yaw Set Point:	0.062	X_WP:	0.000	Y_WP:	0.000	Y_WP:	-0.100	X:	0.030	Y:	0.022	Z:	0.049	yaw:	-3.534	yaw rate:	-5.450	Roll:	0.733	Pitch:	0.563	Yaw:	-4.421	Thrust:	0.000
Time:	0.896	Roll Set Point:	-0.060	Pitch Set Point:	-0.046	Yaw Set Point:	0.062	X_WP:	0.000	Y_WP:	0.000	Y_WP:	-0.100	X:	0.031	Y:	0.022	Z:	0.049	yaw:	-3.528	yaw rate:	-0.567	Roll:	0.719	Pitch:	0.614	Yaw:	-5.720	Thrust:	0.000
Time:	0.907	Roll Set Point:	-0.059	Pitch Set Point:	-0.046	Yaw Set Point:	0.062	X_WP:	0.000	Y_WP:	0.000	Y_WP:	-0.100	X:	0.030	Y:	0.022	Z:	0.049	yaw:	-3.542	yaw rate:	1.390	Roll:	0.642	Pitch:	0.561	Yaw:	-6.171	Thrust:	0.000
Time:	0.925	Roll Set Point:	-0.060	Pitch Set Point:	-0.046	Yaw Set Point:	0.062	X_WP:	0.000	Y_WP:	0.000	Y_WP:	-0.100	X:	0.031	Y:	0.022	Z:	0.049	yaw:	-3.566	yaw rate:	2.374	Roll:	0.927	Pitch:	0.760	Yaw:	-6.727	Thrust:	0.000
Time:	0.939	Roll Set Point:	-0.059	Pitch Set Point:	-0.046	Yaw Set Point:	0.063	X_WP:	0.000	Y_WP:	0.000	Y_WP:	-0.100	X:	0.030	Y:	0.022	Z:	0.049	yaw:	-3.623	yaw rate:	5.733	Roll:	0.904	Pitch:	0.768	Yaw:	-7.325	Thrust:	0.000
Time:	0.949	Roll Set Point:	-0.060	Pitch Set Point:	-0.046	Yaw Set Point:	0.062	X_WP:	0.000	Y_WP:	0.000	Y_WP:	-0.100	X:	0.030	Y:	0.022	Z:	0.049	yaw:	-3.567	yaw rate:	-0.296	Roll:	0.741	Pitch:	0.543	Yaw:	-4.378	Thrust:	0.000
Time:	0.961	Roll Set Point:	-0.060	Pitch Set Point:	-0.046	Yaw Set Point:	0.062	X_WP:	0.000	Y_WP:	0.000	Y_WP:	-0.100	X:	0.031	Y:	0.022	Z:	0.049	yaw:	-3.546	yaw rate:	-2.116	Roll:	0.795	Pitch:	0.632	Yaw:	-5.528	Thrust:	0.000
Time:	0.973	Roll Set Point:	-0.060	Pitch Set Point:	-0.046	Yaw Set Point:	0.062	X_WP:	0.000	Y_WP:	0.000	Y_WP:	-0.100	X:	0.031	Y:	0.022	Z:	0.049	yaw:	-3.536	yaw rate:	-0.966	Roll:	0.739	Pitch:	0.631	Yaw:	-5.693	Thrust:	0.000
Time:	0.985	Roll Set Point:	-0.060	Pitch Set Point:	-0.046	Yaw Set Point:	0.062	X_WP:	0.000	Y_WP:	0.000	Y_WP:	-0.100	X:	0.031	Y:	0.022	Z:	0.049	yaw:	-3.581	yaw rate:	4.431	Roll:	0.775	Pitch:	0.667	Yaw:	-7.037	Thrust:	0.000
Time:	1.006	Roll Set Point:	-0.060	Pitch Set Point:	-0.046	Yaw Set Point:	0.063	X_WP:	0.000	Y_WP:	0.000	Y_WP:	-0.100	X:	0.030	Y:	0.022	Z:	0.049	yaw:	-3.599	yaw rate:	1.871	Roll:	1.178	Pitch:	0.970	Yaw:	-7.151	Thrust:	0.000
Time:	1.018	Roll Set Point:	-0.060	Pitch Set Point:	-0.046	Yaw Set Point:	0.063	X_WP:	0.000	Y_WP:	0.000	Y_WP:	-0.100	X:	0.030	Y:	0.022	Z:	0.049	yaw:	-3.607	yaw rate:	3.914	Roll:	0.750	Pitch:	0.589	Yaw:	-6.206	Thrust:	0.000
Time:	1.029	Roll Set Point:	-0.060	Pitch Set Point:	-0.046	Yaw Set Point:	0.062	X_WP:	0.000	Y_WP:	0.000	Y_WP:	-0.100	X:	0.030	Y:	0.022	Z:	0.049	yaw:	-3.574	yaw rate:	-3.381	Roll:	0.811	Pitch:	0.672	Yaw:	-5.367	Thrust:	0.000
Time:	1.040	Roll Set Point:	-0.059	Pitch Set Point:	-0.046	Yaw Set Point:	0.062	X_WP:	0.000	Y_WP:	0.000	Y_WP:	-0.100	X:	0.030	Y:	0.022	Z:	0.049	yaw:	-3.569	yaw rate:	-0.473	Roll:	0.772	Pitch:	0.625	Yaw:	-5.907	Thrust:	0.000
Time:	1.057	Roll Set Point:	-0.060	Pitch Set Point:	-0.046	Yaw Set Point:	0.062	X_WP:	0.000	Y_WP:	0.000	Y_WP:	-0.100	X:	0.030	Y:	0.022	Z:	0.049	yaw:	-3.570	yaw rate:	0.161	Roll:	0.962	Pitch:	0.780	Yaw:	-6.593	Thrust:	0.000
Time:	1.074	Roll Set Point:	-0.060	Pitch Set Point:	-0.046	Yaw Set Point:	0.063	X_WP:	0.000	Y_WP:	0.000	Y_WP:	-0.100	X:	0.031	Y:	0.022	Z:	0.049	yaw:	-3.586	yaw rate:	1.591	Roll:	1.123	Pitch:	0.949	Yaw:	-6.890	Thrust:	0.000
Time:	1.084	Roll Set Point:	-0.060	Pitch Set Point:	-0.046	Yaw Set Point:	0.062	X_WP:	0.000	Y_WP:	0.000	Y_WP:	-0.100	X:	0.030	Y:	0.022	Z:	0.049	yaw:	-3.573	yaw rate:	-2.023	Roll:	0.765	Pitch:	0.608	Yaw:	-5.699	Thrust:	0.000
Time:	1.096	Roll Set Point:	-0.060	Pitch Set Point:	-0.046	Yaw Set Point:	0.063	X_WP:	0.000	Y_WP:	0.000	Y_WP:	-0.100	X:	0.030	Y:	0.022	Z:	0.049	yaw:	-3.587	yaw rate:	1.402	Roll:	0.801	Pitch:	0.686	Yaw:	-6.465	Thrust:	0.000
Time:	1.107	Roll Set Point:	-0.060	Pitch Set Point:	-0.046	Yaw Set Point:	0.062	X_WP:	0.000	Y_WP:	0.000	Y_WP:	-0.100	X:	0.031	Y:	0.022	Z:	0.049	yaw:	-3.545	yaw rate:	-4.201	Roll:	0.844	Pitch:	0.659	Yaw:	-5.049	Thrust:	0.000
Time:	1.119	Roll Set Point:	-0.060	Pitch Set Point:	-0.046	Yaw Set Point:	0.062	X_WP:	0.000	Y_WP:	0.000	Y_WP:	-0.100	X:	0.031	Y:	0.022	Z:	0.049	yaw:	-3.538	yaw rate:	-0.739	Roll:	0.842	Pitch:	0.680	Yaw:	-5.883	Thrust:	0.000
Time:	1.139	Roll Set Point:	-0.060	Pitch Set Point:	-0.046	Yaw Set Point:	0.062	X_WP:	0.000	Y_WP:	0.000	Y_WP:	-0.100	X:	0.031	Y:	0.022	Z:	0.049	yaw:	-3.565	yaw rate:	2.702	Roll:	1.240	Pitch:	1.041	Yaw:	-7.427	Thrust:	0.000
Time:	1.149	Roll Set Point:	-0.060	Pitch Set Point:	-0.046	Yaw Set Point:	0.062	X_WP:	0.000	Y_WP:	0.000	Y_WP:	-0.100	X:	0.030	Y:	0.022	Z:	0.049	yaw:	-3.580	yaw rate:	-1.517	Roll:	0.812	Pitch:	0.668	Yaw:	-6.477	Thrust:	0.000
Time:	1.160	Roll Set Point:	-0.060	Pitch Set Point:	-0.046	Yaw Set Point:	0.062	X_WP:	0.000	Y_WP:	0.000	Y_WP:	-0.100	X:	0.030	Y:	0.022	Z:	0.049	yaw:	-3.566	yaw rate:	-1.340	Roll:	0.788	Pitch:	0.653	Yaw:	-5.750	Thrust:	0.000
Time:	1.170	Roll Set Point:	-0.060	Pitch Set Point:	-0.046	Yaw Set Point:	0.062	X_WP:	0.000	Y_WP:	0.000	Y_WP:	-0.100	X:	0.031	Y:	0.022	Z:	0.049	yaw:	-3.556	yaw rate:	-1.087	Roll:	0.835	Pitch:	0.694	Yaw:	-5.810	Thrust:	0.000
Time:	1.183	Roll Set Point:	-0.060	Pitch Set Point:	-0.046	Yaw Set Point:	0.062	X_WP:	0.000	Y_WP:	0.000	Y_WP:	-0.100	X:	0.031	Y:	0.022	Z:	0.049	yaw:	-3.559	yaw rate:	0.310	Roll:	0.954	Pitch:	0.762	Yaw:	-6.396	Thrust:	0.000
Time:	1.207	Roll Set Point:	-0.060	Pitch Set Point:	-0.046	Yaw Set Point:	0.063	X_WP:	0.000	Y_WP:	0.000	Y_WP:	-0.100	X:	0.030	Y:	0.022	Z:	0.049	yaw:	-3.596	yaw rate:	3.729	Roll:	1.386	Pitch:	1.151	Yaw:	-7.950	Thrust:	0.000
Time:	1.218	Roll Set Point:	-0.060	Pitch Set Point:	-0.046	Yaw Set Point:	0.062	X_WP:	0.000	Y_WP:	0.000	Y_WP:	-0.100	X:	0.031	Y:	0.022	Z:	0.049	yaw:	-3.534	yaw rate:	-6.513	Roll:	0.963	Pitch:	0.799	Yaw:	-4.847	Thrust:	0.000
Time:	1.228	Roll Set Point:	-0.060	Pitch Set Point:	-0.046	Yaw Set Point:	0.062	X_WP:	0.000	Y_WP:	0.000	Y_WP:	-0.100	X:	0.031	Y:	0.022	Z:	0.049	yaw:	-3.568	yaw rate:	3.328	Roll:	0.811	Pitch:	0.641	Yaw:	-6.964	Thrust:	0.000
Time:	1.239	Roll Set Point:	-0.060	Pitch Set Point:	-0.046	Yaw Set Point:	0.062	X_WP:	0.000	Y_WP:	0.000	Y_WP:	-0.100	X:	0.030	Y:	0.022	Z:	0.049	yaw:	-3.565	yaw rate:	-0.271	Roll:	0.803	Pitch:	0.693	Yaw:	-6.154	Thrust:	0.000
Time:	1.251	Roll Set Point:	-0.060	Pitch Set Point:	-0.046	Yaw Set Point:	0.062	X_WP:	0.000	Y_WP:	0.000	Y_WP:	-0.100	X:	0.030	Y:	0.022	Z:	0.049	yaw:	-3.573	yaw rate:	0.765	Roll:	0.929	Pitch:	0.758	Yaw:	-6.475	Thrust:	0.000
Time:	1.272	Roll Set Point:	-0.060	Pitch Set Point:	-0.046	Yaw Set Point:	0.063	X_WP:	0.000	Y_WP:	0.000	Y_WP:	-0.100	X:	0.031	Y:	0.022	Z:	0.049	yaw:	-3.581	yaw rate:	0.883	Roll:	1.376	Pitch:	1.150	Yaw:	-7.529	Thrust:	0.000
Time:	1.283	Roll Set Point:	-0.060	Pitch Set Point:	-0.046	Yaw Set Point:	0.062	X_WP:	0.000	Y_WP:	0.000	Y_WP:	-0.100	X:	0.030	Y:	0.022	Z:	0.049	yaw:	-3.562	yaw rate:	-3.166	Roll:	0.924	Pitch:	0.742	Yaw:	-5.804	Thrust:	0.000
Time:	1.294	Roll Set Point:	-0.060	Pitch Set Point:	-0.046	Yaw Set Point:	0.063	X_WP:	0.000	Y_WP:	0.000	Y_WP:	-0.100	X:	0.030	Y:	0.022	Z:	0.049	yaw:	-3.595	yaw rate:	3.251	Roll:	0.885	Pitch:	0.750	Yaw:	-7.111	Thrust:	0.000
Time:	1.305	Roll Set Point:	-0.060	Pitch Set Point:	-0.046	Yaw Set Point:	0.062	X_WP:	0.000	Y_WP:	0.000	Y_WP:	-0.100	X:	0.030	Y:	0.022	Z:	0.049	yaw:	-3.572	yaw rate:	-2.298	Roll:	0.923	Pitch:	0.724	Yaw:	-5.748	Thrust:	0.000
Time:	1.318	Roll Set Point:	-0.060	Pitch Set Point:	-0.046	Yaw Set Point:	0.063	X_WP:	0.000	Y_WP:	0.000	Y_WP:	-0.100	X:	0.030	Y:	0.022	Z:	0.049	yaw:	-3.583	yaw rate:	1.133	Roll:	0.962	Pitch:	0.808	Yaw:	-6.747	Thrust:	0.000
Time:	1.339	Roll Set Point:	-0.060	Pitch Set Point:	-0.046	Yaw Set Point:	0.063	X_WP:	0.000	Y_WP:	0.000	Y_WP:	-0.100	X:	0.031	Y:	0.022	Z:	0.049	yaw:	-3.594	yaw rate:	1.113	Roll:	1.518	Pitch:	1.247	Yaw:	-7.709	Thrust:	0.000
Time:	1.350	Roll Set Point:	-0.060	Pitch Set Point:	-0.046	Yaw Set Point:	0.062	X_WP:	0.000	Y_WP:	0.000	Y_WP:	-0.100	X:	0.031	Y:	0.022	Z:	0.049	yaw:	-3.556	yaw rate:	-0.969	Roll:	0.890	Pitch:	0.725	Yaw:	-5.429	Thrust:	0.000
Time:	1.360	Roll Set Point:	-0.060	Pitch Set Point:	-0.046	Yaw Set Point:	0.062	X_WP:	0.000	Y_WP:	0.000	Y_WP:	-0.100	X:	0.031	Y:	0.022	Z:	0.049	yaw:	-3.574	yaw rate:	1.746	Roll:	0.940	Pitch:	0.785	Yaw:	-6.725	Thrust:	0.000
Time:	1.371	Roll Set Point:	-0.060	Pitch Set Point:	-0.046	Yaw Set Point:	0.062	X_WP:	0.000	Y_WP:	0.000	Y_WP:	-0.100	X:	0.030	Y:	0.022	Z:	0.049	yaw:	-3.562	yaw rate:	-1.177	Roll:	0.879	Pitch:	0.714	Yaw:	-6.042	Thrust:	0.000
Time:	1.387	Roll Set Point:	-0.060	Pitch Set Point:	-0.046	Yaw Set Point:	0.062	X_WP:	0.000	Y_WP:	0.000	Y_WP:	-0.100	X:	0.030	Y:	0.022	Z:	0.049	yaw:	-3.558	yaw rate:	-0.361	Roll:	1.185	Pitch:	0.964	Yaw:	-6.871	Thrust:	0.000
Time:	1.405	Roll Set Point:	-0.060	Pitch Set Point:	-0.046	Yaw Set Point:	0.062	X_WP:	0.000	Y_WP:	0.000	Y_WP:	-0.100	X:	0.031	Y:	0.022	Z:	0.049	yaw:	-3.572	yaw rate:	-0.926	Roll:	1.402	Pitch:	1.191	Yaw:	-7.547	Thrust:	0.000
Time:	1.417	Roll Set Point:	-0.060	Pitch Set Point:	-0.046	Yaw Set Point:	0.062	X_WP:	0.000	Y_WP:	0.000	Y_WP:	-0.100	X:	0.030	Y:	0.022	Z:	0.049	yaw:	-3.564	yaw rate:	-0.841	Roll:	1.046	Pitch:	0.838	Yaw:	-6.321	Thrust:	0.000
Time:	1.428	Roll Set Point:	-0.060	Pitch Set Point:	-0.046	Yaw Set Point:	0.062	X_WP:	0.000	Y_WP:	0.000	Y_WP:	-0.100	X:	0.030	Y:	0.022	Z:	0.049	yaw:	-3.566	yaw rate:	0.198	Roll:	0.900	Pitch:	0.719	Yaw:	-6.396	Thrust:	0.000
Time:	1.438	Roll Set Point:	-0.060	Pitch Set Point:	-0.046	Yaw Set Point:	0.062	X_WP:	0.000	Y_WP:	0.000	Y_WP:	-0.100	X:	0.031	Y:	0.022	Z:	0.049	yaw:	-3.575	yaw rate:	0.939	Roll:	0.938	Pitch:	0.780	Yaw:	-6.552	Thrust:	0.000
Time:	1.449	Roll Set Point:	-0.060	Pitch Set Point:	-0.046	Yaw Set Point:	0.062	X_WP:	0.000	Y_WP:	0.000	Y_WP:	-0.100	X:	0.031	Y:	0.022	Z:	0.049	yaw:	-3.565	yaw rate:	-0.985	Roll:	0.977	Pitch:	0.788	Yaw:	-6.205	Thrust:	0.000
Time:	1.472	Roll Set Point:	-0.060	Pitch Set Point:	-0.046	Yaw Set Point:	0.063	X_WP:	0.000	Y_WP:	0.000	Y_WP:	-0.100	X:	0.031	Y:	0.022	Z:	0.049	yaw:	-3.582	yaw rate:	1.689	Roll:	1.002	Pitch:	0.882	Yaw:	-8.149	Thrust:	0.000
Time:	1.483	Roll Set Point:	-0.060	Pitch Set Point:	-0.046	Yaw Set Point:	0.062	X_WP:	0.000	Y_WP:	0.000	Y_WP:	-0.100	X:	0.031	Y:	0.022	Z:	0.049	yaw:	-3.555	yaw rate:	-4.465	Roll:	1.724	Pitch:	1.367	Yaw:	-6.006	Thrust:	0.000
Time:	1.495	Roll Set Point:	-0.060	Pitch Set Point:	-0.046	Yaw Set Point:	0.062	X_WP:	0.000	Y_WP:	0.000	Y_WP:	-0.100	X:	0.031	Y:	0.022	Z:	0.049	yaw:	-3.572	yaw rate:	1.754	Roll:	0.975	Pitch:	0.814	Yaw:	-6.953	Thrust:	0.000
Time:	1.505	Roll Set Point:	-0.060	Pitch Set Point:	-0.046	Yaw Set Point:	0.063	X_WP:	0.000	Y_WP:	0.000	Y_WP:	-0.100	X:	0.030	Y:	0.022	Z:	0.049	yaw:	-3.600	yaw rate:	2.792	Roll:	0.929	Pitch:	0.798	Yaw:	-7.165	Thrust:	0.000
Time:	1.518	Roll Set Point:	-0.060	Pitch Set Point:	-0.046	Yaw Set Point:	0.062	X_WP:	0.000	Y_WP:	0.000	Y_WP:	-0.100	X:	0.031	Y:	0.022	Z:	0.049	yaw:	-3.537	yaw rate:	-6.286	Roll:	1.150	Pitch:	0.900	Yaw:	-5.496	Thrust:	0.000
Time:	1.539	Roll Set Point:	-0.060	Pitch Set Point:	-0.046	Yaw Set Point:	0.062	X_WP:	0.000	Y_WP:	0.000	Y_WP:	-0.100	X:	0.031	Y:	0.022	Z:	0.049	yaw:	-3.580	yaw rate:	4.247	Roll:	1.650	Pitch:	1.398	Yaw:	-8.413	Thrust:	0.000
Time:	1.550	Roll Set Point:	-0.060	Pitch Set Point:	-0.046	Yaw Set Point:	0.063	X_WP:	0.000	Y_WP:	0.000	Y_WP:	-0.100	X:	0.030	Y:	0.022	Z:	0.049	yaw:	-3.601	yaw rate:	2.825	Roll:	1.006	Pitch:	0.817	Yaw:	-7.060	Thrust:	0.000
Time:	1.560	Roll Set Point:	-0.060	Pitch Set Point:	-0.046	Yaw Set Point:	0.063	X_WP:	0.000	Y_WP:	0.000	Y_WP:	-0.100	X:	0.031	Y:	0.022	Z:	0.049	yaw:	-3.584	yaw rate:	-1.636	Roll:	0.979	Pitch:	0.825	Yaw:	-6.095	Thrust:	0.000
Time:	1.572	Roll Set Point:	-0.060	Pitch Set Point:	-0.046	Yaw Set Point:	0.063	X_WP:	0.000	Y_WP:	0.000	Y_WP:	-0.100	X:	0.031	Y:	0.022	Z:	0.049	yaw:	-3.591	yaw rate:	0.648	Roll:	1.099	Pitch:	0.871	Yaw:	-6.877	Thrust:	0.000
Time:	1.584	Roll Set Point:	-0.060	Pitch Set Point:	-0.046	Yaw Set Point:	0.062	X_WP:	0.000	Y_WP:	0.000	Y_WP:	-0.100	X:	0.030	Y:	0.022	Z:	0.049	yaw:	-3.580	yaw rate:	-1.093	Roll:	1.017	Pitch:	0.905	Yaw:	-6.434	Thrust:	0.000
Time:	1.606	Roll Set Point:	-0.060	Pitch Set Point:	-0.046	Yaw Set Point:	0.062	X_WP:	0.000	Y_WP:	0.000	Y_WP:	-0.100	X:	0.031	Y:	0.022	Z:	0.049	yaw:	-3.552	yaw rate:	-2.772	Roll:	1.776	Pitch:	1.475	Yaw:	-7.933	Thrust:	0.000
Time:	1.617	Roll Set Point:	-0.060	Pitch Set Point:	-0.046	Yaw Set Point:	0.062	X_WP:	0.000	Y_WP:	0.000	Y_WP:	-0.100	X:	0.030	Y:	0.022	Z:	0.049	yaw:	-3.576	yaw rate:	6.777	Roll:	1.126	Pitch:	0.859	Yaw:	-7.159	Thrust:	0.000
Time:	1.628	Roll Set Point:	-0.060	Pitch Set Point:	-0.046	Yaw Set Point:	0.062	X_WP:	0.000	Y_WP:	0.000	Y_WP:	-0.100	X:	0.030	Y:	0.022	Z:	0.049	yaw:	-3.566	yaw rate:	-1.065	Roll:	0.976	Pitch:	0.819	Yaw:	-6.278	Thrust:	0.000
Time:	1.639	Roll Set Point:	-0.060	Pitch Set Point:	-0.046	Yaw Set Point:	0.063	X_WP:	0.000	Y_WP:	0.000	Y_WP:	-0.100	X:	0.030	Y:	0.022	Z:	0.049	yaw:	-3.601	yaw rate:	3.495	Roll:	1.016	Pitch:	0.867	Yaw:	-7.472	Thrust:	0.000
Time:	1.651	Roll Set Point:	-0.060	Pitch Set Point:	-0.046	Yaw Set Point:	0.063	X_WP:	0.000	Y_WP:	0.000	Y_WP:	-0.100	X:	0.030	Y:	0.022	Z:	0.049	yaw:	-3.599	yaw rate:	-0.138	Roll:	1.076	Pitch:	0.985	Yaw:	-6.911	Thrust:	0.000
Time:	1.673	Roll Set Point:	-0.060	Pitch Set Point:	-0.046	Yaw Set Point:	0.062	X_WP:	0.000	Y_WP:	0.000	Y_WP:	-0.100	X:	0.031	Y:	0.022	Z:	0.049	yaw:	-3.567	yaw rate:	-3.216	Roll:	1.889	Pitch:	1.507	Yaw:	-7.876	Thrust:	0.000
Time:	1.684	Roll Set Point:	-0.060	Pitch Set Point:	-0.046	Yaw Set Point:	0.062	X_WP:	0.000	Y_WP:	0.000	Y_WP:	-0.100	X:	0.031	Y:	0.022	Z:	0.049	yaw:	-3.546	yaw rate:	-1.969	Roll:	1.179	Pitch:	0.873	Yaw:	-6.143	Thrust:	0.000
Time:	1.695	Roll Set Point:	-0.060	Pitch Set Point:	-0.046	Yaw Set Point:	0.062	X_WP:	0.000	Y_WP:	0.000	Y_WP:	-0.100	X:	0.030	Y:	0.022	Z:	0.049	yaw:	-3.575	yaw rate:	2.985	Roll:	1.061	Pitch:	0.932	Yaw:	-7.454	Thrust:	0.000
Time:	1.706	Roll Set Point:	-0.060	Pitch Set Point:	-0.046	Yaw Set Point:	0.062	X_WP:	0.000	Y_WP:	0.000	Y_WP:	-0.100	X:	0.031	Y:	0.022	Z:	0.049	yaw:	-3.566	yaw rate:	-0.948	Roll:	1.078	Pitch:	0.864	Yaw:	-6.382	Thrust:	0.000
Time:	1.719	Roll Set Point:	-0.060	Pitch Set Point:	-0.046	Yaw Set Point:	0.062	X_WP:	0.000	Y_WP:	0.000	Y_WP:	-0.100	X:	0.031	Y:	0.022	Z:	0.049	yaw:	-3.568	yaw rate:	0.189	Roll:	1.294	Pitch:	1.039	Yaw:	-7.077	Thrust:	0.000
Time:	1.739	Roll Set Point:	-0.060	Pitch Set Point:	-0.046	Yaw Set Point:	0.062	X_WP:	0.000	Y_WP:	0.000	Y_WP:	-0.100	X:	0.031	Y:	0.022	Z:	0.049	yaw:	-3.569	yaw rate:	0.135	Roll:	1.611	Pitch:	1.389	Yaw:	-8.106	Thrust:	0.000
Time:	1.750	Roll Set Point:	-0.060	Pitch Set Point:	-0.046	Yaw Set Point:	0.062	X_WP:	0.000	Y_WP:	0.000	Y_WP:	-0.100	X:	0.030	Y:	0.022	Z:	0.049	yaw:	-3.580	yaw rate:	3.349	Roll:	1.242	Pitch:	0.963	Yaw:	-7.072	Thrust:	0.000
Time:	1.760	Roll Set Point:	-0.060	Pitch Set Point:	-0.046	Yaw Set Point:	0.062	X_WP:	0.000	Y_WP:	0.000	Y_WP:	-0.100	X:	0.031	Y:	0.022	Z:	0.049	yaw:	-3.556	yaw rate:	-2.341	Roll:	1.086	Pitch:	0.877	Yaw:	-5.968	Thrust:	0.000
Time:	1.771	Roll Set Point:	-0.060	Pitch Set Point:	-0.046	Yaw Set Point:	0.062	X_WP:	0.000	Y_WP:	0.000	Y_WP:	-0.100	X:	0.030	Y:	0.022	Z:	0.049	yaw:	-3.554	yaw rate:	-0.182	Roll:	1.084	Pitch:	0.921	Yaw:	-6.764	Thrust:	0.000
Time:	1.782	Roll Set Point:	-0.060	Pitch Set Point:	-0.046	Yaw Set Point:	0.063	X_WP:	0.000	Y_WP:	0.000	Y_WP:	-0.100	X:	0.030	Y:	0.022	Z:	0.049	yaw:	-3.600	yaw rate:	4.519	Roll:	1.152	Pitch:	0.960	Yaw:	-7.897	Thrust:	0.000
Time:	1.802	Roll Set Point:	-0.060	Pitch Set Point:	-0.046	Yaw Set Point:	0.063	X_WP:	0.000	Y_WP:	0.000	Y_WP:	-0.100	X:	0.031	Y:	0.022	Z:	0.049	yaw:	-3.590	yaw rate:	-1.010	Roll:	1.415	Pitch:	1.208	Yaw:	-8.099	Thrust:	0.000
Time:	1.814	Roll Set Point:	-0.060	Pitch Set Point:	-0.046	Yaw Set Point:	0.062	X_WP:	0.000	Y_WP:	0.000	Y_WP:	-0.100	X:	0.030	Y:	0.022	Z:	0.049	yaw:	-3.559	yaw rate:	-1.553	Roll:	1.612	Pitch:	1.171	Yaw:	-6.304	Thrust:	0.000
Time:	1.824	Roll Set Point:	-0.060	Pitch Set Point:	-0.046	Yaw Set Point:	0.062	X_WP:	0.000	Y_WP:	0.000	Y_WP:	-0.100	X:	0.030	Y:	0.022	Z:	0.049	yaw:	-3.571	yaw rate:	1.289	Roll:	1.055	Pitch:	0.874	Yaw:	-7.001	Thrust:	0.000
Time:	1.834	Roll Set Point:	-0.060	Pitch Set Point:	-0.046	Yaw Set Point:	0.063	X_WP:	0.000	Y_WP:	0.000	Y_WP:	-0.100	X:	0.031	Y:	0.022	Z:	0.049	yaw:	-3.592	yaw rate:	2.054	Roll:	1.102	Pitch:	0.889	Yaw:	-7.299	Thrust:	0.000
Time:	1.848	Roll Set Point:	-0.060	Pitch Set Point:	-0.046	Yaw Set Point:	0.063	X_WP:	0.000	Y_WP:	0.000	Y_WP:	-0.100	X:	0.031	Y:	0.022	Z:	0.049	yaw:	-3.594	yaw rate:	0.164	Roll:	1.157	Pitch:	0.983	Yaw:	-7.194	Thrust:	0.000
Time:	1.873	Roll Set Point:	-0.060	Pitch Set Point:	-0.046	Yaw Set Point:	0.062	X_WP:	0.000	Y_WP:	0.000	Y_WP:	-0.100	X:	0.030	Y:	0.022	Z:	0.049	yaw:	-3.569	yaw rate:	-2.464	Roll:	1.521	Pitch:	1.319	Yaw:	-9.193	Thrust:	0.000
Time:	1.884	Roll Set Point:	-0.060	Pitch Set Point:	-0.046	Yaw Set Point:	0.062	X_WP:	0.000	Y_WP:	0.000	Y_WP:	-0.100	X:	0.030	Y:	0.022	Z:	0.049	yaw:	-3.570	yaw rate:	-1.669	Roll:	2.150	Pitch:	1.698	Yaw:	-6.856	Thrust:	0.000
Time:	1.894	Roll Set Point:	-0.060	Pitch Set Point:	-0.046	Yaw Set Point:	0.062	X_WP:	0.000	Y_WP:	0.000	Y_WP:	-0.100	X:	0.031	Y:	0.022	Z:	0.049	yaw:	-3.577	yaw rate:	0.635	Roll:	1.125	Pitch:	0.916	Yaw:	-6.978	Thrust:	0.000
Time:	1.905	Roll Set Point:	-0.060	Pitch Set Point:	-0.046	Yaw Set Point:	0.062	X_WP:	0.000	Y_WP:	0.000	Y_WP:	-0.100	X:	0.031	Y:	0.022	Z:	0.049	yaw:	-3.570	yaw rate:	-0.636	Roll:	1.169	Pitch:	0.956	Yaw:	-6.667	Thrust:	0.000
Time:	1.916	Roll Set Point:	-0.060	Pitch Set Point:	-0.046	Yaw Set Point:	0.063	X_WP:	0.000	Y_WP:	0.000	Y_WP:	-0.100	X:	0.030	Y:	0.022	Z:	0.049	yaw:	-3.586	yaw rate:	1.593	Roll:	1.219	Pitch:	1.030	Yaw:	-7.377	Thrust:	0.000
Time:	1.938	Roll Set Point:	-0.060	Pitch Set Point:	-0.046	Yaw Set Point:	0.063	X_WP:	0.000	Y_WP:	0.000	Y_WP:	-0.100	X:	0.031	Y:	0.022	Z:	0.049	yaw:	-3.584	yaw rate:	-0.197	Roll:	1.890	Pitch:	1.590	Yaw:	-8.807	Thrust:	0.000
Time:	1.949	Roll Set Point:	-0.060	Pitch Set Point:	-0.046	Yaw Set Point:	0.062	X_WP:	0.000	Y_WP:	0.000	Y_WP:	-0.100	X:	0.031	Y:	0.022	Z:	0.049	yaw:	-3.558	yaw rate:	0.386	Roll:	1.418	Pitch:	1.112	Yaw:	-6.316	Thrust:	0.000
Time:	1.959	Roll Set Point:	-0.060	Pitch Set Point:	-0.046	Yaw Set Point:	0.062	X_WP:	0.000	Y_WP:	0.000	Y_WP:	-0.100	X:	0.031	Y:	0.022	Z:	0.049	yaw:	-3.546	yaw rate:	-1.239	Roll:	1.136	Pitch:	0.936	Yaw:	-6.429	Thrust:	0.000
Time:	1.969	Roll Set Point:	-0.060	Pitch Set Point:	-0.046	Yaw Set Point:	0.063	X_WP:	0.000	Y_WP:	0.000	Y_WP:	-0.100	X:	0.030	Y:	0.022	Z:	0.049	yaw:	-3.604	yaw rate:	5.805	Roll:	1.101	Pitch:	0.924	Yaw:	-8.386	Thrust:	0.000
Time:	1.981	Roll Set Point:	-0.060	Pitch Set Point:	-0.046	Yaw Set Point:	0.062	X_WP:	0.000	Y_WP:	0.000	Y_WP:	-0.100	X:	0.030	Y:	0.022	Z:	0.049	yaw:	-3.581	yaw rate:	-2.328	Roll:	1.220	Pitch:	1.001	Yaw:	-6.591	Thrust:	0.000
Time:	1.992	Roll Set Point:	-0.060	Pitch Set Point:	-0.046	Yaw Set Point:	0.062	X_WP:	0.000	Y_WP:	0.000	Y_WP:	-0.100	X:	0.031	Y:	0.022	Z:	0.049	yaw:	-3.559	yaw rate:	-2.225	Roll:	1.280	Pitch:	1.121	Yaw:	-6.464	Thrust:	0.000
Time:	2.006	Roll Set Point:	-0.060	Pitch Set Point:	-0.046	Yaw Set Point:	0.062	X_WP:	0.000	Y_WP:	0.000	Y_WP:	-0.100	X:	0.030	Y:	0.022	Z:	0.049	yaw:	-3.548	yaw rate:	-1.052	Roll:	1.487	Pitch:	1.183	Yaw:	-7.257	Thrust:	0.000
Time:	2.016	Roll Set Point:	-0.060	Pitch Set Point:	-0.046	Yaw Set Point:	0.062	X_WP:	0.000	Y_WP:	0.000	Y_WP:	-0.100	X:	0.031	Y:	0.022	Z:	0.049	yaw:	-3.559	yaw rate:	1.128	Roll:	1.284	Pitch:	1.005	Yaw:	-7.219	Thrust:	0.000
Time:	2.027	Roll Set Point:	-0.060	Pitch Set Point:	-0.046	Yaw Set Point:	0.062	X_WP:	0.000	Y_WP:	0.000	Y_WP:	-0.100	X:	0.031	Y:	0.022	Z:	0.049	yaw:	-3.562	yaw rate:	0.239	Roll:	1.149	Pitch:	0.974	Yaw:	-7.003	Thrust:	0.000
Time:	2.037	Roll Set Point:	-0.060	Pitch Set Point:	-0.046	Yaw Set Point:	0.062	X_WP:	0.000	Y_WP:	0.000	Y_WP:	-0.100	X:	0.031	Y:	0.022	Z:	0.049	yaw:	-3.565	yaw rate:	0.373	Roll:	1.231	Pitch:	1.014	Yaw:	-7.102	Thrust:	0.000
Time:	2.049	Roll Set Point:	-0.060	Pitch Set Point:	-0.046	Yaw Set Point:	0.063	X_WP:	0.000	Y_WP:	0.000	Y_WP:	-0.100	X:	0.031	Y:	0.022	Z:	0.049	yaw:	-3.586	yaw rate:	2.080	Roll:	1.235	Pitch:	1.020	Yaw:	-7.605	Thrust:	0.000
Time:	2.072	Roll Set Point:	-0.060	Pitch Set Point:	-0.046	Yaw Set Point:	0.062	X_WP:	0.000	Y_WP:	0.000	Y_WP:	-0.100	X:	0.031	Y:	0.022	Z:	0.049	yaw:	-3.569	yaw rate:	-1.756	Roll:	2.381	Pitch:	1.990	Yaw:	-9.288	Thrust:	0.000
Time:	2.083	Roll Set Point:	-0.060	Pitch Set Point:	-0.046	Yaw Set Point:	0.062	X_WP:	0.000	Y_WP:	0.000	Y_WP:	-0.100	X:	0.031	Y:	0.022	Z:	0.049	yaw:	-3.541	yaw rate:	-2.806	Roll:	1.356	Pitch:	1.063	Yaw:	-6.302	Thrust:	0.000
Time:	2.093	Roll Set Point:	-0.060	Pitch Set Point:	-0.046	Yaw Set Point:	0.063	X_WP:	0.000	Y_WP:	0.000	Y_WP:	-0.100	X:	0.030	Y:	0.022	Z:	0.049	yaw:	-3.587	yaw rate:	4.652	Roll:	1.133	Pitch:	1.000	Yaw:	-8.202	Thrust:	0.000
Time:	2.104	Roll Set Point:	-0.060	Pitch Set Point:	-0.046	Yaw Set Point:	0.062	X_WP:	0.000	Y_WP:	0.000	Y_WP:	-0.100	X:	0.031	Y:	0.022	Z:	0.049	yaw:	-3.553	yaw rate:	-4.721	Roll:	1.331	Pitch:	1.051	Yaw:	-6.305	Thrust:	0.000
Time:	2.116	Roll Set Point:	-0.060	Pitch Set Point:	-0.046	Yaw Set Point:	0.063	X_WP:	0.000	Y_WP:	0.000	Y_WP:	-0.100	X:	0.031	Y:	0.022	Z:	0.049	yaw:	-3.583	yaw rate:	2.935	Roll:	1.412	Pitch:	1.156	Yaw:	-7.980	Thrust:	0.000
Time:	2.138	Roll Set Point:	-0.060	Pitch Set Point:	-0.046	Yaw Set Point:	0.063	X_WP:	0.000	Y_WP:	0.000	Y_WP:	-0.100	X:	0.031	Y:	0.022	Z:	0.049	yaw:	-3.584	yaw rate:	0.118	Roll:	1.402	Pitch:	1.279	Yaw:	-9.080	Thrust:	0.000
Time:	2.150	Roll Set Point:	-0.060	Pitch Set Point:	-0.046	Yaw Set Point:	0.062	X_WP:	0.000	Y_WP:	0.000	Y_WP:	-0.100	X:	0.031	Y:	0.022	Z:	0.049	yaw:	-3.571	yaw rate:	-2.612	Roll:	2.302	Pitch:	1.764	Yaw:	-7.319	Thrust:	0.000
Time:	2.162	Roll Set Point:	-0.060	Pitch Set Point:	-0.046	Yaw Set Point:	0.063	X_WP:	0.000	Y_WP:	0.000	Y_WP:	-0.100	X:	0.030	Y:	0.022	Z:	0.049	yaw:	-3.584	yaw rate:	1.282	Roll:	1.299	Pitch:	1.112	Yaw:	-7.640	Thrust:	0.000
Time:	2.173	Roll Set Point:	-0.060	Pitch Set Point:	-0.046	Yaw Set Point:	0.062	X_WP:	0.000	Y_WP:	0.000	Y_WP:	-0.100	X:	0.031	Y:	0.022	Z:	0.049	yaw:	-3.578	yaw rate:	-0.546	Roll:	1.349	Pitch:	1.106	Yaw:	-7.056	Thrust:	0.000
Time:	2.185	Roll Set Point:	-0.060	Pitch Set Point:	-0.046	Yaw Set Point:	0.062	X_WP:	0.000	Y_WP:	0.000	Y_WP:	-0.100	X:	0.030	Y:	0.022	Z:	0.049	yaw:	-3.578	yaw rate:	-0.003	Roll:	1.363	Pitch:	1.111	Yaw:	-7.417	Thrust:	0.000
Time:	2.205	Roll Set Point:	-0.060	Pitch Set Point:	-0.046	Yaw Set Point:	0.062	X_WP:	0.000	Y_WP:	0.000	Y_WP:	-0.100	X:	0.031	Y:	0.022	Z:	0.049	yaw:	-3.557	yaw rate:	-2.133	Roll:	2.211	Pitch:	1.849	Yaw:	-8.703	Thrust:	0.000
Time:	2.215	Roll Set Point:	-0.060	Pitch Set Point:	-0.046	Yaw Set Point:	0.062	X_WP:	0.000	Y_WP:	0.000	Y_WP:	-0.100	X:	0.030	Y:	0.022	Z:	0.049	yaw:	-3.574	yaw rate:	-0.103	Roll:	1.327	Pitch:	1.069	Yaw:	-7.501	Thrust:	0.000
Time:	2.227	Roll Set Point:	-0.060	Pitch Set Point:	-0.046	Yaw Set Point:	0.062	X_WP:	0.000	Y_WP:	0.000	Y_WP:	-0.100	X:	0.031	Y:	0.022	Z:	0.049	yaw:	-3.564	yaw rate:	-1.059	Roll:	1.389	Pitch:	1.175	Yaw:	-7.042	Thrust:	0.000
Time:	2.238	Roll Set Point:	-0.060	Pitch Set Point:	-0.046	Yaw Set Point:	0.062	X_WP:	0.000	Y_WP:	0.000	Y_WP:	-0.100	X:	0.030	Y:	0.022	Z:	0.049	yaw:	-3.545	yaw rate:	-1.841	Roll:	1.317	Pitch:	1.107	Yaw:	-6.719	Thrust:	0.000
Time:	2.249	Roll Set Point:	-0.060	Pitch Set Point:	-0.046	Yaw Set Point:	0.063	X_WP:	0.000	Y_WP:	0.000	Y_WP:	-0.100	X:	0.030	Y:	0.022	Z:	0.049	yaw:	-3.610	yaw rate:	6.463	Roll:	1.340	Pitch:	1.083	Yaw:	-8.755	Thrust:	0.000
Time:	2.275	Roll Set Point:	-0.060	Pitch Set Point:	-0.046	Yaw Set Point:	0.063	X_WP:	0.000	Y_WP:	0.000	Y_WP:	-0.100	X:	0.031	Y:	0.022	Z:	0.049	yaw:	-3.592	yaw rate:	-1.828	Roll:	2.272	Pitch:	2.210	Yaw:	-10.047	Thrust:	0.000
Time:	2.286	Roll Set Point:	-0.060	Pitch Set Point:	-0.046	Yaw Set Point:	0.062	X_WP:	0.000	Y_WP:	0.000	Y_WP:	-0.100	X:	0.030	Y:	0.022	Z:	0.049	yaw:	-3.560	yaw rate:	-2.641	Roll:	1.967	Pitch:	1.270	Yaw:	-6.481	Thrust:	0.000
Time:	2.297	Roll Set Point:	-0.060	Pitch Set Point:	-0.046	Yaw Set Point:	0.062	X_WP:	0.000	Y_WP:	0.000	Y_WP:	-0.100	X:	0.031	Y:	0.022	Z:	0.049	yaw:	-3.572	yaw rate:	1.155	Roll:	1.431	Pitch:	1.185	Yaw:	-7.589	Thrust:	0.000
Time:	2.308	Roll Set Point:	-0.060	Pitch Set Point:	-0.046	Yaw Set Point:	0.062	X_WP:	0.000	Y_WP:	0.000	Y_WP:	-0.100	X:	0.030	Y:	0.022	Z:	0.049	yaw:	-3.574	yaw rate:	0.242	Roll:	1.355	Pitch:	1.141	Yaw:	-7.214	Thrust:	0.000
Time:	2.324	Roll Set Point:	-0.060	Pitch Set Point:	-0.046	Yaw Set Point:	0.062	X_WP:	0.000	Y_WP:	0.000	Y_WP:	-0.100	X:	0.031	Y:	0.022	Z:	0.049	yaw:	-3.560	yaw rate:	-1.399	Roll:	1.802	Pitch:	1.527	Yaw:	-7.818	Thrust:	0.000
Time:	2.340	Roll Set Point:	-0.060	Pitch Set Point:	-0.046	Yaw Set Point:	0.063	X_WP:	0.000	Y_WP:	0.000	Y_WP:	-0.100	X:	0.030	Y:	0.022	Z:	0.049	yaw:	-3.595	yaw rate:	3.458	Roll:	1.925	Pitch:	1.543	Yaw:	-8.874	Thrust:	0.000
Time:	2.351	Roll Set Point:	-0.060	Pitch Set Point:	-0.046	Yaw Set Point:	0.063	X_WP:	0.000	Y_WP:	0.000	Y_WP:	-0.100	X:	0.030	Y:	0.022	Z:	0.049	yaw:	-3.585	yaw rate:	-0.168	Roll:	1.460	Pitch:	1.171	Yaw:	-6.886	Thrust:	0.000
Time:	2.362	Roll Set Point:	-0.060	Pitch Set Point:	-0.046	Yaw Set Point:	0.062	X_WP:	0.000	Y_WP:	0.000	Y_WP:	-0.100	X:	0.030	Y:	0.022	Z:	0.049	yaw:	-3.570	yaw rate:	-1.536	Roll:	1.372	Pitch:	1.148	Yaw:	-6.945	Thrust:	0.000
Time:	2.373	Roll Set Point:	-0.060	Pitch Set Point:	-0.046	Yaw Set Point:	0.062	X_WP:	0.000	Y_WP:	0.000	Y_WP:	-0.100	X:	0.030	Y:	0.022	Z:	0.049	yaw:	-3.580	yaw rate:	1.037	Roll:	1.442	Pitch:	1.151	Yaw:	-7.413	Thrust:	0.000
Time:	2.386	Roll Set Point:	-0.060	Pitch Set Point:	-0.046	Yaw Set Point:	0.062	X_WP:	0.000	Y_WP:	0.000	Y_WP:	-0.100	X:	0.030	Y:	0.022	Z:	0.049	yaw:	-3.564	yaw rate:	-1.563	Roll:	1.553	Pitch:	1.371	Yaw:	-7.181	Thrust:	0.000
Time:	2.406	Roll Set Point:	-0.060	Pitch Set Point:	-0.046	Yaw Set Point:	0.062	X_WP:	0.000	Y_WP:	0.000	Y_WP:	-0.100	X:	0.031	Y:	0.022	Z:	0.049	yaw:	-3.577	yaw rate:	1.270	Roll:	2.336	Pitch:	1.863	Yaw:	-9.175	Thrust:	0.000
Time:	2.416	Roll Set Point:	-0.060	Pitch Set Point:	-0.046	Yaw Set Point:	0.063	X_WP:	0.000	Y_WP:	0.000	Y_WP:	-0.100	X:	0.030	Y:	0.022	Z:	0.049	yaw:	-3.588	yaw rate:	1.140	Roll:	1.488	Pitch:	1.208	Yaw:	-7.379	Thrust:	0.000
Time:	2.427	Roll Set Point:	-0.060	Pitch Set Point:	-0.046	Yaw Set Point:	0.063	X_WP:	0.000	Y_WP:	0.000	Y_WP:	-0.100	X:	0.031	Y:	0.022	Z:	0.049	yaw:	-3.599	yaw rate:	1.157	Roll:	1.379	Pitch:	1.166	Yaw:	-7.421	Thrust:	0.000
Time:	2.438	Roll Set Point:	-0.060	Pitch Set Point:	-0.046	Yaw Set Point:	0.062	X_WP:	0.000	Y_WP:	0.000	Y_WP:	-0.100	X:	0.031	Y:	0.022	Z:	0.049	yaw:	-3.553	yaw rate:	-4.640	Roll:	1.520	Pitch:	1.240	Yaw:	-6.214	Thrust:	0.000
Time:	2.451	Roll Set Point:	-0.060	Pitch Set Point:	-0.046	Yaw Set Point:	0.062	X_WP:	0.000	Y_WP:	0.000	Y_WP:	-0.100	X:	0.030	Y:	0.022	Z:	0.049	yaw:	-3.553	yaw rate:	-0.020	Roll:	1.506	Pitch:	1.197	Yaw:	-7.381	Thrust:	0.000
Time:	2.472	Roll Set Point:	-0.060	Pitch Set Point:	-0.046	Yaw Set Point:	0.062	X_WP:	0.000	Y_WP:	0.000	Y_WP:	-0.100	X:	0.031	Y:	0.022	Z:	0.049	yaw:	-3.553	yaw rate:	0.086	Roll:	2.339	Pitch:	2.018	Yaw:	-9.098	Thrust:	0.000
Time:	2.484	Roll Set Point:	-0.060	Pitch Set Point:	-0.046	Yaw Set Point:	0.062	X_WP:	0.000	Y_WP:	0.000	Y_WP:	-0.100	X:	0.030	Y:	0.022	Z:	0.049	yaw:	-3.577	yaw rate:	2.587	Roll:	1.841	Pitch:	1.451	Yaw:	-7.965	Thrust:	0.000
Time:	2.495	Roll Set Point:	-0.060	Pitch Set Point:	-0.046	Yaw Set Point:	0.063	X_WP:	0.000	Y_WP:	0.000	Y_WP:	-0.100	X:	0.030	Y:	0.022	Z:	0.049	yaw:	-3.607	yaw rate:	3.075	Roll:	1.482	Pitch:	1.257	Yaw:	-8.041	Thrust:	0.000
Time:	2.507	Roll Set Point:	-0.060	Pitch Set Point:	-0.046	Yaw Set Point:	0.062	X_WP:	0.000	Y_WP:	0.000	Y_WP:	-0.100	X:	0.031	Y:	0.022	Z:	0.049	yaw:	-3.566	yaw rate:	-4.143	Roll:	1.524	Pitch:	1.217	Yaw:	-6.201	Thrust:	0.000
Time:	2.523	Roll Set Point:	-0.059	Pitch Set Point:	-0.046	Yaw Set Point:	0.062	X_WP:	0.000	Y_WP:	0.000	Y_WP:	-0.100	X:	0.030	Y:	0.022	Z:	0.049	yaw:	-3.580	yaw rate:	1.363	Roll:	1.730	Pitch:	1.498	Yaw:	-8.634	Thrust:	0.000
Time:	2.541	Roll Set Point:	-0.060	Pitch Set Point:	-0.046	Yaw Set Point:	0.062	X_WP:	0.000	Y_WP:	0.000	Y_WP:	-0.100	X:	0.031	Y:	0.022	Z:	0.049	yaw:	-3.565	yaw rate:	-1.440	Roll:	2.618	Pitch:	2.059	Yaw:	-8.273	Thrust:	0.000
Time:	2.551	Roll Set Point:	-0.060	Pitch Set Point:	-0.046	Yaw Set Point:	0.063	X_WP:	0.000	Y_WP:	0.000	Y_WP:	-0.100	X:	0.031	Y:	0.022	Z:	0.049	yaw:	-3.596	yaw rate:	3.793	Roll:	1.484	Pitch:	1.233	Yaw:	-7.893	Thrust:	0.000
Time:	2.562	Roll Set Point:	-0.060	Pitch Set Point:	-0.046	Yaw Set Point:	0.062	X_WP:	0.000	Y_WP:	0.000	Y_WP:	-0.100	X:	0.031	Y:	0.022	Z:	0.049	yaw:	-3.555	yaw rate:	-4.059	Roll:	1.433	Pitch:	1.196	Yaw:	-6.065	Thrust:	0.000
Time:	2.573	Roll Set Point:	-0.060	Pitch Set Point:	-0.046	Yaw Set Point:	0.062	X_WP:	0.000	Y_WP:	0.000	Y_WP:	-0.100	X:	0.031	Y:	0.022	Z:	0.049	yaw:	-3.578	yaw rate:	2.253	Roll:	1.542	Pitch:	1.211	Yaw:	-7.714	Thrust:	0.000
Time:	2.585	Roll Set Point:	-0.060	Pitch Set Point:	-0.046	Yaw Set Point:	0.062	X_WP:	0.000	Y_WP:	0.000	Y_WP:	-0.100	X:	0.031	Y:	0.022	Z:	0.049	yaw:	-3.570	yaw rate:	-0.734	Roll:	1.540	Pitch:	1.368	Yaw:	-7.249	Thrust:	0.000
Time:	2.605	Roll Set Point:	-0.060	Pitch Set Point:	-0.046	Yaw Set Point:	0.062	X_WP:	0.000	Y_WP:	0.000	Y_WP:	-0.100	X:	0.030	Y:	0.022	Z:	0.049	yaw:	-3.562	yaw rate:	-0.787	Roll:	2.414	Pitch:	2.003	Yaw:	-8.785	Thrust:	0.000
Time:	2.615	Roll Set Point:	-0.060	Pitch Set Point:	-0.046	Yaw Set Point:	0.063	X_WP:	0.000	Y_WP:	0.000	Y_WP:	-0.100	X:	0.030	Y:	0.022	Z:	0.049	yaw:	-3.589	yaw rate:	1.295	Roll:	1.673	Pitch:	1.282	Yaw:	-7.824	Thrust:	0.000
Time:	2.625	Roll Set Point:	-0.059	Pitch Set Point:	-0.046	Yaw Set Point:	0.063	X_WP:	0.000	Y_WP:	0.000	Y_WP:	-0.100	X:	0.030	Y:	0.022	Z:	0.049	yaw:	-3.588	yaw rate:	-0.123	Roll:	1.412	Pitch:	1.198	Yaw:	-6.983	Thrust:	0.000
Time:	2.636	Roll Set Point:	-0.060	Pitch Set Point:	-0.046	Yaw Set Point:	0.063	X_WP:	0.000	Y_WP:	0.000	Y_WP:	-0.100	X:	0.030	Y:	0.022	Z:	0.049	yaw:	-3.582	yaw rate:	-0.544	Roll:	1.467	Pitch:	1.182	Yaw:	-7.006	Thrust:	0.000
Time:	2.648	Roll Set Point:	-0.060	Pitch Set Point:	-0.046	Yaw Set Point:	0.062	X_WP:	0.000	Y_WP:	0.000	Y_WP:	-0.100	X:	0.031	Y:	0.022	Z:	0.049	yaw:	-3.565	yaw rate:	-1.769	Roll:	1.595	Pitch:	1.373	Yaw:	-6.891	Thrust:	0.000
Time:	2.671	Roll Set Point:	-0.060	Pitch Set Point:	-0.046	Yaw Set Point:	0.062	X_WP:	0.000	Y_WP:	0.000	Y_WP:	-0.100	X:	0.030	Y:	0.022	Z:	0.049	yaw:	-3.566	yaw rate:	0.097	Roll:	2.014	Pitch:	2.239	Yaw:	-9.709	Thrust:	0.000
Time:	2.684	Roll Set Point:	-0.060	Pitch Set Point:	-0.046	Yaw Set Point:	0.062	X_WP:	0.000	Y_WP:	0.000	Y_WP:	-0.100	X:	0.031	Y:	0.022	Z:	0.049	yaw:	-3.562	yaw rate:	1.133	Roll:	2.734	Pitch:	1.585	Yaw:	-7.417	Thrust:	0.000
Time:	2.695	Roll Set Point:	-0.060	Pitch Set Point:	-0.046	Yaw Set Point:	0.062	X_WP:	0.000	Y_WP:	0.000	Y_WP:	-0.100	X:	0.030	Y:	0.022	Z:	0.049	yaw:	-3.551	yaw rate:	-1.112	Roll:	1.617	Pitch:	1.389	Yaw:	-6.903	Thrust:	0.000
Time:	2.706	Roll Set Point:	-0.060	Pitch Set Point:	-0.046	Yaw Set Point:	0.063	X_WP:	0.000	Y_WP:	0.000	Y_WP:	-0.100	X:	0.031	Y:	0.022	Z:	0.049	yaw:	-3.590	yaw rate:	3.862	Roll:	1.634	Pitch:	1.337	Yaw:	-8.172	Thrust:	0.000
Time:	2.718	Roll Set Point:	-0.060	Pitch Set Point:	-0.046	Yaw Set Point:	0.063	X_WP:	0.000	Y_WP:	0.000	Y_WP:	-0.100	X:	0.030	Y:	0.022	Z:	0.049	yaw:	-3.603	yaw rate:	1.310	Roll:	1.679	Pitch:	1.328	Yaw:	-7.635	Thrust:	0.000
Time:	2.739	Roll Set Point:	-0.060	Pitch Set Point:	-0.046	Yaw Set Point:	0.062	X_WP:	0.000	Y_WP:	0.000	Y_WP:	-0.100	X:	0.030	Y:	0.022	Z:	0.049	yaw:	-3.575	yaw rate:	-2.761	Roll:	2.772	Pitch:	2.294	Yaw:	-8.864	Thrust:	0.000
Time:	2.749	Roll Set Point:	-0.060	Pitch Set Point:	-0.046	Yaw Set Point:	0.062	X_WP:	0.000	Y_WP:	0.000	Y_WP:	-0.100	X:	0.031	Y:	0.022	Z:	0.049	yaw:	-3.561	yaw rate:	-1.639	Roll:	1.585	Pitch:	1.290	Yaw:	-6.744	Thrust:	0.000
Time:	2.760	Roll Set Point:	-0.060	Pitch Set Point:	-0.046	Yaw Set Point:	0.062	X_WP:	0.000	Y_WP:	0.000	Y_WP:	-0.100	X:	0.030	Y:	0.022	Z:	0.049	yaw:	-3.571	yaw rate:	1.041	Roll:	1.443	Pitch:	1.247	Yaw:	-7.353	Thrust:	0.000
Time:	2.771	Roll Set Point:	-0.059	Pitch Set Point:	-0.046	Yaw Set Point:	0.063	X_WP:	0.000	Y_WP:	0.000	Y_WP:	-0.100	X:	0.030	Y:	0.022	Z:	0.049	yaw:	-3.599	yaw rate:	2.731	Roll:	1.603	Pitch:	1.286	Yaw:	-7.880	Thrust:	0.000
Time:	2.784	Roll Set Point:	-0.060	Pitch Set Point:	-0.046	Yaw Set Point:	0.063	X_WP:	0.000	Y_WP:	0.000	Y_WP:	-0.100	X:	0.030	Y:	0.022	Z:	0.049	yaw:	-3.595	yaw rate:	-0.394	Roll:	1.829	Pitch:	1.487	Yaw:	-7.566	Thrust:	0.000
Time:	2.805	Roll Set Point:	-0.060	Pitch Set Point:	-0.046	Yaw Set Point:	0.063	X_WP:	0.000	Y_WP:	0.000	Y_WP:	-0.100	X:	0.030	Y:	0.022	Z:	0.049	yaw:	-3.588	yaw rate:	-0.693	Roll:	2.658	Pitch:	2.246	Yaw:	-9.039	Thrust:	0.000
Time:	2.816	Roll Set Point:	-0.060	Pitch Set Point:	-0.046	Yaw Set Point:	0.062	X_WP:	0.000	Y_WP:	0.000	Y_WP:	-0.100	X:	0.030	Y:	0.022	Z:	0.049	yaw:	-3.546	yaw rate:	-2.737	Roll:	1.870	Pitch:	1.476	Yaw:	-6.103	Thrust:	0.000
Time:	2.826	Roll Set Point:	-0.060	Pitch Set Point:	-0.046	Yaw Set Point:	0.062	X_WP:	0.000	Y_WP:	0.000	Y_WP:	-0.100	X:	0.031	Y:	0.022	Z:	0.049	yaw:	-3.571	yaw rate:	2.547	Roll:	1.511	Pitch:	1.230	Yaw:	-7.654	Thrust:	0.000
Time:	2.837	Roll Set Point:	-0.060	Pitch Set Point:	-0.046	Yaw Set Point:	0.062	X_WP:	0.000	Y_WP:	0.000	Y_WP:	-0.100	X:	0.031	Y:	0.022	Z:	0.049	yaw:	-3.563	yaw rate:	-0.838	Roll:	1.634	Pitch:	1.334	Yaw:	-6.956	Thrust:	0.000
Time:	2.848	Roll Set Point:	-0.060	Pitch Set Point:	-0.046	Yaw Set Point:	0.062	X_WP:	0.000	Y_WP:	0.000	Y_WP:	-0.100	X:	0.031	Y:	0.022	Z:	0.049	yaw:	-3.581	yaw rate:	1.817	Roll:	1.633	Pitch:	1.376	Yaw:	-7.785	Thrust:	0.000
Time:	2.871	Roll Set Point:	-0.059	Pitch Set Point:	-0.046	Yaw Set Point:	0.063	X_WP:	0.000	Y_WP:	0.000	Y_WP:	-0.100	X:	0.030	Y:	0.022	Z:	0.049	yaw:	-3.604	yaw rate:	2.349	Roll:	2.808	Pitch:	2.322	Yaw:	-9.540	Thrust:	0.000
Time:	2.882	Roll Set Point:	-0.059	Pitch Set Point:	-0.046	Yaw Set Point:	0.062	X_WP:	0.000	Y_WP:	0.000	Y_WP:	-0.100	X:	0.030	Y:	0.022	Z:	0.049	yaw:	-3.565	yaw rate:	-2.147	Roll:	2.057	Pitch:	1.677	Yaw:	-6.664	Thrust:	0.000
Time:	2.892	Roll Set Point:	-0.060	Pitch Set Point:	-0.046	Yaw Set Point:	0.062	X_WP:	0.000	Y_WP:	0.000	Y_WP:	-0.100	X:	0.030	Y:	0.022	Z:	0.049	yaw:	-3.570	yaw rate:	0.520	Roll:	1.555	Pitch:	1.270	Yaw:	-7.126	Thrust:	0.000
Time:	2.904	Roll Set Point:	-0.060	Pitch Set Point:	-0.046	Yaw Set Point:	0.063	X_WP:	0.000	Y_WP:	0.000	Y_WP:	-0.100	X:	0.030	Y:	0.022	Z:	0.049	yaw:	-3.581	yaw rate:	1.143	Roll:	1.694	Pitch:	1.393	Yaw:	-7.573	Thrust:	0.000
Time:	2.915	Roll Set Point:	-0.060	Pitch Set Point:	-0.046	Yaw Set Point:	0.062	X_WP:	0.000	Y_WP:	0.000	Y_WP:	-0.100	X:	0.031	Y:	0.022	Z:	0.049	yaw:	-3.580	yaw rate:	-0.110	Roll:	1.627	Pitch:	1.360	Yaw:	-7.177	Thrust:	0.000
Time:	2.927	Roll Set Point:	-0.060	Pitch Set Point:	-0.046	Yaw Set Point:	0.063	X_WP:	0.000	Y_WP:	0.000	Y_WP:	-0.100	X:	0.030	Y:	0.022	Z:	0.049	yaw:	-3.593	yaw rate:	1.248	Roll:	1.803	Pitch:	1.538	Yaw:	-7.696	Thrust:	0.000
Time:	2.941	Roll Set Point:	-0.060	Pitch Set Point:	-0.046	Yaw Set Point:	0.062	X_WP:	0.000	Y_WP:	0.000	Y_WP:	-0.100	X:	0.030	Y:	0.022	Z:	0.049	yaw:	-3.561	yaw rate:	-3.185	Roll:	2.069	Pitch:	1.699	Yaw:	-7.063	Thrust:	0.000
Time:	2.951	Roll Set Point:	-0.060	Pitch Set Point:	-0.046	Yaw Set Point:	0.062	X_WP:	0.000	Y_WP:	0.000	Y_WP:	-0.100	X:	0.031	Y:	0.022	Z:	0.049	yaw:	-3.552	yaw rate:	-0.888	Roll:	1.777	Pitch:	1.390	Yaw:	-6.893	Thrust:	0.000
Time:	2.963	Roll Set Point:	-0.060	Pitch Set Point:	-0.046	Yaw Set Point:	0.062	X_WP:	0.000	Y_WP:	0.000	Y_WP:	-0.100	X:	0.031	Y:	0.022	Z:	0.049	yaw:	-3.572	yaw rate:	2.020	Roll:	1.618	Pitch:	1.327	Yaw:	-7.674	Thrust:	0.000
Time:	2.973	Roll Set Point:	-0.060	Pitch Set Point:	-0.046	Yaw Set Point:	0.062	X_WP:	0.000	Y_WP:	0.000	Y_WP:	-0.100	X:	0.031	Y:	0.022	Z:	0.049	yaw:	-3.549	yaw rate:	-2.298	Roll:	1.744	Pitch:	1.442	Yaw:	-6.652	Thrust:	0.000
Time:	2.985	Roll Set Point:	-0.060	Pitch Set Point:	-0.046	Yaw Set Point:	0.062	X_WP:	0.000	Y_WP:	0.000	Y_WP:	-0.100	X:	0.030	Y:	0.022	Z:	0.049	yaw:	-3.569	yaw rate:	1.951	Roll:	1.826	Pitch:	1.529	Yaw:	-7.746	Thrust:	0.000
Time:	3.004	Roll Set Point:	-0.059	Pitch Set Point:	-0.046	Yaw Set Point:	0.062	X_WP:	0.000	Y_WP:	0.000	Y_WP:	-0.100	X:	0.030	Y:	0.022	Z:	0.049	yaw:	-3.577	yaw rate:	0.783	Roll:	2.702	Pitch:	2.224	Yaw:	-9.012	Thrust:	0.000
Time:	3.016	Roll Set Point:	-0.060	Pitch Set Point:	-0.046	Yaw Set Point:	0.062	X_WP:	0.000	Y_WP:	0.000	Y_WP:	1.000	X:	0.030	Y:	0.022	Z:	0.049	yaw:	-3.571	yaw rate:	-0.270	Roll:	1.884	Pitch:	1.534	Yaw:	-7.071	Thrust:	100.000
Time:	3.026	Roll Set Point:	-0.060	Pitch Set Point:	-0.046	Yaw Set Point:	0.063	X_WP:	0.000	Y_WP:	0.000	Y_WP:	1.000	X:	0.030	Y:	0.022	Z:	0.049	yaw:	-3.582	yaw rate:	1.092	Roll:	1.598	Pitch:	1.339	Yaw:	-7.292	Thrust:	53.119
Time:	3.037	Roll Set Point:	-0.060	Pitch Set Point:	-0.046	Yaw Set Point:	0.063	X_WP:	0.000	Y_WP:	0.000	Y_WP:	1.000	X:	0.030	Y:	0.022	Z:	0.049	yaw:	-3.592	yaw rate:	0.995	Roll:	1.684	Pitch:	1.377	Yaw:	-7.449	Thrust:	54.424
Time:	3.048	Roll Set Point:	-0.059	Pitch Set Point:	-0.046	Yaw Set Point:	0.064	X_WP:	0.000	Y_WP:	0.000	Y_WP:	1.000	X:	0.030	Y:	0.022	Z:	0.049	yaw:	-3.668	yaw rate:	7.611	Roll:	1.613	Pitch:	1.649	Yaw:	-9.140	Thrust:	55.837
Time:	3.071	Roll Set Point:	-0.059	Pitch Set Point:	-0.046	Yaw Set Point:	0.061	X_WP:	0.000	Y_WP:	0.000	Y_WP:	1.000	X:	0.030	Y:	0.022	Z:	0.049	yaw:	-3.511	yaw rate:	-15.714	Roll:	3.119	Pitch:	2.593	Yaw:	-7.597	Thrust:	62.160
Time:	3.082	Roll Set Point:	-0.059	Pitch Set Point:	-0.046	Yaw Set Point:	0.059	X_WP:	0.000	Y_WP:	0.000	Y_WP:	1.000	X:	0.030	Y:	0.022	Z:	0.049	yaw:	-3.394	yaw rate:	-11.698	Roll:	2.194	Pitch:	1.538	Yaw:	-4.549	Thrust:	58.522
Time:	3.092	Roll Set Point:	-0.059	Pitch Set Point:	-0.046	Yaw Set Point:	0.065	X_WP:	0.000	Y_WP:	0.000	Y_WP:	1.000	X:	0.030	Y:	0.022	Z:	0.049	yaw:	-3.697	yaw rate:	30.298	Roll:	1.492	Pitch:	1.516	Yaw:	-15.078	Thrust:	58.674
Time:	3.103	Roll Set Point:	-0.059	Pitch Set Point:	-0.046	Yaw Set Point:	0.059	X_WP:	0.000	Y_WP:	0.000	Y_WP:	1.000	X:	0.030	Y:	0.022	Z:	0.049	yaw:	-3.366	yaw rate:	-33.082	Roll:	1.919	Pitch:	1.169	Yaw:	1.407	Thrust:	60.327
Time:	3.113	Roll Set Point:	-0.059	Pitch Set Point:	-0.046	Yaw Set Point:	0.065	X_WP:	0.000	Y_WP:	0.000	Y_WP:	1.000	X:	0.030	Y:	0.022	Z:	0.049	yaw:	-3.726	yaw rate:	35.944	Roll:	1.552	Pitch:	1.570	Yaw:	-16.214	Thrust:	61.829
Time:	3.134	Roll Set Point:	-0.059	Pitch Set Point:	-0.046	Yaw Set Point:	0.062	X_WP:	0.000	Y_WP:	0.000	Y_WP:	1.000	X:	0.030	Y:	0.022	Z:	0.049	yaw:	-3.552	yaw rate:	-41.824	Roll:	2.144	Pitch:	1.678	Yaw:	-5.336	Thrust:	66.723
Time:	3.149	Roll Set Point:	-0.060	Pitch Set Point:	-0.046	Yaw Set Point:	0.058	X_WP:	0.000	Y_WP:	0.000	Y_WP:	1.000	X:	0.030	Y:	0.022	Z:	0.049	yaw:	-3.329	yaw rate:	-22.236	Roll:	3.453	Pitch:	2.789	Yaw:	-5.584	Thrust:	75.707
Time:	3.161	Roll Set Point:	-0.059	Pitch Set Point:	-0.046	Yaw Set Point:	0.060	X_WP:	0.000	Y_WP:	0.000	Y_WP:	1.000	X:	0.030	Y:	0.022	Z:	0.048	yaw:	-3.454	yaw rate:	12.490	Roll:	1.818	Pitch:	1.510	Yaw:	-9.947	Thrust:	67.641
Time:	3.175	Roll Set Point:	-0.060	Pitch Set Point:	-0.046	Yaw Set Point:	0.058	X_WP:	0.000	Y_WP:	0.000	Y_WP:	1.000	X:	0.031	Y:	0.022	Z:	0.049	yaw:	-3.312	yaw rate:	20.868	Roll:	2.241	Pitch:	1.478	Yaw:	-4.742	Thrust:	66.433
Time:	3.185	Roll Set Point:	-0.061	Pitch Set Point:	-0.046	Yaw Set Point:	0.045	X_WP:	0.000	Y_WP:	0.000	Y_WP:	1.000	X:	0.031	Y:	0.022	Z:	0.048	yaw:	-2.569	yaw rate:	-74.292	Roll:	2.358	Pitch:	1.436	Yaw:	13.694	Thrust:	71.910
Time:	3.205	Roll Set Point:	-0.061	Pitch Set Point:	-0.046	Yaw Set Point:	0.039	X_WP:	0.000	Y_WP:	0.000	Y_WP:	1.000	X:	0.031	Y:	0.022	Z:	0.049	yaw:	-2.213	yaw rate:	-35.561	Roll:	3.069	Pitch:	2.517	Yaw:	-2.468	Thrust:	83.200
Time:	3.215	Roll Set Point:	-0.061	Pitch Set Point:	-0.045	Yaw Set Point:	0.043	X_WP:	0.000	Y_WP:	0.000	Y_WP:	1.000	X:	0.031	Y:	0.022	Z:	0.049	yaw:	-2.466	yaw rate:	30.891	Roll:	2.099	Pitch:	1.182	Yaw:	-12.026	Thrust:	66.047
Time:	3.227	Roll Set Point:	-0.062	Pitch Set Point:	-0.045	Yaw Set Point:	0.032	X_WP:	0.000	Y_WP:	0.000	Y_WP:	1.000	X:	0.031	Y:	0.022	Z:	0.050	yaw:	-1.860	yaw rate:	-60.607	Roll:	2.118	Pitch:	1.254	Yaw:	8.844	Thrust:	70.562
Time:	3.238	Roll Set Point:	-0.062	Pitch Set Point:	-0.045	Yaw Set Point:	0.041	X_WP:	0.000	Y_WP:	0.000	Y_WP:	1.000	X:	0.032	Y:	0.022	Z:	0.051	yaw:	-2.346	yaw rate:	48.637	Roll:	2.011	Pitch:	1.571	Yaw:	-16.773	Thrust:	69.572
Time:	3.251	Roll Set Point:	-0.063	Pitch Set Point:	-0.044	Yaw Set Point:	0.034	X_WP:	0.000	Y_WP:	0.000	Y_WP:	1.000	X:	0.032	Y:	0.022	Z:	0.052	yaw:	-1.954	yaw rate:	-39.213	Roll:	2.274	Pitch:	1.586	Yaw:	2.875	Thrust:	73.607
Time:	3.271	Roll Set Point:	-0.063	Pitch Set Point:	-0.044	Yaw Set Point:	0.035	X_WP:	0.000	Y_WP:	0.000	Y_WP:	1.000	X:	0.032	Y:	0.022	Z:	0.054	yaw:	-2.012	yaw rate:	5.809	Roll:	3.193	Pitch:	2.440	Yaw:	-7.585	Thrust:	90.893
Time:	3.282	Roll Set Point:	-0.064	Pitch Set Point:	-0.043	Yaw Set Point:	0.028	X_WP:	0.000	Y_WP:	0.000	Y_WP:	1.000	X:	0.032	Y:	0.021	Z:	0.060	yaw:	-1.594	yaw rate:	-41.780	Roll:	2.410	Pitch:	1.143	Yaw:	5.439	Thrust:	51.038
Time:	3.292	Roll Set Point:	-0.064	Pitch Set Point:	-0.043	Yaw Set Point:	0.031	X_WP:	0.000	Y_WP:	0.000	Y_WP:	1.000	X:	0.032	Y:	0.021	Z:	0.063	yaw:	-1.757	yaw rate:	16.303	Roll:	2.045	Pitch:	1.343	Yaw:	-8.714	Thrust:	62.700
Time:	3.303	Roll Set Point:	-0.064	Pitch Set Point:	-0.043	Yaw Set Point:	0.029	X_WP:	0.000	Y_WP:	0.000	Y_WP:	1.000	X:	0.033	Y:	0.021	Z:	0.066	yaw:	-1.664	yaw rate:	-9.340	Roll:	1.904	Pitch:	1.161	Yaw:	-2.225	Thrust:	64.472
Time:	3.315	Roll Set Point:	-0.065	Pitch Set Point:	-0.042	Yaw Set Point:	0.031	X_WP:	0.000	Y_WP:	0.000	Y_WP:	1.000	X:	0.033	Y:	0.021	Z:	0.070	yaw:	-1.791	yaw rate:	12.672	Roll:	1.987	Pitch:	1.466	Yaw:	-7.669	Thrust:	68.412
Time:	3.329	Roll Set Point:	-0.065	Pitch Set Point:	-0.042	Yaw Set Point:	0.022	X_WP:	0.000	Y_WP:	0.000	Y_WP:	1.000	X:	0.033	Y:	0.021	Z:	0.074	yaw:	-1.273	yaw rate:	-51.768	Roll:	2.350	Pitch:	1.710	Yaw:	5.032	Thrust:	73.545
Time:	3.342	Roll Set Point:	-0.065	Pitch Set Point:	-0.042	Yaw Set Point:	0.021	X_WP:	0.000	Y_WP:	0.000	Y_WP:	1.000	X:	0.033	Y:	0.021	Z:	0.078	yaw:	-1.180	yaw rate:	-9.265	Roll:	2.586	Pitch:	1.724	Yaw:	-2.560	Thrust:	75.460
Time:	3.353	Roll Set Point:	-0.065	Pitch Set Point:	-0.041	Yaw Set Point:	0.019	X_WP:	0.000	Y_WP:	0.000	Y_WP:	1.000	X:	0.033	Y:	0.020	Z:	0.087	yaw:	-1.098	yaw rate:	-8.236	Roll:	2.325	Pitch:	1.056	Yaw:	-1.771	Thrust:	47.663
Time:	3.365	Roll Set Point:	-0.066	Pitch Set Point:	-0.041	Yaw Set Point:	0.020	X_WP:	0.000	Y_WP:	0.000	Y_WP:	1.000	X:	0.033	Y:	0.020	Z:	0.092	yaw:	-1.153	yaw rate:	5.524	Roll:	1.947	Pitch:	1.667	Yaw:	-5.220	Thrust:	67.880
Time:	3.377	Roll Set Point:	-0.066	Pitch Set Point:	-0.040	Yaw Set Point:	0.009	X_WP:	0.000	Y_WP:	0.000	Y_WP:	1.000	X:	0.033	Y:	0.020	Z:	0.098	yaw:	-0.520	yaw rate:	-63.275	Roll:	2.331	Pitch:	0.874	Yaw:	11.303	Thrust:	60.422
Time:	3.392	Roll Set Point:	-0.066	Pitch Set Point:	-0.039	Yaw Set Point:	0.012	X_WP:	0.000	Y_WP:	0.000	Y_WP:	1.000	X:	0.033	Y:	0.019	Z:	0.103	yaw:	-0.678	yaw rate:	15.815	Roll:	1.980	Pitch:	1.689	Yaw:	-6.704	Thrust:	82.417
Time:	3.406	Roll Set Point:	-0.066	Pitch Set Point:	-0.039	Yaw Set Point:	0.010	X_WP:	0.000	Y_WP:	0.000	Y_WP:	1.000	X:	0.033	Y:	0.019	Z:	0.109	yaw:	-0.556	yaw rate:	-12.200	Roll:	2.723	Pitch:	1.918	Yaw:	-1.490	Thrust:	77.666
Time:	3.416	Roll Set Point:	-0.066	Pitch Set Point:	-0.037	Yaw Set Point:	0.002	X_WP:	0.000	Y_WP:	0.000	Y_WP:	1.000	X:	0.033	Y:	0.019	Z:	0.120	yaw:	-0.101	yaw rate:	25.194	Roll:	2.278	Pitch:	0.948	Yaw:	8.447	Thrust:	42.622
Time:	3.428	Roll Set Point:	-0.066	Pitch Set Point:	-0.037	Yaw Set Point:	-0.002	X_WP:	0.000	Y_WP:	0.000	Y_WP:	1.000	X:	0.033	Y:	0.018	Z:	0.126	yaw:	0.094	yaw rate:	-19.548	Roll:	2.080	Pitch:	1.144	Yaw:	2.731	Thrust:	61.899
Time:	3.439	Roll Set Point:	-0.066	Pitch Set Point:	-0.036	Yaw Set Point:	-0.003	X_WP:	0.000	Y_WP:	0.000	Y_WP:	1.000	X:	0.033	Y:	0.018	Z:	0.133	yaw:	0.187	yaw rate:	-9.249	Roll:	1.875	Pitch:	1.092	Yaw:	0.052	Thrust:	62.207
Time:	3.456	Roll Set Point:	-0.066	Pitch Set Point:	-0.035	Yaw Set Point:	-0.011	X_WP:	0.000	Y_WP:	0.000	Y_WP:	1.000	X:	0.033	Y:	0.018	Z:	0.139	yaw:	0.616	yaw rate:	-42.952	Roll:	2.311	Pitch:	1.152	Yaw:	5.100	Thrust:	79.980
Time:	3.472	Roll Set Point:	-0.066	Pitch Set Point:	-0.035	Yaw Set Point:	-0.010	X_WP:	0.000	Y_WP:	0.000	Y_WP:	1.000	X:	0.033	Y:	0.017	Z:	0.145	yaw:	0.580	yaw rate:	3.628	Roll:	3.042	Pitch:	2.558	Yaw:	-3.237	Thrust:	100.000
Time:	3.484	Roll Set Point:	-0.065	Pitch Set Point:	-0.032	Yaw Set Point:	-0.015	X_WP:	0.000	Y_WP:	0.000	Y_WP:	1.000	X:	0.033	Y:	0.016	Z:	0.165	yaw:	0.847	yaw rate:	-57.442	Roll:	2.410	Pitch:	0.622	Yaw:	5.320	Thrust:	15.094
Time:	3.495	Roll Set Point:	-0.065	Pitch Set Point:	-0.032	Yaw Set Point:	-0.012	X_WP:	0.000	Y_WP:	0.000	Y_WP:	1.000	X:	0.032	Y:	0.016	Z:	0.172	yaw:	0.705	yaw rate:	14.193	Roll:	1.867	Pitch:	1.609	Yaw:	-4.532	Thrust:	65.937
Time:	3.506	Roll Set Point:	-0.065	Pitch Set Point:	-0.031	Yaw Set Point:	-0.011	X_WP:	0.000	Y_WP:	0.000	Y_WP:	1.000	X:	0.032	Y:	0.016	Z:	0.179	yaw:	0.621	yaw rate:	8.400	Roll:	1.897	Pitch:	1.061	Yaw:	-3.333	Thrust:	66.129
Time:	3.526	Roll Set Point:	-0.064	Pitch Set Point:	-0.030	Yaw Set Point:	-0.017	X_WP:	0.000	Y_WP:	0.000	Y_WP:	1.000	X:	0.032	Y:	0.015	Z:	0.185	yaw:	0.973	yaw rate:	-35.160	Roll:	2.009	Pitch:	1.353	Yaw:	3.349	Thrust:	83.797
Time:	3.541	Roll Set Point:	-0.064	Pitch Set Point:	-0.029	Yaw Set Point:	-0.017	X_WP:	0.000	Y_WP:	0.000	Y_WP:	1.000	X:	0.032	Y:	0.015	Z:	0.192	yaw:	0.984	yaw rate:	-1.146	Roll:	3.634	Pitch:	2.531	Yaw:	-2.042	Thrust:	100.000
Time:	3.553	Roll Set Point:	-0.063	Pitch Set Point:	-0.027	Yaw Set Point:	-0.024	X_WP:	0.000	Y_WP:	0.000	Y_WP:	1.000	X:	0.031	Y:	0.014	Z:	0.214	yaw:	1.373	yaw rate:	-67.968	Roll:	2.202	Pitch:	0.942	Yaw:	7.696	Thrust:	26.234
Time:	3.565	Roll Set Point:	-0.063	Pitch Set Point:	-0.026	Yaw Set Point:	-0.021	X_WP:	0.000	Y_WP:	0.000	Y_WP:	1.000	X:	0.031	Y:	0.013	Z:	0.220	yaw:	1.195	yaw rate:	17.849	Roll:	1.964	Pitch:	1.132	Yaw:	-4.592	Thrust:	69.151
