Time:	6.506	Roll Set Point:	0.000	Pitch Set Point:	0.000	Yaw Set Point:	0.000	X_WP:	0.073	Y_WP:	0.006	Y_WP:	0.500	X:	0.026	Y:	-0.012	Z:	0.402	yaw:	-103.165	yaw rate:	0.798	Roll:	-0.765	Pitch:	0.342	Yaw:	-0.000	Thrust:	5.394
Time:	6.566	Roll Set Point:	0.000	Pitch Set Point:	0.000	Yaw Set Point:	0.000	X_WP:	0.073	Y_WP:	0.006	Y_WP:	0.500	X:	0.026	Y:	-0.012	Z:	0.402	yaw:	-103.161	yaw rate:	-0.029	Roll:	-0.767	Pitch:	0.338	Yaw:	-0.000	Thrust:	6.082
Time:	6.626	Roll Set Point:	0.000	Pitch Set Point:	0.000	Yaw Set Point:	0.000	X_WP:	0.073	Y_WP:	0.006	Y_WP:	0.500	X:	0.026	Y:	-0.012	Z:	0.402	yaw:	-103.153	yaw rate:	-3.776	Roll:	-0.776	Pitch:	0.346	Yaw:	-0.000	Thrust:	6.817
Time:	6.687	Roll Set Point:	0.000	Pitch Set Point:	0.000	Yaw Set Point:	0.000	X_WP:	0.073	Y_WP:	0.006	Y_WP:	0.500	X:	0.026	Y:	-0.012	Z:	0.402	yaw:	-103.158	yaw rate:	-1.929	Roll:	-0.778	Pitch:	0.351	Yaw:	-0.000	Thrust:	7.556
Time:	6.746	Roll Set Point:	0.000	Pitch Set Point:	0.000	Yaw Set Point:	0.000	X_WP:	0.073	Y_WP:	0.006	Y_WP:	0.500	X:	0.026	Y:	-0.012	Z:	0.402	yaw:	-103.153	yaw rate:	1.082	Roll:	-0.780	Pitch:	0.352	Yaw:	-0.000	Thrust:	8.172
Time:	6.809	Roll Set Point:	0.000	Pitch Set Point:	0.000	Yaw Set Point:	0.000	X_WP:	0.073	Y_WP:	0.006	Y_WP:	0.500	X:	0.026	Y:	-0.012	Z:	0.402	yaw:	-103.214	yaw rate:	5.771	Roll:	-0.789	Pitch:	0.353	Yaw:	-0.000	Thrust:	9.063
Time:	6.876	Roll Set Point:	0.000	Pitch Set Point:	0.000	Yaw Set Point:	0.000	X_WP:	0.073	Y_WP:	0.006	Y_WP:	0.500	X:	0.026	Y:	-0.012	Z:	0.402	yaw:	-103.166	yaw rate:	0.084	Roll:	-0.791	Pitch:	0.350	Yaw:	-0.000	Thrust:	10.116
Time:	6.941	Roll Set Point:	0.000	Pitch Set Point:	0.000	Yaw Set Point:	0.000	X_WP:	0.073	Y_WP:	0.006	Y_WP:	0.500	X:	0.026	Y:	-0.012	Z:	0.402	yaw:	-103.175	yaw rate:	1.797	Roll:	-0.795	Pitch:	0.355	Yaw:	-0.000	Thrust:	10.820
Time:	7.013	Roll Set Point:	0.000	Pitch Set Point:	0.000	Yaw Set Point:	0.000	X_WP:	0.073	Y_WP:	0.006	Y_WP:	0.500	X:	0.026	Y:	-0.012	Z:	0.402	yaw:	-103.132	yaw rate:	-3.820	Roll:	-0.804	Pitch:	0.361	Yaw:	-0.000	Thrust:	12.100
Time:	7.081	Roll Set Point:	0.000	Pitch Set Point:	0.000	Yaw Set Point:	0.000	X_WP:	0.073	Y_WP:	0.006	Y_WP:	0.500	X:	0.026	Y:	-0.012	Z:	0.402	yaw:	-103.152	yaw rate:	-1.547	Roll:	-0.801	Pitch:	0.349	Yaw:	-0.000	Thrust:	12.593
Time:	7.151	Roll Set Point:	0.000	Pitch Set Point:	0.000	Yaw Set Point:	0.000	X_WP:	0.073	Y_WP:	0.006	Y_WP:	0.500	X:	0.026	Y:	-0.012	Z:	0.402	yaw:	-103.153	yaw rate:	1.027	Roll:	-0.811	Pitch:	0.366	Yaw:	-0.000	Thrust:	13.665
Time:	7.221	Roll Set Point:	0.000	Pitch Set Point:	0.000	Yaw Set Point:	0.000	X_WP:	0.073	Y_WP:	0.006	Y_WP:	0.500	X:	0.026	Y:	-0.012	Z:	0.402	yaw:	-103.176	yaw rate:	3.749	Roll:	-0.817	Pitch:	0.362	Yaw:	-0.000	Thrust:	14.534
Time:	7.289	Roll Set Point:	0.000	Pitch Set Point:	0.000	Yaw Set Point:	0.000	X_WP:	0.073	Y_WP:	0.006	Y_WP:	0.500	X:	0.026	Y:	-0.012	Z:	0.402	yaw:	-103.158	yaw rate:	-1.176	Roll:	-0.816	Pitch:	0.372	Yaw:	-0.000	Thrust:	14.945
Time:	7.359	Roll Set Point:	0.000	Pitch Set Point:	0.000	Yaw Set Point:	0.000	X_WP:	0.073	Y_WP:	0.006	Y_WP:	0.500	X:	0.026	Y:	-0.012	Z:	0.402	yaw:	-103.166	yaw rate:	0.158	Roll:	-0.827	Pitch:	0.362	Yaw:	-0.000	Thrust:	16.050
Time:	7.431	Roll Set Point:	0.000	Pitch Set Point:	0.000	Yaw Set Point:	0.000	X_WP:	0.073	Y_WP:	0.006	Y_WP:	0.500	X:	0.026	Y:	-0.012	Z:	0.402	yaw:	-103.172	yaw rate:	-0.707	Roll:	-0.833	Pitch:	0.377	Yaw:	-0.000	Thrust:	17.243
Time:	7.503	Roll Set Point:	0.000	Pitch Set Point:	0.000	Yaw Set Point:	0.000	X_WP:	0.073	Y_WP:	0.006	Y_WP:	0.500	X:	0.026	Y:	-0.012	Z:	0.402	yaw:	-103.168	yaw rate:	0.989	Roll:	-0.839	Pitch:	0.375	Yaw:	-0.000	Thrust:	17.985
Time:	7.580	Roll Set Point:	0.000	Pitch Set Point:	0.000	Yaw Set Point:	0.000	X_WP:	0.073	Y_WP:	0.006	Y_WP:	0.500	X:	0.026	Y:	-0.012	Z:	0.402	yaw:	-103.171	yaw rate:	-0.941	Roll:	-0.847	Pitch:	0.378	Yaw:	-0.000	Thrust:	20.030
Time:	7.655	Roll Set Point:	0.000	Pitch Set Point:	0.000	Yaw Set Point:	0.000	X_WP:	0.073	Y_WP:	0.006	Y_WP:	0.500	X:	0.026	Y:	-0.012	Z:	0.402	yaw:	-103.149	yaw rate:	-0.638	Roll:	-0.842	Pitch:	0.376	Yaw:	-0.000	Thrust:	20.446
Time:	7.732	Roll Set Point:	0.000	Pitch Set Point:	0.000	Yaw Set Point:	0.000	X_WP:	0.073	Y_WP:	0.006	Y_WP:	0.500	X:	0.026	Y:	-0.012	Z:	0.402	yaw:	-103.179	yaw rate:	1.375	Roll:	-0.859	Pitch:	0.381	Yaw:	-0.000	Thrust:	21.623
Time:	7.812	Roll Set Point:	0.000	Pitch Set Point:	0.000	Yaw Set Point:	0.000	X_WP:	0.073	Y_WP:	0.006	Y_WP:	0.500	X:	0.026	Y:	-0.012	Z:	0.402	yaw:	-103.159	yaw rate:	-2.093	Roll:	-0.863	Pitch:	0.389	Yaw:	-0.000	Thrust:	23.121
Time:	7.890	Roll Set Point:	0.000	Pitch Set Point:	0.000	Yaw Set Point:	0.000	X_WP:	0.073	Y_WP:	0.006	Y_WP:	0.500	X:	0.026	Y:	-0.012	Z:	0.402	yaw:	-103.188	yaw rate:	0.919	Roll:	-0.872	Pitch:	0.390	Yaw:	-0.000	Thrust:	23.863
Time:	7.973	Roll Set Point:	0.000	Pitch Set Point:	0.000	Yaw Set Point:	0.000	X_WP:	0.073	Y_WP:	0.006	Y_WP:	0.500	X:	0.026	Y:	-0.012	Z:	0.402	yaw:	-103.205	yaw rate:	5.699	Roll:	-0.885	Pitch:	0.394	Yaw:	-0.000	Thrust:	25.821
Time:	8.055	Roll Set Point:	0.000	Pitch Set Point:	0.000	Yaw Set Point:	0.000	X_WP:	0.073	Y_WP:	0.006	Y_WP:	0.500	X:	0.026	Y:	-0.012	Z:	0.402	yaw:	-103.133	yaw rate:	-3.377	Roll:	-0.883	Pitch:	0.397	Yaw:	-0.000	Thrust:	26.881
Time:	8.134	Roll Set Point:	0.000	Pitch Set Point:	0.000	Yaw Set Point:	0.000	X_WP:	0.073	Y_WP:	0.006	Y_WP:	0.500	X:	0.026	Y:	-0.012	Z:	0.402	yaw:	-103.154	yaw rate:	-1.900	Roll:	-0.883	Pitch:	0.394	Yaw:	-0.000	Thrust:	26.622
Time:	8.220	Roll Set Point:	0.000	Pitch Set Point:	0.000	Yaw Set Point:	0.000	X_WP:	0.073	Y_WP:	0.006	Y_WP:	0.500	X:	0.026	Y:	-0.012	Z:	0.402	yaw:	-103.200	yaw rate:	4.637	Roll:	-0.905	Pitch:	0.404	Yaw:	-0.000	Thrust:	29.904
Time:	8.305	Roll Set Point:	0.000	Pitch Set Point:	0.000	Yaw Set Point:	0.000	X_WP:	0.073	Y_WP:	0.006	Y_WP:	0.500	X:	0.026	Y:	-0.012	Z:	0.402	yaw:	-103.131	yaw rate:	-1.380	Roll:	-0.894	Pitch:	0.396	Yaw:	-0.000	Thrust:	30.261
Time:	8.388	Roll Set Point:	0.000	Pitch Set Point:	0.000	Yaw Set Point:	0.000	X_WP:	0.073	Y_WP:	0.006	Y_WP:	0.500	X:	0.026	Y:	-0.012	Z:	0.402	yaw:	-103.149	yaw rate:	-2.306	Roll:	-0.915	Pitch:	0.413	Yaw:	-0.000	Thrust:	30.950
Time:	8.478	Roll Set Point:	0.000	Pitch Set Point:	0.000	Yaw Set Point:	0.000	X_WP:	0.073	Y_WP:	0.006	Y_WP:	0.500	X:	0.026	Y:	-0.012	Z:	0.402	yaw:	-103.206	yaw rate:	3.125	Roll:	-0.925	Pitch:	0.410	Yaw:	-0.000	Thrust:	33.839
Time:	8.565	Roll Set Point:	0.000	Pitch Set Point:	0.000	Yaw Set Point:	0.000	X_WP:	0.073	Y_WP:	0.006	Y_WP:	0.500	X:	0.026	Y:	-0.012	Z:	0.402	yaw:	-103.167	yaw rate:	-0.159	Roll:	-0.928	Pitch:	0.416	Yaw:	-0.000	Thrust:	34.089
Time:	8.652	Roll Set Point:	0.000	Pitch Set Point:	0.000	Yaw Set Point:	0.000	X_WP:	0.073	Y_WP:	0.006	Y_WP:	0.500	X:	0.026	Y:	-0.012	Z:	0.402	yaw:	-103.175	yaw rate:	2.295	Roll:	-0.932	Pitch:	0.415	Yaw:	-0.000	Thrust:	34.925
Time:	8.743	Roll Set Point:	0.000	Pitch Set Point:	0.000	Yaw Set Point:	0.000	X_WP:	0.073	Y_WP:	0.006	Y_WP:	0.500	X:	0.026	Y:	-0.012	Z:	0.402	yaw:	-103.142	yaw rate:	-3.201	Roll:	-0.941	Pitch:	0.417	Yaw:	-0.000	Thrust:	37.399
Time:	8.833	Roll Set Point:	0.000	Pitch Set Point:	0.000	Yaw Set Point:	0.000	X_WP:	0.073	Y_WP:	0.006	Y_WP:	0.500	X:	0.026	Y:	-0.012	Z:	0.402	yaw:	-103.153	yaw rate:	-0.017	Roll:	-0.951	Pitch:	0.424	Yaw:	-0.000	Thrust:	38.397
Time:	8.921	Roll Set Point:	0.000	Pitch Set Point:	0.000	Yaw Set Point:	0.000	X_WP:	0.073	Y_WP:	0.006	Y_WP:	0.500	X:	0.026	Y:	-0.012	Z:	0.402	yaw:	-103.177	yaw rate:	2.305	Roll:	-0.958	Pitch:	0.432	Yaw:	-0.000	Thrust:	38.562
Time:	9.014	Roll Set Point:	0.000	Pitch Set Point:	0.000	Yaw Set Point:	0.000	X_WP:	0.073	Y_WP:	0.006	Y_WP:	0.500	X:	0.026	Y:	-0.012	Z:	0.402	yaw:	-103.156	yaw rate:	-2.159	Roll:	-0.962	Pitch:	0.425	Yaw:	-0.000	Thrust:	41.607
Time:	9.107	Roll Set Point:	0.000	Pitch Set Point:	0.000	Yaw Set Point:	0.000	X_WP:	0.073	Y_WP:	0.006	Y_WP:	0.500	X:	0.026	Y:	-0.012	Z:	0.402	yaw:	-103.161	yaw rate:	0.806	Roll:	-0.978	Pitch:	0.438	Yaw:	-0.000	Thrust:	42.552
Time:	9.199	Roll Set Point:	0.000	Pitch Set Point:	0.000	Yaw Set Point:	0.000	X_WP:	0.073	Y_WP:	0.006	Y_WP:	0.500	X:	0.026	Y:	-0.012	Z:	0.402	yaw:	-103.167	yaw rate:	-0.050	Roll:	-0.978	Pitch:	0.437	Yaw:	-0.000	Thrust:	43.233
Time:	9.296	Roll Set Point:	0.000	Pitch Set Point:	0.000	Yaw Set Point:	0.000	X_WP:	0.073	Y_WP:	0.006	Y_WP:	0.500	X:	0.026	Y:	-0.012	Z:	0.402	yaw:	-103.152	yaw rate:	-4.002	Roll:	-0.994	Pitch:	0.442	Yaw:	-0.000	Thrust:	46.487
Time:	9.390	Roll Set Point:	0.000	Pitch Set Point:	0.000	Yaw Set Point:	0.000	X_WP:	0.073	Y_WP:	0.006	Y_WP:	0.500	X:	0.026	Y:	-0.012	Z:	0.402	yaw:	-103.163	yaw rate:	-0.371	Roll:	-0.999	Pitch:	0.451	Yaw:	-0.000	Thrust:	46.553
Time:	9.487	Roll Set Point:	0.000	Pitch Set Point:	0.000	Yaw Set Point:	0.000	X_WP:	0.073	Y_WP:	0.006	Y_WP:	0.500	X:	0.026	Y:	-0.012	Z:	0.402	yaw:	-103.166	yaw rate:	-0.633	Roll:	-1.008	Pitch:	0.450	Yaw:	-0.000	Thrust:	48.550
Time:	9.589	Roll Set Point:	0.000	Pitch Set Point:	0.000	Yaw Set Point:	0.000	X_WP:	0.073	Y_WP:	0.006	Y_WP:	0.500	X:	0.026	Y:	-0.012	Z:	0.402	yaw:	-103.173	yaw rate:	1.431	Roll:	-1.031	Pitch:	0.459	Yaw:	-0.000	Thrust:	52.297
Time:	9.685	Roll Set Point:	0.000	Pitch Set Point:	0.000	Yaw Set Point:	0.000	X_WP:	0.073	Y_WP:	0.006	Y_WP:	0.500	X:	0.026	Y:	-0.012	Z:	0.402	yaw:	-102.893	yaw rate:	-0.842	Roll:	-1.033	Pitch:	0.456	Yaw:	-0.000	Thrust:	50.566
Time:	9.780	Roll Set Point:	0.000	Pitch Set Point:	0.000	Yaw Set Point:	0.000	X_WP:	0.073	Y_WP:	0.006	Y_WP:	0.500	X:	0.027	Y:	-0.012	Z:	0.402	yaw:	-103.189	yaw rate:	-2.234	Roll:	-1.035	Pitch:	0.481	Yaw:	-0.000	Thrust:	51.431
Time:	9.887	Roll Set Point:	0.000	Pitch Set Point:	0.000	Yaw Set Point:	0.000	X_WP:	0.073	Y_WP:	0.006	Y_WP:	0.500	X:	0.027	Y:	-0.012	Z:	0.402	yaw:	-103.215	yaw rate:	5.396	Roll:	-1.065	Pitch:	0.477	Yaw:	-0.000	Thrust:	58.012
Time:	9.987	Roll Set Point:	0.000	Pitch Set Point:	0.000	Yaw Set Point:	0.000	X_WP:	0.073	Y_WP:	0.006	Y_WP:	0.500	X:	0.026	Y:	-0.012	Z:	0.402	yaw:	-102.889	yaw rate:	-26.309	Roll:	-1.043	Pitch:	0.456	Yaw:	-0.000	Thrust:	56.078
Time:	10.087	Roll Set Point:	0.000	Pitch Set Point:	0.000	Yaw Set Point:	0.000	X_WP:	0.073	Y_WP:	0.006	Y_WP:	0.500	X:	0.026	Y:	-0.012	Z:	0.402	yaw:	-102.901	yaw rate:	1.880	Roll:	-1.052	Pitch:	0.468	Yaw:	-0.000	Thrust:	57.023
Time:	10.190	Roll Set Point:	0.000	Pitch Set Point:	0.000	Yaw Set Point:	0.000	X_WP:	0.073	Y_WP:	0.006	Y_WP:	0.500	X:	0.026	Y:	-0.012	Z:	0.402	yaw:	-102.915	yaw rate:	2.763	Roll:	-1.082	Pitch:	0.479	Yaw:	-0.000	Thrust:	59.809
Time:	10.291	Roll Set Point:	0.000	Pitch Set Point:	0.000	Yaw Set Point:	0.000	X_WP:	0.073	Y_WP:	0.006	Y_WP:	0.500	X:	0.027	Y:	-0.012	Z:	0.402	yaw:	-103.254	yaw rate:	4.376	Roll:	-1.088	Pitch:	0.503	Yaw:	-0.000	Thrust:	60.610
Time:	10.396	Roll Set Point:	0.000	Pitch Set Point:	0.000	Yaw Set Point:	0.000	X_WP:	0.073	Y_WP:	0.006	Y_WP:	0.500	X:	0.027	Y:	-0.012	Z:	0.402	yaw:	-103.292	yaw rate:	9.278	Roll:	-1.118	Pitch:	0.480	Yaw:	-0.000	Thrust:	63.103
Time:	10.502	Roll Set Point:	0.000	Pitch Set Point:	0.000	Yaw Set Point:	0.000	X_WP:	0.073	Y_WP:	0.006	Y_WP:	0.500	X:	0.027	Y:	-0.012	Z:	0.402	yaw:	-103.214	yaw rate:	5.336	Roll:	-1.073	Pitch:	0.492	Yaw:	-0.000	Thrust:	64.837
Time:	10.611	Roll Set Point:	0.000	Pitch Set Point:	0.000	Yaw Set Point:	0.000	X_WP:	0.073	Y_WP:	0.006	Y_WP:	0.500	X:	0.027	Y:	-0.012	Z:	0.402	yaw:	-103.209	yaw rate:	-1.695	Roll:	-1.125	Pitch:	0.505	Yaw:	-0.000	Thrust:	68.435
Time:	10.721	Roll Set Point:	0.000	Pitch Set Point:	0.000	Yaw Set Point:	0.000	X_WP:	0.073	Y_WP:	0.006	Y_WP:	0.500	X:	0.027	Y:	-0.012	Z:	0.402	yaw:	-103.219	yaw rate:	-0.253	Roll:	-1.135	Pitch:	0.507	Yaw:	-0.000	Thrust:	70.521
Time:	10.827	Roll Set Point:	0.000	Pitch Set Point:	0.000	Yaw Set Point:	0.000	X_WP:	0.073	Y_WP:	0.006	Y_WP:	0.500	X:	0.027	Y:	-0.012	Z:	0.402	yaw:	-103.207	yaw rate:	-0.518	Roll:	-1.125	Pitch:	0.498	Yaw:	-0.000	Thrust:	69.039
Time:	10.941	Roll Set Point:	0.000	Pitch Set Point:	0.000	Yaw Set Point:	0.000	X_WP:	0.073	Y_WP:	0.006	Y_WP:	0.500	X:	0.027	Y:	-0.012	Z:	0.402	yaw:	-103.185	yaw rate:	-2.041	Roll:	-1.164	Pitch:	0.531	Yaw:	-0.000	Thrust:	75.054
Time:	11.054	Roll Set Point:	0.000	Pitch Set Point:	0.000	Yaw Set Point:	0.000	X_WP:	0.073	Y_WP:	0.006	Y_WP:	0.500	X:	0.026	Y:	-0.012	Z:	0.402	yaw:	-103.205	yaw rate:	0.188	Roll:	-1.158	Pitch:	0.516	Yaw:	-0.000	Thrust:	75.891
Time:	11.163	Roll Set Point:	0.000	Pitch Set Point:	0.000	Yaw Set Point:	0.000	X_WP:	0.073	Y_WP:	0.006	Y_WP:	0.500	X:	0.026	Y:	-0.012	Z:	0.402	yaw:	-103.208	yaw rate:	-0.777	Roll:	-1.158	Pitch:	0.510	Yaw:	-0.000	Thrust:	74.908
Time:	11.275	Roll Set Point:	0.000	Pitch Set Point:	0.000	Yaw Set Point:	0.000	X_WP:	0.073	Y_WP:	0.006	Y_WP:	0.500	X:	0.026	Y:	-0.012	Z:	0.402	yaw:	-103.239	yaw rate:	5.744	Roll:	-1.175	Pitch:	0.530	Yaw:	-0.000	Thrust:	78.160
Time:	11.390	Roll Set Point:	0.000	Pitch Set Point:	0.000	Yaw Set Point:	0.000	X_WP:	0.073	Y_WP:	0.006	Y_WP:	0.500	X:	0.027	Y:	-0.012	Z:	0.402	yaw:	-102.284	yaw rate:	10.182	Roll:	-1.230	Pitch:	0.556	Yaw:	-0.000	Thrust:	81.211
Time:	11.506	Roll Set Point:	0.000	Pitch Set Point:	0.000	Yaw Set Point:	0.000	X_WP:	0.073	Y_WP:	0.010	Y_WP:	0.500	X:	0.027	Y:	-0.010	Z:	0.398	yaw:	-96.715	yaw rate:	-23.220	Roll:	-1.251	Pitch:	0.239	Yaw:	-0.000	Thrust:	84.663
Time:	11.641	Roll Set Point:	0.000	Pitch Set Point:	0.000	Yaw Set Point:	0.000	X_WP:	0.072	Y_WP:	0.011	Y_WP:	0.500	X:	0.027	Y:	-0.010	Z:	0.398	yaw:	-96.986	yaw rate:	2.403	Roll:	-1.280	Pitch:	0.466	Yaw:	-0.000	Thrust:	97.601
Time:	11.756	Roll Set Point:	0.000	Pitch Set Point:	0.000	Yaw Set Point:	0.000	X_WP:	0.072	Y_WP:	0.010	Y_WP:	0.500	X:	0.027	Y:	-0.010	Z:	0.398	yaw:	-96.779	yaw rate:	-18.540	Roll:	-1.241	Pitch:	0.544	Yaw:	-0.000	Thrust:	85.908
Time:	11.876	Roll Set Point:	0.000	Pitch Set Point:	0.000	Yaw Set Point:	0.000	X_WP:	0.072	Y_WP:	0.010	Y_WP:	0.500	X:	0.027	Y:	-0.010	Z:	0.398	yaw:	-96.815	yaw rate:	-16.129	Roll:	-1.251	Pitch:	0.510	Yaw:	-0.000	Thrust:	90.301
Time:	11.998	Roll Set Point:	0.000	Pitch Set Point:	0.000	Yaw Set Point:	0.000	X_WP:	0.072	Y_WP:	0.009	Y_WP:	0.500	X:	0.026	Y:	-0.010	Z:	0.398	yaw:	-97.069	yaw rate:	-2.460	Roll:	-1.180	Pitch:	0.552	Yaw:	-0.000	Thrust:	93.408
Time:	12.120	Roll Set Point:	0.000	Pitch Set Point:	0.000	Yaw Set Point:	0.000	X_WP:	0.071	Y_WP:	0.010	Y_WP:	0.500	X:	0.026	Y:	-0.010	Z:	0.398	yaw:	-96.892	yaw rate:	85.804	Roll:	-1.128	Pitch:	0.420	Yaw:	-0.000	Thrust:	95.075
Time:	12.241	Roll Set Point:	0.000	Pitch Set Point:	0.000	Yaw Set Point:	0.000	X_WP:	0.069	Y_WP:	0.012	Y_WP:	0.500	X:	0.023	Y:	-0.009	Z:	0.398	yaw:	-93.115	yaw rate:	-144.879	Roll:	-0.823	Pitch:	0.318	Yaw:	-0.000	Thrust:	95.630
Time:	12.367	Roll Set Point:	0.000	Pitch Set Point:	0.000	Yaw Set Point:	0.000	X_WP:	0.067	Y_WP:	0.006	Y_WP:	0.500	X:	0.020	Y:	-0.010	Z:	0.412	yaw:	-89.571	yaw rate:	116.759	Roll:	-0.638	Pitch:	0.676	Yaw:	-0.000	Thrust:	94.732
Time:	12.491	Roll Set Point:	0.000	Pitch Set Point:	0.000	Yaw Set Point:	0.000	X_WP:	0.077	Y_WP:	-0.010	Y_WP:	0.500	X:	0.028	Y:	-0.019	Z:	0.437	yaw:	-87.444	yaw rate:	37.763	Roll:	-2.494	Pitch:	2.078	Yaw:	-0.000	Thrust:	90.319
Time:	12.617	Roll Set Point:	0.000	Pitch Set Point:	0.000	Yaw Set Point:	0.000	X_WP:	0.110	Y_WP:	-0.010	Y_WP:	0.500	X:	0.064	Y:	-0.028	Z:	0.479	yaw:	-89.283	yaw rate:	-0.820	Roll:	-7.215	Pitch:	2.290	Yaw:	-0.000	Thrust:	83.406
Time:	12.744	Roll Set Point:	0.000	Pitch Set Point:	0.000	Yaw Set Point:	0.000	X_WP:	0.171	Y_WP:	-0.011	Y_WP:	0.500	X:	0.128	Y:	-0.036	Z:	0.534	yaw:	-88.279	yaw rate:	33.773	Roll:	-12.923	Pitch:	2.260	Yaw:	-0.000	Thrust:	76.711
Time:	12.874	Roll Set Point:	0.000	Pitch Set Point:	0.000	Yaw Set Point:	0.000	X_WP:	0.267	Y_WP:	0.010	Y_WP:	0.500	X:	0.229	Y:	-0.023	Z:	0.610	yaw:	-92.009	yaw rate:	43.202	Roll:	-20.389	Pitch:	-0.720	Yaw:	-0.000	Thrust:	69.259
Time:	13.001	Roll Set Point:	0.000	Pitch Set Point:	0.000	Yaw Set Point:	0.000	X_WP:	0.354	Y_WP:	0.017	Y_WP:	0.500	X:	0.318	Y:	-0.018	Z:	0.671	yaw:	-92.515	yaw rate:	-45.629	Roll:	-21.876	Pitch:	0.192	Yaw:	-0.000	Thrust:	65.516
Time:	13.131	Roll Set Point:	0.000	Pitch Set Point:	0.000	Yaw Set Point:	0.000	X_WP:	0.457	Y_WP:	0.016	Y_WP:	0.500	X:	0.423	Y:	-0.021	Z:	0.722	yaw:	-92.587	yaw rate:	14.070	Roll:	-26.862	Pitch:	1.306	Yaw:	-0.000	Thrust:	65.930
Time:	13.258	Roll Set Point:	0.000	Pitch Set Point:	0.000	Yaw Set Point:	0.000	X_WP:	0.547	Y_WP:	0.005	Y_WP:	0.500	X:	0.515	Y:	-0.034	Z:	0.765	yaw:	-89.849	yaw rate:	-283.182	Roll:	-28.044	Pitch:	2.895	Yaw:	-0.000	Thrust:	61.329
Time:	13.389	Roll Set Point:	0.000	Pitch Set Point:	0.000	Yaw Set Point:	0.000	X_WP:	0.655	Y_WP:	-0.019	Y_WP:	0.500	X:	0.625	Y:	-0.059	Z:	0.802	yaw:	-90.002	yaw rate:	18.735	Roll:	-30.000	Pitch:	5.339	Yaw:	-0.000	Thrust:	59.065
Time:	13.520	Roll Set Point:	0.000	Pitch Set Point:	0.000	Yaw Set Point:	0.000	X_WP:	0.721	Y_WP:	-0.051	Y_WP:	0.500	X:	0.692	Y:	-0.092	Z:	0.827	yaw:	-37.959	yaw rate:	-73.734	Roll:	-30.000	Pitch:	7.322	Yaw:	-0.000	Thrust:	58.203
Time:	13.651	Roll Set Point:	0.000	Pitch Set Point:	0.000	Yaw Set Point:	0.000	X_WP:	0.809	Y_WP:	-0.051	Y_WP:	0.500	X:	0.785	Y:	-0.095	Z:	0.833	yaw:	-32.933	yaw rate:	-146.788	Roll:	-30.000	Pitch:	3.489	Yaw:	-0.000	Thrust:	59.187
Time:	13.781	Roll Set Point:	0.000	Pitch Set Point:	0.000	Yaw Set Point:	0.000	X_WP:	0.867	Y_WP:	-0.043	Y_WP:	0.500	X:	0.849	Y:	-0.090	Z:	0.832	yaw:	-37.199	yaw rate:	-9999.691	Roll:	-30.000	Pitch:	2.320	Yaw:	-0.000	Thrust:	55.816
Time:	13.921	Roll Set Point:	0.000	Pitch Set Point:	0.000	Yaw Set Point:	0.000	X_WP:	0.944	Y_WP:	-0.016	Y_WP:	0.500	X:	0.935	Y:	-0.065	Z:	0.835	yaw:	14.675	yaw rate:	-5035.862	Roll:	-30.000	Pitch:	-0.662	Yaw:	-0.000	Thrust:	53.878
Time:	14.054	Roll Set Point:	0.000	Pitch Set Point:	0.000	Yaw Set Point:	0.000	X_WP:	0.989	Y_WP:	-0.000	Y_WP:	0.500	X:	0.985	Y:	-0.050	Z:	0.844	yaw:	19.171	yaw rate:	-26.977	Roll:	-30.000	Pitch:	-0.031	Yaw:	-0.000	Thrust:	42.822
Time:	14.187	Roll Set Point:	0.000	Pitch Set Point:	0.000	Yaw Set Point:	0.000	X_WP:	1.010	Y_WP:	0.016	Y_WP:	0.500	X:	1.010	Y:	-0.034	Z:	0.848	yaw:	-85.700	yaw rate:	10522.353	Roll:	-30.000	Pitch:	-0.569	Yaw:	-0.000	Thrust:	38.826
Time:	14.323	Roll Set Point:	0.000	Pitch Set Point:	0.000	Yaw Set Point:	0.000	X_WP:	1.037	Y_WP:	0.018	Y_WP:	0.500	X:	1.040	Y:	-0.032	Z:	0.849	yaw:	-97.727	yaw rate:	66.831	Roll:	-30.000	Pitch:	1.159	Yaw:	-0.000	Thrust:	34.804
Time:	14.460	Roll Set Point:	0.000	Pitch Set Point:	0.000	Yaw Set Point:	0.000	X_WP:	1.058	Y_WP:	0.012	Y_WP:	0.500	X:	1.062	Y:	-0.038	Z:	0.854	yaw:	-97.930	yaw rate:	-22.806	Roll:	-30.000	Pitch:	2.256	Yaw:	-0.000	Thrust:	28.745
Time:	14.598	Roll Set Point:	0.000	Pitch Set Point:	0.000	Yaw Set Point:	0.000	X_WP:	1.068	Y_WP:	0.006	Y_WP:	0.500	X:	1.073	Y:	-0.044	Z:	0.855	yaw:	-88.643	yaw rate:	22.316	Roll:	-30.000	Pitch:	2.578	Yaw:	-0.000	Thrust:	23.776
Time:	14.740	Roll Set Point:	0.000	Pitch Set Point:	0.000	Yaw Set Point:	0.000	X_WP:	1.072	Y_WP:	0.005	Y_WP:	0.500	X:	1.078	Y:	-0.045	Z:	0.860	yaw:	-89.115	yaw rate:	-1.213	Roll:	-30.000	Pitch:	1.943	Yaw:	-0.000	Thrust:	17.831
Time:	14.879	Roll Set Point:	0.000	Pitch Set Point:	0.000	Yaw Set Point:	0.000	X_WP:	1.070	Y_WP:	0.008	Y_WP:	0.500	X:	1.076	Y:	-0.041	Z:	0.865	yaw:	-88.573	yaw rate:	-29.005	Roll:	-30.000	Pitch:	1.312	Yaw:	-0.000	Thrust:	10.783
Time:	15.025	Roll Set Point:	0.000	Pitch Set Point:	0.000	Yaw Set Point:	0.000	X_WP:	1.068	Y_WP:	0.013	Y_WP:	0.500	X:	1.074	Y:	-0.037	Z:	0.868	yaw:	-88.932	yaw rate:	9.395	Roll:	-30.000	Pitch:	1.118	Yaw:	-0.000	Thrust:	6.493
Time:	15.166	Roll Set Point:	0.000	Pitch Set Point:	0.000	Yaw Set Point:	0.000	X_WP:	1.065	Y_WP:	0.016	Y_WP:	0.500	X:	1.071	Y:	-0.034	Z:	0.870	yaw:	-88.722	yaw rate:	8.786	Roll:	-30.000	Pitch:	1.200	Yaw:	-0.000	Thrust:	0.000
Time:	15.308	Roll Set Point:	0.000	Pitch Set Point:	0.000	Yaw Set Point:	0.000	X_WP:	1.061	Y_WP:	0.016	Y_WP:	0.500	X:	1.066	Y:	-0.033	Z:	0.870	yaw:	-87.700	yaw rate:	-18.998	Roll:	-30.000	Pitch:	1.532	Yaw:	-0.000	Thrust:	0.000
Time:	15.448	Roll Set Point:	0.000	Pitch Set Point:	0.000	Yaw Set Point:	0.000	X_WP:	1.055	Y_WP:	0.015	Y_WP:	0.500	X:	1.059	Y:	-0.035	Z:	0.869	yaw:	-90.257	yaw rate:	372.837	Roll:	-30.000	Pitch:	1.780	Yaw:	-0.000	Thrust:	0.000
Time:	15.595	Roll Set Point:	0.000	Pitch Set Point:	0.000	Yaw Set Point:	0.000	X_WP:	1.044	Y_WP:	0.013	Y_WP:	0.500	X:	1.047	Y:	-0.037	Z:	0.869	yaw:	-84.378	yaw rate:	-123.118	Roll:	-30.000	Pitch:	2.003	Yaw:	-0.000	Thrust:	0.000
Time:	15.739	Roll Set Point:	0.000	Pitch Set Point:	0.000	Yaw Set Point:	0.000	X_WP:	1.025	Y_WP:	0.012	Y_WP:	0.500	X:	1.026	Y:	-0.038	Z:	0.875	yaw:	-83.446	yaw rate:	-33.245	Roll:	-30.000	Pitch:	1.898	Yaw:	-0.000	Thrust:	0.000
Time:	15.885	Roll Set Point:	0.000	Pitch Set Point:	0.000	Yaw Set Point:	0.000	X_WP:	1.003	Y_WP:	0.008	Y_WP:	0.500	X:	1.001	Y:	-0.042	Z:	0.881	yaw:	-81.146	yaw rate:	-142.167	Roll:	-30.000	Pitch:	2.279	Yaw:	-0.000	Thrust:	0.000
Time:	16.030	Roll Set Point:	-1.060	Pitch Set Point:	-0.946	Yaw Set Point:	1.547	X_WP:	0.000	Y_WP:	0.000	Y_WP:	-0.100	X:	0.992	Y:	-0.045	Z:	0.886	yaw:	-88.637	yaw rate:	129.057	Roll:	30.000	Pitch:	30.000	Yaw:	-284.369	Thrust:	0.000
Time:	16.177	Roll Set Point:	-1.174	Pitch Set Point:	-0.936	Yaw Set Point:	1.435	X_WP:	0.000	Y_WP:	0.000	Y_WP:	-0.100	X:	0.995	Y:	-0.044	Z:	0.888	yaw:	-82.226	yaw rate:	103.528	Roll:	12.430	Pitch:	28.244	Yaw:	-107.964	Thrust:	0.000
Time:	16.327	Roll Set Point:	-1.168	Pitch Set Point:	-0.942	Yaw Set Point:	1.453	X_WP:	0.000	Y_WP:	0.000	Y_WP:	-0.100	X:	1.002	Y:	-0.048	Z:	0.888	yaw:	-83.244	yaw rate:	42.164	Roll:	-2.240	Pitch:	30.000	Yaw:	-126.958	Thrust:	0.000
Time:	16.478	Roll Set Point:	-1.174	Pitch Set Point:	-0.943	Yaw Set Point:	1.458	X_WP:	0.000	Y_WP:	0.000	Y_WP:	-0.100	X:	1.008	Y:	-0.053	Z:	0.888	yaw:	-83.523	yaw rate:	-19.635	Roll:	-0.610	Pitch:	30.000	Yaw:	-130.510	Thrust:	0.000
Time:	16.629	Roll Set Point:	-1.163	Pitch Set Point:	-0.944	Yaw Set Point:	1.476	X_WP:	0.000	Y_WP:	0.000	Y_WP:	-0.100	X:	1.010	Y:	-0.057	Z:	0.888	yaw:	-84.554	yaw rate:	17.205	Roll:	-2.587	Pitch:	30.000	Yaw:	-137.606	Thrust:	0.000
Time:	16.783	Roll Set Point:	-1.160	Pitch Set Point:	-0.942	Yaw Set Point:	1.481	X_WP:	0.000	Y_WP:	0.000	Y_WP:	-0.100	X:	1.011	Y:	-0.059	Z:	0.889	yaw:	-84.857	yaw rate:	14.439	Roll:	-1.485	Pitch:	30.000	Yaw:	-141.792	Thrust:	0.000
Time:	16.933	Roll Set Point:	-1.161	Pitch Set Point:	-0.941	Yaw Set Point:	1.484	X_WP:	0.000	Y_WP:	0.000	Y_WP:	-0.100	X:	1.012	Y:	-0.062	Z:	0.890	yaw:	-85.037	yaw rate:	0.070	Roll:	-1.016	Pitch:	30.000	Yaw:	-145.602	Thrust:	0.000
Time:	17.085	Roll Set Point:	-1.165	Pitch Set Point:	-0.939	Yaw Set Point:	1.484	X_WP:	0.000	Y_WP:	0.000	Y_WP:	-0.100	X:	1.013	Y:	-0.065	Z:	0.890	yaw:	-85.042	yaw rate:	-8.162	Roll:	-0.595	Pitch:	30.000	Yaw:	-149.162	Thrust:	0.000
Time:	17.237	Roll Set Point:	-1.163	Pitch Set Point:	-0.939	Yaw Set Point:	1.489	X_WP:	0.000	Y_WP:	0.000	Y_WP:	-0.100	X:	1.014	Y:	-0.067	Z:	0.891	yaw:	-85.309	yaw rate:	4.255	Roll:	-1.177	Pitch:	30.000	Yaw:	-149.871	Thrust:	0.000
Time:	17.394	Roll Set Point:	-1.167	Pitch Set Point:	-0.937	Yaw Set Point:	1.487	X_WP:	0.000	Y_WP:	0.000	Y_WP:	-0.100	X:	1.014	Y:	-0.068	Z:	0.891	yaw:	-85.208	yaw rate:	2.359	Roll:	-0.593	Pitch:	30.000	Yaw:	-150.094	Thrust:	0.000
Time:	17.550	Roll Set Point:	-1.169	Pitch Set Point:	-0.935	Yaw Set Point:	1.487	X_WP:	0.000	Y_WP:	0.000	Y_WP:	-0.100	X:	1.014	Y:	-0.070	Z:	0.891	yaw:	-85.204	yaw rate:	-3.128	Roll:	-0.582	Pitch:	30.000	Yaw:	-150.245	Thrust:	0.000
Time:	17.708	Roll Set Point:	-1.174	Pitch Set Point:	-0.932	Yaw Set Point:	1.485	X_WP:	0.000	Y_WP:	0.000	Y_WP:	-0.100	X:	1.014	Y:	-0.072	Z:	0.890	yaw:	-85.063	yaw rate:	-16.104	Roll:	-0.166	Pitch:	30.000	Yaw:	-150.286	Thrust:	0.000
Time:	17.864	Roll Set Point:	-1.175	Pitch Set Point:	-0.930	Yaw Set Point:	1.484	X_WP:	0.000	Y_WP:	0.000	Y_WP:	-0.100	X:	1.014	Y:	-0.074	Z:	0.890	yaw:	-85.055	yaw rate:	-5.839	Roll:	-0.285	Pitch:	30.000	Yaw:	-149.814	Thrust:	0.000
Time:	18.025	Roll Set Point:	-1.171	Pitch Set Point:	-0.929	Yaw Set Point:	1.487	X_WP:	0.000	Y_WP:	0.000	Y_WP:	-0.100	X:	1.013	Y:	-0.074	Z:	0.890	yaw:	-85.171	yaw rate:	1.816	Roll:	-0.883	Pitch:	30.000	Yaw:	-151.316	Thrust:	0.000
Time:	18.181	Roll Set Point:	-1.168	Pitch Set Point:	-0.926	Yaw Set Point:	1.488	X_WP:	0.000	Y_WP:	0.000	Y_WP:	-0.100	X:	1.010	Y:	-0.074	Z:	0.890	yaw:	-85.263	yaw rate:	2.696	Roll:	-0.610	Pitch:	30.000	Yaw:	-150.400	Thrust:	0.000
Time:	18.343	Roll Set Point:	-1.163	Pitch Set Point:	-0.924	Yaw Set Point:	1.489	X_WP:	0.000	Y_WP:	0.000	Y_WP:	-0.100	X:	1.007	Y:	-0.074	Z:	0.890	yaw:	-85.333	yaw rate:	-3.273	Roll:	-0.785	Pitch:	30.000	Yaw:	-151.790	Thrust:	0.000
Time:	18.503	Roll Set Point:	-1.162	Pitch Set Point:	-0.921	Yaw Set Point:	1.487	X_WP:	0.000	Y_WP:	0.000	Y_WP:	-0.100	X:	1.004	Y:	-0.074	Z:	0.891	yaw:	-85.178	yaw rate:	1.376	Roll:	-0.249	Pitch:	30.000	Yaw:	-150.477	Thrust:	0.000
Time:	18.664	Roll Set Point:	-1.157	Pitch Set Point:	-0.919	Yaw Set Point:	1.488	X_WP:	0.000	Y_WP:	0.000	Y_WP:	-0.100	X:	1.001	Y:	-0.073	Z:	0.891	yaw:	-85.233	yaw rate:	-4.810	Roll:	-0.712	Pitch:	30.000	Yaw:	-151.443	Thrust:	0.000
Time:	18.824	Roll Set Point:	-1.151	Pitch Set Point:	-0.916	Yaw Set Point:	1.491	X_WP:	0.000	Y_WP:	0.000	Y_WP:	-0.100	X:	0.999	Y:	-0.073	Z:	0.891	yaw:	-85.451	yaw rate:	16.794	Roll:	-0.833	Pitch:	30.000	Yaw:	-151.673	Thrust:	0.000
Time:	18.988	Roll Set Point:	-1.155	Pitch Set Point:	-0.918	Yaw Set Point:	1.491	X_WP:	0.000	Y_WP:	0.000	Y_WP:	-0.100	X:	1.001	Y:	-0.074	Z:	0.890	yaw:	-85.441	yaw rate:	10.026	Roll:	-0.438	Pitch:	30.000	Yaw:	-152.088	Thrust:	0.000
Time:	19.151	Roll Set Point:	-1.158	Pitch Set Point:	-0.921	Yaw Set Point:	1.490	X_WP:	0.000	Y_WP:	0.000	Y_WP:	-0.100	X:	1.004	Y:	-0.073	Z:	0.890	yaw:	-85.376	yaw rate:	10.219	Roll:	-0.332	Pitch:	30.000	Yaw:	-151.649	Thrust:	0.000
Time:	19.318	Roll Set Point:	-1.159	Pitch Set Point:	-0.923	Yaw Set Point:	1.491	X_WP:	0.000	Y_WP:	0.000	Y_WP:	-0.100	X:	1.006	Y:	-0.074	Z:	0.890	yaw:	-85.451	yaw rate:	-1.303	Roll:	-0.494	Pitch:	30.000	Yaw:	-152.778	Thrust:	0.000
Time:	19.482	Roll Set Point:	-1.164	Pitch Set Point:	-0.921	Yaw Set Point:	1.490	X_WP:	0.000	Y_WP:	0.000	Y_WP:	-0.100	X:	1.007	Y:	-0.077	Z:	0.889	yaw:	-85.371	yaw rate:	2.189	Roll:	0.203	Pitch:	30.000	Yaw:	-152.007	Thrust:	0.000
Time:	19.654	Roll Set Point:	-1.155	Pitch Set Point:	-0.916	Yaw Set Point:	1.487	X_WP:	0.000	Y_WP:	0.000	Y_WP:	-0.100	X:	0.998	Y:	-0.073	Z:	0.893	yaw:	-85.199	yaw rate:	-12.272	Roll:	-0.504	Pitch:	30.000	Yaw:	-152.999	Thrust:	0.000
Time:	19.821	Roll Set Point:	-1.148	Pitch Set Point:	-0.920	Yaw Set Point:	1.495	X_WP:	0.000	Y_WP:	0.000	Y_WP:	-0.100	X:	1.000	Y:	-0.073	Z:	0.893	yaw:	-85.683	yaw rate:	25.377	Roll:	-1.367	Pitch:	30.000	Yaw:	-153.899	Thrust:	0.000
Time:	19.994	Roll Set Point:	-1.151	Pitch Set Point:	-0.923	Yaw Set Point:	1.499	X_WP:	0.000	Y_WP:	0.000	Y_WP:	-0.100	X:	1.005	Y:	-0.074	Z:	0.888	yaw:	-85.908	yaw rate:	11.464	Roll:	-0.751	Pitch:	30.000	Yaw:	-154.925	Thrust:	0.000
Time:	20.164	Roll Set Point:	-1.143	Pitch Set Point:	-0.931	Yaw Set Point:	1.508	X_WP:	0.000	Y_WP:	0.000	Y_WP:	-0.100	X:	1.008	Y:	-0.071	Z:	0.886	yaw:	-86.388	yaw rate:	29.225	Roll:	-1.951	Pitch:	30.000	Yaw:	-155.202	Thrust:	0.000
Time:	20.335	Roll Set Point:	-1.135	Pitch Set Point:	-0.940	Yaw Set Point:	1.511	X_WP:	0.000	Y_WP:	0.000	Y_WP:	-0.100	X:	1.010	Y:	-0.064	Z:	0.887	yaw:	-86.574	yaw rate:	25.225	Roll:	-2.014	Pitch:	30.000	Yaw:	-155.456	Thrust:	0.000
Time:	20.508	Roll Set Point:	-1.126	Pitch Set Point:	-0.944	Yaw Set Point:	1.515	X_WP:	0.000	Y_WP:	0.000	Y_WP:	-0.100	X:	1.010	Y:	-0.061	Z:	0.887	yaw:	-86.828	yaw rate:	3.838	Roll:	-2.080	Pitch:	30.000	Yaw:	-156.134	Thrust:	0.000
Time:	20.681	Roll Set Point:	-1.128	Pitch Set Point:	-0.946	Yaw Set Point:	1.511	X_WP:	0.000	Y_WP:	0.000	Y_WP:	-0.100	X:	1.010	Y:	-0.059	Z:	0.888	yaw:	-86.601	yaw rate:	3.645	Roll:	-1.021	Pitch:	30.000	Yaw:	-155.319	Thrust:	0.000
Time:	20.856	Roll Set Point:	-1.129	Pitch Set Point:	-0.948	Yaw Set Point:	1.514	X_WP:	0.000	Y_WP:	0.000	Y_WP:	-0.100	X:	1.012	Y:	-0.059	Z:	0.889	yaw:	-86.738	yaw rate:	-5.405	Roll:	-1.405	Pitch:	30.000	Yaw:	-156.209	Thrust:	0.000
Time:	21.031	Roll Set Point:	-1.130	Pitch Set Point:	-0.948	Yaw Set Point:	1.516	X_WP:	0.000	Y_WP:	0.000	Y_WP:	-0.100	X:	1.014	Y:	-0.061	Z:	0.890	yaw:	-86.873	yaw rate:	-0.789	Roll:	-1.178	Pitch:	30.000	Yaw:	-156.527	Thrust:	0.000
Time:	21.209	Roll Set Point:	-1.117	Pitch Set Point:	-0.948	Yaw Set Point:	1.537	X_WP:	0.000	Y_WP:	0.000	Y_WP:	-0.100	X:	1.017	Y:	-0.066	Z:	0.889	yaw:	-88.051	yaw rate:	100.743	Roll:	-3.230	Pitch:	30.000	Yaw:	-160.220	Thrust:	0.000
Time:	21.390	Roll Set Point:	-1.120	Pitch Set Point:	-0.946	Yaw Set Point:	1.539	X_WP:	0.000	Y_WP:	0.000	Y_WP:	-0.100	X:	1.018	Y:	-0.070	Z:	0.890	yaw:	-88.195	yaw rate:	1.753	Roll:	-1.511	Pitch:	30.000	Yaw:	-159.464	Thrust:	0.000
Time:	21.569	Roll Set Point:	-1.140	Pitch Set Point:	-0.942	Yaw Set Point:	1.524	X_WP:	0.000	Y_WP:	0.000	Y_WP:	-0.100	X:	1.020	Y:	-0.073	Z:	0.890	yaw:	-87.326	yaw rate:	-8.156	Roll:	0.727	Pitch:	30.000	Yaw:	-156.689	Thrust:	0.000
Time:	21.750	Roll Set Point:	-1.111	Pitch Set Point:	-0.942	Yaw Set Point:	1.554	X_WP:	0.000	Y_WP:	0.000	Y_WP:	-0.100	X:	1.018	Y:	-0.075	Z:	0.892	yaw:	-89.030	yaw rate:	-2.534	Roll:	-4.492	Pitch:	30.000	Yaw:	-162.901	Thrust:	0.000
Time:	21.929	Roll Set Point:	-1.965	Pitch Set Point:	0.512	Yaw Set Point:	-0.346	X_WP:	0.000	Y_WP:	0.000	Y_WP:	-0.100	X:	1.027	Y:	-0.084	Z:	0.896	yaw:	19.848	yaw rate:	-25.569	Roll:	30.000	Pitch:	-30.000	Yaw:	151.103	Thrust:	0.000
Time:	22.112	Roll Set Point:	-1.965	Pitch Set Point:	0.514	Yaw Set Point:	-0.351	X_WP:	0.000	Y_WP:	0.000	Y_WP:	-0.100	X:	1.028	Y:	-0.083	Z:	0.895	yaw:	20.111	yaw rate:	-5.074	Roll:	22.967	Pitch:	-6.155	Yaw:	-6.857	Thrust:	0.000
Time:	22.295	Roll Set Point:	-1.957	Pitch Set Point:	0.499	Yaw Set Point:	-0.346	X_WP:	0.000	Y_WP:	0.000	Y_WP:	-0.100	X:	1.022	Y:	-0.079	Z:	0.892	yaw:	19.837	yaw rate:	-28.787	Roll:	23.259	Pitch:	-4.761	Yaw:	-6.725	Thrust:	0.000
Time:	22.479	Roll Set Point:	-1.917	Pitch Set Point:	0.462	Yaw Set Point:	-0.335	X_WP:	0.000	Y_WP:	0.000	Y_WP:	-0.100	X:	0.998	Y:	-0.069	Z:	0.888	yaw:	19.222	yaw rate:	-87.192	Roll:	21.976	Pitch:	-2.549	Yaw:	-6.984	Thrust:	0.000
Time:	22.663	Roll Set Point:	-1.731	Pitch Set Point:	0.367	Yaw Set Point:	-0.272	X_WP:	0.000	Y_WP:	0.000	Y_WP:	-0.100	X:	0.891	Y:	-0.065	Z:	0.879	yaw:	15.588	yaw rate:	-12.205	Roll:	14.241	Pitch:	5.822	Yaw:	-15.141	Thrust:	0.000
Time:	22.850	Roll Set Point:	-1.006	Pitch Set Point:	0.723	Yaw Set Point:	-1.086	X_WP:	0.000	Y_WP:	0.000	Y_WP:	-0.100	X:	0.721	Y:	-0.058	Z:	0.878	yaw:	62.228	yaw rate:	55.502	Roll:	-30.000	Pitch:	-30.000	Yaw:	120.891	Thrust:	0.000
Time:	23.035	Roll Set Point:	-0.746	Pitch Set Point:	-0.555	Yaw Set Point:	1.458	X_WP:	0.000	Y_WP:	0.000	Y_WP:	-0.100	X:	0.621	Y:	-0.055	Z:	0.886	yaw:	-83.544	yaw rate:	-18.522	Roll:	-13.468	Pitch:	30.000	Yaw:	-350.068	Thrust:	0.000
Time:	23.224	Roll Set Point:	-0.692	Pitch Set Point:	-0.523	Yaw Set Point:	1.501	X_WP:	0.000	Y_WP:	0.000	Y_WP:	-0.100	X:	0.590	Y:	-0.062	Z:	0.879	yaw:	-86.029	yaw rate:	-7.341	Roll:	-1.379	Pitch:	20.766	Yaw:	-156.576	Thrust:	0.000
Time:	23.412	Roll Set Point:	-0.612	Pitch Set Point:	-0.513	Yaw Set Point:	1.586	X_WP:	0.000	Y_WP:	0.000	Y_WP:	-0.100	X:	0.566	Y:	-0.055	Z:	0.889	yaw:	-90.898	yaw rate:	38.796	Roll:	-6.076	Pitch:	21.233	Yaw:	-171.258	Thrust:	0.000
Time:	23.605	Roll Set Point:	-0.590	Pitch Set Point:	-0.499	Yaw Set Point:	1.584	X_WP:	0.000	Y_WP:	0.000	Y_WP:	-0.100	X:	0.547	Y:	-0.049	Z:	0.889	yaw:	-90.742	yaw rate:	-40.350	Roll:	-1.378	Pitch:	21.018	Yaw:	-165.047	Thrust:	0.000
Time:	23.794	Roll Set Point:	-0.573	Pitch Set Point:	-0.484	Yaw Set Point:	1.541	X_WP:	0.000	Y_WP:	0.000	Y_WP:	-0.100	X:	0.521	Y:	-0.036	Z:	0.877	yaw:	-88.301	yaw rate:	-65.996	Roll:	0.127	Pitch:	19.500	Yaw:	-157.873	Thrust:	0.000
Time:	23.987	Roll Set Point:	-0.530	Pitch Set Point:	0.511	Yaw Set Point:	-1.488	X_WP:	0.000	Y_WP:	0.000	Y_WP:	-0.100	X:	0.501	Y:	-0.011	Z:	0.886	yaw:	85.284	yaw rate:	-8.298	Roll:	-3.340	Pitch:	-30.000	Yaw:	316.399	Thrust:	0.000
Time:	24.179	Roll Set Point:	-0.598	Pitch Set Point:	-0.462	Yaw Set Point:	1.376	X_WP:	0.000	Y_WP:	0.000	Y_WP:	-0.100	X:	0.489	Y:	-0.015	Z:	0.883	yaw:	-78.847	yaw rate:	16445.398	Roll:	7.998	Pitch:	30.000	Yaw:	-366.885	Thrust:	0.000
Time:	24.375	Roll Set Point:	-0.833	Pitch Set Point:	0.356	Yaw Set Point:	-0.692	X_WP:	0.000	Y_WP:	0.000	Y_WP:	-0.100	X:	0.481	Y:	-0.028	Z:	0.893	yaw:	39.676	yaw rate:	-29.076	Roll:	29.027	Pitch:	-30.000	Yaw:	174.179	Thrust:	0.000
Time:	24.570	Roll Set Point:	-0.583	Pitch Set Point:	-0.424	Yaw Set Point:	1.361	X_WP:	0.000	Y_WP:	0.000	Y_WP:	-0.100	X:	0.463	Y:	-0.024	Z:	0.893	yaw:	-77.978	yaw rate:	108.866	Roll:	-18.895	Pitch:	30.000	Yaw:	-302.939	Thrust:	0.000
Time:	24.765	Roll Set Point:	-0.589	Pitch Set Point:	-0.415	Yaw Set Point:	1.357	X_WP:	0.000	Y_WP:	0.000	Y_WP:	-0.100	X:	0.462	Y:	-0.030	Z:	0.898	yaw:	-77.773	yaw rate:	68.136	Roll:	2.340	Pitch:	19.952	Yaw:	-147.213	Thrust:	0.000
Time:	24.959	Roll Set Point:	-0.688	Pitch Set Point:	-0.306	Yaw Set Point:	1.266	X_WP:	0.000	Y_WP:	0.000	Y_WP:	-0.100	X:	0.456	Y:	-0.099	Z:	0.859	yaw:	-72.515	yaw rate:	-105.771	Roll:	13.987	Pitch:	15.562	Yaw:	-132.988	Thrust:	0.000
Time:	25.155	Roll Set Point:	-0.798	Pitch Set Point:	-0.142	Yaw Set Point:	1.055	X_WP:	0.000	Y_WP:	0.000	Y_WP:	-0.100	X:	0.441	Y:	-0.161	Z:	0.838	yaw:	-60.442	yaw rate:	16.081	Roll:	19.480	Pitch:	7.358	Yaw:	-107.481	Thrust:	0.000
