Time:	0.038	Roll Set Point:	0.033	Pitch Set Point:	2.011	Yaw Set Point:	-0.008	X_WP:	0.000	Y_WP:	0.000	Y_WP:	0.750	X:	-0.013	Y:	-1.005	Z:	0.045	yaw:	0.456	yaw rate:	-3.567	Roll:	-0.599	Pitch:	-29.155	Yaw:	0.637	Thrust:	38.749
Time:	0.057	Roll Set Point:	0.031	Pitch Set Point:	2.010	Yaw Set Point:	-0.006	X_WP:	0.000	Y_WP:	0.000	Y_WP:	0.750	X:	-0.013	Y:	-1.005	Z:	0.045	yaw:	0.335	yaw rate:	12.144	Roll:	1.371	Pitch:	-28.958	Yaw:	-1.155	Thrust:	41.214
Time:	0.084	Roll Set Point:	0.030	Pitch Set Point:	2.010	Yaw Set Point:	-0.005	X_WP:	0.000	Y_WP:	0.000	Y_WP:	0.750	X:	-0.013	Y:	-1.005	Z:	0.045	yaw:	0.304	yaw rate:	3.141	Roll:	-0.128	Pitch:	-29.297	Yaw:	0.128	Thrust:	43.421
Time:	0.097	Roll Set Point:	0.023	Pitch Set Point:	2.009	Yaw Set Point:	0.002	X_WP:	0.000	Y_WP:	0.000	Y_WP:	0.750	X:	-0.012	Y:	-1.005	Z:	0.044	yaw:	-0.123	yaw rate:	42.622	Roll:	8.768	Pitch:	-28.782	Yaw:	-8.720	Thrust:	44.640
Time:	0.117	Roll Set Point:	0.022	Pitch Set Point:	2.009	Yaw Set Point:	0.003	X_WP:	0.000	Y_WP:	0.000	Y_WP:	0.750	X:	-0.012	Y:	-1.005	Z:	0.044	yaw:	-0.168	yaw rate:	4.573	Roll:	0.446	Pitch:	-29.302	Yaw:	-0.853	Thrust:	45.327
Time:	0.138	Roll Set Point:	0.022	Pitch Set Point:	2.009	Yaw Set Point:	0.003	X_WP:	0.000	Y_WP:	0.000	Y_WP:	0.750	X:	-0.012	Y:	-1.005	Z:	0.044	yaw:	-0.177	yaw rate:	0.862	Roll:	-0.143	Pitch:	-29.408	Yaw:	-0.353	Thrust:	47.336
Time:	0.160	Roll Set Point:	0.022	Pitch Set Point:	2.009	Yaw Set Point:	0.003	X_WP:	0.000	Y_WP:	0.000	Y_WP:	0.750	X:	-0.012	Y:	-1.005	Z:	0.044	yaw:	-0.158	yaw rate:	-1.934	Roll:	-0.561	Pitch:	-29.450	Yaw:	0.011	Thrust:	50.207
Time:	0.179	Roll Set Point:	0.022	Pitch Set Point:	2.009	Yaw Set Point:	0.003	X_WP:	0.000	Y_WP:	0.000	Y_WP:	0.750	X:	-0.012	Y:	-1.005	Z:	0.044	yaw:	-0.166	yaw rate:	0.834	Roll:	-0.134	Pitch:	-29.487	Yaw:	-0.343	Thrust:	50.069
Time:	0.199	Roll Set Point:	0.022	Pitch Set Point:	2.009	Yaw Set Point:	0.003	X_WP:	0.000	Y_WP:	0.000	Y_WP:	0.750	X:	-0.012	Y:	-1.005	Z:	0.044	yaw:	-0.181	yaw rate:	1.499	Roll:	-0.064	Pitch:	-29.539	Yaw:	-0.451	Thrust:	52.069
Time:	0.218	Roll Set Point:	0.022	Pitch Set Point:	2.009	Yaw Set Point:	0.003	X_WP:	0.000	Y_WP:	0.000	Y_WP:	0.750	X:	-0.012	Y:	-1.005	Z:	0.044	yaw:	-0.170	yaw rate:	-1.149	Roll:	-0.456	Pitch:	-29.594	Yaw:	-0.084	Thrust:	53.908
Time:	0.238	Roll Set Point:	0.022	Pitch Set Point:	2.009	Yaw Set Point:	0.003	X_WP:	0.000	Y_WP:	0.000	Y_WP:	0.750	X:	-0.012	Y:	-1.005	Z:	0.044	yaw:	-0.169	yaw rate:	-0.006	Roll:	-0.278	Pitch:	-29.630	Yaw:	-0.236	Thrust:	55.772
Time:	0.258	Roll Set Point:	0.022	Pitch Set Point:	2.009	Yaw Set Point:	0.003	X_WP:	0.000	Y_WP:	0.000	Y_WP:	0.750	X:	-0.012	Y:	-1.005	Z:	0.044	yaw:	-0.173	yaw rate:	0.401	Roll:	-0.219	Pitch:	-29.692	Yaw:	-0.296	Thrust:	57.538
Time:	0.279	Roll Set Point:	0.022	Pitch Set Point:	2.009	Yaw Set Point:	0.003	X_WP:	0.000	Y_WP:	0.000	Y_WP:	0.750	X:	-0.012	Y:	-1.005	Z:	0.044	yaw:	-0.159	yaw rate:	-1.488	Roll:	-0.505	Pitch:	-29.750	Yaw:	-0.033	Thrust:	60.072
Time:	0.300	Roll Set Point:	0.022	Pitch Set Point:	2.009	Yaw Set Point:	0.003	X_WP:	0.000	Y_WP:	0.000	Y_WP:	0.750	X:	-0.012	Y:	-1.005	Z:	0.044	yaw:	-0.171	yaw rate:	1.266	Roll:	-0.101	Pitch:	-29.855	Yaw:	-0.397	Thrust:	62.530
Time:	0.317	Roll Set Point:	0.022	Pitch Set Point:	2.009	Yaw Set Point:	0.003	X_WP:	0.000	Y_WP:	0.000	Y_WP:	0.750	X:	-0.012	Y:	-1.005	Z:	0.044	yaw:	-0.159	yaw rate:	-1.196	Roll:	-0.496	Pitch:	-29.703	Yaw:	-0.038	Thrust:	58.359
Time:	0.337	Roll Set Point:	0.022	Pitch Set Point:	2.009	Yaw Set Point:	0.003	X_WP:	0.000	Y_WP:	0.000	Y_WP:	0.750	X:	-0.012	Y:	-1.005	Z:	0.044	yaw:	-0.162	yaw rate:	0.315	Roll:	-0.230	Pitch:	-29.913	Yaw:	-0.274	Thrust:	64.248
Time:	0.357	Roll Set Point:	0.022	Pitch Set Point:	2.009	Yaw Set Point:	0.002	X_WP:	0.000	Y_WP:	0.000	Y_WP:	0.750	X:	-0.012	Y:	-1.005	Z:	0.044	yaw:	-0.143	yaw rate:	-1.924	Roll:	-0.585	Pitch:	-29.884	Yaw:	0.046	Thrust:	65.669
Time:	0.376	Roll Set Point:	0.022	Pitch Set Point:	2.009	Yaw Set Point:	0.003	X_WP:	0.000	Y_WP:	0.000	Y_WP:	0.750	X:	-0.012	Y:	-1.005	Z:	0.044	yaw:	-0.169	yaw rate:	2.617	Roll:	0.116	Pitch:	-29.852	Yaw:	-0.593	Thrust:	67.064
Time:	0.398	Roll Set Point:	0.023	Pitch Set Point:	2.009	Yaw Set Point:	0.002	X_WP:	0.000	Y_WP:	0.000	Y_WP:	0.750	X:	-0.012	Y:	-1.005	Z:	0.044	yaw:	-0.136	yaw rate:	-3.375	Roll:	-0.793	Pitch:	-29.906	Yaw:	0.207	Thrust:	71.969
Time:	0.416	Roll Set Point:	0.022	Pitch Set Point:	2.009	Yaw Set Point:	0.003	X_WP:	0.000	Y_WP:	0.000	Y_WP:	0.750	X:	-0.012	Y:	-1.005	Z:	0.044	yaw:	-0.165	yaw rate:	2.928	Roll:	0.184	Pitch:	-29.891	Yaw:	-0.660	Thrust:	68.109
Time:	0.437	Roll Set Point:	0.022	Pitch Set Point:	2.009	Yaw Set Point:	0.003	X_WP:	0.000	Y_WP:	0.000	Y_WP:	0.750	X:	-0.012	Y:	-1.005	Z:	0.044	yaw:	-0.161	yaw rate:	-0.413	Roll:	-0.355	Pitch:	-29.884	Yaw:	-0.184	Thrust:	73.536
Time:	0.457	Roll Set Point:	0.022	Pitch Set Point:	2.009	Yaw Set Point:	0.003	X_WP:	0.000	Y_WP:	0.000	Y_WP:	0.750	X:	-0.012	Y:	-1.005	Z:	0.044	yaw:	-0.167	yaw rate:	0.605	Roll:	-0.208	Pitch:	-29.863	Yaw:	-0.325	Thrust:	74.201
Time:	0.477	Roll Set Point:	0.022	Pitch Set Point:	2.009	Yaw Set Point:	0.003	X_WP:	0.000	Y_WP:	0.000	Y_WP:	0.750	X:	-0.012	Y:	-1.005	Z:	0.044	yaw:	-0.148	yaw rate:	-1.884	Roll:	-0.573	Pitch:	-29.935	Yaw:	0.022	Thrust:	76.780
Time:	0.497	Roll Set Point:	0.022	Pitch Set Point:	2.009	Yaw Set Point:	0.003	X_WP:	0.000	Y_WP:	0.000	Y_WP:	0.750	X:	-0.012	Y:	-1.005	Z:	0.044	yaw:	-0.156	yaw rate:	0.832	Roll:	-0.155	Pitch:	-29.880	Yaw:	-0.341	Thrust:	78.119
Time:	0.517	Roll Set Point:	0.022	Pitch Set Point:	2.009	Yaw Set Point:	0.003	X_WP:	0.000	Y_WP:	0.000	Y_WP:	0.750	X:	-0.012	Y:	-1.005	Z:	0.044	yaw:	-0.155	yaw rate:	-0.085	Roll:	-0.317	Pitch:	-29.844	Yaw:	-0.221	Thrust:	78.462
Time:	0.537	Roll Set Point:	0.022	Pitch Set Point:	2.009	Yaw Set Point:	0.002	X_WP:	0.000	Y_WP:	0.000	Y_WP:	0.750	X:	-0.012	Y:	-1.005	Z:	0.044	yaw:	-0.140	yaw rate:	-1.511	Roll:	-0.530	Pitch:	-29.895	Yaw:	-0.017	Thrust:	80.427
Time:	0.557	Roll Set Point:	0.022	Pitch Set Point:	2.009	Yaw Set Point:	0.003	X_WP:	0.000	Y_WP:	0.000	Y_WP:	0.750	X:	-0.012	Y:	-1.005	Z:	0.044	yaw:	-0.156	yaw rate:	1.547	Roll:	-0.054	Pitch:	-29.904	Yaw:	-0.439	Thrust:	83.760
Time:	0.578	Roll Set Point:	0.022	Pitch Set Point:	2.009	Yaw Set Point:	0.003	X_WP:	0.000	Y_WP:	0.000	Y_WP:	0.750	X:	-0.012	Y:	-1.005	Z:	0.044	yaw:	-0.152	yaw rate:	-0.406	Roll:	-0.366	Pitch:	-29.878	Yaw:	-0.179	Thrust:	85.140
Time:	0.599	Roll Set Point:	0.022	Pitch Set Point:	2.009	Yaw Set Point:	0.003	X_WP:	0.000	Y_WP:	0.000	Y_WP:	0.750	X:	-0.012	Y:	-1.005	Z:	0.044	yaw:	-0.159	yaw rate:	0.729	Roll:	-0.171	Pitch:	-29.944	Yaw:	-0.332	Thrust:	90.146
Time:	0.617	Roll Set Point:	0.022	Pitch Set Point:	2.009	Yaw Set Point:	0.003	X_WP:	0.000	Y_WP:	0.000	Y_WP:	0.750	X:	-0.012	Y:	-1.005	Z:	0.044	yaw:	-0.172	yaw rate:	1.326	Roll:	-0.079	Pitch:	-29.789	Yaw:	-0.451	Thrust:	83.394
Time:	0.637	Roll Set Point:	0.022	Pitch Set Point:	2.009	Yaw Set Point:	0.003	X_WP:	0.000	Y_WP:	0.000	Y_WP:	0.750	X:	-0.012	Y:	-1.005	Z:	0.044	yaw:	-0.165	yaw rate:	-0.739	Roll:	-0.390	Pitch:	-29.904	Yaw:	-0.156	Thrust:	89.793
Time:	0.657	Roll Set Point:	0.022	Pitch Set Point:	2.009	Yaw Set Point:	0.003	X_WP:	0.000	Y_WP:	0.000	Y_WP:	0.750	X:	-0.012	Y:	-1.005	Z:	0.044	yaw:	-0.180	yaw rate:	1.492	Roll:	-0.073	Pitch:	-29.879	Yaw:	-0.474	Thrust:	90.271
Time:	0.676	Roll Set Point:	0.022	Pitch Set Point:	2.009	Yaw Set Point:	0.003	X_WP:	0.000	Y_WP:	0.000	Y_WP:	0.750	X:	-0.012	Y:	-1.005	Z:	0.044	yaw:	-0.159	yaw rate:	-2.108	Roll:	-0.612	Pitch:	-29.876	Yaw:	0.035	Thrust:	92.018
Time:	0.698	Roll Set Point:	0.022	Pitch Set Point:	2.009	Yaw Set Point:	0.003	X_WP:	0.000	Y_WP:	0.000	Y_WP:	0.750	X:	-0.012	Y:	-1.005	Z:	0.044	yaw:	-0.180	yaw rate:	2.127	Roll:	0.003	Pitch:	-29.904	Yaw:	-0.537	Thrust:	99.229
Time:	0.717	Roll Set Point:	0.022	Pitch Set Point:	2.009	Yaw Set Point:	0.003	X_WP:	0.000	Y_WP:	0.000	Y_WP:	0.750	X:	-0.012	Y:	-1.005	Z:	0.044	yaw:	-0.178	yaw rate:	-0.161	Roll:	-0.303	Pitch:	-29.877	Yaw:	-0.252	Thrust:	92.301
Time:	0.737	Roll Set Point:	0.022	Pitch Set Point:	2.009	Yaw Set Point:	0.003	X_WP:	0.000	Y_WP:	0.000	Y_WP:	0.750	X:	-0.012	Y:	-1.005	Z:	0.044	yaw:	-0.162	yaw rate:	-1.691	Roll:	-0.548	Pitch:	-29.893	Yaw:	-0.036	Thrust:	98.903
Time:	0.757	Roll Set Point:	0.022	Pitch Set Point:	2.009	Yaw Set Point:	0.003	X_WP:	0.000	Y_WP:	0.000	Y_WP:	0.750	X:	-0.012	Y:	-1.005	Z:	0.044	yaw:	-0.175	yaw rate:	1.345	Roll:	-0.077	Pitch:	-29.868	Yaw:	-0.455	Thrust:	97.786
Time:	0.777	Roll Set Point:	0.022	Pitch Set Point:	2.009	Yaw Set Point:	0.003	X_WP:	0.000	Y_WP:	0.000	Y_WP:	0.750	X:	-0.012	Y:	-1.005	Z:	0.044	yaw:	-0.184	yaw rate:	0.877	Roll:	-0.167	Pitch:	-29.876	Yaw:	-0.399	Thrust:	100.000
Time:	0.802	Roll Set Point:	0.022	Pitch Set Point:	2.009	Yaw Set Point:	0.003	X_WP:	0.000	Y_WP:	0.000	Y_WP:	0.750	X:	-0.012	Y:	-1.005	Z:	0.044	yaw:	-0.174	yaw rate:	-0.998	Roll:	-0.397	Pitch:	-30.000	Yaw:	-0.173	Thrust:	100.000
Time:	0.816	Roll Set Point:	0.021	Pitch Set Point:	2.009	Yaw Set Point:	0.003	X_WP:	0.000	Y_WP:	0.000	Y_WP:	0.750	X:	-0.012	Y:	-1.005	Z:	0.044	yaw:	-0.196	yaw rate:	2.234	Roll:	0.153	Pitch:	-29.706	Yaw:	-0.686	Thrust:	88.631
Time:	0.837	Roll Set Point:	0.022	Pitch Set Point:	2.009	Yaw Set Point:	0.003	X_WP:	0.000	Y_WP:	0.000	Y_WP:	0.750	X:	-0.012	Y:	-1.005	Z:	0.044	yaw:	-0.151	yaw rate:	-4.503	Roll:	-0.946	Pitch:	-29.899	Yaw:	0.311	Thrust:	100.000
Time:	0.857	Roll Set Point:	0.022	Pitch Set Point:	2.009	Yaw Set Point:	0.003	X_WP:	0.000	Y_WP:	0.000	Y_WP:	0.750	X:	-0.012	Y:	-1.005	Z:	0.044	yaw:	-0.180	yaw rate:	2.853	Roll:	0.182	Pitch:	-29.912	Yaw:	-0.659	Thrust:	100.000
Time:	0.877	Roll Set Point:	0.022	Pitch Set Point:	2.009	Yaw Set Point:	0.003	X_WP:	0.000	Y_WP:	0.000	Y_WP:	0.750	X:	-0.012	Y:	-1.005	Z:	0.044	yaw:	-0.170	yaw rate:	-0.939	Roll:	-0.430	Pitch:	-29.859	Yaw:	-0.145	Thrust:	100.000
Time:	0.899	Roll Set Point:	0.022	Pitch Set Point:	2.009	Yaw Set Point:	0.003	X_WP:	0.000	Y_WP:	0.000	Y_WP:	0.750	X:	-0.012	Y:	-1.005	Z:	0.044	yaw:	-0.181	yaw rate:	1.051	Roll:	-0.127	Pitch:	-29.946	Yaw:	-0.417	Thrust:	100.000
Time:	0.916	Roll Set Point:	0.022	Pitch Set Point:	2.009	Yaw Set Point:	0.003	X_WP:	0.000	Y_WP:	0.000	Y_WP:	0.750	X:	-0.012	Y:	-1.005	Z:	0.044	yaw:	-0.173	yaw rate:	-0.796	Roll:	-0.436	Pitch:	-29.815	Yaw:	-0.154	Thrust:	100.000
Time:	0.937	Roll Set Point:	0.022	Pitch Set Point:	2.009	Yaw Set Point:	0.003	X_WP:	0.000	Y_WP:	0.000	Y_WP:	0.750	X:	-0.012	Y:	-1.005	Z:	0.044	yaw:	-0.171	yaw rate:	-0.134	Roll:	-0.303	Pitch:	-29.910	Yaw:	-0.263	Thrust:	100.000
Time:	0.957	Roll Set Point:	0.022	Pitch Set Point:	2.009	Yaw Set Point:	0.003	X_WP:	0.000	Y_WP:	0.000	Y_WP:	0.750	X:	-0.012	Y:	-1.005	Z:	0.044	yaw:	-0.170	yaw rate:	-0.102	Roll:	-0.326	Pitch:	-29.868	Yaw:	-0.269	Thrust:	100.000
Time:	0.977	Roll Set Point:	0.022	Pitch Set Point:	2.009	Yaw Set Point:	0.003	X_WP:	0.000	Y_WP:	0.000	Y_WP:	0.750	X:	-0.012	Y:	-1.005	Z:	0.044	yaw:	-0.177	yaw rate:	0.695	Roll:	-0.197	Pitch:	-29.870	Yaw:	-0.383	Thrust:	100.000
Time:	0.999	Roll Set Point:	0.022	Pitch Set Point:	2.009	Yaw Set Point:	0.003	X_WP:	0.000	Y_WP:	0.000	Y_WP:	0.750	X:	-0.012	Y:	-1.005	Z:	0.044	yaw:	-0.172	yaw rate:	-0.571	Roll:	-0.373	Pitch:	-29.969	Yaw:	-0.221	Thrust:	100.000
Time:	1.017	Roll Set Point:	0.022	Pitch Set Point:	2.009	Yaw Set Point:	0.003	X_WP:	0.000	Y_WP:	0.000	Y_WP:	0.750	X:	-0.012	Y:	-1.005	Z:	0.044	yaw:	-0.185	yaw rate:	1.365	Roll:	-0.081	Pitch:	-29.786	Yaw:	-0.503	Thrust:	100.000
Time:	1.037	Roll Set Point:	0.022	Pitch Set Point:	2.009	Yaw Set Point:	0.003	X_WP:	0.000	Y_WP:	0.000	Y_WP:	0.750	X:	-0.012	Y:	-1.005	Z:	0.044	yaw:	-0.160	yaw rate:	-2.511	Roll:	-0.673	Pitch:	-29.887	Yaw:	0.057	Thrust:	100.000
Time:	1.057	Roll Set Point:	0.022	Pitch Set Point:	2.009	Yaw Set Point:	0.003	X_WP:	0.000	Y_WP:	0.000	Y_WP:	0.750	X:	-0.012	Y:	-1.005	Z:	0.044	yaw:	-0.166	yaw rate:	0.614	Roll:	-0.211	Pitch:	-29.929	Yaw:	-0.360	Thrust:	100.000
Time:	1.077	Roll Set Point:	0.022	Pitch Set Point:	2.009	Yaw Set Point:	0.003	X_WP:	0.000	Y_WP:	0.000	Y_WP:	0.750	X:	-0.012	Y:	-1.005	Z:	0.044	yaw:	-0.168	yaw rate:	0.143	Roll:	-0.275	Pitch:	-29.833	Yaw:	-0.302	Thrust:	100.000
Time:	1.098	Roll Set Point:	0.022	Pitch Set Point:	2.009	Yaw Set Point:	0.003	X_WP:	0.000	Y_WP:	0.000	Y_WP:	0.750	X:	-0.012	Y:	-1.005	Z:	0.044	yaw:	-0.175	yaw rate:	0.683	Roll:	-0.232	Pitch:	-29.911	Yaw:	-0.382	Thrust:	100.000
Time:	1.117	Roll Set Point:	0.022	Pitch Set Point:	2.009	Yaw Set Point:	0.003	X_WP:	0.000	Y_WP:	0.000	Y_WP:	0.750	X:	-0.012	Y:	-1.005	Z:	0.044	yaw:	-0.175	yaw rate:	0.062	Roll:	-0.266	Pitch:	-29.886	Yaw:	-0.302	Thrust:	100.000
Time:	1.137	Roll Set Point:	0.022	Pitch Set Point:	2.009	Yaw Set Point:	0.003	X_WP:	0.000	Y_WP:	0.000	Y_WP:	0.750	X:	-0.012	Y:	-1.005	Z:	0.044	yaw:	-0.170	yaw rate:	-0.478	Roll:	-0.350	Pitch:	-29.915	Yaw:	-0.229	Thrust:	100.000
Time:	1.157	Roll Set Point:	0.022	Pitch Set Point:	2.009	Yaw Set Point:	0.003	X_WP:	0.000	Y_WP:	0.000	Y_WP:	0.750	X:	-0.012	Y:	-1.005	Z:	0.044	yaw:	-0.153	yaw rate:	-1.761	Roll:	-0.630	Pitch:	-29.806	Yaw:	-0.044	Thrust:	100.000
Time:	1.177	Roll Set Point:	0.022	Pitch Set Point:	2.009	Yaw Set Point:	0.003	X_WP:	0.000	Y_WP:	0.000	Y_WP:	0.750	X:	-0.012	Y:	-1.005	Z:	0.044	yaw:	-0.178	yaw rate:	2.500	Roll:	0.113	Pitch:	-29.921	Yaw:	-0.637	Thrust:	100.000
Time:	1.199	Roll Set Point:	0.022	Pitch Set Point:	2.009	Yaw Set Point:	0.003	X_WP:	0.000	Y_WP:	0.000	Y_WP:	0.750	X:	-0.012	Y:	-1.005	Z:	0.044	yaw:	-0.175	yaw rate:	-0.250	Roll:	-0.328	Pitch:	-29.983	Yaw:	-0.279	Thrust:	100.000
Time:	1.217	Roll Set Point:	0.022	Pitch Set Point:	2.009	Yaw Set Point:	0.003	X_WP:	0.000	Y_WP:	0.000	Y_WP:	0.750	X:	-0.012	Y:	-1.005	Z:	0.044	yaw:	-0.159	yaw rate:	-1.586	Roll:	-0.595	Pitch:	-29.760	Yaw:	-0.033	Thrust:	100.000
Time:	1.237	Roll Set Point:	0.022	Pitch Set Point:	2.009	Yaw Set Point:	0.003	X_WP:	0.000	Y_WP:	0.000	Y_WP:	0.750	X:	-0.012	Y:	-1.005	Z:	0.044	yaw:	-0.165	yaw rate:	0.513	Roll:	-0.255	Pitch:	-29.889	Yaw:	-0.355	Thrust:	100.000
Time:	1.257	Roll Set Point:	0.022	Pitch Set Point:	2.009	Yaw Set Point:	0.003	X_WP:	0.000	Y_WP:	0.000	Y_WP:	0.750	X:	-0.012	Y:	-1.005	Z:	0.044	yaw:	-0.163	yaw rate:	-0.121	Roll:	-0.297	Pitch:	-29.926	Yaw:	-0.272	Thrust:	100.000
Time:	1.277	Roll Set Point:	0.022	Pitch Set Point:	2.009	Yaw Set Point:	0.003	X_WP:	0.000	Y_WP:	0.000	Y_WP:	0.750	X:	-0.012	Y:	-1.005	Z:	0.044	yaw:	-0.168	yaw rate:	0.493	Roll:	-0.222	Pitch:	-29.860	Yaw:	-0.360	Thrust:	100.000
Time:	1.298	Roll Set Point:	0.022	Pitch Set Point:	2.009	Yaw Set Point:	0.003	X_WP:	0.000	Y_WP:	0.000	Y_WP:	0.750	X:	-0.012	Y:	-1.005	Z:	0.044	yaw:	-0.174	yaw rate:	0.560	Roll:	-0.255	Pitch:	-29.884	Yaw:	-0.378	Thrust:	100.000
Time:	1.317	Roll Set Point:	0.022	Pitch Set Point:	2.009	Yaw Set Point:	0.003	X_WP:	0.000	Y_WP:	0.000	Y_WP:	0.750	X:	-0.012	Y:	-1.005	Z:	0.044	yaw:	-0.176	yaw rate:	0.254	Roll:	-0.251	Pitch:	-29.909	Yaw:	-0.342	Thrust:	100.000
Time:	1.336	Roll Set Point:	0.022	Pitch Set Point:	2.009	Yaw Set Point:	0.003	X_WP:	0.000	Y_WP:	0.000	Y_WP:	0.750	X:	-0.012	Y:	-1.005	Z:	0.044	yaw:	-0.183	yaw rate:	0.671	Roll:	-0.167	Pitch:	-29.887	Yaw:	-0.408	Thrust:	100.000
Time:	1.357	Roll Set Point:	0.022	Pitch Set Point:	2.009	Yaw Set Point:	0.003	X_WP:	0.000	Y_WP:	0.000	Y_WP:	0.750	X:	-0.012	Y:	-1.005	Z:	0.044	yaw:	-0.181	yaw rate:	-0.203	Roll:	-0.369	Pitch:	-29.858	Yaw:	-0.294	Thrust:	100.000
Time:	1.377	Roll Set Point:	0.022	Pitch Set Point:	2.009	Yaw Set Point:	0.003	X_WP:	0.000	Y_WP:	0.000	Y_WP:	0.750	X:	-0.012	Y:	-1.005	Z:	0.044	yaw:	-0.174	yaw rate:	-0.705	Roll:	-0.384	Pitch:	-29.920	Yaw:	-0.220	Thrust:	100.000
Time:	1.397	Roll Set Point:	0.021	Pitch Set Point:	2.009	Yaw Set Point:	0.003	X_WP:	0.000	Y_WP:	0.000	Y_WP:	0.750	X:	-0.012	Y:	-1.005	Z:	0.044	yaw:	-0.190	yaw rate:	1.572	Roll:	-0.064	Pitch:	-29.876	Yaw:	-0.537	Thrust:	100.000
Time:	1.416	Roll Set Point:	0.022	Pitch Set Point:	2.009	Yaw Set Point:	0.003	X_WP:	0.000	Y_WP:	0.000	Y_WP:	0.750	X:	-0.012	Y:	-1.005	Z:	0.044	yaw:	-0.150	yaw rate:	-4.005	Roll:	-0.914	Pitch:	-29.852	Yaw:	0.272	Thrust:	100.000
Time:	1.437	Roll Set Point:	0.022	Pitch Set Point:	2.009	Yaw Set Point:	0.003	X_WP:	0.000	Y_WP:	0.000	Y_WP:	0.750	X:	-0.012	Y:	-1.005	Z:	0.044	yaw:	-0.185	yaw rate:	3.515	Roll:	0.197	Pitch:	-29.904	Yaw:	-0.787	Thrust:	100.000
Time:	1.457	Roll Set Point:	0.022	Pitch Set Point:	2.009	Yaw Set Point:	0.003	X_WP:	0.000	Y_WP:	0.000	Y_WP:	0.750	X:	-0.012	Y:	-1.005	Z:	0.044	yaw:	-0.172	yaw rate:	-1.252	Roll:	-0.449	Pitch:	-29.932	Yaw:	-0.154	Thrust:	100.000
Time:	1.477	Roll Set Point:	0.022	Pitch Set Point:	2.009	Yaw Set Point:	0.003	X_WP:	0.000	Y_WP:	0.000	Y_WP:	0.750	X:	-0.012	Y:	-1.005	Z:	0.044	yaw:	-0.187	yaw rate:	1.448	Roll:	-0.119	Pitch:	-29.830	Yaw:	-0.528	Thrust:	100.000
Time:	1.497	Roll Set Point:	0.022	Pitch Set Point:	2.009	Yaw Set Point:	0.003	X_WP:	0.000	Y_WP:	0.000	Y_WP:	0.750	X:	-0.012	Y:	-1.005	Z:	0.044	yaw:	-0.171	yaw rate:	-1.614	Roll:	-0.547	Pitch:	-29.902	Yaw:	-0.110	Thrust:	100.000
Time:	1.516	Roll Set Point:	0.022	Pitch Set Point:	2.009	Yaw Set Point:	0.003	X_WP:	0.000	Y_WP:	0.000	Y_WP:	0.750	X:	-0.012	Y:	-1.005	Z:	0.044	yaw:	-0.178	yaw rate:	0.722	Roll:	-0.170	Pitch:	-29.917	Yaw:	-0.419	Thrust:	100.000
Time:	1.537	Roll Set Point:	0.022	Pitch Set Point:	2.009	Yaw Set Point:	0.003	X_WP:	0.000	Y_WP:	0.000	Y_WP:	0.750	X:	-0.012	Y:	-1.005	Z:	0.044	yaw:	-0.185	yaw rate:	0.705	Roll:	-0.226	Pitch:	-29.852	Yaw:	-0.427	Thrust:	100.000
Time:	1.557	Roll Set Point:	0.022	Pitch Set Point:	2.009	Yaw Set Point:	0.003	X_WP:	0.000	Y_WP:	0.000	Y_WP:	0.750	X:	-0.012	Y:	-1.005	Z:	0.044	yaw:	-0.152	yaw rate:	-3.303	Roll:	-0.812	Pitch:	-29.863	Yaw:	0.144	Thrust:	100.000
Time:	1.576	Roll Set Point:	0.022	Pitch Set Point:	2.009	Yaw Set Point:	0.003	X_WP:	0.000	Y_WP:	0.000	Y_WP:	0.750	X:	-0.012	Y:	-1.005	Z:	0.044	yaw:	-0.155	yaw rate:	0.324	Roll:	-0.274	Pitch:	-29.901	Yaw:	-0.338	Thrust:	100.000
Time:	1.597	Roll Set Point:	0.022	Pitch Set Point:	2.009	Yaw Set Point:	0.003	X_WP:	0.000	Y_WP:	0.000	Y_WP:	0.750	X:	-0.012	Y:	-1.005	Z:	0.044	yaw:	-0.170	yaw rate:	1.484	Roll:	-0.073	Pitch:	-29.936	Yaw:	-0.507	Thrust:	100.000
Time:	1.617	Roll Set Point:	0.022	Pitch Set Point:	2.009	Yaw Set Point:	0.003	X_WP:	0.000	Y_WP:	0.000	Y_WP:	0.750	X:	-0.012	Y:	-1.005	Z:	0.044	yaw:	-0.152	yaw rate:	-1.779	Roll:	-0.615	Pitch:	-29.830	Yaw:	-0.053	Thrust:	100.000
Time:	1.637	Roll Set Point:	0.022	Pitch Set Point:	2.009	Yaw Set Point:	0.003	X_WP:	0.000	Y_WP:	0.000	Y_WP:	0.750	X:	-0.012	Y:	-1.005	Z:	0.044	yaw:	-0.172	yaw rate:	2.027	Roll:	0.023	Pitch:	-29.890	Yaw:	-0.588	Thrust:	100.000
Time:	1.657	Roll Set Point:	0.022	Pitch Set Point:	2.009	Yaw Set Point:	0.003	X_WP:	0.000	Y_WP:	0.000	Y_WP:	0.750	X:	-0.012	Y:	-1.005	Z:	0.044	yaw:	-0.164	yaw rate:	-0.813	Roll:	-0.430	Pitch:	-29.919	Yaw:	-0.205	Thrust:	100.000
Time:	1.676	Roll Set Point:	0.022	Pitch Set Point:	2.009	Yaw Set Point:	0.003	X_WP:	0.000	Y_WP:	0.000	Y_WP:	0.750	X:	-0.012	Y:	-1.005	Z:	0.044	yaw:	-0.163	yaw rate:	-0.162	Roll:	-0.365	Pitch:	-29.833	Yaw:	-0.288	Thrust:	100.000
Time:	1.697	Roll Set Point:	0.022	Pitch Set Point:	2.009	Yaw Set Point:	0.003	X_WP:	0.000	Y_WP:	0.000	Y_WP:	0.750	X:	-0.012	Y:	-1.005	Z:	0.044	yaw:	-0.146	yaw rate:	-1.679	Roll:	-0.566	Pitch:	-29.889	Yaw:	-0.073	Thrust:	100.000
Time:	1.715	Roll Set Point:	0.022	Pitch Set Point:	2.009	Yaw Set Point:	0.003	X_WP:	0.000	Y_WP:	0.000	Y_WP:	0.750	X:	-0.012	Y:	-1.005	Z:	0.044	yaw:	-0.183	yaw rate:	3.712	Roll:	0.274	Pitch:	-29.879	Yaw:	-0.847	Thrust:	100.000
Time:	1.736	Roll Set Point:	0.022	Pitch Set Point:	2.009	Yaw Set Point:	0.003	X_WP:	0.000	Y_WP:	0.000	Y_WP:	0.750	X:	-0.012	Y:	-1.005	Z:	0.044	yaw:	-0.158	yaw rate:	-2.547	Roll:	-0.691	Pitch:	-29.896	Yaw:	0.014	Thrust:	100.000
Time:	1.757	Roll Set Point:	0.022	Pitch Set Point:	2.009	Yaw Set Point:	0.003	X_WP:	0.000	Y_WP:	0.000	Y_WP:	0.750	X:	-0.012	Y:	-1.005	Z:	0.044	yaw:	-0.165	yaw rate:	0.697	Roll:	-0.237	Pitch:	-29.881	Yaw:	-0.410	Thrust:	100.000
Time:	1.776	Roll Set Point:	0.022	Pitch Set Point:	2.009	Yaw Set Point:	0.003	X_WP:	0.000	Y_WP:	0.000	Y_WP:	0.750	X:	-0.012	Y:	-1.005	Z:	0.044	yaw:	-0.150	yaw rate:	-1.484	Roll:	-0.524	Pitch:	-29.877	Yaw:	-0.103	Thrust:	100.000
Time:	1.796	Roll Set Point:	0.022	Pitch Set Point:	2.009	Yaw Set Point:	0.003	X_WP:	0.000	Y_WP:	0.000	Y_WP:	0.750	X:	-0.012	Y:	-1.005	Z:	0.044	yaw:	-0.173	yaw rate:	2.337	Roll:	0.040	Pitch:	-29.933	Yaw:	-0.634	Thrust:	100.000
Time:	1.817	Roll Set Point:	0.022	Pitch Set Point:	2.009	Yaw Set Point:	0.003	X_WP:	0.000	Y_WP:	0.000	Y_WP:	0.750	X:	-0.012	Y:	-1.005	Z:	0.044	yaw:	-0.171	yaw rate:	-0.224	Roll:	-0.372	Pitch:	-29.865	Yaw:	-0.302	Thrust:	100.000
Time:	1.838	Roll Set Point:	0.022	Pitch Set Point:	2.009	Yaw Set Point:	0.003	X_WP:	0.000	Y_WP:	0.000	Y_WP:	0.750	X:	-0.012	Y:	-1.005	Z:	0.044	yaw:	-0.179	yaw rate:	0.824	Roll:	-0.183	Pitch:	-29.909	Yaw:	-0.452	Thrust:	100.000
Time:	1.857	Roll Set Point:	0.022	Pitch Set Point:	2.009	Yaw Set Point:	0.003	X_WP:	0.000	Y_WP:	0.000	Y_WP:	0.750	X:	-0.012	Y:	-1.005	Z:	0.044	yaw:	-0.168	yaw rate:	-1.126	Roll:	-0.482	Pitch:	-29.876	Yaw:	-0.177	Thrust:	100.000
Time:	1.876	Roll Set Point:	0.022	Pitch Set Point:	2.009	Yaw Set Point:	0.003	X_WP:	0.000	Y_WP:	0.000	Y_WP:	0.750	X:	-0.012	Y:	-1.005	Z:	0.044	yaw:	-0.167	yaw rate:	-0.080	Roll:	-0.336	Pitch:	-29.854	Yaw:	-0.315	Thrust:	100.000
Time:	1.897	Roll Set Point:	0.022	Pitch Set Point:	2.009	Yaw Set Point:	0.003	X_WP:	0.000	Y_WP:	0.000	Y_WP:	0.750	X:	-0.012	Y:	-1.005	Z:	0.044	yaw:	-0.154	yaw rate:	-1.260	Roll:	-0.523	Pitch:	-29.879	Yaw:	-0.162	Thrust:	100.000
Time:	1.916	Roll Set Point:	0.022	Pitch Set Point:	2.009	Yaw Set Point:	0.003	X_WP:	0.000	Y_WP:	0.000	Y_WP:	0.750	X:	-0.012	Y:	-1.005	Z:	0.044	yaw:	-0.171	yaw rate:	1.616	Roll:	-0.068	Pitch:	-29.914	Yaw:	-0.552	Thrust:	100.000
Time:	1.937	Roll Set Point:	0.022	Pitch Set Point:	2.009	Yaw Set Point:	0.003	X_WP:	0.000	Y_WP:	0.000	Y_WP:	0.750	X:	-0.012	Y:	-1.005	Z:	0.044	yaw:	-0.149	yaw rate:	-2.174	Roll:	-0.650	Pitch:	-29.902	Yaw:	-0.027	Thrust:	100.000
Time:	1.957	Roll Set Point:	0.022	Pitch Set Point:	2.009	Yaw Set Point:	0.003	X_WP:	0.000	Y_WP:	0.000	Y_WP:	0.750	X:	-0.012	Y:	-1.005	Z:	0.044	yaw:	-0.165	yaw rate:	1.582	Roll:	-0.114	Pitch:	-29.858	Yaw:	-0.538	Thrust:	100.000
Time:	1.976	Roll Set Point:	0.022	Pitch Set Point:	2.009	Yaw Set Point:	0.003	X_WP:	0.000	Y_WP:	0.000	Y_WP:	0.750	X:	-0.012	Y:	-1.005	Z:	0.044	yaw:	-0.167	yaw rate:	0.266	Roll:	-0.265	Pitch:	-29.884	Yaw:	-0.370	Thrust:	100.000
Time:	1.997	Roll Set Point:	0.022	Pitch Set Point:	2.009	Yaw Set Point:	0.003	X_WP:	0.000	Y_WP:	0.000	Y_WP:	0.750	X:	-0.012	Y:	-1.005	Z:	0.044	yaw:	-0.165	yaw rate:	-0.211	Roll:	-0.357	Pitch:	-29.928	Yaw:	-0.311	Thrust:	100.000
Time:	2.017	Roll Set Point:	0.022	Pitch Set Point:	2.009	Yaw Set Point:	0.003	X_WP:	0.000	Y_WP:	0.000	Y_WP:	0.750	X:	-0.012	Y:	-1.005	Z:	0.044	yaw:	-0.165	yaw rate:	-0.043	Roll:	-0.335	Pitch:	-29.852	Yaw:	-0.325	Thrust:	100.000
Time:	2.038	Roll Set Point:	0.022	Pitch Set Point:	2.009	Yaw Set Point:	0.003	X_WP:	0.000	Y_WP:	0.000	Y_WP:	0.750	X:	-0.012	Y:	-1.005	Z:	0.044	yaw:	-0.176	yaw rate:	1.140	Roll:	-0.148	Pitch:	-29.913	Yaw:	-0.499	Thrust:	100.000
Time:	2.056	Roll Set Point:	0.022	Pitch Set Point:	2.009	Yaw Set Point:	0.003	X_WP:	0.000	Y_WP:	0.000	Y_WP:	0.750	X:	-0.012	Y:	-1.005	Z:	0.044	yaw:	-0.162	yaw rate:	-1.400	Roll:	-0.557	Pitch:	-29.857	Yaw:	-0.129	Thrust:	100.000
Time:	2.078	Roll Set Point:	0.022	Pitch Set Point:	2.009	Yaw Set Point:	0.003	X_WP:	0.000	Y_WP:	0.000	Y_WP:	0.750	X:	-0.012	Y:	-1.005	Z:	0.044	yaw:	-0.171	yaw rate:	0.872	Roll:	-0.194	Pitch:	-29.923	Yaw:	-0.461	Thrust:	100.000
Time:	2.097	Roll Set Point:	0.022	Pitch Set Point:	2.009	Yaw Set Point:	0.003	X_WP:	0.000	Y_WP:	0.000	Y_WP:	0.750	X:	-0.012	Y:	-1.005	Z:	0.044	yaw:	-0.167	yaw rate:	-0.378	Roll:	-0.376	Pitch:	-29.842	Yaw:	-0.290	Thrust:	100.000
Time:	2.117	Roll Set Point:	0.022	Pitch Set Point:	2.009	Yaw Set Point:	0.003	X_WP:	0.000	Y_WP:	0.000	Y_WP:	0.750	X:	-0.012	Y:	-1.005	Z:	0.044	yaw:	-0.165	yaw rate:	-0.218	Roll:	-0.370	Pitch:	-29.895	Yaw:	-0.308	Thrust:	100.000
Time:	2.136	Roll Set Point:	0.022	Pitch Set Point:	2.009	Yaw Set Point:	0.003	X_WP:	0.000	Y_WP:	0.000	Y_WP:	0.750	X:	-0.012	Y:	-1.005	Z:	0.044	yaw:	-0.176	yaw rate:	1.079	Roll:	-0.147	Pitch:	-29.889	Yaw:	-0.499	Thrust:	100.000
Time:	2.157	Roll Set Point:	0.022	Pitch Set Point:	2.009	Yaw Set Point:	0.003	X_WP:	0.000	Y_WP:	0.000	Y_WP:	0.750	X:	-0.012	Y:	-1.005	Z:	0.044	yaw:	-0.176	yaw rate:	0.001	Roll:	-0.327	Pitch:	-29.903	Yaw:	-0.365	Thrust:	100.000
Time:	2.178	Roll Set Point:	0.022	Pitch Set Point:	2.009	Yaw Set Point:	0.003	X_WP:	0.000	Y_WP:	0.000	Y_WP:	0.750	X:	-0.012	Y:	-1.005	Z:	0.044	yaw:	-0.165	yaw rate:	-1.034	Roll:	-0.488	Pitch:	-29.883	Yaw:	-0.205	Thrust:	100.000
Time:	2.197	Roll Set Point:	0.022	Pitch Set Point:	2.009	Yaw Set Point:	0.003	X_WP:	0.000	Y_WP:	0.000	Y_WP:	0.750	X:	-0.012	Y:	-1.005	Z:	0.044	yaw:	-0.173	yaw rate:	0.723	Roll:	-0.207	Pitch:	-29.895	Yaw:	-0.451	Thrust:	100.000
Time:	2.216	Roll Set Point:	0.022	Pitch Set Point:	2.009	Yaw Set Point:	0.003	X_WP:	0.000	Y_WP:	0.000	Y_WP:	0.750	X:	-0.012	Y:	-1.005	Z:	0.044	yaw:	-0.161	yaw rate:	-1.131	Roll:	-0.495	Pitch:	-29.878	Yaw:	-0.185	Thrust:	100.000
Time:	2.237	Roll Set Point:	0.022	Pitch Set Point:	2.009	Yaw Set Point:	0.003	X_WP:	0.000	Y_WP:	0.000	Y_WP:	0.750	X:	-0.012	Y:	-1.005	Z:	0.044	yaw:	-0.170	yaw rate:	0.876	Roll:	-0.209	Pitch:	-29.877	Yaw:	-0.470	Thrust:	100.000
Time:	2.257	Roll Set Point:	0.022	Pitch Set Point:	2.009	Yaw Set Point:	0.003	X_WP:	0.000	Y_WP:	0.000	Y_WP:	0.750	X:	-0.012	Y:	-1.005	Z:	0.044	yaw:	-0.189	yaw rate:	1.842	Roll:	-0.041	Pitch:	-29.888	Yaw:	-0.620	Thrust:	100.000
Time:	2.278	Roll Set Point:	0.022	Pitch Set Point:	2.009	Yaw Set Point:	0.003	X_WP:	0.000	Y_WP:	0.000	Y_WP:	0.750	X:	-0.012	Y:	-1.005	Z:	0.044	yaw:	-0.164	yaw rate:	-2.442	Roll:	-0.675	Pitch:	-29.915	Yaw:	-0.034	Thrust:	100.000
Time:	6.249	Roll Set Point:	0.022	Pitch Set Point:	2.009	Yaw Set Point:	0.003	X_WP:	0.000	Y_WP:	0.000	Y_WP:	0.750	X:	-0.012	Y:	-1.005	Z:	0.044	yaw:	-0.173	yaw rate:	0.860	Roll:	-11.209	Pitch:	-30.000	Yaw:	-24.261	Thrust:	100.000
Time:	6.271	Roll Set Point:	0.022	Pitch Set Point:	2.009	Yaw Set Point:	0.003	X_WP:	0.000	Y_WP:	0.000	Y_WP:	0.750	X:	-0.012	Y:	-1.005	Z:	0.044	yaw:	-0.178	yaw rate:	-0.107	Roll:	-0.284	Pitch:	-29.901	Yaw:	-0.444	Thrust:	100.000
Time:	6.284	Roll Set Point:	0.021	Pitch Set Point:	2.009	Yaw Set Point:	0.004	X_WP:	0.000	Y_WP:	0.000	Y_WP:	0.750	X:	-0.012	Y:	-1.005	Z:	0.044	yaw:	-0.218	yaw rate:	4.027	Roll:	0.628	Pitch:	-29.616	Yaw:	-1.223	Thrust:	100.000
Time:	6.300	Roll Set Point:	0.031	Pitch Set Point:	2.009	Yaw Set Point:	-0.006	X_WP:	0.000	Y_WP:	0.000	Y_WP:	0.750	X:	-0.012	Y:	-1.004	Z:	0.044	yaw:	0.355	yaw rate:	-57.310	Roll:	-11.639	Pitch:	-29.574	Yaw:	9.454	Thrust:	100.000
Time:	6.318	Roll Set Point:	0.031	Pitch Set Point:	2.009	Yaw Set Point:	-0.006	X_WP:	0.000	Y_WP:	0.000	Y_WP:	0.750	X:	-0.012	Y:	-1.005	Z:	0.044	yaw:	0.354	yaw rate:	0.048	Roll:	-0.714	Pitch:	-29.908	Yaw:	0.380	Thrust:	100.000
Time:	6.338	Roll Set Point:	0.030	Pitch Set Point:	2.009	Yaw Set Point:	-0.005	X_WP:	0.000	Y_WP:	0.000	Y_WP:	0.750	X:	-0.012	Y:	-1.005	Z:	0.044	yaw:	0.312	yaw rate:	4.195	Roll:	0.107	Pitch:	-29.889	Yaw:	-0.230	Thrust:	100.000
Time:	6.360	Roll Set Point:	0.030	Pitch Set Point:	2.009	Yaw Set Point:	-0.005	X_WP:	0.000	Y_WP:	0.000	Y_WP:	0.750	X:	-0.012	Y:	-1.005	Z:	0.044	yaw:	0.301	yaw rate:	1.190	Roll:	-0.437	Pitch:	-29.955	Yaw:	0.148	Thrust:	100.000
Time:	6.381	Roll Set Point:	0.029	Pitch Set Point:	2.009	Yaw Set Point:	-0.005	X_WP:	0.000	Y_WP:	0.000	Y_WP:	0.750	X:	-0.012	Y:	-1.005	Z:	0.044	yaw:	0.269	yaw rate:	3.134	Roll:	-0.101	Pitch:	-29.978	Yaw:	-0.136	Thrust:	100.000
Time:	6.401	Roll Set Point:	0.030	Pitch Set Point:	2.009	Yaw Set Point:	-0.006	X_WP:	0.000	Y_WP:	0.000	Y_WP:	0.750	X:	-0.012	Y:	-1.005	Z:	0.044	yaw:	0.320	yaw rate:	-5.085	Roll:	-1.366	Pitch:	-29.828	Yaw:	0.992	Thrust:	100.000
Time:	6.419	Roll Set Point:	0.030	Pitch Set Point:	2.009	Yaw Set Point:	-0.005	X_WP:	0.000	Y_WP:	0.000	Y_WP:	0.750	X:	-0.012	Y:	-1.005	Z:	0.044	yaw:	0.303	yaw rate:	1.657	Roll:	-0.319	Pitch:	-29.800	Yaw:	0.083	Thrust:	100.000
Time:	6.439	Roll Set Point:	0.030	Pitch Set Point:	2.009	Yaw Set Point:	-0.005	X_WP:	0.000	Y_WP:	0.000	Y_WP:	0.750	X:	-0.012	Y:	-1.005	Z:	0.044	yaw:	0.307	yaw rate:	-0.372	Roll:	-0.592	Pitch:	-29.938	Yaw:	0.369	Thrust:	100.000
Time:	6.459	Roll Set Point:	0.030	Pitch Set Point:	2.009	Yaw Set Point:	-0.005	X_WP:	0.000	Y_WP:	0.000	Y_WP:	0.750	X:	-0.012	Y:	-1.005	Z:	0.044	yaw:	0.307	yaw rate:	0.041	Roll:	-0.582	Pitch:	-29.863	Yaw:	0.317	Thrust:	100.000
Time:	6.479	Roll Set Point:	0.030	Pitch Set Point:	2.009	Yaw Set Point:	-0.005	X_WP:	0.000	Y_WP:	0.000	Y_WP:	0.750	X:	-0.012	Y:	-1.005	Z:	0.044	yaw:	0.313	yaw rate:	-0.623	Roll:	-0.693	Pitch:	-29.863	Yaw:	0.410	Thrust:	100.000
Time:	6.499	Roll Set Point:	0.030	Pitch Set Point:	2.009	Yaw Set Point:	-0.005	X_WP:	0.000	Y_WP:	0.000	Y_WP:	0.750	X:	-0.012	Y:	-1.005	Z:	0.044	yaw:	0.307	yaw rate:	0.592	Roll:	-0.483	Pitch:	-29.890	Yaw:	0.248	Thrust:	100.000
Time:	6.519	Roll Set Point:	0.030	Pitch Set Point:	2.009	Yaw Set Point:	-0.006	X_WP:	0.000	Y_WP:	0.000	Y_WP:	0.750	X:	-0.012	Y:	-1.005	Z:	0.044	yaw:	0.321	yaw rate:	-1.386	Roll:	-0.766	Pitch:	-29.864	Yaw:	0.554	Thrust:	100.000
Time:	6.539	Roll Set Point:	0.030	Pitch Set Point:	2.009	Yaw Set Point:	-0.005	X_WP:	0.000	Y_WP:	0.000	Y_WP:	0.750	X:	-0.012	Y:	-1.005	Z:	0.044	yaw:	0.292	yaw rate:	2.857	Roll:	-0.164	Pitch:	-29.906	Yaw:	-0.049	Thrust:	100.000
Time:	6.558	Roll Set Point:	0.030	Pitch Set Point:	2.009	Yaw Set Point:	-0.005	X_WP:	0.000	Y_WP:	0.000	Y_WP:	0.750	X:	-0.012	Y:	-1.005	Z:	0.044	yaw:	0.294	yaw rate:	-0.187	Roll:	-0.627	Pitch:	-29.851	Yaw:	0.340	Thrust:	100.000
Time:	6.581	Roll Set Point:	0.030	Pitch Set Point:	2.009	Yaw Set Point:	-0.006	X_WP:	0.000	Y_WP:	0.000	Y_WP:	0.750	X:	-0.012	Y:	-1.005	Z:	0.044	yaw:	0.315	yaw rate:	-2.095	Roll:	-0.839	Pitch:	-29.987	Yaw:	0.590	Thrust:	100.000
Time:	6.600	Roll Set Point:	0.030	Pitch Set Point:	2.009	Yaw Set Point:	-0.005	X_WP:	0.000	Y_WP:	0.000	Y_WP:	0.750	X:	-0.012	Y:	-1.005	Z:	0.044	yaw:	0.301	yaw rate:	1.409	Roll:	-0.378	Pitch:	-29.822	Yaw:	0.141	Thrust:	100.000
Time:	6.618	Roll Set Point:	0.030	Pitch Set Point:	2.009	Yaw Set Point:	-0.005	X_WP:	0.000	Y_WP:	0.000	Y_WP:	0.750	X:	-0.012	Y:	-1.005	Z:	0.044	yaw:	0.302	yaw rate:	-0.047	Roll:	-0.585	Pitch:	-29.815	Yaw:	0.346	Thrust:	100.000
Time:	6.640	Roll Set Point:	0.030	Pitch Set Point:	2.009	Yaw Set Point:	-0.006	X_WP:	0.000	Y_WP:	0.000	Y_WP:	0.750	X:	-0.012	Y:	-1.005	Z:	0.044	yaw:	0.317	yaw rate:	-1.500	Roll:	-0.780	Pitch:	-29.973	Yaw:	0.521	Thrust:	100.000
Time:	6.658	Roll Set Point:	0.030	Pitch Set Point:	2.009	Yaw Set Point:	-0.005	X_WP:	0.000	Y_WP:	0.000	Y_WP:	0.750	X:	-0.012	Y:	-1.005	Z:	0.044	yaw:	0.304	yaw rate:	1.227	Roll:	-0.401	Pitch:	-29.829	Yaw:	0.170	Thrust:	100.000
Time:	6.680	Roll Set Point:	0.030	Pitch Set Point:	2.009	Yaw Set Point:	-0.006	X_WP:	0.000	Y_WP:	0.000	Y_WP:	0.750	X:	-0.012	Y:	-1.005	Z:	0.044	yaw:	0.331	yaw rate:	-2.630	Roll:	-0.989	Pitch:	-29.908	Yaw:	0.689	Thrust:	100.000
Time:	6.698	Roll Set Point:	0.030	Pitch Set Point:	2.009	Yaw Set Point:	-0.005	X_WP:	0.000	Y_WP:	0.000	Y_WP:	0.750	X:	-0.012	Y:	-1.005	Z:	0.044	yaw:	0.300	yaw rate:	3.033	Roll:	-0.081	Pitch:	-29.855	Yaw:	-0.092	Thrust:	100.000
Time:	6.719	Roll Set Point:	0.030	Pitch Set Point:	2.009	Yaw Set Point:	-0.006	X_WP:	0.000	Y_WP:	0.000	Y_WP:	0.750	X:	-0.012	Y:	-1.005	Z:	0.044	yaw:	0.335	yaw rate:	-3.441	Roll:	-1.085	Pitch:	-29.885	Yaw:	0.824	Thrust:	100.000
Time:	6.740	Roll Set Point:	0.030	Pitch Set Point:	2.009	Yaw Set Point:	-0.006	X_WP:	0.000	Y_WP:	0.000	Y_WP:	0.750	X:	-0.012	Y:	-1.005	Z:	0.044	yaw:	0.317	yaw rate:	1.819	Roll:	-0.366	Pitch:	-29.895	Yaw:	0.132	Thrust:	100.000
Time:	6.759	Roll Set Point:	0.030	Pitch Set Point:	2.009	Yaw Set Point:	-0.005	X_WP:	0.000	Y_WP:	0.000	Y_WP:	0.750	X:	-0.012	Y:	-1.005	Z:	0.044	yaw:	0.312	yaw rate:	0.469	Roll:	-0.497	Pitch:	-29.858	Yaw:	0.300	Thrust:	100.000
Time:	6.779	Roll Set Point:	0.030	Pitch Set Point:	2.009	Yaw Set Point:	-0.005	X_WP:	0.000	Y_WP:	0.000	Y_WP:	0.750	X:	-0.012	Y:	-1.005	Z:	0.044	yaw:	0.287	yaw rate:	2.460	Roll:	-0.231	Pitch:	-29.926	Yaw:	0.012	Thrust:	100.000
Time:	6.800	Roll Set Point:	0.030	Pitch Set Point:	2.009	Yaw Set Point:	-0.005	X_WP:	0.000	Y_WP:	0.000	Y_WP:	0.750	X:	-0.012	Y:	-1.005	Z:	0.044	yaw:	0.303	yaw rate:	-1.544	Roll:	-0.813	Pitch:	-29.903	Yaw:	0.540	Thrust:	100.000
Time:	6.818	Roll Set Point:	0.030	Pitch Set Point:	2.009	Yaw Set Point:	-0.006	X_WP:	0.000	Y_WP:	0.000	Y_WP:	0.750	X:	-0.012	Y:	-1.005	Z:	0.044	yaw:	0.325	yaw rate:	-2.241	Roll:	-0.972	Pitch:	-29.805	Yaw:	0.717	Thrust:	100.000
Time:	6.838	Roll Set Point:	0.030	Pitch Set Point:	2.009	Yaw Set Point:	-0.005	X_WP:	0.000	Y_WP:	0.000	Y_WP:	0.750	X:	-0.012	Y:	-1.005	Z:	0.044	yaw:	0.306	yaw rate:	1.903	Roll:	-0.264	Pitch:	-29.886	Yaw:	0.117	Thrust:	100.000
Time:	6.868	Roll Set Point:	0.030	Pitch Set Point:	2.009	Yaw Set Point:	-0.005	X_WP:	0.000	Y_WP:	0.000	Y_WP:	0.750	X:	-0.012	Y:	-1.005	Z:	0.044	yaw:	0.310	yaw rate:	-0.384	Roll:	-0.681	Pitch:	-30.000	Yaw:	0.376	Thrust:	100.000
Time:	6.886	Roll Set Point:	0.030	Pitch Set Point:	2.009	Yaw Set Point:	-0.006	X_WP:	0.000	Y_WP:	0.000	Y_WP:	0.750	X:	-0.012	Y:	-1.005	Z:	0.044	yaw:	0.315	yaw rate:	-0.543	Roll:	-0.672	Pitch:	-29.810	Yaw:	0.455	Thrust:	100.000
Time:	6.906	Roll Set Point:	0.030	Pitch Set Point:	2.009	Yaw Set Point:	-0.005	X_WP:	0.000	Y_WP:	0.000	Y_WP:	0.750	X:	-0.012	Y:	-1.005	Z:	0.044	yaw:	0.315	yaw rate:	0.044	Roll:	-0.586	Pitch:	-29.872	Yaw:	0.375	Thrust:	100.000
Time:	6.925	Roll Set Point:	0.030	Pitch Set Point:	2.009	Yaw Set Point:	-0.005	X_WP:	0.000	Y_WP:	0.000	Y_WP:	0.750	X:	-0.012	Y:	-1.005	Z:	0.044	yaw:	0.309	yaw rate:	0.601	Roll:	-0.513	Pitch:	-29.906	Yaw:	0.294	Thrust:	100.000
Time:	6.946	Roll Set Point:	0.030	Pitch Set Point:	2.009	Yaw Set Point:	-0.005	X_WP:	0.000	Y_WP:	0.000	Y_WP:	0.750	X:	-0.012	Y:	-1.005	Z:	0.044	yaw:	0.306	yaw rate:	0.290	Roll:	-0.557	Pitch:	-29.878	Yaw:	0.333	Thrust:	100.000
Time:	6.967	Roll Set Point:	0.030	Pitch Set Point:	2.009	Yaw Set Point:	-0.006	X_WP:	0.000	Y_WP:	0.000	Y_WP:	0.750	X:	-0.012	Y:	-1.005	Z:	0.044	yaw:	0.322	yaw rate:	-1.561	Roll:	-0.816	Pitch:	-29.889	Yaw:	0.591	Thrust:	100.000
Time:	6.981	Roll Set Point:	0.030	Pitch Set Point:	2.009	Yaw Set Point:	-0.005	X_WP:	0.000	Y_WP:	0.000	Y_WP:	0.750	X:	-0.012	Y:	-1.005	Z:	0.044	yaw:	0.314	yaw rate:	0.780	Roll:	-0.430	Pitch:	-29.696	Yaw:	0.259	Thrust:	100.000
Time:	7.008	Roll Set Point:	0.030	Pitch Set Point:	2.009	Yaw Set Point:	-0.005	X_WP:	0.000	Y_WP:	0.000	Y_WP:	0.750	X:	-0.012	Y:	-1.005	Z:	0.044	yaw:	0.312	yaw rate:	0.131	Roll:	-0.628	Pitch:	-30.000	Yaw:	0.358	Thrust:	100.000
Time:	7.020	Roll Set Point:	0.030	Pitch Set Point:	2.009	Yaw Set Point:	-0.006	X_WP:	0.000	Y_WP:	0.000	Y_WP:	0.750	X:	-0.012	Y:	-1.005	Z:	0.044	yaw:	0.328	yaw rate:	-1.570	Roll:	-0.936	Pitch:	-29.601	Yaw:	0.769	Thrust:	100.000
Time:	7.048	Roll Set Point:	0.030	Pitch Set Point:	2.009	Yaw Set Point:	-0.006	X_WP:	0.000	Y_WP:	0.000	Y_WP:	0.750	X:	-0.012	Y:	-1.005	Z:	0.044	yaw:	0.323	yaw rate:	0.472	Roll:	-0.585	Pitch:	-30.000	Yaw:	0.346	Thrust:	100.000
Time:	7.059	Roll Set Point:	0.030	Pitch Set Point:	2.009	Yaw Set Point:	-0.005	X_WP:	0.000	Y_WP:	0.000	Y_WP:	0.750	X:	-0.012	Y:	-1.005	Z:	0.044	yaw:	0.305	yaw rate:	1.837	Roll:	-0.156	Pitch:	-29.552	Yaw:	-0.006	Thrust:	100.000
Time:	7.078	Roll Set Point:	0.030	Pitch Set Point:	2.009	Yaw Set Point:	-0.005	X_WP:	0.000	Y_WP:	0.000	Y_WP:	0.750	X:	-0.012	Y:	-1.005	Z:	0.044	yaw:	0.309	yaw rate:	-0.380	Roll:	-0.640	Pitch:	-29.862	Yaw:	0.447	Thrust:	100.000
Time:	7.097	Roll Set Point:	0.030	Pitch Set Point:	2.009	Yaw Set Point:	-0.005	X_WP:	0.000	Y_WP:	0.000	Y_WP:	0.750	X:	-0.012	Y:	-1.005	Z:	0.044	yaw:	0.308	yaw rate:	0.124	Roll:	-0.580	Pitch:	-29.850	Yaw:	0.377	Thrust:	100.000
Time:	7.117	Roll Set Point:	0.030	Pitch Set Point:	2.009	Yaw Set Point:	-0.005	X_WP:	0.000	Y_WP:	0.000	Y_WP:	0.750	X:	-0.012	Y:	-1.005	Z:	0.044	yaw:	0.306	yaw rate:	0.191	Roll:	-0.585	Pitch:	-29.879	Yaw:	0.366	Thrust:	100.000
Time:	7.138	Roll Set Point:	0.030	Pitch Set Point:	2.009	Yaw Set Point:	-0.005	X_WP:	0.000	Y_WP:	0.000	Y_WP:	0.750	X:	-0.012	Y:	-1.005	Z:	0.044	yaw:	0.292	yaw rate:	1.411	Roll:	-0.394	Pitch:	-29.916	Yaw:	0.193	Thrust:	100.000
Time:	7.158	Roll Set Point:	0.024	Pitch Set Point:	2.009	Yaw Set Point:	0.001	X_WP:	0.000	Y_WP:	0.000	Y_WP:	0.750	X:	-0.013	Y:	-1.005	Z:	0.044	yaw:	-0.048	yaw rate:	33.991	Roll:	4.414	Pitch:	-29.982	Yaw:	-4.585	Thrust:	100.000
Time:	7.177	Roll Set Point:	0.025	Pitch Set Point:	2.009	Yaw Set Point:	0.001	X_WP:	0.000	Y_WP:	0.000	Y_WP:	0.750	X:	-0.013	Y:	-1.005	Z:	0.044	yaw:	-0.033	yaw rate:	-1.563	Roll:	-0.687	Pitch:	-29.838	Yaw:	0.133	Thrust:	100.000
Time:	7.200	Roll Set Point:	0.025	Pitch Set Point:	2.009	Yaw Set Point:	0.001	X_WP:	0.000	Y_WP:	0.000	Y_WP:	0.750	X:	-0.013	Y:	-1.005	Z:	0.044	yaw:	-0.034	yaw rate:	0.155	Roll:	-0.444	Pitch:	-30.000	Yaw:	-0.102	Thrust:	100.000
Time:	7.218	Roll Set Point:	0.025	Pitch Set Point:	2.009	Yaw Set Point:	0.001	X_WP:	0.000	Y_WP:	0.000	Y_WP:	0.750	X:	-0.013	Y:	-1.005	Z:	0.044	yaw:	-0.030	yaw rate:	-0.467	Roll:	-0.490	Pitch:	-29.765	Yaw:	-0.001	Thrust:	100.000
Time:	7.238	Roll Set Point:	0.022	Pitch Set Point:	2.009	Yaw Set Point:	0.003	X_WP:	0.000	Y_WP:	0.000	Y_WP:	0.750	X:	-0.012	Y:	-1.005	Z:	0.044	yaw:	-0.191	yaw rate:	16.158	Roll:	2.103	Pitch:	-29.836	Yaw:	-2.408	Thrust:	100.000
Time:	7.258	Roll Set Point:	0.025	Pitch Set Point:	2.009	Yaw Set Point:	0.000	X_WP:	0.000	Y_WP:	0.000	Y_WP:	0.750	X:	-0.013	Y:	-1.005	Z:	0.044	yaw:	-0.026	yaw rate:	-16.465	Roll:	-2.924	Pitch:	-29.946	Yaw:	2.079	Thrust:	100.000
Time:	7.278	Roll Set Point:	0.024	Pitch Set Point:	2.009	Yaw Set Point:	0.001	X_WP:	0.000	Y_WP:	0.000	Y_WP:	0.750	X:	-0.013	Y:	-1.005	Z:	0.044	yaw:	-0.048	yaw rate:	2.168	Roll:	-0.121	Pitch:	-29.900	Yaw:	-0.383	Thrust:	100.000
Time:	7.299	Roll Set Point:	0.022	Pitch Set Point:	2.009	Yaw Set Point:	0.003	X_WP:	0.000	Y_WP:	0.000	Y_WP:	0.750	X:	-0.012	Y:	-1.005	Z:	0.044	yaw:	-0.170	yaw rate:	12.225	Roll:	1.580	Pitch:	-29.808	Yaw:	-1.855	Thrust:	100.000
Time:	7.317	Roll Set Point:	0.022	Pitch Set Point:	2.009	Yaw Set Point:	0.003	X_WP:	0.000	Y_WP:	0.000	Y_WP:	0.750	X:	-0.012	Y:	-1.005	Z:	0.044	yaw:	-0.178	yaw rate:	0.758	Roll:	-0.273	Pitch:	-29.836	Yaw:	-0.386	Thrust:	100.000
Time:	7.337	Roll Set Point:	0.022	Pitch Set Point:	2.009	Yaw Set Point:	0.003	X_WP:	0.000	Y_WP:	0.000	Y_WP:	0.750	X:	-0.012	Y:	-1.005	Z:	0.044	yaw:	-0.177	yaw rate:	-0.130	Roll:	-0.384	Pitch:	-29.908	Yaw:	-0.265	Thrust:	100.000
Time:	7.360	Roll Set Point:	0.022	Pitch Set Point:	2.009	Yaw Set Point:	0.003	X_WP:	0.000	Y_WP:	0.000	Y_WP:	0.750	X:	-0.012	Y:	-1.005	Z:	0.044	yaw:	-0.174	yaw rate:	-0.291	Roll:	-0.427	Pitch:	-29.959	Yaw:	-0.251	Thrust:	100.000
Time:	7.381	Roll Set Point:	0.022	Pitch Set Point:	2.009	Yaw Set Point:	0.003	X_WP:	0.000	Y_WP:	0.000	Y_WP:	0.750	X:	-0.012	Y:	-1.005	Z:	0.044	yaw:	-0.186	yaw rate:	1.233	Roll:	-0.188	Pitch:	-29.908	Yaw:	-0.455	Thrust:	100.000
Time:	7.399	Roll Set Point:	0.022	Pitch Set Point:	2.009	Yaw Set Point:	0.003	X_WP:	0.000	Y_WP:	0.000	Y_WP:	0.750	X:	-0.012	Y:	-1.005	Z:	0.044	yaw:	-0.184	yaw rate:	-0.241	Roll:	-0.408	Pitch:	-29.814	Yaw:	-0.260	Thrust:	100.000
Time:	7.418	Roll Set Point:	0.022	Pitch Set Point:	2.009	Yaw Set Point:	0.003	X_WP:	0.000	Y_WP:	0.000	Y_WP:	0.750	X:	-0.012	Y:	-1.005	Z:	0.044	yaw:	-0.184	yaw rate:	0.011	Roll:	-0.353	Pitch:	-29.868	Yaw:	-0.299	Thrust:	100.000
Time:	7.438	Roll Set Point:	0.022	Pitch Set Point:	2.009	Yaw Set Point:	0.003	X_WP:	0.000	Y_WP:	0.000	Y_WP:	0.750	X:	-0.012	Y:	-1.005	Z:	0.044	yaw:	-0.178	yaw rate:	-0.564	Roll:	-0.472	Pitch:	-29.882	Yaw:	-0.213	Thrust:	100.000
Time:	7.458	Roll Set Point:	0.022	Pitch Set Point:	2.009	Yaw Set Point:	0.003	X_WP:	0.000	Y_WP:	0.000	Y_WP:	0.750	X:	-0.012	Y:	-1.005	Z:	0.044	yaw:	-0.189	yaw rate:	1.089	Roll:	-0.197	Pitch:	-29.895	Yaw:	-0.448	Thrust:	100.000
Time:	7.478	Roll Set Point:	0.022	Pitch Set Point:	2.009	Yaw Set Point:	0.003	X_WP:	0.000	Y_WP:	0.000	Y_WP:	0.750	X:	-0.012	Y:	-1.005	Z:	0.044	yaw:	-0.181	yaw rate:	-0.848	Roll:	-0.507	Pitch:	-29.859	Yaw:	-0.183	Thrust:	100.000
Time:	7.498	Roll Set Point:	0.022	Pitch Set Point:	2.009	Yaw Set Point:	0.003	X_WP:	0.000	Y_WP:	0.000	Y_WP:	0.750	X:	-0.012	Y:	-1.005	Z:	0.044	yaw:	-0.195	yaw rate:	1.461	Roll:	-0.159	Pitch:	-29.858	Yaw:	-0.510	Thrust:	100.000
Time:	7.517	Roll Set Point:	0.022	Pitch Set Point:	2.009	Yaw Set Point:	0.003	X_WP:	0.000	Y_WP:	0.000	Y_WP:	0.750	X:	-0.012	Y:	-1.005	Z:	0.044	yaw:	-0.192	yaw rate:	-0.315	Roll:	-0.395	Pitch:	-29.901	Yaw:	-0.271	Thrust:	100.000
Time:	7.537	Roll Set Point:	0.022	Pitch Set Point:	2.009	Yaw Set Point:	0.003	X_WP:	0.000	Y_WP:	0.000	Y_WP:	0.750	X:	-0.012	Y:	-1.005	Z:	0.044	yaw:	-0.184	yaw rate:	-0.822	Roll:	-0.495	Pitch:	-29.875	Yaw:	-0.203	Thrust:	100.000
Time:	7.557	Roll Set Point:	0.022	Pitch Set Point:	2.009	Yaw Set Point:	0.003	X_WP:	0.000	Y_WP:	0.000	Y_WP:	0.750	X:	-0.012	Y:	-1.005	Z:	0.044	yaw:	-0.191	yaw rate:	0.766	Roll:	-0.261	Pitch:	-29.859	Yaw:	-0.420	Thrust:	100.000
Time:	7.577	Roll Set Point:	0.021	Pitch Set Point:	2.009	Yaw Set Point:	0.003	X_WP:	0.000	Y_WP:	0.000	Y_WP:	0.750	X:	-0.012	Y:	-1.005	Z:	0.044	yaw:	-0.196	yaw rate:	0.434	Roll:	-0.282	Pitch:	-29.932	Yaw:	-0.382	Thrust:	100.000
Time:	7.597	Roll Set Point:	0.022	Pitch Set Point:	2.009	Yaw Set Point:	0.003	X_WP:	0.000	Y_WP:	0.000	Y_WP:	0.750	X:	-0.012	Y:	-1.005	Z:	0.044	yaw:	-0.191	yaw rate:	-0.448	Roll:	-0.465	Pitch:	-29.872	Yaw:	-0.265	Thrust:	100.000
Time:	7.618	Roll Set Point:	0.022	Pitch Set Point:	2.009	Yaw Set Point:	0.003	X_WP:	0.000	Y_WP:	0.000	Y_WP:	0.750	X:	-0.012	Y:	-1.005	Z:	0.044	yaw:	-0.174	yaw rate:	-1.723	Roll:	-0.616	Pitch:	-29.864	Yaw:	-0.069	Thrust:	100.000
Time:	7.637	Roll Set Point:	0.022	Pitch Set Point:	2.009	Yaw Set Point:	0.003	X_WP:	0.000	Y_WP:	0.000	Y_WP:	0.750	X:	-0.012	Y:	-1.005	Z:	0.044	yaw:	-0.194	yaw rate:	2.032	Roll:	-0.057	Pitch:	-29.905	Yaw:	-0.592	Thrust:	100.000
Time:	7.657	Roll Set Point:	0.022	Pitch Set Point:	2.009	Yaw Set Point:	0.003	X_WP:	0.000	Y_WP:	0.000	Y_WP:	0.750	X:	-0.012	Y:	-1.005	Z:	0.044	yaw:	-0.176	yaw rate:	-1.841	Roll:	-0.655	Pitch:	-29.861	Yaw:	-0.063	Thrust:	100.000
Time:	7.678	Roll Set Point:	0.022	Pitch Set Point:	2.009	Yaw Set Point:	0.003	X_WP:	0.000	Y_WP:	0.000	Y_WP:	0.750	X:	-0.012	Y:	-1.005	Z:	0.044	yaw:	-0.182	yaw rate:	0.617	Roll:	-0.293	Pitch:	-29.906	Yaw:	-0.393	Thrust:	100.000
Time:	7.698	Roll Set Point:	0.021	Pitch Set Point:	2.009	Yaw Set Point:	0.004	X_WP:	0.000	Y_WP:	0.000	Y_WP:	0.750	X:	-0.012	Y:	-1.005	Z:	0.044	yaw:	-0.203	yaw rate:	2.060	Roll:	-0.083	Pitch:	-29.894	Yaw:	-0.616	Thrust:	100.000
Time:	7.718	Roll Set Point:	0.021	Pitch Set Point:	2.009	Yaw Set Point:	0.003	X_WP:	0.000	Y_WP:	0.000	Y_WP:	0.750	X:	-0.012	Y:	-1.005	Z:	0.044	yaw:	-0.194	yaw rate:	-0.837	Roll:	-0.468	Pitch:	-29.853	Yaw:	-0.216	Thrust:	100.000
Time:	7.737	Roll Set Point:	0.022	Pitch Set Point:	2.009	Yaw Set Point:	0.003	X_WP:	0.000	Y_WP:	0.000	Y_WP:	0.750	X:	-0.012	Y:	-1.005	Z:	0.044	yaw:	-0.193	yaw rate:	-0.156	Roll:	-0.418	Pitch:	-29.888	Yaw:	-0.315	Thrust:	100.000
Time:	7.758	Roll Set Point:	0.022	Pitch Set Point:	2.009	Yaw Set Point:	0.003	X_WP:	0.000	Y_WP:	0.000	Y_WP:	0.750	X:	-0.012	Y:	-1.005	Z:	0.044	yaw:	-0.176	yaw rate:	-1.706	Roll:	-0.625	Pitch:	-29.899	Yaw:	-0.089	Thrust:	100.000
Time:	7.778	Roll Set Point:	0.022	Pitch Set Point:	2.009	Yaw Set Point:	0.003	X_WP:	0.000	Y_WP:	0.000	Y_WP:	0.750	X:	-0.012	Y:	-1.005	Z:	0.044	yaw:	-0.184	yaw rate:	0.820	Roll:	-0.264	Pitch:	-29.883	Yaw:	-0.429	Thrust:	100.000
Time:	7.797	Roll Set Point:	0.022	Pitch Set Point:	2.009	Yaw Set Point:	0.003	X_WP:	0.000	Y_WP:	0.000	Y_WP:	0.750	X:	-0.012	Y:	-1.005	Z:	0.044	yaw:	-0.186	yaw rate:	0.200	Roll:	-0.331	Pitch:	-29.889	Yaw:	-0.352	Thrust:	100.000
Time:	7.817	Roll Set Point:	0.021	Pitch Set Point:	2.009	Yaw Set Point:	0.003	X_WP:	0.000	Y_WP:	0.000	Y_WP:	0.750	X:	-0.012	Y:	-1.005	Z:	0.044	yaw:	-0.198	yaw rate:	1.152	Roll:	-0.188	Pitch:	-29.810	Yaw:	-0.497	Thrust:	100.000
Time:	7.838	Roll Set Point:	0.022	Pitch Set Point:	2.009	Yaw Set Point:	0.003	X_WP:	0.000	Y_WP:	0.000	Y_WP:	0.750	X:	-0.012	Y:	-1.005	Z:	0.044	yaw:	-0.179	yaw rate:	-1.821	Roll:	-0.648	Pitch:	-29.946	Yaw:	-0.099	Thrust:	100.000
Time:	7.857	Roll Set Point:	0.022	Pitch Set Point:	2.009	Yaw Set Point:	0.003	X_WP:	0.000	Y_WP:	0.000	Y_WP:	0.750	X:	-0.012	Y:	-1.005	Z:	0.044	yaw:	-0.174	yaw rate:	-0.529	Roll:	-0.430	Pitch:	-29.899	Yaw:	-0.237	Thrust:	100.000
Time:	7.878	Roll Set Point:	0.022	Pitch Set Point:	2.009	Yaw Set Point:	0.003	X_WP:	0.000	Y_WP:	0.000	Y_WP:	0.750	X:	-0.012	Y:	-1.005	Z:	0.044	yaw:	-0.186	yaw rate:	1.197	Roll:	-0.225	Pitch:	-29.870	Yaw:	-0.486	Thrust:	100.000
Time:	7.899	Roll Set Point:	0.022	Pitch Set Point:	2.009	Yaw Set Point:	0.003	X_WP:	0.000	Y_WP:	0.000	Y_WP:	0.750	X:	-0.012	Y:	-1.005	Z:	0.044	yaw:	-0.178	yaw rate:	-0.799	Roll:	-0.509	Pitch:	-29.888	Yaw:	-0.218	Thrust:	100.000
Time:	7.918	Roll Set Point:	0.022	Pitch Set Point:	2.009	Yaw Set Point:	0.003	X_WP:	0.000	Y_WP:	0.000	Y_WP:	0.750	X:	-0.012	Y:	-1.005	Z:	0.044	yaw:	-0.191	yaw rate:	1.288	Roll:	-0.170	Pitch:	-29.872	Yaw:	-0.509	Thrust:	100.000
Time:	7.937	Roll Set Point:	0.021	Pitch Set Point:	2.009	Yaw Set Point:	0.003	X_WP:	0.000	Y_WP:	0.000	Y_WP:	0.750	X:	-0.012	Y:	-1.005	Z:	0.044	yaw:	-0.196	yaw rate:	0.464	Roll:	-0.302	Pitch:	-29.892	Yaw:	-0.409	Thrust:	100.000
Time:	7.958	Roll Set Point:	0.021	Pitch Set Point:	2.009	Yaw Set Point:	0.004	X_WP:	0.000	Y_WP:	0.000	Y_WP:	0.750	X:	-0.012	Y:	-1.005	Z:	0.044	yaw:	-0.208	yaw rate:	1.236	Roll:	-0.216	Pitch:	-29.867	Yaw:	-0.526	Thrust:	100.000
Time:	7.977	Roll Set Point:	0.022	Pitch Set Point:	2.009	Yaw Set Point:	0.003	X_WP:	0.000	Y_WP:	0.000	Y_WP:	0.750	X:	-0.012	Y:	-1.005	Z:	0.044	yaw:	-0.190	yaw rate:	-1.794	Roll:	-0.632	Pitch:	-29.872	Yaw:	-0.102	Thrust:	100.000
Time:	7.998	Roll Set Point:	0.021	Pitch Set Point:	2.009	Yaw Set Point:	0.003	X_WP:	0.000	Y_WP:	0.000	Y_WP:	0.750	X:	-0.012	Y:	-1.005	Z:	0.044	yaw:	-0.195	yaw rate:	0.499	Roll:	-0.305	Pitch:	-29.915	Yaw:	-0.418	Thrust:	100.000
Time:	8.017	Roll Set Point:	0.022	Pitch Set Point:	2.009	Yaw Set Point:	0.003	X_WP:	0.000	Y_WP:	0.000	Y_WP:	0.750	X:	-0.012	Y:	-1.005	Z:	0.044	yaw:	-0.191	yaw rate:	-0.348	Roll:	-0.434	Pitch:	-29.867	Yaw:	-0.297	Thrust:	100.000
Time:	8.038	Roll Set Point:	0.022	Pitch Set Point:	2.009	Yaw Set Point:	0.003	X_WP:	0.000	Y_WP:	0.000	Y_WP:	0.750	X:	-0.012	Y:	-1.005	Z:	0.044	yaw:	-0.194	yaw rate:	0.252	Roll:	-0.340	Pitch:	-29.886	Yaw:	-0.388	Thrust:	100.000
Time:	8.057	Roll Set Point:	0.022	Pitch Set Point:	2.009	Yaw Set Point:	0.003	X_WP:	0.000	Y_WP:	0.000	Y_WP:	0.750	X:	-0.012	Y:	-1.005	Z:	0.044	yaw:	-0.173	yaw rate:	-2.061	Roll:	-0.682	Pitch:	-29.871	Yaw:	-0.046	Thrust:	100.000
Time:	8.079	Roll Set Point:	0.022	Pitch Set Point:	2.009	Yaw Set Point:	0.003	X_WP:	0.000	Y_WP:	0.000	Y_WP:	0.750	X:	-0.012	Y:	-1.005	Z:	0.044	yaw:	-0.176	yaw rate:	0.271	Roll:	-0.375	Pitch:	-29.924	Yaw:	-0.369	Thrust:	100.000
Time:	8.097	Roll Set Point:	0.022	Pitch Set Point:	2.009	Yaw Set Point:	0.003	X_WP:	0.000	Y_WP:	0.000	Y_WP:	0.750	X:	-0.012	Y:	-1.005	Z:	0.044	yaw:	-0.183	yaw rate:	0.737	Roll:	-0.261	Pitch:	-29.844	Yaw:	-0.440	Thrust:	100.000
Time:	8.117	Roll Set Point:	0.021	Pitch Set Point:	2.009	Yaw Set Point:	0.003	X_WP:	0.000	Y_WP:	0.000	Y_WP:	0.750	X:	-0.012	Y:	-1.005	Z:	0.044	yaw:	-0.196	yaw rate:	1.251	Roll:	-0.184	Pitch:	-29.856	Yaw:	-0.524	Thrust:	100.000
Time:	8.137	Roll Set Point:	0.021	Pitch Set Point:	2.009	Yaw Set Point:	0.003	X_WP:	0.000	Y_WP:	0.000	Y_WP:	0.750	X:	-0.012	Y:	-1.005	Z:	0.044	yaw:	-0.197	yaw rate:	0.102	Roll:	-0.367	Pitch:	-29.913	Yaw:	-0.376	Thrust:	100.000
Time:	8.158	Roll Set Point:	0.022	Pitch Set Point:	2.009	Yaw Set Point:	0.003	X_WP:	0.000	Y_WP:	0.000	Y_WP:	0.750	X:	-0.012	Y:	-1.005	Z:	0.044	yaw:	-0.172	yaw rate:	-2.532	Roll:	-0.767	Pitch:	-29.888	Yaw:	-0.002	Thrust:	100.000
Time:	8.177	Roll Set Point:	0.021	Pitch Set Point:	2.009	Yaw Set Point:	0.003	X_WP:	0.000	Y_WP:	0.000	Y_WP:	0.750	X:	-0.012	Y:	-1.005	Z:	0.044	yaw:	-0.195	yaw rate:	2.309	Roll:	-0.022	Pitch:	-29.897	Yaw:	-0.664	Thrust:	100.000
Time:	8.198	Roll Set Point:	0.022	Pitch Set Point:	2.009	Yaw Set Point:	0.003	X_WP:	0.000	Y_WP:	0.000	Y_WP:	0.750	X:	-0.012	Y:	-1.005	Z:	0.044	yaw:	-0.172	yaw rate:	-2.255	Roll:	-0.723	Pitch:	-29.906	Yaw:	-0.054	Thrust:	100.000
Time:	8.217	Roll Set Point:	0.022	Pitch Set Point:	2.009	Yaw Set Point:	0.003	X_WP:	0.000	Y_WP:	0.000	Y_WP:	0.750	X:	-0.012	Y:	-1.005	Z:	0.044	yaw:	-0.177	yaw rate:	0.524	Roll:	-0.309	Pitch:	-29.839	Yaw:	-0.409	Thrust:	100.000
Time:	8.238	Roll Set Point:	0.022	Pitch Set Point:	2.009	Yaw Set Point:	0.003	X_WP:	0.000	Y_WP:	0.000	Y_WP:	0.750	X:	-0.012	Y:	-1.005	Z:	0.044	yaw:	-0.180	yaw rate:	0.253	Roll:	-0.354	Pitch:	-29.889	Yaw:	-0.382	Thrust:	100.000
Time:	8.258	Roll Set Point:	0.021	Pitch Set Point:	2.009	Yaw Set Point:	0.004	X_WP:	0.000	Y_WP:	0.000	Y_WP:	0.750	X:	-0.012	Y:	-1.005	Z:	0.044	yaw:	-0.206	yaw rate:	2.634	Roll:	0.018	Pitch:	-29.883	Yaw:	-0.732	Thrust:	100.000
Time:	8.278	Roll Set Point:	0.022	Pitch Set Point:	2.009	Yaw Set Point:	0.003	X_WP:	0.000	Y_WP:	0.000	Y_WP:	0.750	X:	-0.012	Y:	-1.005	Z:	0.044	yaw:	-0.184	yaw rate:	-2.245	Roll:	-0.727	Pitch:	-29.898	Yaw:	-0.067	Thrust:	100.000
Time:	8.299	Roll Set Point:	0.022	Pitch Set Point:	2.009	Yaw Set Point:	0.003	X_WP:	0.000	Y_WP:	0.000	Y_WP:	0.750	X:	-0.012	Y:	-1.005	Z:	0.044	yaw:	-0.185	yaw rate:	0.163	Roll:	-0.362	Pitch:	-29.891	Yaw:	-0.382	Thrust:	100.000
Time:	8.317	Roll Set Point:	0.022	Pitch Set Point:	2.009	Yaw Set Point:	0.003	X_WP:	0.000	Y_WP:	0.000	Y_WP:	0.750	X:	-0.012	Y:	-1.005	Z:	0.044	yaw:	-0.176	yaw rate:	-0.974	Roll:	-0.538	Pitch:	-29.856	Yaw:	-0.206	Thrust:	100.000
Time:	8.338	Roll Set Point:	0.022	Pitch Set Point:	2.009	Yaw Set Point:	0.003	X_WP:	0.000	Y_WP:	0.000	Y_WP:	0.750	X:	-0.012	Y:	-1.005	Z:	0.044	yaw:	-0.187	yaw rate:	1.159	Roll:	-0.236	Pitch:	-29.897	Yaw:	-0.513	Thrust:	100.000
Time:	8.357	Roll Set Point:	0.022	Pitch Set Point:	2.009	Yaw Set Point:	0.003	X_WP:	0.000	Y_WP:	0.000	Y_WP:	0.750	X:	-0.012	Y:	-1.005	Z:	0.044	yaw:	-0.181	yaw rate:	-0.607	Roll:	-0.465	Pitch:	-29.878	Yaw:	-0.270	Thrust:	100.000
Time:	8.378	Roll Set Point:	0.022	Pitch Set Point:	2.009	Yaw Set Point:	0.003	X_WP:	0.000	Y_WP:	0.000	Y_WP:	0.750	X:	-0.012	Y:	-1.005	Z:	0.044	yaw:	-0.181	yaw rate:	-0.058	Roll:	-0.391	Pitch:	-29.878	Yaw:	-0.350	Thrust:	100.000
Time:	8.398	Roll Set Point:	0.022	Pitch Set Point:	2.009	Yaw Set Point:	0.003	X_WP:	0.000	Y_WP:	0.000	Y_WP:	0.750	X:	-0.012	Y:	-1.005	Z:	0.044	yaw:	-0.192	yaw rate:	1.164	Roll:	-0.248	Pitch:	-29.888	Yaw:	-0.526	Thrust:	100.000
Time:	8.417	Roll Set Point:	0.022	Pitch Set Point:	2.009	Yaw Set Point:	0.003	X_WP:	0.000	Y_WP:	0.000	Y_WP:	0.750	X:	-0.012	Y:	-1.005	Z:	0.044	yaw:	-0.189	yaw rate:	-0.319	Roll:	-0.418	Pitch:	-29.875	Yaw:	-0.322	Thrust:	100.000
Time:	8.438	Roll Set Point:	0.022	Pitch Set Point:	2.009	Yaw Set Point:	0.003	X_WP:	0.000	Y_WP:	0.000	Y_WP:	0.750	X:	-0.012	Y:	-1.005	Z:	0.044	yaw:	-0.183	yaw rate:	-0.576	Roll:	-0.491	Pitch:	-29.928	Yaw:	-0.295	Thrust:	100.000
Time:	8.457	Roll Set Point:	0.022	Pitch Set Point:	2.009	Yaw Set Point:	0.003	X_WP:	0.000	Y_WP:	0.000	Y_WP:	0.750	X:	-0.012	Y:	-1.005	Z:	0.044	yaw:	-0.174	yaw rate:	-0.969	Roll:	-0.547	Pitch:	-29.856	Yaw:	-0.224	Thrust:	100.000
Time:	8.478	Roll Set Point:	0.022	Pitch Set Point:	2.009	Yaw Set Point:	0.003	X_WP:	0.000	Y_WP:	0.000	Y_WP:	0.750	X:	-0.013	Y:	-1.005	Z:	0.044	yaw:	-0.171	yaw rate:	-0.218	Roll:	-0.464	Pitch:	-29.909	Yaw:	-0.325	Thrust:	100.000
Time:	8.498	Roll Set Point:	0.022	Pitch Set Point:	2.009	Yaw Set Point:	0.003	X_WP:	0.000	Y_WP:	0.000	Y_WP:	0.750	X:	-0.013	Y:	-1.005	Z:	0.044	yaw:	-0.175	yaw rate:	0.399	Roll:	-0.345	Pitch:	-29.846	Yaw:	-0.410	Thrust:	100.000
Time:	8.519	Roll Set Point:	0.022	Pitch Set Point:	2.009	Yaw Set Point:	0.003	X_WP:	0.000	Y_WP:	0.000	Y_WP:	0.750	X:	-0.012	Y:	-1.005	Z:	0.044	yaw:	-0.178	yaw rate:	0.252	Roll:	-0.323	Pitch:	-29.954	Yaw:	-0.398	Thrust:	100.000
Time:	8.537	Roll Set Point:	0.022	Pitch Set Point:	2.009	Yaw Set Point:	0.003	X_WP:	0.000	Y_WP:	0.000	Y_WP:	0.750	X:	-0.013	Y:	-1.005	Z:	0.044	yaw:	-0.164	yaw rate:	-1.372	Roll:	-0.669	Pitch:	-29.789	Yaw:	-0.135	Thrust:	100.000
Time:	8.558	Roll Set Point:	0.022	Pitch Set Point:	2.009	Yaw Set Point:	0.003	X_WP:	0.000	Y_WP:	0.000	Y_WP:	0.750	X:	-0.012	Y:	-1.005	Z:	0.044	yaw:	-0.157	yaw rate:	-0.711	Roll:	-0.486	Pitch:	-29.935	Yaw:	-0.250	Thrust:	100.000
Time:	8.578	Roll Set Point:	0.022	Pitch Set Point:	2.009	Yaw Set Point:	0.003	X_WP:	0.000	Y_WP:	0.000	Y_WP:	0.750	X:	-0.012	Y:	-1.005	Z:	0.044	yaw:	-0.169	yaw rate:	1.231	Roll:	-0.223	Pitch:	-29.885	Yaw:	-0.513	Thrust:	100.000
Time:	8.598	Roll Set Point:	0.022	Pitch Set Point:	2.009	Yaw Set Point:	0.003	X_WP:	0.000	Y_WP:	0.000	Y_WP:	0.750	X:	-0.012	Y:	-1.005	Z:	0.044	yaw:	-0.180	yaw rate:	1.058	Roll:	-0.234	Pitch:	-29.868	Yaw:	-0.509	Thrust:	100.000
Time:	8.616	Roll Set Point:	0.022	Pitch Set Point:	2.009	Yaw Set Point:	0.003	X_WP:	0.000	Y_WP:	0.000	Y_WP:	0.750	X:	-0.013	Y:	-1.005	Z:	0.044	yaw:	-0.163	yaw rate:	-1.705	Roll:	-0.674	Pitch:	-29.866	Yaw:	-0.105	Thrust:	100.000
Time:	8.638	Roll Set Point:	0.022	Pitch Set Point:	2.009	Yaw Set Point:	0.003	X_WP:	0.000	Y_WP:	0.000	Y_WP:	0.750	X:	-0.012	Y:	-1.005	Z:	0.044	yaw:	-0.150	yaw rate:	-1.306	Roll:	-0.586	Pitch:	-29.934	Yaw:	-0.181	Thrust:	100.000
Time:	8.657	Roll Set Point:	0.022	Pitch Set Point:	2.009	Yaw Set Point:	0.003	X_WP:	0.000	Y_WP:	0.000	Y_WP:	0.750	X:	-0.012	Y:	-1.005	Z:	0.044	yaw:	-0.153	yaw rate:	0.340	Roll:	-0.377	Pitch:	-29.846	Yaw:	-0.378	Thrust:	100.000
Time:	8.677	Roll Set Point:	0.022	Pitch Set Point:	2.009	Yaw Set Point:	0.003	X_WP:	0.000	Y_WP:	0.000	Y_WP:	0.750	X:	-0.012	Y:	-1.005	Z:	0.044	yaw:	-0.180	yaw rate:	2.622	Roll:	-0.003	Pitch:	-29.873	Yaw:	-0.718	Thrust:	100.000
Time:	8.705	Roll Set Point:	0.022	Pitch Set Point:	2.009	Yaw Set Point:	0.003	X_WP:	0.000	Y_WP:	0.000	Y_WP:	0.750	X:	-0.012	Y:	-1.005	Z:	0.044	yaw:	-0.149	yaw rate:	-3.042	Roll:	-0.859	Pitch:	-29.930	Yaw:	-0.086	Thrust:	100.000
Time:	8.718	Roll Set Point:	0.022	Pitch Set Point:	2.009	Yaw Set Point:	0.003	X_WP:	0.000	Y_WP:	0.000	Y_WP:	0.750	X:	-0.012	Y:	-1.005	Z:	0.044	yaw:	-0.172	yaw rate:	2.247	Roll:	-0.056	Pitch:	-29.845	Yaw:	-0.772	Thrust:	100.000
Time:	8.738	Roll Set Point:	0.022	Pitch Set Point:	2.009	Yaw Set Point:	0.003	X_WP:	0.000	Y_WP:	0.000	Y_WP:	0.750	X:	-0.012	Y:	-1.005	Z:	0.044	yaw:	-0.163	yaw rate:	-0.837	Roll:	-0.537	Pitch:	-29.902	Yaw:	-0.246	Thrust:	100.000
Time:	8.758	Roll Set Point:	0.022	Pitch Set Point:	2.009	Yaw Set Point:	0.003	X_WP:	0.000	Y_WP:	0.000	Y_WP:	0.750	X:	-0.012	Y:	-1.005	Z:	0.044	yaw:	-0.177	yaw rate:	1.405	Roll:	-0.184	Pitch:	-29.898	Yaw:	-0.558	Thrust:	100.000
Time:	8.777	Roll Set Point:	0.022	Pitch Set Point:	2.009	Yaw Set Point:	0.003	X_WP:	0.000	Y_WP:	0.000	Y_WP:	0.750	X:	-0.012	Y:	-1.005	Z:	0.044	yaw:	-0.164	yaw rate:	-1.330	Roll:	-0.619	Pitch:	-29.856	Yaw:	-0.163	Thrust:	100.000
Time:	8.799	Roll Set Point:	0.022	Pitch Set Point:	2.009	Yaw Set Point:	0.003	X_WP:	0.000	Y_WP:	0.000	Y_WP:	0.750	X:	-0.013	Y:	-1.005	Z:	0.044	yaw:	-0.158	yaw rate:	-0.621	Roll:	-0.529	Pitch:	-29.941	Yaw:	-0.296	Thrust:	100.000
Time:	8.818	Roll Set Point:	0.022	Pitch Set Point:	2.009	Yaw Set Point:	0.003	X_WP:	0.000	Y_WP:	0.000	Y_WP:	0.750	X:	-0.013	Y:	-1.005	Z:	0.044	yaw:	-0.160	yaw rate:	0.194	Roll:	-0.387	Pitch:	-29.792	Yaw:	-0.370	Thrust:	100.000
Time:	8.838	Roll Set Point:	0.022	Pitch Set Point:	2.009	Yaw Set Point:	0.003	X_WP:	0.000	Y_WP:	0.000	Y_WP:	0.750	X:	-0.013	Y:	-1.005	Z:	0.044	yaw:	-0.179	yaw rate:	1.890	Roll:	-0.130	Pitch:	-29.947	Yaw:	-0.631	Thrust:	100.000
Time:	8.857	Roll Set Point:	0.022	Pitch Set Point:	2.009	Yaw Set Point:	0.003	X_WP:	0.000	Y_WP:	0.000	Y_WP:	0.750	X:	-0.012	Y:	-1.005	Z:	0.044	yaw:	-0.192	yaw rate:	1.303	Roll:	-0.166	Pitch:	-29.880	Yaw:	-0.571	Thrust:	100.000
Time:	8.878	Roll Set Point:	0.022	Pitch Set Point:	2.009	Yaw Set Point:	0.003	X_WP:	0.000	Y_WP:	0.000	Y_WP:	0.750	X:	-0.013	Y:	-1.005	Z:	0.044	yaw:	-0.181	yaw rate:	-1.025	Roll:	-0.591	Pitch:	-29.870	Yaw:	-0.261	Thrust:	100.000
Time:	8.899	Roll Set Point:	0.022	Pitch Set Point:	2.009	Yaw Set Point:	0.003	X_WP:	0.000	Y_WP:	0.000	Y_WP:	0.750	X:	-0.012	Y:	-1.005	Z:	0.044	yaw:	-0.174	yaw rate:	-0.740	Roll:	-0.508	Pitch:	-29.943	Yaw:	-0.291	Thrust:	100.000
Time:	8.917	Roll Set Point:	0.022	Pitch Set Point:	2.009	Yaw Set Point:	0.003	X_WP:	0.000	Y_WP:	0.000	Y_WP:	0.750	X:	-0.012	Y:	-1.005	Z:	0.044	yaw:	-0.171	yaw rate:	-0.332	Roll:	-0.458	Pitch:	-29.812	Yaw:	-0.319	Thrust:	100.000
Time:	8.938	Roll Set Point:	0.022	Pitch Set Point:	2.009	Yaw Set Point:	0.003	X_WP:	0.000	Y_WP:	0.000	Y_WP:	0.750	X:	-0.012	Y:	-1.005	Z:	0.044	yaw:	-0.152	yaw rate:	-1.868	Roll:	-0.686	Pitch:	-29.915	Yaw:	-0.116	Thrust:	100.000
Time:	8.958	Roll Set Point:	0.022	Pitch Set Point:	2.009	Yaw Set Point:	0.003	X_WP:	0.000	Y_WP:	0.000	Y_WP:	0.750	X:	-0.013	Y:	-1.005	Z:	0.044	yaw:	-0.178	yaw rate:	2.561	Roll:	-0.061	Pitch:	-29.871	Yaw:	-0.722	Thrust:	100.000
Time:	8.980	Roll Set Point:	0.021	Pitch Set Point:	2.009	Yaw Set Point:	0.004	X_WP:	0.000	Y_WP:	0.000	Y_WP:	0.750	X:	-0.013	Y:	-1.005	Z:	0.044	yaw:	-0.208	yaw rate:	3.019	Roll:	0.054	Pitch:	-29.944	Yaw:	-0.808	Thrust:	100.000
Time:	9.001	Roll Set Point:	0.022	Pitch Set Point:	2.009	Yaw Set Point:	0.003	X_WP:	0.000	Y_WP:	0.000	Y_WP:	0.750	X:	-0.012	Y:	-1.005	Z:	0.044	yaw:	-0.168	yaw rate:	-3.981	Roll:	-1.001	Pitch:	-29.829	Yaw:	0.156	Thrust:	100.000
Time:	9.018	Roll Set Point:	0.022	Pitch Set Point:	2.009	Yaw Set Point:	0.003	X_WP:	0.000	Y_WP:	0.000	Y_WP:	0.750	X:	-0.012	Y:	-1.005	Z:	0.044	yaw:	-0.179	yaw rate:	1.086	Roll:	-0.229	Pitch:	-29.855	Yaw:	-0.537	Thrust:	100.000
Time:	9.039	Roll Set Point:	0.022	Pitch Set Point:	2.009	Yaw Set Point:	0.003	X_WP:	0.000	Y_WP:	0.000	Y_WP:	0.750	X:	-0.013	Y:	-1.005	Z:	0.044	yaw:	-0.182	yaw rate:	0.302	Roll:	-0.384	Pitch:	-29.935	Yaw:	-0.447	Thrust:	100.000
Time:	9.059	Roll Set Point:	0.022	Pitch Set Point:	2.009	Yaw Set Point:	0.003	X_WP:	0.000	Y_WP:	0.000	Y_WP:	0.750	X:	-0.012	Y:	-1.005	Z:	0.044	yaw:	-0.190	yaw rate:	0.854	Roll:	-0.260	Pitch:	-29.871	Yaw:	-0.522	Thrust:	100.000
Time:	9.079	Roll Set Point:	0.022	Pitch Set Point:	2.009	Yaw Set Point:	0.003	X_WP:	0.000	Y_WP:	0.000	Y_WP:	0.750	X:	-0.012	Y:	-1.005	Z:	0.044	yaw:	-0.174	yaw rate:	-1.658	Roll:	-0.656	Pitch:	-29.880	Yaw:	-0.179	Thrust:	100.000
Time:	9.101	Roll Set Point:	0.022	Pitch Set Point:	2.009	Yaw Set Point:	0.003	X_WP:	0.000	Y_WP:	0.000	Y_WP:	0.750	X:	-0.013	Y:	-1.005	Z:	0.044	yaw:	-0.153	yaw rate:	-2.102	Roll:	-0.761	Pitch:	-29.856	Yaw:	-0.100	Thrust:	100.000
Time:	9.118	Roll Set Point:	0.022	Pitch Set Point:	2.009	Yaw Set Point:	0.003	X_WP:	0.000	Y_WP:	0.000	Y_WP:	0.750	X:	-0.012	Y:	-1.005	Z:	0.044	yaw:	-0.179	yaw rate:	2.643	Roll:	-0.029	Pitch:	-29.885	Yaw:	-0.759	Thrust:	100.000
Time:	9.139	Roll Set Point:	0.022	Pitch Set Point:	2.009	Yaw Set Point:	0.003	X_WP:	0.000	Y_WP:	0.000	Y_WP:	0.750	X:	-0.012	Y:	-1.005	Z:	0.044	yaw:	-0.182	yaw rate:	0.274	Roll:	-0.361	Pitch:	-29.920	Yaw:	-0.443	Thrust:	100.000
Time:	9.159	Roll Set Point:	0.022	Pitch Set Point:	2.009	Yaw Set Point:	0.003	X_WP:	0.000	Y_WP:	0.000	Y_WP:	0.750	X:	-0.012	Y:	-1.005	Z:	0.044	yaw:	-0.165	yaw rate:	-1.728	Roll:	-0.692	Pitch:	-29.881	Yaw:	-0.155	Thrust:	100.000
Time:	9.179	Roll Set Point:	0.022	Pitch Set Point:	2.009	Yaw Set Point:	0.003	X_WP:	0.000	Y_WP:	0.000	Y_WP:	0.750	X:	-0.012	Y:	-1.005	Z:	0.044	yaw:	-0.146	yaw rate:	-1.907	Roll:	-0.714	Pitch:	-29.854	Yaw:	-0.096	Thrust:	100.000
Time:	9.200	Roll Set Point:	0.022	Pitch Set Point:	2.009	Yaw Set Point:	0.003	X_WP:	0.000	Y_WP:	0.000	Y_WP:	0.750	X:	-0.012	Y:	-1.005	Z:	0.044	yaw:	-0.169	yaw rate:	2.386	Roll:	-0.069	Pitch:	-29.932	Yaw:	-0.694	Thrust:	100.000
Time:	9.218	Roll Set Point:	0.022	Pitch Set Point:	2.009	Yaw Set Point:	0.003	X_WP:	0.000	Y_WP:	0.000	Y_WP:	0.750	X:	-0.012	Y:	-1.005	Z:	0.044	yaw:	-0.159	yaw rate:	-1.001	Roll:	-0.562	Pitch:	-29.866	Yaw:	-0.222	Thrust:	100.000
Time:	9.239	Roll Set Point:	0.022	Pitch Set Point:	2.009	Yaw Set Point:	0.003	X_WP:	0.000	Y_WP:	0.000	Y_WP:	0.750	X:	-0.013	Y:	-1.005	Z:	0.044	yaw:	-0.175	yaw rate:	1.577	Roll:	-0.210	Pitch:	-29.847	Yaw:	-0.605	Thrust:	100.000
