Time:	0.036	Roll Set Point:	-0.046	Pitch Set Point:	-0.018	Yaw Set Point:	-0.692	X_WP:	0.000	Y_WP:	0.000	Z_WP:	0.500	X:	0.020	Y:	0.017	Z:	0.050	yaw:	39.671	yaw rate:	-2.469	Roll:	0.397	Pitch:	0.011	Yaw:	55.392	Thrust:	24.755
Time:	0.053	Roll Set Point:	-0.046	Pitch Set Point:	-0.018	Yaw Set Point:	-0.692	X_WP:	0.000	Y_WP:	0.000	Z_WP:	0.500	X:	0.020	Y:	0.017	Z:	0.050	yaw:	39.658	yaw rate:	1.369	Roll:	0.422	Pitch:	0.029	Yaw:	55.411	Thrust:	25.576
Time:	0.073	Roll Set Point:	-0.046	Pitch Set Point:	-0.018	Yaw Set Point:	-0.694	X_WP:	0.000	Y_WP:	0.000	Z_WP:	0.500	X:	0.020	Y:	0.017	Z:	0.050	yaw:	39.752	yaw rate:	-9.409	Roll:	0.304	Pitch:	0.006	Yaw:	57.285	Thrust:	27.030
Time:	0.095	Roll Set Point:	-0.046	Pitch Set Point:	-0.019	Yaw Set Point:	-0.686	X_WP:	0.000	Y_WP:	0.000	Z_WP:	0.500	X:	0.020	Y:	0.018	Z:	0.050	yaw:	39.297	yaw rate:	45.456	Roll:	0.346	Pitch:	0.287	Yaw:	50.569	Thrust:	29.249
Time:	0.113	Roll Set Point:	-0.047	Pitch Set Point:	-0.018	Yaw Set Point:	-0.686	X_WP:	0.000	Y_WP:	0.000	Z_WP:	0.500	X:	0.020	Y:	0.017	Z:	0.050	yaw:	39.298	yaw rate:	-0.083	Roll:	0.764	Pitch:	-0.604	Yaw:	55.860	Thrust:	28.127
Time:	0.133	Roll Set Point:	-0.047	Pitch Set Point:	-0.018	Yaw Set Point:	-0.682	X_WP:	0.000	Y_WP:	0.000	Z_WP:	0.500	X:	0.020	Y:	0.017	Z:	0.050	yaw:	39.089	yaw rate:	20.872	Roll:	0.252	Pitch:	0.077	Yaw:	53.128	Thrust:	29.563
Time:	0.153	Roll Set Point:	-0.047	Pitch Set Point:	-0.018	Yaw Set Point:	-0.675	X_WP:	0.000	Y_WP:	0.000	Z_WP:	0.500	X:	0.020	Y:	0.017	Z:	0.050	yaw:	38.677	yaw rate:	41.258	Roll:	0.406	Pitch:	0.433	Yaw:	50.145	Thrust:	32.063
Time:	0.173	Roll Set Point:	-0.047	Pitch Set Point:	-0.019	Yaw Set Point:	-0.677	X_WP:	0.000	Y_WP:	0.000	Z_WP:	0.500	X:	0.020	Y:	0.018	Z:	0.051	yaw:	38.766	yaw rate:	-8.953	Roll:	0.515	Pitch:	0.038	Yaw:	57.233	Thrust:	29.646
Time:	0.193	Roll Set Point:	-0.046	Pitch Set Point:	-0.018	Yaw Set Point:	-0.684	X_WP:	0.000	Y_WP:	0.000	Z_WP:	0.500	X:	0.020	Y:	0.017	Z:	0.050	yaw:	39.165	yaw rate:	-39.933	Roll:	0.015	Pitch:	-0.301	Yaw:	61.892	Thrust:	34.457
Time:	0.216	Roll Set Point:	-0.047	Pitch Set Point:	-0.018	Yaw Set Point:	-0.685	X_WP:	0.000	Y_WP:	0.000	Z_WP:	0.500	X:	0.020	Y:	0.017	Z:	0.050	yaw:	39.242	yaw rate:	-7.632	Roll:	0.759	Pitch:	-0.106	Yaw:	57.971	Thrust:	37.347
Time:	0.234	Roll Set Point:	-0.046	Pitch Set Point:	-0.018	Yaw Set Point:	-0.677	X_WP:	0.000	Y_WP:	0.000	Z_WP:	0.500	X:	0.020	Y:	0.017	Z:	0.050	yaw:	38.791	yaw rate:	45.089	Roll:	-0.065	Pitch:	0.569	Yaw:	49.655	Thrust:	33.600
Time:	0.253	Roll Set Point:	-0.047	Pitch Set Point:	-0.018	Yaw Set Point:	-0.687	X_WP:	0.000	Y_WP:	0.000	Z_WP:	0.500	X:	0.020	Y:	0.018	Z:	0.050	yaw:	39.370	yaw rate:	-57.919	Roll:	0.934	Pitch:	-0.300	Yaw:	64.834	Thrust:	35.403
Time:	0.273	Roll Set Point:	-0.047	Pitch Set Point:	-0.018	Yaw Set Point:	-0.685	X_WP:	0.000	Y_WP:	0.000	Z_WP:	0.500	X:	0.020	Y:	0.017	Z:	0.050	yaw:	39.273	yaw rate:	9.723	Roll:	0.374	Pitch:	-0.272	Yaw:	55.450	Thrust:	38.363
Time:	0.295	Roll Set Point:	-0.046	Pitch Set Point:	-0.019	Yaw Set Point:	-0.675	X_WP:	0.000	Y_WP:	0.000	Z_WP:	0.500	X:	0.020	Y:	0.017	Z:	0.050	yaw:	38.700	yaw rate:	57.304	Roll:	-0.005	Pitch:	0.640	Yaw:	49.472	Thrust:	40.528
Time:	0.313	Roll Set Point:	-0.046	Pitch Set Point:	-0.018	Yaw Set Point:	-0.670	X_WP:	0.000	Y_WP:	0.000	Z_WP:	0.500	X:	0.020	Y:	0.017	Z:	0.050	yaw:	38.386	yaw rate:	31.392	Roll:	0.575	Pitch:	-0.204	Yaw:	50.782	Thrust:	35.759
Time:	0.333	Roll Set Point:	-0.046	Pitch Set Point:	-0.018	Yaw Set Point:	-0.662	X_WP:	0.000	Y_WP:	0.000	Z_WP:	0.500	X:	0.020	Y:	0.017	Z:	0.050	yaw:	37.916	yaw rate:	47.026	Roll:	0.212	Pitch:	0.109	Yaw:	48.975	Thrust:	42.161
Time:	0.352	Roll Set Point:	-0.046	Pitch Set Point:	-0.018	Yaw Set Point:	-0.672	X_WP:	0.000	Y_WP:	0.000	Z_WP:	0.500	X:	0.020	Y:	0.017	Z:	0.050	yaw:	38.529	yaw rate:	-61.347	Roll:	0.262	Pitch:	-0.233	Yaw:	64.124	Thrust:	41.832
Time:	0.372	Roll Set Point:	-0.046	Pitch Set Point:	-0.018	Yaw Set Point:	-0.667	X_WP:	0.000	Y_WP:	0.000	Z_WP:	0.500	X:	0.020	Y:	0.017	Z:	0.050	yaw:	38.223	yaw rate:	30.624	Roll:	0.476	Pitch:	0.305	Yaw:	51.265	Thrust:	43.322
Time:	0.393	Roll Set Point:	-0.046	Pitch Set Point:	-0.018	Yaw Set Point:	-0.677	X_WP:	0.000	Y_WP:	0.000	Z_WP:	0.500	X:	0.020	Y:	0.017	Z:	0.049	yaw:	38.816	yaw rate:	-59.319	Roll:	0.685	Pitch:	-0.240	Yaw:	63.814	Thrust:	46.574
Time:	0.414	Roll Set Point:	-0.046	Pitch Set Point:	-0.019	Yaw Set Point:	-0.652	X_WP:	0.000	Y_WP:	0.000	Z_WP:	0.500	X:	0.020	Y:	0.017	Z:	0.050	yaw:	37.364	yaw rate:	145.247	Roll:	0.490	Pitch:	0.516	Yaw:	36.735	Thrust:	44.308
Time:	0.436	Roll Set Point:	-0.047	Pitch Set Point:	-0.018	Yaw Set Point:	-0.666	X_WP:	0.000	Y_WP:	0.000	Z_WP:	0.500	X:	0.020	Y:	0.017	Z:	0.050	yaw:	38.179	yaw rate:	-81.581	Roll:	0.542	Pitch:	-0.560	Yaw:	65.299	Thrust:	49.448
Time:	0.452	Roll Set Point:	-0.047	Pitch Set Point:	-0.019	Yaw Set Point:	-0.641	X_WP:	0.000	Y_WP:	0.000	Z_WP:	0.500	X:	0.020	Y:	0.017	Z:	0.050	yaw:	36.746	yaw rate:	143.306	Roll:	0.608	Pitch:	0.982	Yaw:	30.118	Thrust:	43.365
Time:	0.472	Roll Set Point:	-0.047	Pitch Set Point:	-0.018	Yaw Set Point:	-0.657	X_WP:	0.000	Y_WP:	0.000	Z_WP:	0.500	X:	0.021	Y:	0.017	Z:	0.050	yaw:	37.632	yaw rate:	-88.557	Roll:	0.431	Pitch:	-0.591	Yaw:	66.117	Thrust:	48.223
Time:	0.497	Roll Set Point:	-0.048	Pitch Set Point:	-0.018	Yaw Set Point:	-0.637	X_WP:	0.000	Y_WP:	0.000	Z_WP:	0.500	X:	0.021	Y:	0.017	Z:	0.050	yaw:	36.473	yaw rate:	115.940	Roll:	0.710	Pitch:	-0.023	Yaw:	40.642	Thrust:	54.297
Time:	0.513	Roll Set Point:	-0.048	Pitch Set Point:	-0.019	Yaw Set Point:	-0.610	X_WP:	0.000	Y_WP:	0.000	Z_WP:	0.500	X:	0.021	Y:	0.017	Z:	0.050	yaw:	34.923	yaw rate:	154.982	Roll:	-0.006	Pitch:	1.069	Yaw:	25.935	Thrust:	45.724
Time:	0.534	Roll Set Point:	-0.048	Pitch Set Point:	-0.019	Yaw Set Point:	-0.590	X_WP:	0.000	Y_WP:	0.000	Z_WP:	0.500	X:	0.021	Y:	0.017	Z:	0.050	yaw:	33.790	yaw rate:	113.319	Roll:	0.551	Pitch:	0.296	Yaw:	34.395	Thrust:	52.620
Time:	0.554	Roll Set Point:	-0.049	Pitch Set Point:	-0.018	Yaw Set Point:	-0.583	X_WP:	0.000	Y_WP:	0.000	Z_WP:	0.500	X:	0.022	Y:	0.016	Z:	0.050	yaw:	33.400	yaw rate:	38.936	Roll:	0.692	Pitch:	-0.568	Yaw:	43.733	Thrust:	52.843
Time:	0.573	Roll Set Point:	-0.049	Pitch Set Point:	-0.019	Yaw Set Point:	-0.558	X_WP:	0.000	Y_WP:	0.000	Z_WP:	0.500	X:	0.022	Y:	0.016	Z:	0.050	yaw:	31.977	yaw rate:	142.335	Roll:	0.500	Pitch:	0.688	Yaw:	27.021	Thrust:	52.780
Time:	0.593	Roll Set Point:	-0.050	Pitch Set Point:	-0.017	Yaw Set Point:	-0.555	X_WP:	0.000	Y_WP:	0.000	Z_WP:	0.500	X:	0.022	Y:	0.016	Z:	0.051	yaw:	31.815	yaw rate:	16.215	Roll:	0.621	Pitch:	-0.497	Yaw:	44.325	Thrust:	52.694
Time:	0.614	Roll Set Point:	-0.050	Pitch Set Point:	-0.016	Yaw Set Point:	-0.528	X_WP:	0.000	Y_WP:	0.000	Z_WP:	0.500	X:	0.023	Y:	0.015	Z:	0.050	yaw:	30.268	yaw rate:	154.644	Roll:	0.297	Pitch:	-0.108	Yaw:	25.171	Thrust:	59.383
Time:	0.633	Roll Set Point:	-0.051	Pitch Set Point:	-0.017	Yaw Set Point:	-0.507	X_WP:	0.000	Y_WP:	0.000	Z_WP:	0.500	X:	0.023	Y:	0.015	Z:	0.052	yaw:	29.021	yaw rate:	124.678	Roll:	0.963	Pitch:	0.326	Yaw:	25.709	Thrust:	52.928
Time:	0.652	Roll Set Point:	-0.052	Pitch Set Point:	-0.017	Yaw Set Point:	-0.478	X_WP:	0.000	Y_WP:	0.000	Z_WP:	0.500	X:	0.024	Y:	0.015	Z:	0.051	yaw:	27.402	yaw rate:	161.979	Roll:	0.520	Pitch:	0.214	Yaw:	17.941	Thrust:	57.681
Time:	0.674	Roll Set Point:	-0.053	Pitch Set Point:	-0.017	Yaw Set Point:	-0.450	X_WP:	0.000	Y_WP:	0.000	Z_WP:	0.500	X:	0.024	Y:	0.014	Z:	0.052	yaw:	25.790	yaw rate:	161.147	Roll:	0.711	Pitch:	0.233	Yaw:	17.132	Thrust:	58.051
Time:	0.696	Roll Set Point:	-0.054	Pitch Set Point:	-0.017	Yaw Set Point:	-0.423	X_WP:	0.000	Y_WP:	0.000	Z_WP:	0.500	X:	0.025	Y:	0.014	Z:	0.052	yaw:	24.210	yaw rate:	157.987	Roll:	0.810	Pitch:	0.260	Yaw:	18.429	Thrust:	64.694
Time:	0.712	Roll Set Point:	-0.054	Pitch Set Point:	-0.016	Yaw Set Point:	-0.403	X_WP:	0.000	Y_WP:	0.000	Z_WP:	0.500	X:	0.026	Y:	0.013	Z:	0.054	yaw:	23.091	yaw rate:	111.970	Roll:	0.590	Pitch:	-0.185	Yaw:	16.177	Thrust:	51.566
Time:	0.733	Roll Set Point:	-0.055	Pitch Set Point:	-0.016	Yaw Set Point:	-0.373	X_WP:	0.000	Y_WP:	0.000	Z_WP:	0.500	X:	0.026	Y:	0.013	Z:	0.057	yaw:	21.349	yaw rate:	174.130	Roll:	0.808	Pitch:	0.392	Yaw:	9.763	Thrust:	56.912
Time:	0.753	Roll Set Point:	-0.057	Pitch Set Point:	-0.014	Yaw Set Point:	-0.379	X_WP:	0.000	Y_WP:	0.000	Z_WP:	0.500	X:	0.027	Y:	0.013	Z:	0.059	yaw:	21.711	yaw rate:	-36.206	Roll:	1.082	Pitch:	-0.840	Yaw:	37.013	Thrust:	56.065
Time:	0.773	Roll Set Point:	-0.058	Pitch Set Point:	-0.017	Yaw Set Point:	-0.334	X_WP:	0.000	Y_WP:	0.000	Z_WP:	0.500	X:	0.027	Y:	0.013	Z:	0.063	yaw:	19.151	yaw rate:	256.019	Roll:	0.891	Pitch:	1.505	Yaw:	-5.336	Thrust:	57.127
Time:	0.793	Roll Set Point:	-0.059	Pitch Set Point:	-0.016	Yaw Set Point:	-0.312	X_WP:	0.000	Y_WP:	0.000	Z_WP:	0.500	X:	0.028	Y:	0.013	Z:	0.067	yaw:	17.892	yaw rate:	125.955	Roll:	0.735	Pitch:	0.067	Yaw:	10.228	Thrust:	53.877
Time:	0.814	Roll Set Point:	-0.060	Pitch Set Point:	-0.017	Yaw Set Point:	-0.303	X_WP:	0.000	Y_WP:	0.000	Z_WP:	0.500	X:	0.029	Y:	0.013	Z:	0.072	yaw:	17.357	yaw rate:	53.500	Roll:	1.057	Pitch:	0.537	Yaw:	19.745	Thrust:	58.404
Time:	0.833	Roll Set Point:	-0.062	Pitch Set Point:	-0.015	Yaw Set Point:	-0.300	X_WP:	0.000	Y_WP:	0.000	Z_WP:	0.500	X:	0.030	Y:	0.012	Z:	0.077	yaw:	17.185	yaw rate:	17.126	Roll:	1.259	Pitch:	-1.030	Yaw:	23.566	Thrust:	53.115
Time:	0.852	Roll Set Point:	-0.063	Pitch Set Point:	-0.016	Yaw Set Point:	-0.280	X_WP:	0.000	Y_WP:	0.000	Z_WP:	0.500	X:	0.030	Y:	0.013	Z:	0.083	yaw:	16.067	yaw rate:	111.876	Roll:	1.016	Pitch:	0.819	Yaw:	9.008	Thrust:	50.581
Time:	0.872	Roll Set Point:	-0.064	Pitch Set Point:	-0.017	Yaw Set Point:	-0.268	X_WP:	0.000	Y_WP:	0.000	Z_WP:	0.500	X:	0.031	Y:	0.013	Z:	0.089	yaw:	15.370	yaw rate:	69.633	Roll:	1.142	Pitch:	0.546	Yaw:	14.396	Thrust:	54.295
Time:	0.896	Roll Set Point:	-0.065	Pitch Set Point:	-0.018	Yaw Set Point:	-0.259	X_WP:	0.000	Y_WP:	0.000	Z_WP:	0.500	X:	0.032	Y:	0.013	Z:	0.095	yaw:	14.818	yaw rate:	55.188	Roll:	1.013	Pitch:	0.364	Yaw:	17.113	Thrust:	64.810
Time:	0.912	Roll Set Point:	-0.066	Pitch Set Point:	-0.021	Yaw Set Point:	-0.232	X_WP:	0.000	Y_WP:	0.000	Z_WP:	0.500	X:	0.032	Y:	0.014	Z:	0.101	yaw:	13.309	yaw rate:	150.912	Roll:	1.146	Pitch:	2.153	Yaw:	-4.880	Thrust:	44.031
Time:	0.933	Roll Set Point:	-0.068	Pitch Set Point:	-0.022	Yaw Set Point:	-0.215	X_WP:	0.000	Y_WP:	0.000	Z_WP:	0.500	X:	0.033	Y:	0.015	Z:	0.108	yaw:	12.299	yaw rate:	101.048	Roll:	1.239	Pitch:	0.529	Yaw:	6.296	Thrust:	55.957
Time:	0.952	Roll Set Point:	-0.069	Pitch Set Point:	-0.022	Yaw Set Point:	-0.222	X_WP:	0.000	Y_WP:	0.000	Z_WP:	0.500	X:	0.033	Y:	0.015	Z:	0.114	yaw:	12.745	yaw rate:	-44.630	Roll:	1.127	Pitch:	-0.069	Yaw:	25.746	Thrust:	53.571
Time:	0.973	Roll Set Point:	-0.071	Pitch Set Point:	-0.024	Yaw Set Point:	-0.219	X_WP:	0.000	Y_WP:	0.000	Z_WP:	0.500	X:	0.034	Y:	0.016	Z:	0.120	yaw:	12.553	yaw rate:	19.179	Roll:	1.249	Pitch:	0.855	Yaw:	17.133	Thrust:	60.263
Time:	0.993	Roll Set Point:	-0.072	Pitch Set Point:	-0.024	Yaw Set Point:	-0.227	X_WP:	0.000	Y_WP:	0.000	Z_WP:	0.500	X:	0.035	Y:	0.016	Z:	0.126	yaw:	13.005	yaw rate:	-45.134	Roll:	1.234	Pitch:	0.302	Yaw:	26.054	Thrust:	57.589
Time:	1.014	Roll Set Point:	-0.073	Pitch Set Point:	-0.027	Yaw Set Point:	-0.170	X_WP:	0.000	Y_WP:	0.000	Z_WP:	0.500	X:	0.035	Y:	0.017	Z:	0.134	yaw:	9.762	yaw rate:	324.251	Roll:	0.905	Pitch:	2.047	Yaw:	-24.178	Thrust:	57.510
Time:	1.033	Roll Set Point:	-0.075	Pitch Set Point:	-0.028	Yaw Set Point:	-0.202	X_WP:	0.000	Y_WP:	0.000	Z_WP:	0.500	X:	0.036	Y:	0.018	Z:	0.139	yaw:	11.574	yaw rate:	-181.164	Roll:	1.662	Pitch:	0.110	Yaw:	43.052	Thrust:	57.645
Time:	1.053	Roll Set Point:	-0.076	Pitch Set Point:	-0.030	Yaw Set Point:	-0.184	X_WP:	0.000	Y_WP:	0.000	Z_WP:	0.500	X:	0.037	Y:	0.018	Z:	0.145	yaw:	10.520	yaw rate:	105.390	Roll:	1.272	Pitch:	1.091	Yaw:	3.184	Thrust:	60.247
Time:	1.073	Roll Set Point:	-0.077	Pitch Set Point:	-0.031	Yaw Set Point:	-0.170	X_WP:	0.000	Y_WP:	0.000	Z_WP:	0.500	X:	0.037	Y:	0.019	Z:	0.152	yaw:	9.713	yaw rate:	80.684	Roll:	0.964	Pitch:	1.012	Yaw:	4.451	Thrust:	56.506
Time:	1.095	Roll Set Point:	-0.078	Pitch Set Point:	-0.032	Yaw Set Point:	-0.177	X_WP:	0.000	Y_WP:	0.000	Z_WP:	0.500	X:	0.038	Y:	0.020	Z:	0.157	yaw:	10.130	yaw rate:	-41.726	Roll:	1.156	Pitch:	0.514	Yaw:	21.335	Thrust:	66.773
Time:	1.112	Roll Set Point:	-0.080	Pitch Set Point:	-0.033	Yaw Set Point:	-0.189	X_WP:	0.000	Y_WP:	0.000	Z_WP:	0.500	X:	0.038	Y:	0.020	Z:	0.164	yaw:	10.807	yaw rate:	-67.617	Roll:	1.567	Pitch:	0.241	Yaw:	26.733	Thrust:	53.658
Time:	1.133	Roll Set Point:	-0.081	Pitch Set Point:	-0.035	Yaw Set Point:	-0.169	X_WP:	0.000	Y_WP:	0.000	Z_WP:	0.500	X:	0.039	Y:	0.021	Z:	0.170	yaw:	9.663	yaw rate:	114.333	Roll:	1.052	Pitch:	1.412	Yaw:	0.657	Thrust:	60.166
Time:	1.153	Roll Set Point:	-0.082	Pitch Set Point:	-0.036	Yaw Set Point:	-0.163	X_WP:	0.000	Y_WP:	0.000	Z_WP:	0.500	X:	0.040	Y:	0.021	Z:	0.177	yaw:	9.317	yaw rate:	34.607	Roll:	1.388	Pitch:	0.743	Yaw:	10.664	Thrust:	62.331
Time:	1.173	Roll Set Point:	-0.083	Pitch Set Point:	-0.038	Yaw Set Point:	-0.165	X_WP:	0.000	Y_WP:	0.000	Z_WP:	0.500	X:	0.040	Y:	0.022	Z:	0.183	yaw:	9.436	yaw rate:	-11.859	Roll:	1.225	Pitch:	0.741	Yaw:	16.718	Thrust:	59.956
Time:	1.193	Roll Set Point:	-0.084	Pitch Set Point:	-0.038	Yaw Set Point:	-0.157	X_WP:	0.000	Y_WP:	0.000	Z_WP:	0.500	X:	0.041	Y:	0.022	Z:	0.191	yaw:	8.978	yaw rate:	45.806	Roll:	1.146	Pitch:	0.539	Yaw:	8.563	Thrust:	59.268
Time:	1.214	Roll Set Point:	-0.085	Pitch Set Point:	-0.038	Yaw Set Point:	-0.155	X_WP:	0.000	Y_WP:	0.000	Z_WP:	0.500	X:	0.041	Y:	0.022	Z:	0.198	yaw:	8.869	yaw rate:	10.857	Roll:	1.215	Pitch:	0.353	Yaw:	13.151	Thrust:	64.159
Time:	1.233	Roll Set Point:	-0.086	Pitch Set Point:	-0.039	Yaw Set Point:	-0.151	X_WP:	0.000	Y_WP:	0.000	Z_WP:	0.500	X:	0.042	Y:	0.023	Z:	0.206	yaw:	8.658	yaw rate:	21.153	Roll:	1.217	Pitch:	0.574	Yaw:	11.052	Thrust:	55.087
Time:	1.252	Roll Set Point:	-0.087	Pitch Set Point:	-0.039	Yaw Set Point:	-0.139	X_WP:	0.000	Y_WP:	0.000	Z_WP:	0.500	X:	0.042	Y:	0.023	Z:	0.213	yaw:	7.992	yaw rate:	66.561	Roll:	1.122	Pitch:	0.478	Yaw:	4.143	Thrust:	58.691
Time:	1.273	Roll Set Point:	-0.088	Pitch Set Point:	-0.040	Yaw Set Point:	-0.137	X_WP:	0.000	Y_WP:	0.000	Z_WP:	0.500	X:	0.043	Y:	0.023	Z:	0.221	yaw:	7.866	yaw rate:	12.632	Roll:	1.023	Pitch:	0.685	Yaw:	11.537	Thrust:	62.748
Time:	1.294	Roll Set Point:	-0.089	Pitch Set Point:	-0.040	Yaw Set Point:	-0.137	X_WP:	0.000	Y_WP:	0.000	Z_WP:	0.500	X:	0.043	Y:	0.023	Z:	0.230	yaw:	7.832	yaw rate:	3.338	Roll:	1.190	Pitch:	0.151	Yaw:	12.435	Thrust:	53.525
Time:	1.312	Roll Set Point:	-0.090	Pitch Set Point:	-0.040	Yaw Set Point:	-0.123	X_WP:	0.000	Y_WP:	0.000	Z_WP:	0.500	X:	0.044	Y:	0.023	Z:	0.239	yaw:	7.027	yaw rate:	80.484	Roll:	0.972	Pitch:	0.646	Yaw:	0.790	Thrust:	57.633
Time:	1.333	Roll Set Point:	-0.091	Pitch Set Point:	-0.040	Yaw Set Point:	-0.115	X_WP:	0.000	Y_WP:	0.000	Z_WP:	0.500	X:	0.044	Y:	0.022	Z:	0.248	yaw:	6.599	yaw rate:	42.859	Roll:	1.068	Pitch:	0.227	Yaw:	5.981	Thrust:	59.010
Time:	1.352	Roll Set Point:	-0.091	Pitch Set Point:	-0.039	Yaw Set Point:	-0.130	X_WP:	0.000	Y_WP:	0.000	Z_WP:	0.500	X:	0.044	Y:	0.023	Z:	0.257	yaw:	7.427	yaw rate:	-82.827	Roll:	1.071	Pitch:	-0.139	Yaw:	23.629	Thrust:	54.464
Time:	1.372	Roll Set Point:	-0.092	Pitch Set Point:	-0.039	Yaw Set Point:	-0.119	X_WP:	0.000	Y_WP:	0.000	Z_WP:	0.500	X:	0.045	Y:	0.022	Z:	0.267	yaw:	6.794	yaw rate:	63.322	Roll:	1.198	Pitch:	0.450	Yaw:	2.951	Thrust:	54.131
Time:	1.393	Roll Set Point:	-0.092	Pitch Set Point:	-0.039	Yaw Set Point:	-0.112	X_WP:	0.000	Y_WP:	0.000	Z_WP:	0.500	X:	0.045	Y:	0.022	Z:	0.277	yaw:	6.427	yaw rate:	36.700	Roll:	0.922	Pitch:	0.237	Yaw:	6.671	Thrust:	62.058
Time:	1.414	Roll Set Point:	-0.093	Pitch Set Point:	-0.038	Yaw Set Point:	-0.103	X_WP:	0.000	Y_WP:	0.000	Z_WP:	0.500	X:	0.046	Y:	0.021	Z:	0.287	yaw:	5.918	yaw rate:	50.882	Roll:	1.129	Pitch:	-0.000	Yaw:	3.824	Thrust:	57.736
Time:	1.433	Roll Set Point:	-0.094	Pitch Set Point:	-0.037	Yaw Set Point:	-0.108	X_WP:	0.000	Y_WP:	0.000	Z_WP:	0.500	X:	0.046	Y:	0.021	Z:	0.297	yaw:	6.169	yaw rate:	-25.146	Roll:	1.152	Pitch:	-0.372	Yaw:	13.956	Thrust:	51.720
Time:	1.452	Roll Set Point:	-0.095	Pitch Set Point:	-0.036	Yaw Set Point:	-0.105	X_WP:	0.000	Y_WP:	0.000	Z_WP:	0.500	X:	0.047	Y:	0.021	Z:	0.307	yaw:	6.006	yaw rate:	16.320	Roll:	1.336	Pitch:	0.071	Yaw:	8.042	Thrust:	52.014
Time:	1.473	Roll Set Point:	-0.095	Pitch Set Point:	-0.036	Yaw Set Point:	-0.097	X_WP:	0.000	Y_WP:	0.000	Z_WP:	0.500	X:	0.047	Y:	0.020	Z:	0.318	yaw:	5.566	yaw rate:	44.016	Roll:	0.651	Pitch:	0.130	Yaw:	4.274	Thrust:	55.445
Time:	1.494	Roll Set Point:	-0.095	Pitch Set Point:	-0.035	Yaw Set Point:	-0.096	X_WP:	0.000	Y_WP:	0.000	Z_WP:	0.500	X:	0.047	Y:	0.020	Z:	0.328	yaw:	5.476	yaw rate:	8.977	Roll:	1.062	Pitch:	-0.031	Yaw:	8.563	Thrust:	56.992
Time:	1.513	Roll Set Point:	-0.096	Pitch Set Point:	-0.033	Yaw Set Point:	-0.088	X_WP:	0.000	Y_WP:	0.000	Z_WP:	0.500	X:	0.047	Y:	0.019	Z:	0.338	yaw:	5.015	yaw rate:	46.159	Roll:	1.107	Pitch:	-0.267	Yaw:	2.371	Thrust:	48.022
Time:	1.533	Roll Set Point:	-0.097	Pitch Set Point:	-0.032	Yaw Set Point:	-0.101	X_WP:	0.000	Y_WP:	0.000	Z_WP:	0.500	X:	0.048	Y:	0.018	Z:	0.349	yaw:	5.768	yaw rate:	-75.334	Roll:	1.443	Pitch:	-0.738	Yaw:	19.715	Thrust:	56.249
Time:	1.553	Roll Set Point:	-0.097	Pitch Set Point:	-0.031	Yaw Set Point:	-0.088	X_WP:	0.000	Y_WP:	0.000	Z_WP:	0.500	X:	0.048	Y:	0.018	Z:	0.359	yaw:	5.048	yaw rate:	72.001	Roll:	0.667	Pitch:	0.188	Yaw:	-0.345	Thrust:	53.416
Time:	1.573	Roll Set Point:	-0.098	Pitch Set Point:	-0.030	Yaw Set Point:	-0.089	X_WP:	0.000	Y_WP:	0.000	Z_WP:	0.500	X:	0.048	Y:	0.017	Z:	0.369	yaw:	5.119	yaw rate:	-7.118	Roll:	1.132	Pitch:	-0.412	Yaw:	10.081	Thrust:	53.786
Time:	1.593	Roll Set Point:	-0.099	Pitch Set Point:	-0.028	Yaw Set Point:	-0.083	X_WP:	0.000	Y_WP:	0.000	Z_WP:	0.500	X:	0.049	Y:	0.016	Z:	0.379	yaw:	4.763	yaw rate:	35.658	Roll:	1.165	Pitch:	-0.417	Yaw:	4.164	Thrust:	57.511
Time:	1.615	Roll Set Point:	-0.099	Pitch Set Point:	-0.027	Yaw Set Point:	-0.079	X_WP:	0.000	Y_WP:	0.000	Z_WP:	0.500	X:	0.049	Y:	0.015	Z:	0.389	yaw:	4.522	yaw rate:	24.038	Roll:	0.917	Pitch:	-0.079	Yaw:	5.645	Thrust:	58.726
Time:	1.633	Roll Set Point:	-0.099	Pitch Set Point:	-0.026	Yaw Set Point:	-0.076	X_WP:	0.000	Y_WP:	0.000	Z_WP:	0.500	X:	0.049	Y:	0.015	Z:	0.398	yaw:	4.380	yaw rate:	14.183	Roll:	0.791	Pitch:	-0.198	Yaw:	5.746	Thrust:	47.978
Time:	1.653	Roll Set Point:	-0.101	Pitch Set Point:	-0.024	Yaw Set Point:	-0.082	X_WP:	0.000	Y_WP:	0.000	Z_WP:	0.500	X:	0.050	Y:	0.014	Z:	0.407	yaw:	4.689	yaw rate:	-30.828	Roll:	1.696	Pitch:	-1.008	Yaw:	12.519	Thrust:	58.449
Time:	1.673	Roll Set Point:	-0.100	Pitch Set Point:	-0.022	Yaw Set Point:	-0.068	X_WP:	0.000	Y_WP:	0.000	Z_WP:	0.500	X:	0.050	Y:	0.013	Z:	0.416	yaw:	3.876	yaw rate:	81.273	Roll:	0.701	Pitch:	0.011	Yaw:	-3.737	Thrust:	51.719
Time:	1.696	Roll Set Point:	-0.101	Pitch Set Point:	-0.021	Yaw Set Point:	-0.072	X_WP:	0.000	Y_WP:	0.000	Z_WP:	0.500	X:	0.050	Y:	0.012	Z:	0.425	yaw:	4.139	yaw rate:	-26.306	Roll:	1.268	Pitch:	-0.667	Yaw:	11.063	Thrust:	70.503
Time:	1.713	Roll Set Point:	-0.101	Pitch Set Point:	-0.019	Yaw Set Point:	-0.061	X_WP:	0.000	Y_WP:	0.000	Z_WP:	0.500	X:	0.050	Y:	0.011	Z:	0.433	yaw:	3.508	yaw rate:	63.135	Roll:	0.907	Pitch:	-0.112	Yaw:	-3.073	Thrust:	36.558
Time:	1.733	Roll Set Point:	-0.102	Pitch Set Point:	-0.018	Yaw Set Point:	-0.060	X_WP:	0.000	Y_WP:	0.000	Z_WP:	0.500	X:	0.051	Y:	0.011	Z:	0.442	yaw:	3.416	yaw rate:	9.193	Roll:	1.076	Pitch:	-0.445	Yaw:	5.579	Thrust:	60.218
Time:	1.753	Roll Set Point:	-0.103	Pitch Set Point:	-0.015	Yaw Set Point:	-0.059	X_WP:	0.000	Y_WP:	0.000	Z_WP:	0.500	X:	0.051	Y:	0.009	Z:	0.450	yaw:	3.370	yaw rate:	4.579	Roll:	1.358	Pitch:	-1.057	Yaw:	6.052	Thrust:	54.265
Time:	1.777	Roll Set Point:	-0.103	Pitch Set Point:	-0.014	Yaw Set Point:	-0.071	X_WP:	0.000	Y_WP:	0.000	Z_WP:	0.500	X:	0.051	Y:	0.009	Z:	0.458	yaw:	4.078	yaw rate:	-70.759	Roll:	0.960	Pitch:	-0.705	Yaw:	15.788	Thrust:	73.863
Time:	1.800	Roll Set Point:	-0.104	Pitch Set Point:	-0.011	Yaw Set Point:	-0.067	X_WP:	0.000	Y_WP:	0.000	Z_WP:	0.500	X:	0.052	Y:	0.007	Z:	0.465	yaw:	3.843	yaw rate:	23.438	Roll:	1.401	Pitch:	-0.620	Yaw:	5.012	Thrust:	70.382
Time:	1.815	Roll Set Point:	-0.104	Pitch Set Point:	-0.010	Yaw Set Point:	-0.055	X_WP:	0.000	Y_WP:	0.000	Z_WP:	0.500	X:	0.052	Y:	0.006	Z:	0.472	yaw:	3.175	yaw rate:	66.791	Roll:	0.993	Pitch:	-0.471	Yaw:	-5.574	Thrust:	35.011
Time:	1.833	Roll Set Point:	-0.105	Pitch Set Point:	-0.009	Yaw Set Point:	-0.050	X_WP:	0.000	Y_WP:	0.000	Z_WP:	0.500	X:	0.052	Y:	0.006	Z:	0.479	yaw:	2.871	yaw rate:	30.420	Roll:	1.157	Pitch:	-0.145	Yaw:	1.259	Thrust:	47.834
Time:	1.852	Roll Set Point:	-0.105	Pitch Set Point:	-0.006	Yaw Set Point:	-0.056	X_WP:	0.000	Y_WP:	0.000	Z_WP:	0.500	X:	0.052	Y:	0.005	Z:	0.485	yaw:	3.194	yaw rate:	-32.245	Roll:	1.060	Pitch:	-1.304	Yaw:	10.696	Thrust:	57.908
Time:	1.873	Roll Set Point:	-0.106	Pitch Set Point:	-0.006	Yaw Set Point:	-0.049	X_WP:	0.000	Y_WP:	0.000	Z_WP:	0.500	X:	0.053	Y:	0.004	Z:	0.492	yaw:	2.816	yaw rate:	37.794	Roll:	1.260	Pitch:	-0.013	Yaw:	1.138	Thrust:	58.400
Time:	1.895	Roll Set Point:	-0.107	Pitch Set Point:	-0.003	Yaw Set Point:	-0.049	X_WP:	0.000	Y_WP:	0.000	Z_WP:	0.500	X:	0.054	Y:	0.003	Z:	0.499	yaw:	2.835	yaw rate:	-1.957	Roll:	1.439	Pitch:	-0.893	Yaw:	6.391	Thrust:	66.110
Time:	1.912	Roll Set Point:	-0.107	Pitch Set Point:	-0.002	Yaw Set Point:	-0.044	X_WP:	0.000	Y_WP:	0.000	Z_WP:	0.500	X:	0.054	Y:	0.002	Z:	0.505	yaw:	2.520	yaw rate:	31.528	Roll:	1.081	Pitch:	-0.389	Yaw:	0.473	Thrust:	44.656
Time:	1.933	Roll Set Point:	-0.109	Pitch Set Point:	0.000	Yaw Set Point:	-0.044	X_WP:	0.000	Y_WP:	0.000	Z_WP:	0.500	X:	0.054	Y:	0.001	Z:	0.511	yaw:	2.519	yaw rate:	0.118	Roll:	1.473	Pitch:	-0.977	Yaw:	5.558	Thrust:	58.217
Time:	1.953	Roll Set Point:	-0.109	Pitch Set Point:	0.002	Yaw Set Point:	-0.057	X_WP:	0.000	Y_WP:	0.000	Z_WP:	0.500	X:	0.055	Y:	0.001	Z:	0.517	yaw:	3.248	yaw rate:	-72.933	Roll:	1.306	Pitch:	-1.043	Yaw:	16.061	Thrust:	59.235
Time:	1.973	Roll Set Point:	-0.110	Pitch Set Point:	0.003	Yaw Set Point:	-0.047	X_WP:	0.000	Y_WP:	0.000	Z_WP:	0.500	X:	0.055	Y:	-0.000	Z:	0.524	yaw:	2.690	yaw rate:	55.835	Roll:	1.332	Pitch:	-0.368	Yaw:	-1.539	Thrust:	55.969
Time:	1.992	Roll Set Point:	-0.111	Pitch Set Point:	0.005	Yaw Set Point:	-0.037	X_WP:	0.000	Y_WP:	0.000	Z_WP:	0.500	X:	0.056	Y:	-0.001	Z:	0.530	yaw:	2.138	yaw rate:	55.196	Roll:	1.413	Pitch:	-0.610	Yaw:	-2.436	Thrust:	52.494
Time:	2.013	Roll Set Point:	-0.111	Pitch Set Point:	0.006	Yaw Set Point:	-0.043	X_WP:	0.000	Y_WP:	0.000	Z_WP:	0.500	X:	0.056	Y:	-0.002	Z:	0.536	yaw:	2.491	yaw rate:	-35.344	Roll:	1.155	Pitch:	-0.613	Yaw:	10.051	Thrust:	59.899
Time:	2.032	Roll Set Point:	-0.113	Pitch Set Point:	0.008	Yaw Set Point:	-0.040	X_WP:	0.000	Y_WP:	0.000	Z_WP:	0.500	X:	0.056	Y:	-0.003	Z:	0.542	yaw:	2.319	yaw rate:	17.229	Roll:	1.629	Pitch:	-1.000	Yaw:	2.845	Thrust:	54.106
Time:	2.052	Roll Set Point:	-0.114	Pitch Set Point:	0.009	Yaw Set Point:	-0.039	X_WP:	0.000	Y_WP:	0.000	Z_WP:	0.500	X:	0.057	Y:	-0.004	Z:	0.548	yaw:	2.235	yaw rate:	8.399	Roll:	1.432	Pitch:	-0.444	Yaw:	3.872	Thrust:	51.943
Time:	2.072	Roll Set Point:	-0.115	Pitch Set Point:	0.011	Yaw Set Point:	-0.038	X_WP:	0.000	Y_WP:	0.000	Z_WP:	0.500	X:	0.058	Y:	-0.004	Z:	0.554	yaw:	2.171	yaw rate:	6.390	Roll:	1.723	Pitch:	-0.666	Yaw:	4.260	Thrust:	56.858
Time:	2.093	Roll Set Point:	-0.116	Pitch Set Point:	0.009	Yaw Set Point:	-0.010	X_WP:	0.000	Y_WP:	0.000	Z_WP:	0.500	X:	0.058	Y:	-0.004	Z:	0.559	yaw:	0.588	yaw rate:	158.275	Roll:	1.454	Pitch:	1.167	Yaw:	-16.750	Thrust:	58.758
Time:	2.112	Roll Set Point:	-0.117	Pitch Set Point:	0.011	Yaw Set Point:	-0.014	X_WP:	0.000	Y_WP:	0.000	Z_WP:	0.500	X:	0.059	Y:	-0.005	Z:	0.564	yaw:	0.781	yaw rate:	-19.253	Roll:	1.674	Pitch:	-0.970	Yaw:	5.648	Thrust:	53.053
Time:	2.133	Roll Set Point:	-0.119	Pitch Set Point:	0.016	Yaw Set Point:	-0.042	X_WP:	0.000	Y_WP:	0.000	Z_WP:	0.500	X:	0.060	Y:	-0.007	Z:	0.570	yaw:	2.378	yaw rate:	-159.706	Roll:	1.780	Pitch:	-2.890	Yaw:	25.684	Thrust:	56.980
Time:	2.152	Roll Set Point:	-0.121	Pitch Set Point:	0.015	Yaw Set Point:	0.004	X_WP:	0.000	Y_WP:	0.000	Z_WP:	0.500	X:	0.060	Y:	-0.008	Z:	0.576	yaw:	-0.216	yaw rate:	259.400	Roll:	1.854	Pitch:	1.546	Yaw:	-32.113	Thrust:	54.285
Time:	2.173	Roll Set Point:	-0.122	Pitch Set Point:	0.020	Yaw Set Point:	-0.027	X_WP:	0.000	Y_WP:	0.000	Z_WP:	0.500	X:	0.061	Y:	-0.009	Z:	0.581	yaw:	1.541	yaw rate:	-175.741	Roll:	1.466	Pitch:	-2.759	Yaw:	26.996	Thrust:	55.241
Time:	2.193	Roll Set Point:	-0.121	Pitch Set Point:	0.020	Yaw Set Point:	-0.036	X_WP:	0.000	Y_WP:	0.000	Z_WP:	0.500	X:	0.061	Y:	-0.009	Z:	0.586	yaw:	2.075	yaw rate:	-53.423	Roll:	0.694	Pitch:	-0.609	Yaw:	11.734	Thrust:	54.780
Time:	2.214	Roll Set Point:	-0.123	Pitch Set Point:	0.022	Yaw Set Point:	-0.044	X_WP:	0.000	Y_WP:	0.000	Z_WP:	0.500	X:	0.062	Y:	-0.009	Z:	0.591	yaw:	2.546	yaw rate:	-47.037	Roll:	1.912	Pitch:	-0.952	Yaw:	11.542	Thrust:	60.059
Time:	2.233	Roll Set Point:	-0.127	Pitch Set Point:	0.020	Yaw Set Point:	-0.002	X_WP:	0.000	Y_WP:	0.000	Z_WP:	0.500	X:	0.063	Y:	-0.010	Z:	0.595	yaw:	0.130	yaw rate:	241.595	Roll:	3.047	Pitch:	1.594	Yaw:	-31.382	Thrust:	51.841
Time:	2.253	Roll Set Point:	-0.128	Pitch Set Point:	0.021	Yaw Set Point:	0.010	X_WP:	0.000	Y_WP:	0.000	Z_WP:	0.500	X:	0.064	Y:	-0.011	Z:	0.600	yaw:	-0.578	yaw rate:	70.744	Roll:	1.920	Pitch:	-0.174	Yaw:	-8.322	Thrust:	51.310
Time:	2.272	Roll Set Point:	-0.129	Pitch Set Point:	0.022	Yaw Set Point:	0.017	X_WP:	0.000	Y_WP:	0.000	Z_WP:	0.500	X:	0.064	Y:	-0.011	Z:	0.604	yaw:	-0.954	yaw rate:	37.692	Roll:	1.577	Pitch:	-0.131	Yaw:	-4.320	Thrust:	52.699
Time:	2.294	Roll Set Point:	-0.127	Pitch Set Point:	0.025	Yaw Set Point:	-0.020	X_WP:	0.000	Y_WP:	0.000	Z_WP:	0.500	X:	0.064	Y:	-0.012	Z:	0.611	yaw:	1.140	yaw rate:	-209.462	Roll:	0.198	Pitch:	-2.376	Yaw:	28.723	Thrust:	51.890
Time:	2.321	Roll Set Point:	-0.128	Pitch Set Point:	0.027	Yaw Set Point:	-0.030	X_WP:	0.000	Y_WP:	0.000	Z_WP:	0.500	X:	0.064	Y:	-0.012	Z:	0.616	yaw:	1.707	yaw rate:	-56.716	Roll:	1.617	Pitch:	-0.989	Yaw:	10.668	Thrust:	80.443
Time:	2.333	Roll Set Point:	-0.128	Pitch Set Point:	0.028	Yaw Set Point:	-0.025	X_WP:	0.000	Y_WP:	0.000	Z_WP:	0.500	X:	0.064	Y:	-0.013	Z:	0.620	yaw:	1.447	yaw rate:	26.024	Roll:	1.110	Pitch:	-0.539	Yaw:	-2.288	Thrust:	20.080
Time:	2.353	Roll Set Point:	-0.130	Pitch Set Point:	0.028	Yaw Set Point:	-0.013	X_WP:	0.000	Y_WP:	0.000	Z_WP:	0.500	X:	0.065	Y:	-0.014	Z:	0.624	yaw:	0.737	yaw rate:	70.998	Roll:	2.165	Pitch:	0.009	Yaw:	-6.227	Thrust:	51.834
Time:	2.373	Roll Set Point:	-0.132	Pitch Set Point:	0.029	Yaw Set Point:	-0.016	X_WP:	0.000	Y_WP:	0.000	Z_WP:	0.500	X:	0.066	Y:	-0.014	Z:	0.628	yaw:	0.931	yaw rate:	-19.390	Roll:	1.836	Pitch:	-0.788	Yaw:	5.843	Thrust:	47.946
Time:	2.392	Roll Set Point:	-0.133	Pitch Set Point:	0.030	Yaw Set Point:	-0.010	X_WP:	0.000	Y_WP:	0.000	Z_WP:	0.500	X:	0.067	Y:	-0.015	Z:	0.632	yaw:	0.576	yaw rate:	35.466	Roll:	1.780	Pitch:	-0.375	Yaw:	-1.980	Thrust:	54.727
Time:	2.415	Roll Set Point:	-0.134	Pitch Set Point:	0.031	Yaw Set Point:	-0.016	X_WP:	0.000	Y_WP:	0.000	Z_WP:	0.500	X:	0.067	Y:	-0.015	Z:	0.635	yaw:	0.909	yaw rate:	-33.315	Roll:	1.492	Pitch:	-0.909	Yaw:	7.356	Thrust:	60.231
Time:	2.432	Roll Set Point:	-0.135	Pitch Set Point:	0.031	Yaw Set Point:	-0.005	X_WP:	0.000	Y_WP:	0.000	Z_WP:	0.500	X:	0.067	Y:	-0.015	Z:	0.639	yaw:	0.278	yaw rate:	63.127	Roll:	1.912	Pitch:	0.231	Yaw:	-7.594	Thrust:	44.930
Time:	2.452	Roll Set Point:	-0.136	Pitch Set Point:	0.031	Yaw Set Point:	0.002	X_WP:	0.000	Y_WP:	0.000	Z_WP:	0.500	X:	0.068	Y:	-0.015	Z:	0.642	yaw:	-0.134	yaw rate:	41.206	Roll:	1.794	Pitch:	0.195	Yaw:	-3.736	Thrust:	50.830
Time:	2.473	Roll Set Point:	-0.141	Pitch Set Point:	0.030	Yaw Set Point:	0.037	X_WP:	0.000	Y_WP:	0.000	Z_WP:	0.500	X:	0.070	Y:	-0.016	Z:	0.642	yaw:	-2.128	yaw rate:	199.405	Roll:	3.567	Pitch:	0.975	Yaw:	-25.651	Thrust:	60.444
Time:	2.495	Roll Set Point:	-0.143	Pitch Set Point:	0.031	Yaw Set Point:	0.042	X_WP:	0.000	Y_WP:	0.000	Z_WP:	0.500	X:	0.071	Y:	-0.017	Z:	0.645	yaw:	-2.398	yaw rate:	27.049	Roll:	2.162	Pitch:	-0.286	Yaw:	-4.435	Thrust:	57.711
Time:	2.512	Roll Set Point:	-0.143	Pitch Set Point:	0.031	Yaw Set Point:	0.044	X_WP:	0.000	Y_WP:	0.000	Z_WP:	0.500	X:	0.071	Y:	-0.017	Z:	0.647	yaw:	-2.502	yaw rate:	10.405	Roll:	1.522	Pitch:	-0.263	Yaw:	-3.394	Thrust:	45.074
Time:	2.533	Roll Set Point:	-0.144	Pitch Set Point:	0.032	Yaw Set Point:	0.038	X_WP:	0.000	Y_WP:	0.000	Z_WP:	0.500	X:	0.072	Y:	-0.017	Z:	0.649	yaw:	-2.183	yaw rate:	-31.916	Roll:	1.797	Pitch:	-0.677	Yaw:	3.022	Thrust:	54.621
Time:	2.552	Roll Set Point:	-0.146	Pitch Set Point:	0.032	Yaw Set Point:	0.046	X_WP:	0.000	Y_WP:	0.000	Z_WP:	0.500	X:	0.072	Y:	-0.018	Z:	0.651	yaw:	-2.614	yaw rate:	43.097	Roll:	2.039	Pitch:	-0.135	Yaw:	-7.507	Thrust:	51.326
Time:	2.573	Roll Set Point:	-0.146	Pitch Set Point:	0.033	Yaw Set Point:	0.040	X_WP:	0.000	Y_WP:	0.000	Z_WP:	0.500	X:	0.073	Y:	-0.018	Z:	0.652	yaw:	-2.283	yaw rate:	-33.157	Roll:	1.614	Pitch:	-0.687	Yaw:	3.011	Thrust:	55.009
Time:	2.593	Roll Set Point:	-0.147	Pitch Set Point:	0.034	Yaw Set Point:	0.038	X_WP:	0.000	Y_WP:	0.000	Z_WP:	0.500	X:	0.073	Y:	-0.018	Z:	0.653	yaw:	-2.198	yaw rate:	-8.434	Roll:	1.815	Pitch:	-0.445	Yaw:	-0.070	Thrust:	52.531
Time:	2.615	Roll Set Point:	-0.149	Pitch Set Point:	0.034	Yaw Set Point:	0.042	X_WP:	0.000	Y_WP:	0.000	Z_WP:	0.500	X:	0.074	Y:	-0.019	Z:	0.654	yaw:	-2.427	yaw rate:	22.846	Roll:	1.998	Pitch:	-0.211	Yaw:	-4.231	Thrust:	57.605
Time:	2.633	Roll Set Point:	-0.149	Pitch Set Point:	0.035	Yaw Set Point:	0.044	X_WP:	0.000	Y_WP:	0.000	Z_WP:	0.500	X:	0.074	Y:	-0.019	Z:	0.655	yaw:	-2.513	yaw rate:	8.575	Roll:	1.680	Pitch:	-0.572	Yaw:	-2.825	Thrust:	52.454
Time:	2.652	Roll Set Point:	-0.151	Pitch Set Point:	0.034	Yaw Set Point:	0.065	X_WP:	0.000	Y_WP:	0.000	Z_WP:	0.500	X:	0.075	Y:	-0.020	Z:	0.655	yaw:	-3.725	yaw rate:	121.239	Roll:	2.577	Pitch:	0.779	Yaw:	-20.032	Thrust:	51.534
Time:	2.673	Roll Set Point:	-0.151	Pitch Set Point:	0.035	Yaw Set Point:	0.048	X_WP:	0.000	Y_WP:	0.000	Z_WP:	0.500	X:	0.075	Y:	-0.020	Z:	0.655	yaw:	-2.752	yaw rate:	-97.323	Roll:	1.293	Pitch:	-1.247	Yaw:	10.616	Thrust:	54.739
Time:	2.695	Roll Set Point:	-0.150	Pitch Set Point:	0.040	Yaw Set Point:	0.015	X_WP:	0.000	Y_WP:	0.000	Z_WP:	0.500	X:	0.075	Y:	-0.020	Z:	0.657	yaw:	-0.881	yaw rate:	-187.095	Roll:	0.509	Pitch:	-2.955	Yaw:	22.841	Thrust:	55.550
Time:	2.712	Roll Set Point:	-0.149	Pitch Set Point:	0.039	Yaw Set Point:	0.013	X_WP:	0.000	Y_WP:	0.000	Z_WP:	0.500	X:	0.075	Y:	-0.020	Z:	0.657	yaw:	-0.740	yaw rate:	-14.118	Roll:	1.219	Pitch:	-0.288	Yaw:	2.664	Thrust:	47.457
Time:	2.734	Roll Set Point:	-0.150	Pitch Set Point:	0.040	Yaw Set Point:	0.008	X_WP:	0.000	Y_WP:	0.000	Z_WP:	0.500	X:	0.075	Y:	-0.020	Z:	0.656	yaw:	-0.481	yaw rate:	-25.904	Roll:	1.668	Pitch:	-0.691	Yaw:	4.397	Thrust:	60.227
Time:	2.753	Roll Set Point:	-0.150	Pitch Set Point:	0.041	Yaw Set Point:	0.012	X_WP:	0.000	Y_WP:	0.000	Z_WP:	0.500	X:	0.075	Y:	-0.021	Z:	0.655	yaw:	-0.693	yaw rate:	21.295	Roll:	1.734	Pitch:	-0.667	Yaw:	-2.188	Thrust:	52.299
Time:	2.772	Roll Set Point:	-0.153	Pitch Set Point:	0.042	Yaw Set Point:	0.031	X_WP:	0.000	Y_WP:	0.000	Z_WP:	0.500	X:	0.076	Y:	-0.022	Z:	0.652	yaw:	-1.763	yaw rate:	106.929	Roll:	2.539	Pitch:	0.165	Yaw:	-14.974	Thrust:	59.585
Time:	2.793	Roll Set Point:	-0.155	Pitch Set Point:	0.040	Yaw Set Point:	0.051	X_WP:	0.000	Y_WP:	0.000	Z_WP:	0.500	X:	0.077	Y:	-0.022	Z:	0.650	yaw:	-2.903	yaw rate:	114.050	Roll:	2.505	Pitch:	1.072	Yaw:	-17.041	Thrust:	56.586
Time:	2.814	Roll Set Point:	-0.155	Pitch Set Point:	0.041	Yaw Set Point:	0.050	X_WP:	0.000	Y_WP:	0.000	Z_WP:	0.500	X:	0.077	Y:	-0.022	Z:	0.648	yaw:	-2.851	yaw rate:	-5.262	Roll:	1.677	Pitch:	-0.729	Yaw:	-1.482	Thrust:	58.910
Time:	2.833	Roll Set Point:	-0.156	Pitch Set Point:	0.043	Yaw Set Point:	0.036	X_WP:	0.000	Y_WP:	0.000	Z_WP:	0.500	X:	0.078	Y:	-0.023	Z:	0.646	yaw:	-2.071	yaw rate:	-77.993	Roll:	1.717	Pitch:	-1.524	Yaw:	9.448	Thrust:	53.607
Time:	2.852	Roll Set Point:	-0.156	Pitch Set Point:	0.042	Yaw Set Point:	0.051	X_WP:	0.000	Y_WP:	0.000	Z_WP:	0.500	X:	0.077	Y:	-0.023	Z:	0.644	yaw:	-2.939	yaw rate:	86.794	Roll:	1.664	Pitch:	0.587	Yaw:	-13.950	Thrust:	57.232
Time:	2.873	Roll Set Point:	-0.156	Pitch Set Point:	0.043	Yaw Set Point:	0.055	X_WP:	0.000	Y_WP:	0.000	Z_WP:	0.500	X:	0.078	Y:	-0.024	Z:	0.642	yaw:	-3.135	yaw rate:	19.636	Roll:	1.756	Pitch:	-0.582	Yaw:	-5.205	Thrust:	56.942
Time:	2.894	Roll Set Point:	-0.156	Pitch Set Point:	0.044	Yaw Set Point:	0.053	X_WP:	0.000	Y_WP:	0.000	Z_WP:	0.500	X:	0.078	Y:	-0.024	Z:	0.639	yaw:	-3.009	yaw rate:	-12.622	Roll:	1.530	Pitch:	-0.832	Yaw:	-0.861	Thrust:	58.178
Time:	2.912	Roll Set Point:	-0.157	Pitch Set Point:	0.046	Yaw Set Point:	0.039	X_WP:	0.000	Y_WP:	0.000	Z_WP:	0.500	X:	0.078	Y:	-0.024	Z:	0.637	yaw:	-2.225	yaw rate:	-78.415	Roll:	1.604	Pitch:	-1.657	Yaw:	9.879	Thrust:	53.338
Time:	2.933	Roll Set Point:	-0.156	Pitch Set Point:	0.046	Yaw Set Point:	0.047	X_WP:	0.000	Y_WP:	0.000	Z_WP:	0.500	X:	0.078	Y:	-0.025	Z:	0.635	yaw:	-2.703	yaw rate:	47.810	Roll:	1.339	Pitch:	-0.148	Yaw:	-8.175	Thrust:	56.971
Time:	2.952	Roll Set Point:	-0.156	Pitch Set Point:	0.047	Yaw Set Point:	0.052	X_WP:	0.000	Y_WP:	0.000	Z_WP:	0.500	X:	0.078	Y:	-0.025	Z:	0.633	yaw:	-3.001	yaw rate:	29.798	Roll:	1.692	Pitch:	-0.424	Yaw:	-6.588	Thrust:	54.035
Time:	2.973	Roll Set Point:	-0.156	Pitch Set Point:	0.047	Yaw Set Point:	0.054	X_WP:	0.000	Y_WP:	0.000	Z_WP:	0.500	X:	0.078	Y:	-0.026	Z:	0.631	yaw:	-3.109	yaw rate:	10.808	Roll:	1.603	Pitch:	-0.571	Yaw:	-4.097	Thrust:	56.537
Time:	2.993	Roll Set Point:	-0.153	Pitch Set Point:	0.051	Yaw Set Point:	0.011	X_WP:	0.000	Y_WP:	0.000	Z_WP:	0.500	X:	0.076	Y:	-0.026	Z:	0.631	yaw:	-0.630	yaw rate:	-247.914	Roll:	-0.424	Pitch:	-3.559	Yaw:	33.099	Thrust:	50.940
Time:	3.014	Roll Set Point:	-0.152	Pitch Set Point:	0.054	Yaw Set Point:	-0.008	X_WP:	0.000	Y_WP:	0.000	Z_WP:	0.500	X:	0.076	Y:	-0.027	Z:	0.629	yaw:	0.439	yaw rate:	-106.915	Roll:	0.915	Pitch:	-2.054	Yaw:	15.492	Thrust:	57.569
Time:	3.033	Roll Set Point:	-0.152	Pitch Set Point:	0.053	Yaw Set Point:	0.010	X_WP:	0.000	Y_WP:	0.000	Z_WP:	0.500	X:	0.076	Y:	-0.027	Z:	0.627	yaw:	-0.595	yaw rate:	103.408	Roll:	1.892	Pitch:	0.447	Yaw:	-13.790	Thrust:	51.119
Time:	3.052	Roll Set Point:	-0.153	Pitch Set Point:	0.056	Yaw Set Point:	-0.002	X_WP:	0.000	Y_WP:	0.000	Z_WP:	0.500	X:	0.076	Y:	-0.028	Z:	0.625	yaw:	0.096	yaw rate:	-69.091	Roll:	1.447	Pitch:	-1.787	Yaw:	10.890	Thrust:	52.968
Time:	3.074	Roll Set Point:	-0.152	Pitch Set Point:	0.055	Yaw Set Point:	0.012	X_WP:	0.000	Y_WP:	0.000	Z_WP:	0.500	X:	0.076	Y:	-0.028	Z:	0.623	yaw:	-0.682	yaw rate:	77.784	Roll:	1.347	Pitch:	0.145	Yaw:	-8.763	Thrust:	54.768
Time:	3.096	Roll Set Point:	-0.153	Pitch Set Point:	0.058	Yaw Set Point:	-0.004	X_WP:	0.000	Y_WP:	0.000	Z_WP:	0.500	X:	0.076	Y:	-0.029	Z:	0.620	yaw:	0.212	yaw rate:	-89.389	Roll:	1.718	Pitch:	-2.020	Yaw:	12.827	Thrust:	60.596
Time:	3.112	Roll Set Point:	-0.152	Pitch Set Point:	0.057	Yaw Set Point:	0.015	X_WP:	0.000	Y_WP:	0.000	Z_WP:	0.500	X:	0.076	Y:	-0.029	Z:	0.618	yaw:	-0.880	yaw rate:	109.278	Roll:	1.408	Pitch:	0.930	Yaw:	-16.977	Thrust:	45.914
Time:	3.132	Roll Set Point:	-0.151	Pitch Set Point:	0.058	Yaw Set Point:	0.010	X_WP:	0.000	Y_WP:	0.000	Z_WP:	0.500	X:	0.076	Y:	-0.029	Z:	0.616	yaw:	-0.591	yaw rate:	-28.968	Roll:	1.225	Pitch:	-1.009	Yaw:	4.518	Thrust:	54.598
Time:	3.153	Roll Set Point:	-0.152	Pitch Set Point:	0.058	Yaw Set Point:	0.013	X_WP:	0.000	Y_WP:	0.000	Z_WP:	0.500	X:	0.076	Y:	-0.030	Z:	0.613	yaw:	-0.740	yaw rate:	14.964	Roll:	1.734	Pitch:	-0.562	Yaw:	-1.336	Thrust:	56.507
Time:	3.173	Roll Set Point:	-0.152	Pitch Set Point:	0.059	Yaw Set Point:	0.010	X_WP:	0.000	Y_WP:	0.000	Z_WP:	0.500	X:	0.076	Y:	-0.030	Z:	0.611	yaw:	-0.551	yaw rate:	-18.912	Roll:	1.394	Pitch:	-1.023	Yaw:	3.265	Thrust:	53.159
Time:	3.193	Roll Set Point:	-0.153	Pitch Set Point:	0.059	Yaw Set Point:	0.025	X_WP:	0.000	Y_WP:	0.000	Z_WP:	0.500	X:	0.076	Y:	-0.031	Z:	0.608	yaw:	-1.447	yaw rate:	89.580	Roll:	2.173	Pitch:	0.015	Yaw:	-12.179	Thrust:	54.761
Time:	3.214	Roll Set Point:	-0.153	Pitch Set Point:	0.060	Yaw Set Point:	0.021	X_WP:	0.000	Y_WP:	0.000	Z_WP:	0.500	X:	0.076	Y:	-0.031	Z:	0.605	yaw:	-1.226	yaw rate:	-22.102	Roll:	1.489	Pitch:	-0.798	Yaw:	2.714	Thrust:	55.340
Time:	3.233	Roll Set Point:	-0.153	Pitch Set Point:	0.062	Yaw Set Point:	0.014	X_WP:	0.000	Y_WP:	0.000	Z_WP:	0.500	X:	0.077	Y:	-0.031	Z:	0.602	yaw:	-0.774	yaw rate:	-45.208	Roll:	1.853	Pitch:	-1.388	Yaw:	6.429	Thrust:	55.247
Time:	3.252	Roll Set Point:	-0.152	Pitch Set Point:	0.062	Yaw Set Point:	0.018	X_WP:	0.000	Y_WP:	0.000	Z_WP:	0.500	X:	0.076	Y:	-0.032	Z:	0.599	yaw:	-1.028	yaw rate:	25.443	Roll:	1.088	Pitch:	-0.527	Yaw:	-3.323	Thrust:	54.998
Time:	3.273	Roll Set Point:	-0.152	Pitch Set Point:	0.063	Yaw Set Point:	0.018	X_WP:	0.000	Y_WP:	0.000	Z_WP:	0.500	X:	0.076	Y:	-0.032	Z:	0.595	yaw:	-1.024	yaw rate:	-0.465	Roll:	1.597	Pitch:	-0.777	Yaw:	0.188	Thrust:	57.456
Time:	3.295	Roll Set Point:	-0.154	Pitch Set Point:	0.063	Yaw Set Point:	0.014	X_WP:	0.000	Y_WP:	0.000	Z_WP:	0.500	X:	0.077	Y:	-0.032	Z:	0.591	yaw:	-0.826	yaw rate:	-19.775	Roll:	2.126	Pitch:	-0.902	Yaw:	2.859	Thrust:	61.422
Time:	3.313	Roll Set Point:	-0.153	Pitch Set Point:	0.064	Yaw Set Point:	0.022	X_WP:	0.000	Y_WP:	0.000	Z_WP:	0.500	X:	0.076	Y:	-0.033	Z:	0.587	yaw:	-1.235	yaw rate:	40.936	Roll:	1.264	Pitch:	-0.324	Yaw:	-6.365	Thrust:	53.165
Time:	3.333	Roll Set Point:	-0.153	Pitch Set Point:	0.064	Yaw Set Point:	0.024	X_WP:	0.000	Y_WP:	0.000	Z_WP:	0.500	X:	0.076	Y:	-0.033	Z:	0.583	yaw:	-1.364	yaw rate:	12.895	Roll:	1.845	Pitch:	-0.661	Yaw:	-2.051	Thrust:	58.129
Time:	3.352	Roll Set Point:	-0.154	Pitch Set Point:	0.066	Yaw Set Point:	0.011	X_WP:	0.000	Y_WP:	0.000	Z_WP:	0.500	X:	0.077	Y:	-0.033	Z:	0.579	yaw:	-0.606	yaw rate:	-75.790	Roll:	1.465	Pitch:	-1.619	Yaw:	10.797	Thrust:	56.212
Time:	3.373	Roll Set Point:	-0.153	Pitch Set Point:	0.066	Yaw Set Point:	0.020	X_WP:	0.000	Y_WP:	0.000	Z_WP:	0.500	X:	0.076	Y:	-0.034	Z:	0.575	yaw:	-1.134	yaw rate:	52.713	Roll:	1.557	Pitch:	-0.288	Yaw:	-6.901	Thrust:	57.993
Time:	3.394	Roll Set Point:	-0.153	Pitch Set Point:	0.069	Yaw Set Point:	-0.004	X_WP:	0.000	Y_WP:	0.000	Z_WP:	0.500	X:	0.077	Y:	-0.034	Z:	0.571	yaw:	0.202	yaw rate:	-133.521	Roll:	1.144	Pitch:	-2.378	Yaw:	18.936	Thrust:	59.141
Time:	3.414	Roll Set Point:	-0.152	Pitch Set Point:	0.072	Yaw Set Point:	-0.030	X_WP:	0.000	Y_WP:	0.000	Z_WP:	0.500	X:	0.076	Y:	-0.035	Z:	0.566	yaw:	1.692	yaw rate:	-149.040	Roll:	0.681	Pitch:	-2.620	Yaw:	23.611	Thrust:	59.283
Time:	3.432	Roll Set Point:	-0.154	Pitch Set Point:	0.067	Yaw Set Point:	0.026	X_WP:	0.000	Y_WP:	0.000	Z_WP:	0.500	X:	0.076	Y:	-0.034	Z:	0.563	yaw:	-1.492	yaw rate:	318.451	Roll:	3.331	Pitch:	3.367	Yaw:	-43.036	Thrust:	54.518
Time:	3.453	Roll Set Point:	-0.154	Pitch Set Point:	0.069	Yaw Set Point:	0.013	X_WP:	0.000	Y_WP:	0.000	Z_WP:	0.500	X:	0.077	Y:	-0.035	Z:	0.559	yaw:	-0.727	yaw rate:	-76.543	Roll:	1.437	Pitch:	-1.814	Yaw:	10.249	Thrust:	58.824
Time:	3.473	Roll Set Point:	-0.155	Pitch Set Point:	0.069	Yaw Set Point:	0.015	X_WP:	0.000	Y_WP:	0.000	Z_WP:	0.500	X:	0.077	Y:	-0.035	Z:	0.554	yaw:	-0.855	yaw rate:	12.751	Roll:	1.946	Pitch:	-0.694	Yaw:	-1.448	Thrust:	57.241
Time:	3.494	Roll Set Point:	-0.155	Pitch Set Point:	0.070	Yaw Set Point:	0.031	X_WP:	0.000	Y_WP:	0.000	Z_WP:	0.500	X:	0.077	Y:	-0.036	Z:	0.551	yaw:	-1.774	yaw rate:	91.911	Roll:	2.111	Pitch:	-0.211	Yaw:	-12.031	Thrust:	59.549
Time:	3.513	Roll Set Point:	-0.156	Pitch Set Point:	0.071	Yaw Set Point:	0.026	X_WP:	0.000	Y_WP:	0.000	Z_WP:	0.500	X:	0.077	Y:	-0.036	Z:	0.547	yaw:	-1.507	yaw rate:	-26.698	Roll:	1.820	Pitch:	-1.149	Yaw:	2.967	Thrust:	55.092
Time:	3.533	Roll Set Point:	-0.157	Pitch Set Point:	0.070	Yaw Set Point:	0.032	X_WP:	0.000	Y_WP:	0.000	Z_WP:	0.500	X:	0.078	Y:	-0.036	Z:	0.543	yaw:	-1.825	yaw rate:	31.832	Roll:	2.049	Pitch:	-0.177	Yaw:	-5.418	Thrust:	56.853
Time:	3.552	Roll Set Point:	-0.156	Pitch Set Point:	0.072	Yaw Set Point:	0.027	X_WP:	0.000	Y_WP:	0.000	Z_WP:	0.500	X:	0.078	Y:	-0.037	Z:	0.540	yaw:	-1.543	yaw rate:	-28.180	Roll:	1.458	Pitch:	-1.372	Yaw:	3.013	Thrust:	55.755
Time:	3.573	Roll Set Point:	-0.157	Pitch Set Point:	0.071	Yaw Set Point:	0.019	X_WP:	0.000	Y_WP:	0.000	Z_WP:	0.500	X:	0.078	Y:	-0.036	Z:	0.537	yaw:	-1.084	yaw rate:	-45.940	Roll:	1.795	Pitch:	-0.629	Yaw:	5.768	Thrust:	58.128
Time:	3.593	Roll Set Point:	-0.157	Pitch Set Point:	0.072	Yaw Set Point:	0.018	X_WP:	0.000	Y_WP:	0.000	Z_WP:	0.500	X:	0.078	Y:	-0.037	Z:	0.533	yaw:	-1.025	yaw rate:	-5.871	Roll:	1.915	Pitch:	-1.076	Yaw:	0.748	Thrust:	55.613
Time:	3.613	Roll Set Point:	-0.158	Pitch Set Point:	0.072	Yaw Set Point:	0.027	X_WP:	0.000	Y_WP:	0.000	Z_WP:	0.500	X:	0.079	Y:	-0.037	Z:	0.530	yaw:	-1.523	yaw rate:	49.769	Roll:	2.044	Pitch:	-0.329	Yaw:	-7.157	Thrust:	57.402
Time:	3.633	Roll Set Point:	-0.158	Pitch Set Point:	0.072	Yaw Set Point:	0.017	X_WP:	0.000	Y_WP:	0.000	Z_WP:	0.500	X:	0.079	Y:	-0.037	Z:	0.527	yaw:	-1.000	yaw rate:	-52.273	Roll:	1.361	Pitch:	-0.631	Yaw:	6.974	Thrust:	54.809
Time:	3.652	Roll Set Point:	-0.158	Pitch Set Point:	0.072	Yaw Set Point:	0.014	X_WP:	0.000	Y_WP:	0.000	Z_WP:	0.500	X:	0.079	Y:	-0.037	Z:	0.525	yaw:	-0.804	yaw rate:	-19.648	Roll:	1.813	Pitch:	-0.860	Yaw:	2.858	Thrust:	54.789
Time:	3.672	Roll Set Point:	-0.158	Pitch Set Point:	0.072	Yaw Set Point:	0.025	X_WP:	0.000	Y_WP:	0.000	Z_WP:	0.500	X:	0.078	Y:	-0.037	Z:	0.521	yaw:	-1.425	yaw rate:	62.165	Roll:	1.679	Pitch:	-0.122	Yaw:	-8.701	Thrust:	57.714
Time:	3.695	Roll Set Point:	-0.158	Pitch Set Point:	0.072	Yaw Set Point:	0.016	X_WP:	0.000	Y_WP:	0.000	Z_WP:	0.500	X:	0.079	Y:	-0.037	Z:	0.519	yaw:	-0.897	yaw rate:	-52.779	Roll:	1.604	Pitch:	-0.875	Yaw:	6.572	Thrust:	57.883
Time:	3.713	Roll Set Point:	-0.157	Pitch Set Point:	0.071	Yaw Set Point:	0.018	X_WP:	0.000	Y_WP:	0.000	Z_WP:	0.500	X:	0.078	Y:	-0.036	Z:	0.515	yaw:	-1.015	yaw rate:	11.778	Roll:	1.361	Pitch:	0.071	Yaw:	-1.786	Thrust:	55.989
Time:	3.733	Roll Set Point:	-0.159	Pitch Set Point:	0.071	Yaw Set Point:	0.018	X_WP:	0.000	Y_WP:	0.000	Z_WP:	0.500	X:	0.079	Y:	-0.036	Z:	0.513	yaw:	-1.032	yaw rate:	1.713	Roll:	2.522	Pitch:	-0.863	Yaw:	-0.330	Thrust:	55.546
Time:	3.753	Roll Set Point:	-0.158	Pitch Set Point:	0.070	Yaw Set Point:	0.020	X_WP:	0.000	Y_WP:	0.000	Z_WP:	0.500	X:	0.079	Y:	-0.036	Z:	0.509	yaw:	-1.119	yaw rate:	8.706	Roll:	1.189	Pitch:	0.160	Yaw:	-1.344	Thrust:	57.232
Time:	3.773	Roll Set Point:	-0.159	Pitch Set Point:	0.070	Yaw Set Point:	0.024	X_WP:	0.000	Y_WP:	0.000	Z_WP:	0.500	X:	0.079	Y:	-0.036	Z:	0.507	yaw:	-1.361	yaw rate:	24.161	Roll:	2.065	Pitch:	-0.387	Yaw:	-3.932	Thrust:	54.733
Time:	3.793	Roll Set Point:	-0.160	Pitch Set Point:	0.071	Yaw Set Point:	0.018	X_WP:	0.000	Y_WP:	0.000	Z_WP:	0.500	X:	0.080	Y:	-0.036	Z:	0.504	yaw:	-1.055	yaw rate:	-30.577	Roll:	2.269	Pitch:	-1.299	Yaw:	3.740	Thrust:	58.688
Time:	3.813	Roll Set Point:	-0.160	Pitch Set Point:	0.070	Yaw Set Point:	0.031	X_WP:	0.000	Y_WP:	0.000	Z_WP:	0.500	X:	0.079	Y:	-0.036	Z:	0.501	yaw:	-1.794	yaw rate:	73.913	Roll:	1.853	Pitch:	0.377	Yaw:	-10.759	Thrust:	57.262
Time:	3.833	Roll Set Point:	-0.160	Pitch Set Point:	0.070	Yaw Set Point:	0.030	X_WP:	0.000	Y_WP:	0.000	Z_WP:	0.500	X:	0.080	Y:	-0.036	Z:	0.498	yaw:	-1.736	yaw rate:	-5.866	Roll:	1.818	Pitch:	-0.601	Yaw:	-0.349	Thrust:	56.727
Time:	3.853	Roll Set Point:	-0.160	Pitch Set Point:	0.070	Yaw Set Point:	0.018	X_WP:	0.000	Y_WP:	0.000	Z_WP:	0.500	X:	0.080	Y:	-0.036	Z:	0.495	yaw:	-1.056	yaw rate:	-67.975	Roll:	1.563	Pitch:	-1.226	Yaw:	8.505	Thrust:	57.002
Time:	3.872	Roll Set Point:	-0.159	Pitch Set Point:	0.069	Yaw Set Point:	0.019	X_WP:	0.000	Y_WP:	0.000	Z_WP:	0.500	X:	0.079	Y:	-0.035	Z:	0.491	yaw:	-1.066	yaw rate:	0.963	Roll:	1.303	Pitch:	-0.078	Yaw:	-0.366	Thrust:	59.378
Time:	3.895	Roll Set Point:	-0.158	Pitch Set Point:	0.070	Yaw Set Point:	0.002	X_WP:	0.000	Y_WP:	0.000	Z_WP:	0.500	X:	0.079	Y:	-0.035	Z:	0.488	yaw:	-0.103	yaw rate:	-96.268	Roll:	1.229	Pitch:	-1.639	Yaw:	12.590	Thrust:	61.694
Time:	3.912	Roll Set Point:	-0.160	Pitch Set Point:	0.070	Yaw Set Point:	0.022	X_WP:	0.000	Y_WP:	0.000	Z_WP:	0.500	X:	0.079	Y:	-0.036	Z:	0.486	yaw:	-1.266	yaw rate:	116.351	Roll:	2.634	Pitch:	0.468	Yaw:	-18.301	Thrust:	50.707
Time:	3.933	Roll Set Point:	-0.160	Pitch Set Point:	0.069	Yaw Set Point:	0.030	X_WP:	0.000	Y_WP:	0.000	Z_WP:	0.500	X:	0.080	Y:	-0.035	Z:	0.483	yaw:	-1.700	yaw rate:	43.403	Roll:	2.055	Pitch:	0.123	Yaw:	-6.525	Thrust:	60.055
Time:	3.954	Roll Set Point:	-0.159	Pitch Set Point:	0.068	Yaw Set Point:	0.023	X_WP:	0.000	Y_WP:	0.000	Z_WP:	0.500	X:	0.079	Y:	-0.035	Z:	0.481	yaw:	-1.310	yaw rate:	-39.005	Roll:	1.224	Pitch:	-0.567	Yaw:	4.416	Thrust:	57.378
Time:	3.973	Roll Set Point:	-0.160	Pitch Set Point:	0.068	Yaw Set Point:	0.031	X_WP:	0.000	Y_WP:	0.000	Z_WP:	0.500	X:	0.079	Y:	-0.035	Z:	0.479	yaw:	-1.771	yaw rate:	46.107	Roll:	2.304	Pitch:	-0.495	Yaw:	-7.780	Thrust:	55.565
Time:	3.993	Roll Set Point:	-0.160	Pitch Set Point:	0.069	Yaw Set Point:	0.014	X_WP:	0.000	Y_WP:	0.000	Z_WP:	0.500	X:	0.080	Y:	-0.035	Z:	0.476	yaw:	-0.809	yaw rate:	-96.275	Roll:	1.382	Pitch:	-1.557	Yaw:	12.254	Thrust:	60.527
Time:	4.013	Roll Set Point:	-0.158	Pitch Set Point:	0.068	Yaw Set Point:	0.012	X_WP:	0.000	Y_WP:	0.000	Z_WP:	0.500	X:	0.079	Y:	-0.035	Z:	0.473	yaw:	-0.708	yaw rate:	-10.047	Roll:	0.908	Pitch:	-0.215	Yaw:	1.567	Thrust:	59.017
Time:	4.033	Roll Set Point:	-0.159	Pitch Set Point:	0.069	Yaw Set Point:	0.013	X_WP:	0.000	Y_WP:	0.000	Z_WP:	0.500	X:	0.080	Y:	-0.035	Z:	0.470	yaw:	-0.731	yaw rate:	2.234	Roll:	2.472	Pitch:	-1.037	Yaw:	-0.110	Thrust:	57.028
Time:	4.052	Roll Set Point:	-0.159	Pitch Set Point:	0.068	Yaw Set Point:	0.027	X_WP:	0.000	Y_WP:	0.000	Z_WP:	0.500	X:	0.079	Y:	-0.035	Z:	0.467	yaw:	-1.532	yaw rate:	80.184	Roll:	1.778	Pitch:	0.594	Yaw:	-11.636	Thrust:	58.186
Time:	4.072	Roll Set Point:	-0.158	Pitch Set Point:	0.069	Yaw Set Point:	0.014	X_WP:	0.000	Y_WP:	0.000	Z_WP:	0.500	X:	0.079	Y:	-0.035	Z:	0.465	yaw:	-0.783	yaw rate:	-74.980	Roll:	1.115	Pitch:	-1.452	Yaw:	9.897	Thrust:	59.818
Time:	4.095	Roll Set Point:	-0.159	Pitch Set Point:	0.070	Yaw Set Point:	0.013	X_WP:	0.000	Y_WP:	0.000	Z_WP:	0.500	X:	0.079	Y:	-0.035	Z:	0.462	yaw:	-0.758	yaw rate:	-2.425	Roll:	2.148	Pitch:	-0.949	Yaw:	0.585	Thrust:	63.536
Time:	4.113	Roll Set Point:	-0.158	Pitch Set Point:	0.068	Yaw Set Point:	0.020	X_WP:	0.000	Y_WP:	0.000	Z_WP:	0.500	X:	0.078	Y:	-0.035	Z:	0.459	yaw:	-1.132	yaw rate:	37.386	Roll:	1.236	Pitch:	0.344	Yaw:	-6.207	Thrust:	54.268
Time:	4.133	Roll Set Point:	-0.157	Pitch Set Point:	0.068	Yaw Set Point:	0.021	X_WP:	0.000	Y_WP:	0.000	Z_WP:	0.500	X:	0.078	Y:	-0.035	Z:	0.457	yaw:	-1.224	yaw rate:	9.135	Roll:	1.623	Pitch:	-0.444	Yaw:	-1.636	Thrust:	60.568
Time:	4.153	Roll Set Point:	-0.155	Pitch Set Point:	0.067	Yaw Set Point:	0.010	X_WP:	0.000	Y_WP:	0.000	Z_WP:	0.500	X:	0.077	Y:	-0.034	Z:	0.454	yaw:	-0.577	yaw rate:	-64.660	Roll:	0.462	Pitch:	-0.683	Yaw:	8.833	Thrust:	60.759
Time:	4.173	Roll Set Point:	-0.155	Pitch Set Point:	0.068	Yaw Set Point:	0.002	X_WP:	0.000	Y_WP:	0.000	Z_WP:	0.500	X:	0.078	Y:	-0.034	Z:	0.452	yaw:	-0.139	yaw rate:	-43.806	Roll:	1.947	Pitch:	-1.203	Yaw:	6.683	Thrust:	59.332
Time:	4.193	Roll Set Point:	-0.155	Pitch Set Point:	0.068	Yaw Set Point:	-0.002	X_WP:	0.000	Y_WP:	0.000	Z_WP:	0.500	X:	0.077	Y:	-0.034	Z:	0.450	yaw:	0.098	yaw rate:	-23.736	Roll:	1.397	Pitch:	-0.909	Yaw:	4.466	Thrust:	58.283
Time:	4.215	Roll Set Point:	-0.153	Pitch Set Point:	0.069	Yaw Set Point:	-0.010	X_WP:	0.000	Y_WP:	0.000	Z_WP:	0.500	X:	0.077	Y:	-0.034	Z:	0.447	yaw:	0.551	yaw rate:	-45.278	Roll:	0.942	Pitch:	-0.910	Yaw:	7.383	Thrust:	62.954
Time:	4.233	Roll Set Point:	-0.153	Pitch Set Point:	0.067	Yaw Set Point:	0.007	X_WP:	0.000	Y_WP:	0.000	Z_WP:	0.500	X:	0.076	Y:	-0.034	Z:	0.446	yaw:	-0.393	yaw rate:	94.403	Roll:	1.901	Pitch:	0.699	Yaw:	-13.611	Thrust:	54.684
Time:	4.253	Roll Set Point:	-0.153	Pitch Set Point:	0.067	Yaw Set Point:	0.009	X_WP:	0.000	Y_WP:	0.000	Z_WP:	0.500	X:	0.076	Y:	-0.034	Z:	0.445	yaw:	-0.496	yaw rate:	10.293	Roll:	1.709	Pitch:	-0.537	Yaw:	-0.772	Thrust:	59.493
Time:	4.273	Roll Set Point:	-0.152	Pitch Set Point:	0.066	Yaw Set Point:	0.013	X_WP:	0.000	Y_WP:	0.000	Z_WP:	0.500	X:	0.076	Y:	-0.034	Z:	0.443	yaw:	-0.729	yaw rate:	23.353	Roll:	1.685	Pitch:	-0.126	Yaw:	-2.928	Thrust:	55.134
Time:	4.293	Roll Set Point:	-0.151	Pitch Set Point:	0.067	Yaw Set Point:	0.003	X_WP:	0.000	Y_WP:	0.000	Z_WP:	0.500	X:	0.075	Y:	-0.034	Z:	0.442	yaw:	-0.145	yaw rate:	-58.409	Roll:	0.991	Pitch:	-1.209	Yaw:	8.666	Thrust:	60.496
Time:	4.312	Roll Set Point:	-0.151	Pitch Set Point:	0.066	Yaw Set Point:	0.009	X_WP:	0.000	Y_WP:	0.000	Z_WP:	0.500	X:	0.075	Y:	-0.033	Z:	0.442	yaw:	-0.540	yaw rate:	39.528	Roll:	1.937	Pitch:	-0.053	Yaw:	-4.899	Thrust:	55.500
Time:	4.333	Roll Set Point:	-0.151	Pitch Set Point:	0.066	Yaw Set Point:	0.009	X_WP:	0.000	Y_WP:	0.000	Z_WP:	0.500	X:	0.075	Y:	-0.033	Z:	0.441	yaw:	-0.544	yaw rate:	0.358	Roll:	1.619	Pitch:	-0.616	Yaw:	0.386	Thrust:	57.304
Time:	4.353	Roll Set Point:	-0.149	Pitch Set Point:	0.067	Yaw Set Point:	-0.002	X_WP:	0.000	Y_WP:	0.000	Z_WP:	0.500	X:	0.075	Y:	-0.033	Z:	0.441	yaw:	0.100	yaw rate:	-64.393	Roll:	0.876	Pitch:	-1.149	Yaw:	9.721	Thrust:	57.571
Time:	4.372	Roll Set Point:	-0.150	Pitch Set Point:	0.067	Yaw Set Point:	-0.011	X_WP:	0.000	Y_WP:	0.000	Z_WP:	0.500	X:	0.075	Y:	-0.033	Z:	0.441	yaw:	0.623	yaw rate:	-52.354	Roll:	1.768	Pitch:	-1.218	Yaw:	8.939	Thrust:	55.670
Time:	4.393	Roll Set Point:	-0.149	Pitch Set Point:	0.066	Yaw Set Point:	0.007	X_WP:	0.000	Y_WP:	0.000	Z_WP:	0.500	X:	0.074	Y:	-0.033	Z:	0.441	yaw:	-0.380	yaw rate:	100.322	Roll:	1.831	Pitch:	0.681	Yaw:	-12.049	Thrust:	56.626
Time:	4.413	Roll Set Point:	-0.149	Pitch Set Point:	0.066	Yaw Set Point:	0.001	X_WP:	0.000	Y_WP:	0.000	Z_WP:	0.500	X:	0.074	Y:	-0.033	Z:	0.441	yaw:	-0.047	yaw rate:	-33.286	Roll:	1.609	Pitch:	-0.908	Yaw:	5.453	Thrust:	57.979
Time:	4.434	Roll Set Point:	-0.148	Pitch Set Point:	0.065	Yaw Set Point:	0.007	X_WP:	0.000	Y_WP:	0.000	Z_WP:	0.500	X:	0.074	Y:	-0.033	Z:	0.441	yaw:	-0.385	yaw rate:	33.814	Roll:	1.510	Pitch:	-0.099	Yaw:	-3.662	Thrust:	57.857
Time:	4.452	Roll Set Point:	-0.148	Pitch Set Point:	0.065	Yaw Set Point:	0.004	X_WP:	0.000	Y_WP:	0.000	Z_WP:	0.500	X:	0.074	Y:	-0.033	Z:	0.440	yaw:	-0.203	yaw rate:	-18.187	Roll:	1.582	Pitch:	-0.832	Yaw:	3.356	Thrust:	53.405
Time:	4.473	Roll Set Point:	-0.148	Pitch Set Point:	0.065	Yaw Set Point:	0.012	X_WP:	0.000	Y_WP:	0.000	Z_WP:	0.500	X:	0.074	Y:	-0.033	Z:	0.441	yaw:	-0.701	yaw rate:	49.828	Roll:	1.959	Pitch:	-0.227	Yaw:	-6.201	Thrust:	57.214
Time:	4.495	Roll Set Point:	-0.148	Pitch Set Point:	0.065	Yaw Set Point:	0.015	X_WP:	0.000	Y_WP:	0.000	Z_WP:	0.500	X:	0.074	Y:	-0.033	Z:	0.441	yaw:	-0.844	yaw rate:	14.297	Roll:	1.733	Pitch:	-0.454	Yaw:	-1.583	Thrust:	61.304
Time:	4.512	Roll Set Point:	-0.147	Pitch Set Point:	0.065	Yaw Set Point:	-0.004	X_WP:	0.000	Y_WP:	0.000	Z_WP:	0.500	X:	0.073	Y:	-0.032	Z:	0.440	yaw:	0.226	yaw rate:	-107.073	Roll:	0.892	Pitch:	-1.449	Yaw:	17.483	Thrust:	52.419
Time:	4.533	Roll Set Point:	-0.146	Pitch Set Point:	0.064	Yaw Set Point:	0.009	X_WP:	0.000	Y_WP:	0.000	Z_WP:	0.500	X:	0.073	Y:	-0.032	Z:	0.440	yaw:	-0.504	yaw rate:	73.056	Roll:	1.567	Pitch:	0.282	Yaw:	-8.692	Thrust:	59.651
Time:	4.553	Roll Set Point:	-0.146	Pitch Set Point:	0.064	Yaw Set Point:	0.012	X_WP:	0.000	Y_WP:	0.000	Z_WP:	0.500	X:	0.073	Y:	-0.033	Z:	0.440	yaw:	-0.711	yaw rate:	20.652	Roll:	1.947	Pitch:	-0.591	Yaw:	-2.698	Thrust:	55.052
Time:	4.572	Roll Set Point:	-0.146	Pitch Set Point:	0.065	Yaw Set Point:	0.005	X_WP:	0.000	Y_WP:	0.000	Z_WP:	0.500	X:	0.073	Y:	-0.033	Z:	0.440	yaw:	-0.314	yaw rate:	-39.713	Roll:	1.431	Pitch:	-1.130	Yaw:	5.892	Thrust:	58.525
Time:	4.593	Roll Set Point:	-0.143	Pitch Set Point:	0.063	Yaw Set Point:	0.006	X_WP:	0.000	Y_WP:	0.000	Z_WP:	0.500	X:	0.072	Y:	-0.032	Z:	0.439	yaw:	-0.372	yaw rate:	5.868	Roll:	0.913	Pitch:	0.106	Yaw:	-0.099	Thrust:	60.886
Time:	4.615	Roll Set Point:	-0.143	Pitch Set Point:	0.063	Yaw Set Point:	0.000	X_WP:	0.000	Y_WP:	0.000	Z_WP:	0.500	X:	0.071	Y:	-0.032	Z:	0.439	yaw:	-0.002	yaw rate:	-37.022	Roll:	1.523	Pitch:	-0.879	Yaw:	5.621	Thrust:	64.858
Time:	4.633	Roll Set Point:	-0.143	Pitch Set Point:	0.063	Yaw Set Point:	0.007	X_WP:	0.000	Y_WP:	0.000	Z_WP:	0.500	X:	0.071	Y:	-0.032	Z:	0.438	yaw:	-0.401	yaw rate:	39.882	Roll:	1.568	Pitch:	-0.032	Yaw:	-5.448	Thrust:	52.846
Time:	4.660	Roll Set Point:	-0.141	Pitch Set Point:	0.063	Yaw Set Point:	0.001	X_WP:	0.000	Y_WP:	0.000	Z_WP:	0.500	X:	0.070	Y:	-0.031	Z:	0.438	yaw:	-0.047	yaw rate:	-35.353	Roll:	1.370	Pitch:	-0.829	Yaw:	4.887	Thrust:	79.533
Time:	4.673	Roll Set Point:	-0.141	Pitch Set Point:	0.063	Yaw Set Point:	-0.000	X_WP:	0.000	Y_WP:	0.000	Z_WP:	0.500	X:	0.070	Y:	-0.031	Z:	0.437	yaw:	0.007	yaw rate:	-5.403	Roll:	1.459	Pitch:	-0.351	Yaw:	1.850	Thrust:	38.774
Time:	4.693	Roll Set Point:	-0.140	Pitch Set Point:	0.062	Yaw Set Point:	0.007	X_WP:	0.000	Y_WP:	0.000	Z_WP:	0.500	X:	0.070	Y:	-0.031	Z:	0.437	yaw:	-0.429	yaw rate:	43.571	Roll:	1.687	Pitch:	-0.250	Yaw:	-4.979	Thrust:	60.669
Time:	4.713	Roll Set Point:	-0.140	Pitch Set Point:	0.062	Yaw Set Point:	0.010	X_WP:	0.000	Y_WP:	0.000	Z_WP:	0.500	X:	0.070	Y:	-0.032	Z:	0.437	yaw:	-0.585	yaw rate:	15.600	Roll:	1.587	Pitch:	-0.629	Yaw:	-1.740	Thrust:	56.599
Time:	4.733	Roll Set Point:	-0.139	Pitch Set Point:	0.063	Yaw Set Point:	0.004	X_WP:	0.000	Y_WP:	0.000	Z_WP:	0.500	X:	0.070	Y:	-0.031	Z:	0.436	yaw:	-0.217	yaw rate:	-36.769	Roll:	1.521	Pitch:	-0.848	Yaw:	5.618	Thrust:	62.932
Time:	4.753	Roll Set Point:	-0.138	Pitch Set Point:	0.062	Yaw Set Point:	0.007	X_WP:	0.000	Y_WP:	0.000	Z_WP:	0.500	X:	0.069	Y:	-0.031	Z:	0.436	yaw:	-0.401	yaw rate:	18.368	Roll:	1.196	Pitch:	-0.073	Yaw:	-1.902	Thrust:	58.003
Time:	4.772	Roll Set Point:	-0.138	Pitch Set Point:	0.062	Yaw Set Point:	0.009	X_WP:	0.000	Y_WP:	0.000	Z_WP:	0.500	X:	0.069	Y:	-0.031	Z:	0.436	yaw:	-0.508	yaw rate:	10.690	Roll:	1.597	Pitch:	-0.647	Yaw:	-1.021	Thrust:	59.322
Time:	4.793	Roll Set Point:	-0.136	Pitch Set Point:	0.062	Yaw Set Point:	-0.009	X_WP:	0.000	Y_WP:	0.000	Z_WP:	0.500	X:	0.068	Y:	-0.031	Z:	0.436	yaw:	0.531	yaw rate:	-103.880	Roll:	0.853	Pitch:	-1.330	Yaw:	15.433	Thrust:	60.418
Time:	4.815	Roll Set Point:	-0.137	Pitch Set Point:	0.061	Yaw Set Point:	0.023	X_WP:	0.000	Y_WP:	0.000	Z_WP:	0.500	X:	0.068	Y:	-0.032	Z:	0.436	yaw:	-1.330	yaw rate:	186.066	Roll:	2.573	Pitch:	0.577	Yaw:	-22.067	Thrust:	63.789
Time:	4.834	Roll Set Point:	-0.137	Pitch Set Point:	0.061	Yaw Set Point:	0.021	X_WP:	0.000	Y_WP:	0.000	Z_WP:	0.500	X:	0.068	Y:	-0.031	Z:	0.435	yaw:	-1.192	yaw rate:	-13.778	Roll:	1.451	Pitch:	-0.578	Yaw:	1.323	Thrust:	58.262
Time:	4.852	Roll Set Point:	-0.136	Pitch Set Point:	0.061	Yaw Set Point:	0.010	X_WP:	0.000	Y_WP:	0.000	Z_WP:	0.500	X:	0.068	Y:	-0.031	Z:	0.435	yaw:	-0.566	yaw rate:	-62.590	Roll:	1.183	Pitch:	-0.984	Yaw:	9.004	Thrust:	57.281
Time:	4.873	Roll Set Point:	-0.136	Pitch Set Point:	0.061	Yaw Set Point:	0.011	X_WP:	0.000	Y_WP:	0.000	Z_WP:	0.500	X:	0.068	Y:	-0.031	Z:	0.435	yaw:	-0.651	yaw rate:	8.520	Roll:	1.662	Pitch:	-0.549	Yaw:	-0.892	Thrust:	61.819
Time:	4.896	Roll Set Point:	-0.134	Pitch Set Point:	0.061	Yaw Set Point:	0.007	X_WP:	0.000	Y_WP:	0.000	Z_WP:	0.500	X:	0.067	Y:	-0.031	Z:	0.435	yaw:	-0.382	yaw rate:	-26.979	Roll:	1.335	Pitch:	-0.626	Yaw:	3.764	Thrust:	68.106
Time:	4.913	Roll Set Point:	-0.134	Pitch Set Point:	0.060	Yaw Set Point:	0.008	X_WP:	0.000	Y_WP:	0.000	Z_WP:	0.500	X:	0.067	Y:	-0.031	Z:	0.436	yaw:	-0.473	yaw rate:	9.152	Roll:	1.323	Pitch:	-0.299	Yaw:	-1.181	Thrust:	51.136
Time:	4.933	Roll Set Point:	-0.133	Pitch Set Point:	0.059	Yaw Set Point:	0.018	X_WP:	0.000	Y_WP:	0.000	Z_WP:	0.500	X:	0.066	Y:	-0.030	Z:	0.437	yaw:	-1.033	yaw rate:	56.017	Roll:	1.431	Pitch:	0.096	Yaw:	-7.740	Thrust:	57.614
Time:	4.953	Roll Set Point:	-0.132	Pitch Set Point:	0.060	Yaw Set Point:	0.023	X_WP:	0.000	Y_WP:	0.000	Z_WP:	0.500	X:	0.066	Y:	-0.031	Z:	0.438	yaw:	-1.329	yaw rate:	29.566	Roll:	1.521	Pitch:	-0.532	Yaw:	-4.612	Thrust:	55.838
Time:	4.973	Roll Set Point:	-0.131	Pitch Set Point:	0.059	Yaw Set Point:	0.018	X_WP:	0.000	Y_WP:	0.000	Z_WP:	0.500	X:	0.065	Y:	-0.030	Z:	0.439	yaw:	-1.028	yaw rate:	-30.142	Roll:	1.081	Pitch:	-0.523	Yaw:	3.578	Thrust:	57.441
Time:	4.994	Roll Set Point:	-0.129	Pitch Set Point:	0.058	Yaw Set Point:	0.003	X_WP:	0.000	Y_WP:	0.000	Z_WP:	0.500	X:	0.064	Y:	-0.029	Z:	0.440	yaw:	-0.152	yaw rate:	-87.553	Roll:	0.648	Pitch:	-0.648	Yaw:	12.289	Thrust:	61.997
Time:	5.014	Roll Set Point:	-0.129	Pitch Set Point:	0.058	Yaw Set Point:	0.009	X_WP:	0.000	Y_WP:	0.000	Z_WP:	0.500	X:	0.064	Y:	-0.029	Z:	0.442	yaw:	-0.524	yaw rate:	37.178	Roll:	1.787	Pitch:	-0.128	Yaw:	-4.274	Thrust:	59.082
Time:	5.034	Roll Set Point:	-0.128	Pitch Set Point:	0.058	Yaw Set Point:	-0.000	X_WP:	0.000	Y_WP:	0.000	Z_WP:	0.500	X:	0.064	Y:	-0.029	Z:	0.444	yaw:	0.009	yaw rate:	-53.323	Roll:	1.121	Pitch:	-1.026	Yaw:	8.228	Thrust:	53.210
Time:	5.055	Roll Set Point:	-0.128	Pitch Set Point:	0.058	Yaw Set Point:	-0.003	X_WP:	0.000	Y_WP:	0.000	Z_WP:	0.500	X:	0.064	Y:	-0.029	Z:	0.446	yaw:	0.187	yaw rate:	-17.759	Roll:	1.699	Pitch:	-0.573	Yaw:	3.589	Thrust:	61.889
Time:	5.073	Roll Set Point:	-0.127	Pitch Set Point:	0.057	Yaw Set Point:	-0.002	X_WP:	0.000	Y_WP:	0.000	Z_WP:	0.500	X:	0.064	Y:	-0.029	Z:	0.448	yaw:	0.100	yaw rate:	8.716	Roll:	1.482	Pitch:	-0.461	Yaw:	-0.134	Thrust:	50.166
Time:	5.095	Roll Set Point:	-0.127	Pitch Set Point:	0.058	Yaw Set Point:	0.014	X_WP:	0.000	Y_WP:	0.000	Z_WP:	0.500	X:	0.063	Y:	-0.029	Z:	0.451	yaw:	-0.774	yaw rate:	87.436	Roll:	1.879	Pitch:	-0.276	Yaw:	-10.565	Thrust:	60.352
Time:	5.113	Roll Set Point:	-0.126	Pitch Set Point:	0.056	Yaw Set Point:	0.002	X_WP:	0.000	Y_WP:	0.000	Z_WP:	0.500	X:	0.063	Y:	-0.028	Z:	0.453	yaw:	-0.111	yaw rate:	-66.384	Roll:	0.929	Pitch:	-0.240	Yaw:	10.108	Thrust:	48.915
Time:	5.134	Roll Set Point:	-0.125	Pitch Set Point:	0.055	Yaw Set Point:	0.011	X_WP:	0.000	Y_WP:	0.000	Z_WP:	0.500	X:	0.062	Y:	-0.028	Z:	0.455	yaw:	-0.619	yaw rate:	50.823	Roll:	1.578	Pitch:	0.050	Yaw:	-6.470	Thrust:	57.920
Time:	5.154	Roll Set Point:	-0.125	Pitch Set Point:	0.055	Yaw Set Point:	0.011	X_WP:	0.000	Y_WP:	0.000	Z_WP:	0.500	X:	0.062	Y:	-0.028	Z:	0.458	yaw:	-0.631	yaw rate:	1.168	Roll:	1.573	Pitch:	-0.486	Yaw:	0.067	Thrust:	57.548
Time:	5.173	Roll Set Point:	-0.126	Pitch Set Point:	0.056	Yaw Set Point:	0.005	X_WP:	0.000	Y_WP:	0.000	Z_WP:	0.500	X:	0.063	Y:	-0.028	Z:	0.460	yaw:	-0.307	yaw rate:	-32.397	Roll:	1.982	Pitch:	-1.428	Yaw:	5.044	Thrust:	53.089
Time:	5.193	Roll Set Point:	-0.125	Pitch Set Point:	0.056	Yaw Set Point:	0.020	X_WP:	0.000	Y_WP:	0.000	Z_WP:	0.500	X:	0.062	Y:	-0.028	Z:	0.462	yaw:	-1.152	yaw rate:	84.590	Roll:	1.725	Pitch:	0.134	Yaw:	-11.494	Thrust:	55.312
Time:	5.215	Roll Set Point:	-0.124	Pitch Set Point:	0.054	Yaw Set Point:	0.011	X_WP:	0.000	Y_WP:	0.000	Z_WP:	0.500	X:	0.062	Y:	-0.027	Z:	0.464	yaw:	-0.655	yaw rate:	-49.732	Roll:	1.038	Pitch:	-0.278	Yaw:	6.082	Thrust:	60.677
Time:	5.236	Roll Set Point:	-0.124	Pitch Set Point:	0.054	Yaw Set Point:	0.016	X_WP:	0.000	Y_WP:	0.000	Z_WP:	0.500	X:	0.062	Y:	-0.027	Z:	0.466	yaw:	-0.941	yaw rate:	28.630	Roll:	1.824	Pitch:	-0.210	Yaw:	-4.003	Thrust:	57.762
Time:	5.258	Roll Set Point:	-0.123	Pitch Set Point:	0.053	Yaw Set Point:	0.016	X_WP:	0.000	Y_WP:	0.000	Z_WP:	0.500	X:	0.061	Y:	-0.027	Z:	0.468	yaw:	-0.893	yaw rate:	-4.825	Roll:	1.368	Pitch:	-0.414	Yaw:	0.451	Thrust:	61.047
Time:	5.275	Roll Set Point:	-0.122	Pitch Set Point:	0.052	Yaw Set Point:	0.009	X_WP:	0.000	Y_WP:	0.000	Z_WP:	0.500	X:	0.061	Y:	-0.026	Z:	0.469	yaw:	-0.504	yaw rate:	-38.958	Roll:	0.997	Pitch:	-0.170	Yaw:	6.134	Thrust:	49.700
Time:	5.297	Roll Set Point:	-0.122	Pitch Set Point:	0.052	Yaw Set Point:	0.006	X_WP:	0.000	Y_WP:	0.000	Z_WP:	0.500	X:	0.061	Y:	-0.026	Z:	0.471	yaw:	-0.336	yaw rate:	-16.750	Roll:	1.402	Pitch:	-0.628	Yaw:	2.632	Thrust:	66.188
Time:	5.314	Roll Set Point:	-0.121	Pitch Set Point:	0.052	Yaw Set Point:	-0.006	X_WP:	0.000	Y_WP:	0.000	Z_WP:	0.500	X:	0.061	Y:	-0.026	Z:	0.472	yaw:	0.344	yaw rate:	-68.008	Roll:	1.393	Pitch:	-1.052	Yaw:	11.478	Thrust:	47.160
Time:	5.333	Roll Set Point:	-0.121	Pitch Set Point:	0.051	Yaw Set Point:	0.011	X_WP:	0.000	Y_WP:	0.000	Z_WP:	0.500	X:	0.061	Y:	-0.026	Z:	0.473	yaw:	-0.603	yaw rate:	94.745	Roll:	1.798	Pitch:	0.519	Yaw:	-12.574	Thrust:	57.151
