Time:	0.032	Roll Set Point:	-0.048	Pitch Set Point:	-0.019	Yaw Set Point:	0.068	X_WP:	0.000	Y_WP:	0.000	Y_WP:	0.000	X:	0.024	Y:	0.009	Z:	0.057	yaw:	-3.885	yaw rate:	14.437	Roll:	0.682	Pitch:	0.296	Yaw:	-5.425	Thrust:	0.000
Time:	0.053	Roll Set Point:	-0.048	Pitch Set Point:	-0.019	Yaw Set Point:	0.068	X_WP:	0.000	Y_WP:	0.000	Y_WP:	0.000	X:	0.024	Y:	0.009	Z:	0.057	yaw:	-3.890	yaw rate:	0.447	Roll:	0.685	Pitch:	0.303	Yaw:	-5.516	Thrust:	0.000
Time:	0.072	Roll Set Point:	-0.048	Pitch Set Point:	-0.019	Yaw Set Point:	0.068	X_WP:	0.000	Y_WP:	0.000	Y_WP:	0.000	X:	0.024	Y:	0.009	Z:	0.057	yaw:	-3.886	yaw rate:	-0.336	Roll:	0.686	Pitch:	0.293	Yaw:	-5.432	Thrust:	0.000
Time:	0.092	Roll Set Point:	-0.048	Pitch Set Point:	-0.019	Yaw Set Point:	0.068	X_WP:	0.000	Y_WP:	0.000	Y_WP:	0.000	X:	0.024	Y:	0.009	Z:	0.057	yaw:	-3.896	yaw rate:	0.965	Roll:	0.684	Pitch:	0.311	Yaw:	-5.648	Thrust:	0.000
Time:	0.113	Roll Set Point:	-0.048	Pitch Set Point:	-0.019	Yaw Set Point:	0.065	X_WP:	0.000	Y_WP:	0.000	Y_WP:	0.000	X:	0.024	Y:	0.009	Z:	0.057	yaw:	-3.744	yaw rate:	-15.158	Roll:	0.643	Pitch:	0.198	Yaw:	-3.474	Thrust:	0.000
Time:	0.135	Roll Set Point:	-0.048	Pitch Set Point:	-0.019	Yaw Set Point:	0.068	X_WP:	0.000	Y_WP:	0.000	Y_WP:	0.000	X:	0.024	Y:	0.009	Z:	0.057	yaw:	-3.896	yaw rate:	15.191	Roll:	0.727	Pitch:	0.383	Yaw:	-7.430	Thrust:	0.000
Time:	0.152	Roll Set Point:	-0.048	Pitch Set Point:	-0.019	Yaw Set Point:	0.065	X_WP:	0.000	Y_WP:	0.000	Y_WP:	0.000	X:	0.024	Y:	0.009	Z:	0.057	yaw:	-3.740	yaw rate:	-15.653	Roll:	0.637	Pitch:	0.193	Yaw:	-3.066	Thrust:	0.000
Time:	0.172	Roll Set Point:	-0.048	Pitch Set Point:	-0.019	Yaw Set Point:	0.066	X_WP:	0.000	Y_WP:	0.000	Y_WP:	0.000	X:	0.024	Y:	0.009	Z:	0.057	yaw:	-3.801	yaw rate:	6.065	Roll:	0.667	Pitch:	0.367	Yaw:	-6.311	Thrust:	0.000
Time:	0.194	Roll Set Point:	-0.048	Pitch Set Point:	-0.019	Yaw Set Point:	0.065	X_WP:	0.000	Y_WP:	0.000	Y_WP:	0.000	X:	0.024	Y:	0.009	Z:	0.057	yaw:	-3.747	yaw rate:	-5.322	Roll:	0.692	Pitch:	0.230	Yaw:	-4.858	Thrust:	0.000
Time:	0.213	Roll Set Point:	-0.048	Pitch Set Point:	-0.019	Yaw Set Point:	0.068	X_WP:	0.000	Y_WP:	0.000	Y_WP:	0.000	X:	0.024	Y:	0.009	Z:	0.057	yaw:	-3.886	yaw rate:	13.907	Roll:	0.767	Pitch:	0.407	Yaw:	-7.740	Thrust:	0.000
Time:	0.232	Roll Set Point:	-0.048	Pitch Set Point:	-0.019	Yaw Set Point:	0.065	X_WP:	0.000	Y_WP:	0.000	Y_WP:	0.000	X:	0.024	Y:	0.009	Z:	0.057	yaw:	-3.742	yaw rate:	-14.399	Roll:	0.650	Pitch:	0.209	Yaw:	-3.623	Thrust:	0.000
Time:	0.252	Roll Set Point:	-0.048	Pitch Set Point:	-0.019	Yaw Set Point:	0.068	X_WP:	0.000	Y_WP:	0.000	Y_WP:	0.000	X:	0.024	Y:	0.009	Z:	0.057	yaw:	-3.899	yaw rate:	15.626	Roll:	0.727	Pitch:	0.390	Yaw:	-7.728	Thrust:	0.000
Time:	0.272	Roll Set Point:	-0.048	Pitch Set Point:	-0.019	Yaw Set Point:	0.065	X_WP:	0.000	Y_WP:	0.000	Y_WP:	0.000	X:	0.024	Y:	0.009	Z:	0.057	yaw:	-3.741	yaw rate:	-15.781	Roll:	0.649	Pitch:	0.198	Yaw:	-3.436	Thrust:	0.000
Time:	0.292	Roll Set Point:	-0.048	Pitch Set Point:	-0.019	Yaw Set Point:	0.065	X_WP:	0.000	Y_WP:	0.000	Y_WP:	0.000	X:	0.024	Y:	0.009	Z:	0.057	yaw:	-3.741	yaw rate:	0.058	Roll:	0.706	Pitch:	0.300	Yaw:	-5.580	Thrust:	0.000
Time:	0.312	Roll Set Point:	-0.048	Pitch Set Point:	-0.019	Yaw Set Point:	0.065	X_WP:	0.000	Y_WP:	0.000	Y_WP:	0.000	X:	0.024	Y:	0.009	Z:	0.057	yaw:	-3.742	yaw rate:	0.110	Roll:	0.701	Pitch:	0.306	Yaw:	-5.618	Thrust:	0.000
Time:	0.334	Roll Set Point:	-0.048	Pitch Set Point:	-0.019	Yaw Set Point:	0.068	X_WP:	0.000	Y_WP:	0.000	Y_WP:	0.000	X:	0.024	Y:	0.009	Z:	0.057	yaw:	-3.888	yaw rate:	14.580	Roll:	0.728	Pitch:	0.380	Yaw:	-7.629	Thrust:	0.000
Time:	0.352	Roll Set Point:	-0.048	Pitch Set Point:	-0.019	Yaw Set Point:	0.066	X_WP:	0.000	Y_WP:	0.000	Y_WP:	0.000	X:	0.024	Y:	0.009	Z:	0.057	yaw:	-3.808	yaw rate:	-8.030	Roll:	0.644	Pitch:	0.296	Yaw:	-4.554	Thrust:	0.000
Time:	0.372	Roll Set Point:	-0.048	Pitch Set Point:	-0.019	Yaw Set Point:	0.069	X_WP:	0.000	Y_WP:	0.000	Y_WP:	0.000	X:	0.024	Y:	0.009	Z:	0.057	yaw:	-3.955	yaw rate:	14.740	Roll:	0.744	Pitch:	0.391	Yaw:	-7.939	Thrust:	0.000
Time:	0.394	Roll Set Point:	-0.048	Pitch Set Point:	-0.019	Yaw Set Point:	0.068	X_WP:	0.000	Y_WP:	0.000	Y_WP:	0.000	X:	0.024	Y:	0.009	Z:	0.057	yaw:	-3.888	yaw rate:	-6.758	Roll:	0.724	Pitch:	0.244	Yaw:	-5.160	Thrust:	0.000
Time:	0.412	Roll Set Point:	-0.048	Pitch Set Point:	-0.019	Yaw Set Point:	0.068	X_WP:	0.000	Y_WP:	0.000	Y_WP:	0.000	X:	0.024	Y:	0.009	Z:	0.057	yaw:	-3.892	yaw rate:	0.439	Roll:	0.694	Pitch:	0.299	Yaw:	-5.948	Thrust:	0.000
Time:	0.432	Roll Set Point:	-0.048	Pitch Set Point:	-0.019	Yaw Set Point:	0.065	X_WP:	0.000	Y_WP:	0.000	Y_WP:	0.000	X:	0.024	Y:	0.009	Z:	0.057	yaw:	-3.737	yaw rate:	-15.533	Roll:	0.655	Pitch:	0.208	Yaw:	-3.767	Thrust:	0.000
Time:	0.452	Roll Set Point:	-0.048	Pitch Set Point:	-0.019	Yaw Set Point:	0.065	X_WP:	0.000	Y_WP:	0.000	Y_WP:	0.000	X:	0.024	Y:	0.009	Z:	0.057	yaw:	-3.745	yaw rate:	0.793	Roll:	0.719	Pitch:	0.316	Yaw:	-5.907	Thrust:	0.000
Time:	0.473	Roll Set Point:	-0.048	Pitch Set Point:	-0.019	Yaw Set Point:	0.065	X_WP:	0.000	Y_WP:	0.000	Y_WP:	0.000	X:	0.024	Y:	0.009	Z:	0.057	yaw:	-3.743	yaw rate:	-0.192	Roll:	0.696	Pitch:	0.302	Yaw:	-5.772	Thrust:	0.000
Time:	0.492	Roll Set Point:	-0.048	Pitch Set Point:	-0.019	Yaw Set Point:	0.068	X_WP:	0.000	Y_WP:	0.000	Y_WP:	0.000	X:	0.024	Y:	0.009	Z:	0.057	yaw:	-3.886	yaw rate:	14.299	Roll:	0.758	Pitch:	0.393	Yaw:	-7.904	Thrust:	0.000
Time:	0.512	Roll Set Point:	-0.048	Pitch Set Point:	-0.019	Yaw Set Point:	0.068	X_WP:	0.000	Y_WP:	0.000	Y_WP:	0.000	X:	0.024	Y:	0.009	Z:	0.057	yaw:	-3.887	yaw rate:	0.157	Roll:	0.704	Pitch:	0.304	Yaw:	-6.103	Thrust:	0.000
Time:	0.535	Roll Set Point:	-0.048	Pitch Set Point:	-0.019	Yaw Set Point:	0.068	X_WP:	0.000	Y_WP:	0.000	Y_WP:	0.000	X:	0.024	Y:	0.009	Z:	0.057	yaw:	-3.891	yaw rate:	0.321	Roll:	0.725	Pitch:	0.315	Yaw:	-6.208	Thrust:	0.000
Time:	0.553	Roll Set Point:	-0.048	Pitch Set Point:	-0.019	Yaw Set Point:	0.065	X_WP:	0.000	Y_WP:	0.000	Y_WP:	0.000	X:	0.024	Y:	0.009	Z:	0.057	yaw:	-3.739	yaw rate:	-15.121	Roll:	0.643	Pitch:	0.206	Yaw:	-3.600	Thrust:	0.000
Time:	0.571	Roll Set Point:	-0.048	Pitch Set Point:	-0.019	Yaw Set Point:	0.068	X_WP:	0.000	Y_WP:	0.000	Y_WP:	0.000	X:	0.024	Y:	0.009	Z:	0.057	yaw:	-3.887	yaw rate:	14.798	Roll:	0.766	Pitch:	0.405	Yaw:	-8.134	Thrust:	0.000
Time:	0.596	Roll Set Point:	-0.048	Pitch Set Point:	-0.019	Yaw Set Point:	0.065	X_WP:	0.000	Y_WP:	0.000	Y_WP:	0.000	X:	0.024	Y:	0.009	Z:	0.057	yaw:	-3.740	yaw rate:	-14.764	Roll:	0.684	Pitch:	0.229	Yaw:	-4.462	Thrust:	0.000
Time:	0.612	Roll Set Point:	-0.048	Pitch Set Point:	-0.019	Yaw Set Point:	0.068	X_WP:	0.000	Y_WP:	0.000	Y_WP:	0.000	X:	0.024	Y:	0.009	Z:	0.057	yaw:	-3.905	yaw rate:	16.479	Roll:	0.766	Pitch:	0.425	Yaw:	-8.739	Thrust:	0.000
Time:	0.632	Roll Set Point:	-0.048	Pitch Set Point:	-0.019	Yaw Set Point:	0.065	X_WP:	0.000	Y_WP:	0.000	Y_WP:	0.000	X:	0.024	Y:	0.009	Z:	0.057	yaw:	-3.743	yaw rate:	-16.143	Roll:	0.665	Pitch:	0.223	Yaw:	-4.017	Thrust:	0.000
Time:	0.653	Roll Set Point:	-0.048	Pitch Set Point:	-0.019	Yaw Set Point:	0.068	X_WP:	0.000	Y_WP:	0.000	Y_WP:	0.000	X:	0.024	Y:	0.009	Z:	0.057	yaw:	-3.887	yaw rate:	14.390	Roll:	0.767	Pitch:	0.394	Yaw:	-8.104	Thrust:	0.000
Time:	0.672	Roll Set Point:	-0.048	Pitch Set Point:	-0.019	Yaw Set Point:	0.068	X_WP:	0.000	Y_WP:	0.000	Y_WP:	0.000	X:	0.024	Y:	0.009	Z:	0.057	yaw:	-3.898	yaw rate:	1.102	Roll:	0.720	Pitch:	0.326	Yaw:	-6.421	Thrust:	0.000
Time:	0.693	Roll Set Point:	-0.048	Pitch Set Point:	-0.019	Yaw Set Point:	0.068	X_WP:	0.000	Y_WP:	0.000	Y_WP:	0.000	X:	0.024	Y:	0.009	Z:	0.057	yaw:	-3.887	yaw rate:	-1.139	Roll:	0.717	Pitch:	0.286	Yaw:	-6.163	Thrust:	0.000
Time:	0.713	Roll Set Point:	-0.048	Pitch Set Point:	-0.019	Yaw Set Point:	0.065	X_WP:	0.000	Y_WP:	0.000	Y_WP:	0.000	X:	0.024	Y:	0.009	Z:	0.057	yaw:	-3.742	yaw rate:	-14.422	Roll:	0.679	Pitch:	0.245	Yaw:	-4.401	Thrust:	0.000
Time:	0.736	Roll Set Point:	-0.048	Pitch Set Point:	-0.019	Yaw Set Point:	0.065	X_WP:	0.000	Y_WP:	0.000	Y_WP:	0.000	X:	0.024	Y:	0.009	Z:	0.057	yaw:	-3.739	yaw rate:	-0.390	Roll:	0.730	Pitch:	0.304	Yaw:	-6.232	Thrust:	0.000
Time:	0.751	Roll Set Point:	-0.048	Pitch Set Point:	-0.019	Yaw Set Point:	0.065	X_WP:	0.000	Y_WP:	0.000	Y_WP:	0.000	X:	0.024	Y:	0.009	Z:	0.057	yaw:	-3.741	yaw rate:	0.245	Roll:	0.726	Pitch:	0.317	Yaw:	-6.013	Thrust:	0.000
Time:	0.772	Roll Set Point:	-0.048	Pitch Set Point:	-0.019	Yaw Set Point:	0.068	X_WP:	0.000	Y_WP:	0.000	Y_WP:	0.000	X:	0.024	Y:	0.009	Z:	0.057	yaw:	-3.886	yaw rate:	14.483	Roll:	0.751	Pitch:	0.398	Yaw:	-8.301	Thrust:	0.000
Time:	0.795	Roll Set Point:	-0.048	Pitch Set Point:	-0.019	Yaw Set Point:	0.068	X_WP:	0.000	Y_WP:	0.000	Y_WP:	0.000	X:	0.024	Y:	0.009	Z:	0.057	yaw:	-3.894	yaw rate:	0.837	Roll:	0.741	Pitch:	0.321	Yaw:	-6.700	Thrust:	0.000
Time:	0.812	Roll Set Point:	-0.048	Pitch Set Point:	-0.019	Yaw Set Point:	0.065	X_WP:	0.000	Y_WP:	0.000	Y_WP:	0.000	X:	0.024	Y:	0.009	Z:	0.057	yaw:	-3.748	yaw rate:	-14.665	Roll:	0.685	Pitch:	0.213	Yaw:	-3.976	Thrust:	0.000
Time:	0.833	Roll Set Point:	-0.048	Pitch Set Point:	-0.019	Yaw Set Point:	0.065	X_WP:	0.000	Y_WP:	0.000	Y_WP:	0.000	X:	0.024	Y:	0.009	Z:	0.057	yaw:	-3.743	yaw rate:	-0.472	Roll:	0.714	Pitch:	0.307	Yaw:	-6.225	Thrust:	0.000
Time:	0.853	Roll Set Point:	-0.048	Pitch Set Point:	-0.019	Yaw Set Point:	0.065	X_WP:	0.000	Y_WP:	0.000	Y_WP:	0.000	X:	0.024	Y:	0.009	Z:	0.057	yaw:	-3.741	yaw rate:	-0.148	Roll:	0.729	Pitch:	0.321	Yaw:	-6.307	Thrust:	0.000
Time:	0.872	Roll Set Point:	-0.048	Pitch Set Point:	-0.019	Yaw Set Point:	0.065	X_WP:	0.000	Y_WP:	0.000	Y_WP:	0.000	X:	0.024	Y:	0.009	Z:	0.057	yaw:	-3.743	yaw rate:	0.176	Roll:	0.730	Pitch:	0.301	Yaw:	-6.303	Thrust:	0.000
Time:	0.893	Roll Set Point:	-0.048	Pitch Set Point:	-0.019	Yaw Set Point:	0.065	X_WP:	0.000	Y_WP:	0.000	Y_WP:	0.000	X:	0.024	Y:	0.009	Z:	0.057	yaw:	-3.740	yaw rate:	-0.296	Roll:	0.732	Pitch:	0.325	Yaw:	-6.405	Thrust:	0.000
Time:	0.913	Roll Set Point:	-0.048	Pitch Set Point:	-0.019	Yaw Set Point:	0.065	X_WP:	0.000	Y_WP:	0.000	Y_WP:	0.000	X:	0.024	Y:	0.009	Z:	0.057	yaw:	-3.743	yaw rate:	0.299	Roll:	0.719	Pitch:	0.311	Yaw:	-6.487	Thrust:	0.000
Time:	0.934	Roll Set Point:	-0.048	Pitch Set Point:	-0.019	Yaw Set Point:	0.068	X_WP:	0.000	Y_WP:	0.000	Y_WP:	0.000	X:	0.024	Y:	0.009	Z:	0.057	yaw:	-3.889	yaw rate:	14.615	Roll:	0.797	Pitch:	0.411	Yaw:	-8.524	Thrust:	0.000
Time:	0.951	Roll Set Point:	-0.048	Pitch Set Point:	-0.019	Yaw Set Point:	0.068	X_WP:	0.000	Y_WP:	0.000	Y_WP:	0.000	X:	0.024	Y:	0.009	Z:	0.057	yaw:	-3.885	yaw rate:	-0.440	Roll:	0.716	Pitch:	0.310	Yaw:	-6.436	Thrust:	0.000
Time:	0.972	Roll Set Point:	-0.048	Pitch Set Point:	-0.019	Yaw Set Point:	0.065	X_WP:	0.000	Y_WP:	0.000	Y_WP:	0.000	X:	0.024	Y:	0.009	Z:	0.057	yaw:	-3.745	yaw rate:	-14.039	Roll:	0.701	Pitch:	0.231	Yaw:	-4.763	Thrust:	0.000
Time:	0.994	Roll Set Point:	-0.048	Pitch Set Point:	-0.019	Yaw Set Point:	0.065	X_WP:	0.000	Y_WP:	0.000	Y_WP:	0.000	X:	0.024	Y:	0.009	Z:	0.057	yaw:	-3.745	yaw rate:	0.072	Roll:	0.734	Pitch:	0.316	Yaw:	-6.586	Thrust:	0.000
Time:	1.011	Roll Set Point:	-0.048	Pitch Set Point:	-0.019	Yaw Set Point:	0.065	X_WP:	0.000	Y_WP:	0.000	Y_WP:	0.000	X:	0.024	Y:	0.009	Z:	0.057	yaw:	-3.744	yaw rate:	-0.092	Roll:	0.738	Pitch:	0.319	Yaw:	-6.397	Thrust:	0.000
Time:	1.032	Roll Set Point:	-0.048	Pitch Set Point:	-0.019	Yaw Set Point:	0.068	X_WP:	0.000	Y_WP:	0.000	Y_WP:	0.000	X:	0.024	Y:	0.009	Z:	0.057	yaw:	-3.887	yaw rate:	14.220	Roll:	0.787	Pitch:	0.407	Yaw:	-8.596	Thrust:	0.000
Time:	1.053	Roll Set Point:	-0.048	Pitch Set Point:	-0.019	Yaw Set Point:	0.065	X_WP:	0.000	Y_WP:	0.000	Y_WP:	0.000	X:	0.024	Y:	0.009	Z:	0.057	yaw:	-3.746	yaw rate:	-14.076	Roll:	0.701	Pitch:	0.236	Yaw:	-4.631	Thrust:	0.000
Time:	1.072	Roll Set Point:	-0.048	Pitch Set Point:	-0.019	Yaw Set Point:	0.068	X_WP:	0.000	Y_WP:	0.000	Y_WP:	0.000	X:	0.024	Y:	0.009	Z:	0.057	yaw:	-3.901	yaw rate:	15.571	Roll:	0.787	Pitch:	0.409	Yaw:	-8.863	Thrust:	0.000
Time:	1.092	Roll Set Point:	-0.048	Pitch Set Point:	-0.019	Yaw Set Point:	0.065	X_WP:	0.000	Y_WP:	0.000	Y_WP:	0.000	X:	0.024	Y:	0.009	Z:	0.057	yaw:	-3.740	yaw rate:	-16.108	Roll:	0.688	Pitch:	0.228	Yaw:	-4.537	Thrust:	0.000
Time:	1.113	Roll Set Point:	-0.048	Pitch Set Point:	-0.019	Yaw Set Point:	0.068	X_WP:	0.000	Y_WP:	0.000	Y_WP:	0.000	X:	0.024	Y:	0.009	Z:	0.057	yaw:	-3.885	yaw rate:	14.495	Roll:	0.796	Pitch:	0.411	Yaw:	-8.742	Thrust:	0.000
Time:	1.137	Roll Set Point:	-0.048	Pitch Set Point:	-0.019	Yaw Set Point:	0.068	X_WP:	0.000	Y_WP:	0.000	Y_WP:	0.000	X:	0.024	Y:	0.009	Z:	0.057	yaw:	-3.891	yaw rate:	0.548	Roll:	0.763	Pitch:	0.333	Yaw:	-7.285	Thrust:	0.000
Time:	1.152	Roll Set Point:	-0.048	Pitch Set Point:	-0.019	Yaw Set Point:	0.065	X_WP:	0.000	Y_WP:	0.000	Y_WP:	0.000	X:	0.024	Y:	0.009	Z:	0.057	yaw:	-3.747	yaw rate:	-14.339	Roll:	0.655	Pitch:	0.184	Yaw:	-3.616	Thrust:	0.000
Time:	1.172	Roll Set Point:	-0.048	Pitch Set Point:	-0.019	Yaw Set Point:	0.068	X_WP:	0.000	Y_WP:	0.000	Y_WP:	0.000	X:	0.024	Y:	0.009	Z:	0.057	yaw:	-3.888	yaw rate:	14.041	Roll:	0.790	Pitch:	0.407	Yaw:	-8.780	Thrust:	0.000
Time:	1.194	Roll Set Point:	-0.048	Pitch Set Point:	-0.019	Yaw Set Point:	0.065	X_WP:	0.000	Y_WP:	0.000	Y_WP:	0.000	X:	0.024	Y:	0.009	Z:	0.057	yaw:	-3.744	yaw rate:	-14.371	Roll:	0.727	Pitch:	0.252	Yaw:	-5.151	Thrust:	0.000
Time:	1.212	Roll Set Point:	-0.048	Pitch Set Point:	-0.019	Yaw Set Point:	0.068	X_WP:	0.000	Y_WP:	0.000	Y_WP:	0.000	X:	0.024	Y:	0.009	Z:	0.057	yaw:	-3.896	yaw rate:	15.219	Roll:	0.788	Pitch:	0.427	Yaw:	-9.043	Thrust:	0.000
Time:	1.233	Roll Set Point:	-0.048	Pitch Set Point:	-0.019	Yaw Set Point:	0.065	X_WP:	0.000	Y_WP:	0.000	Y_WP:	0.000	X:	0.024	Y:	0.009	Z:	0.057	yaw:	-3.735	yaw rate:	-16.106	Roll:	0.709	Pitch:	0.216	Yaw:	-4.791	Thrust:	0.000
Time:	1.253	Roll Set Point:	-0.048	Pitch Set Point:	-0.019	Yaw Set Point:	0.065	X_WP:	0.000	Y_WP:	0.000	Y_WP:	0.000	X:	0.024	Y:	0.009	Z:	0.057	yaw:	-3.735	yaw rate:	0.020	Roll:	0.741	Pitch:	0.330	Yaw:	-6.774	Thrust:	0.000
Time:	1.272	Roll Set Point:	-0.048	Pitch Set Point:	-0.019	Yaw Set Point:	0.068	X_WP:	0.000	Y_WP:	0.000	Y_WP:	0.000	X:	0.024	Y:	0.009	Z:	0.057	yaw:	-3.896	yaw rate:	16.081	Roll:	0.807	Pitch:	0.415	Yaw:	-9.189	Thrust:	0.000
Time:	1.292	Roll Set Point:	-0.048	Pitch Set Point:	-0.019	Yaw Set Point:	0.068	X_WP:	0.000	Y_WP:	0.000	Y_WP:	0.000	X:	0.024	Y:	0.009	Z:	0.057	yaw:	-3.895	yaw rate:	-0.149	Roll:	0.757	Pitch:	0.338	Yaw:	-7.110	Thrust:	0.000
Time:	1.313	Roll Set Point:	-0.048	Pitch Set Point:	-0.019	Yaw Set Point:	0.068	X_WP:	0.000	Y_WP:	0.000	Y_WP:	0.000	X:	0.024	Y:	0.009	Z:	0.057	yaw:	-3.881	yaw rate:	-1.415	Roll:	0.748	Pitch:	0.315	Yaw:	-6.981	Thrust:	0.000
Time:	1.333	Roll Set Point:	-0.048	Pitch Set Point:	-0.019	Yaw Set Point:	0.068	X_WP:	0.000	Y_WP:	0.000	Y_WP:	0.000	X:	0.024	Y:	0.009	Z:	0.057	yaw:	-3.883	yaw rate:	0.270	Roll:	0.767	Pitch:	0.338	Yaw:	-7.160	Thrust:	0.000
Time:	1.352	Roll Set Point:	-0.048	Pitch Set Point:	-0.019	Yaw Set Point:	0.069	X_WP:	0.000	Y_WP:	0.000	Y_WP:	0.000	X:	0.024	Y:	0.009	Z:	0.057	yaw:	-3.953	yaw rate:	6.979	Roll:	0.723	Pitch:	0.409	Yaw:	-8.185	Thrust:	0.000
Time:	1.372	Roll Set Point:	-0.048	Pitch Set Point:	-0.019	Yaw Set Point:	0.068	X_WP:	0.000	Y_WP:	0.000	Y_WP:	0.000	X:	0.024	Y:	0.009	Z:	0.057	yaw:	-3.894	yaw rate:	-5.930	Roll:	0.796	Pitch:	0.257	Yaw:	-6.447	Thrust:	0.000
Time:	1.394	Roll Set Point:	-0.048	Pitch Set Point:	-0.019	Yaw Set Point:	0.065	X_WP:	0.000	Y_WP:	0.000	Y_WP:	0.000	X:	0.024	Y:	0.009	Z:	0.057	yaw:	-3.746	yaw rate:	-14.741	Roll:	0.741	Pitch:	0.253	Yaw:	-5.401	Thrust:	0.000
Time:	1.412	Roll Set Point:	-0.048	Pitch Set Point:	-0.019	Yaw Set Point:	0.065	X_WP:	0.000	Y_WP:	0.000	Y_WP:	0.000	X:	0.024	Y:	0.009	Z:	0.057	yaw:	-3.746	yaw rate:	-0.023	Roll:	0.726	Pitch:	0.311	Yaw:	-6.844	Thrust:	0.000
Time:	1.432	Roll Set Point:	-0.048	Pitch Set Point:	-0.019	Yaw Set Point:	0.068	X_WP:	0.000	Y_WP:	0.000	Y_WP:	0.000	X:	0.024	Y:	0.009	Z:	0.057	yaw:	-3.890	yaw rate:	14.367	Roll:	0.819	Pitch:	0.422	Yaw:	-9.185	Thrust:	0.000
Time:	1.453	Roll Set Point:	-0.048	Pitch Set Point:	-0.019	Yaw Set Point:	0.065	X_WP:	0.000	Y_WP:	0.000	Y_WP:	0.000	X:	0.024	Y:	0.009	Z:	0.057	yaw:	-3.745	yaw rate:	-14.473	Roll:	0.724	Pitch:	0.238	Yaw:	-5.307	Thrust:	0.000
Time:	1.472	Roll Set Point:	-0.048	Pitch Set Point:	-0.019	Yaw Set Point:	0.068	X_WP:	0.000	Y_WP:	0.000	Y_WP:	0.000	X:	0.024	Y:	0.009	Z:	0.057	yaw:	-3.891	yaw rate:	14.626	Roll:	0.811	Pitch:	0.426	Yaw:	-9.271	Thrust:	0.000
Time:	1.492	Roll Set Point:	-0.048	Pitch Set Point:	-0.019	Yaw Set Point:	0.065	X_WP:	0.000	Y_WP:	0.000	Y_WP:	0.000	X:	0.024	Y:	0.009	Z:	0.057	yaw:	-3.745	yaw rate:	-14.626	Roll:	0.718	Pitch:	0.237	Yaw:	-5.291	Thrust:	0.000
Time:	1.512	Roll Set Point:	-0.048	Pitch Set Point:	-0.019	Yaw Set Point:	0.065	X_WP:	0.000	Y_WP:	0.000	Y_WP:	0.000	X:	0.024	Y:	0.009	Z:	0.057	yaw:	-3.735	yaw rate:	-1.003	Roll:	0.759	Pitch:	0.336	Yaw:	-7.072	Thrust:	0.000
Time:	1.533	Roll Set Point:	-0.048	Pitch Set Point:	-0.019	Yaw Set Point:	0.068	X_WP:	0.000	Y_WP:	0.000	Y_WP:	0.000	X:	0.024	Y:	0.009	Z:	0.057	yaw:	-3.888	yaw rate:	15.303	Roll:	0.833	Pitch:	0.418	Yaw:	-9.433	Thrust:	0.000
Time:	1.552	Roll Set Point:	-0.048	Pitch Set Point:	-0.019	Yaw Set Point:	0.065	X_WP:	0.000	Y_WP:	0.000	Y_WP:	0.000	X:	0.024	Y:	0.009	Z:	0.057	yaw:	-3.730	yaw rate:	-15.761	Roll:	0.708	Pitch:	0.229	Yaw:	-4.887	Thrust:	0.000
Time:	1.572	Roll Set Point:	-0.048	Pitch Set Point:	-0.019	Yaw Set Point:	0.068	X_WP:	0.000	Y_WP:	0.000	Y_WP:	0.000	X:	0.024	Y:	0.009	Z:	0.057	yaw:	-3.889	yaw rate:	15.865	Roll:	0.826	Pitch:	0.432	Yaw:	-9.560	Thrust:	0.000
Time:	1.594	Roll Set Point:	-0.048	Pitch Set Point:	-0.019	Yaw Set Point:	0.065	X_WP:	0.000	Y_WP:	0.000	Y_WP:	0.000	X:	0.024	Y:	0.009	Z:	0.057	yaw:	-3.748	yaw rate:	-14.101	Roll:	0.732	Pitch:	0.252	Yaw:	-5.809	Thrust:	0.000
Time:	1.612	Roll Set Point:	-0.048	Pitch Set Point:	-0.019	Yaw Set Point:	0.065	X_WP:	0.000	Y_WP:	0.000	Y_WP:	0.000	X:	0.024	Y:	0.009	Z:	0.057	yaw:	-3.741	yaw rate:	-0.747	Roll:	0.758	Pitch:	0.322	Yaw:	-7.045	Thrust:	0.000
Time:	1.632	Roll Set Point:	-0.048	Pitch Set Point:	-0.019	Yaw Set Point:	0.068	X_WP:	0.000	Y_WP:	0.000	Y_WP:	0.000	X:	0.024	Y:	0.009	Z:	0.057	yaw:	-3.897	yaw rate:	15.644	Roll:	0.836	Pitch:	0.433	Yaw:	-9.622	Thrust:	0.000
Time:	1.653	Roll Set Point:	-0.048	Pitch Set Point:	-0.019	Yaw Set Point:	0.068	X_WP:	0.000	Y_WP:	0.000	Y_WP:	0.000	X:	0.024	Y:	0.009	Z:	0.057	yaw:	-3.886	yaw rate:	-1.099	Roll:	0.763	Pitch:	0.331	Yaw:	-7.369	Thrust:	0.000
Time:	1.672	Roll Set Point:	-0.048	Pitch Set Point:	-0.019	Yaw Set Point:	0.065	X_WP:	0.000	Y_WP:	0.000	Y_WP:	0.000	X:	0.024	Y:	0.009	Z:	0.057	yaw:	-3.742	yaw rate:	-14.381	Roll:	0.733	Pitch:	0.247	Yaw:	-5.626	Thrust:	0.000
Time:	1.692	Roll Set Point:	-0.048	Pitch Set Point:	-0.019	Yaw Set Point:	0.069	X_WP:	0.000	Y_WP:	0.000	Y_WP:	0.000	X:	0.024	Y:	0.009	Z:	0.057	yaw:	-3.949	yaw rate:	20.697	Roll:	0.808	Pitch:	0.513	Yaw:	-10.446	Thrust:	0.000
Time:	1.712	Roll Set Point:	-0.048	Pitch Set Point:	-0.019	Yaw Set Point:	0.068	X_WP:	0.000	Y_WP:	0.000	Y_WP:	0.000	X:	0.024	Y:	0.009	Z:	0.057	yaw:	-3.885	yaw rate:	-6.448	Roll:	0.795	Pitch:	0.265	Yaw:	-6.873	Thrust:	0.000
Time:	1.733	Roll Set Point:	-0.048	Pitch Set Point:	-0.019	Yaw Set Point:	0.068	X_WP:	0.000	Y_WP:	0.000	Y_WP:	0.000	X:	0.024	Y:	0.009	Z:	0.057	yaw:	-3.899	yaw rate:	1.419	Roll:	0.795	Pitch:	0.340	Yaw:	-7.950	Thrust:	0.000
Time:	1.752	Roll Set Point:	-0.048	Pitch Set Point:	-0.019	Yaw Set Point:	0.065	X_WP:	0.000	Y_WP:	0.000	Y_WP:	0.000	X:	0.024	Y:	0.009	Z:	0.057	yaw:	-3.748	yaw rate:	-15.087	Roll:	0.716	Pitch:	0.241	Yaw:	-5.459	Thrust:	0.000
Time:	1.772	Roll Set Point:	-0.048	Pitch Set Point:	-0.019	Yaw Set Point:	0.065	X_WP:	0.000	Y_WP:	0.000	Y_WP:	0.000	X:	0.024	Y:	0.009	Z:	0.057	yaw:	-3.740	yaw rate:	-0.858	Roll:	0.781	Pitch:	0.339	Yaw:	-7.433	Thrust:	0.000
Time:	1.795	Roll Set Point:	-0.048	Pitch Set Point:	-0.019	Yaw Set Point:	0.065	X_WP:	0.000	Y_WP:	0.000	Y_WP:	0.000	X:	0.024	Y:	0.009	Z:	0.057	yaw:	-3.738	yaw rate:	-0.101	Roll:	0.796	Pitch:	0.344	Yaw:	-7.858	Thrust:	0.000
Time:	1.812	Roll Set Point:	-0.048	Pitch Set Point:	-0.019	Yaw Set Point:	0.065	X_WP:	0.000	Y_WP:	0.000	Y_WP:	0.000	X:	0.024	Y:	0.009	Z:	0.057	yaw:	-3.745	yaw rate:	0.653	Roll:	0.787	Pitch:	0.340	Yaw:	-7.391	Thrust:	0.000
Time:	1.832	Roll Set Point:	-0.048	Pitch Set Point:	-0.019	Yaw Set Point:	0.065	X_WP:	0.000	Y_WP:	0.000	Y_WP:	0.000	X:	0.024	Y:	0.009	Z:	0.057	yaw:	-3.742	yaw rate:	-0.277	Roll:	0.803	Pitch:	0.342	Yaw:	-7.584	Thrust:	0.000
Time:	1.852	Roll Set Point:	-0.048	Pitch Set Point:	-0.019	Yaw Set Point:	0.065	X_WP:	0.000	Y_WP:	0.000	Y_WP:	0.000	X:	0.024	Y:	0.009	Z:	0.057	yaw:	-3.740	yaw rate:	-0.179	Roll:	0.765	Pitch:	0.331	Yaw:	-7.638	Thrust:	0.000
Time:	1.872	Roll Set Point:	-0.048	Pitch Set Point:	-0.019	Yaw Set Point:	0.066	X_WP:	0.000	Y_WP:	0.000	Y_WP:	0.000	X:	0.024	Y:	0.009	Z:	0.057	yaw:	-3.800	yaw rate:	5.963	Roll:	0.774	Pitch:	0.420	Yaw:	-8.496	Thrust:	0.000
Time:	1.893	Roll Set Point:	-0.048	Pitch Set Point:	-0.019	Yaw Set Point:	0.065	X_WP:	0.000	Y_WP:	0.000	Y_WP:	0.000	X:	0.024	Y:	0.009	Z:	0.057	yaw:	-3.740	yaw rate:	-5.999	Roll:	0.812	Pitch:	0.278	Yaw:	-6.959	Thrust:	0.000
Time:	1.912	Roll Set Point:	-0.048	Pitch Set Point:	-0.019	Yaw Set Point:	0.068	X_WP:	0.000	Y_WP:	0.000	Y_WP:	0.000	X:	0.024	Y:	0.009	Z:	0.057	yaw:	-3.888	yaw rate:	14.818	Roll:	0.834	Pitch:	0.415	Yaw:	-9.882	Thrust:	0.000
Time:	1.933	Roll Set Point:	-0.048	Pitch Set Point:	-0.019	Yaw Set Point:	0.065	X_WP:	0.000	Y_WP:	0.000	Y_WP:	0.000	X:	0.024	Y:	0.009	Z:	0.057	yaw:	-3.747	yaw rate:	-14.126	Roll:	0.747	Pitch:	0.268	Yaw:	-5.927	Thrust:	0.000
Time:	1.953	Roll Set Point:	-0.048	Pitch Set Point:	-0.019	Yaw Set Point:	0.065	X_WP:	0.000	Y_WP:	0.000	Y_WP:	0.000	X:	0.024	Y:	0.009	Z:	0.057	yaw:	-3.733	yaw rate:	-1.360	Roll:	0.798	Pitch:	0.324	Yaw:	-7.463	Thrust:	0.000
Time:	1.973	Roll Set Point:	-0.048	Pitch Set Point:	-0.019	Yaw Set Point:	0.068	X_WP:	0.000	Y_WP:	0.000	Y_WP:	0.000	X:	0.024	Y:	0.009	Z:	0.057	yaw:	-3.897	yaw rate:	16.372	Roll:	0.842	Pitch:	0.451	Yaw:	-10.199	Thrust:	0.000
Time:	1.994	Roll Set Point:	-0.048	Pitch Set Point:	-0.019	Yaw Set Point:	0.065	X_WP:	0.000	Y_WP:	0.000	Y_WP:	0.000	X:	0.024	Y:	0.009	Z:	0.057	yaw:	-3.739	yaw rate:	-15.774	Roll:	0.757	Pitch:	0.248	Yaw:	-6.016	Thrust:	0.000
Time:	2.012	Roll Set Point:	-0.048	Pitch Set Point:	-0.019	Yaw Set Point:	0.065	X_WP:	0.000	Y_WP:	0.000	Y_WP:	0.000	X:	0.024	Y:	0.009	Z:	0.057	yaw:	-3.744	yaw rate:	0.434	Roll:	0.787	Pitch:	0.343	Yaw:	-7.743	Thrust:	0.000
Time:	2.033	Roll Set Point:	-0.048	Pitch Set Point:	-0.019	Yaw Set Point:	0.066	X_WP:	0.000	Y_WP:	0.000	Y_WP:	0.000	X:	0.024	Y:	0.009	Z:	0.057	yaw:	-3.809	yaw rate:	6.496	Roll:	0.792	Pitch:	0.424	Yaw:	-8.810	Thrust:	0.000
Time:	2.053	Roll Set Point:	-0.048	Pitch Set Point:	-0.019	Yaw Set Point:	0.068	X_WP:	0.000	Y_WP:	0.000	Y_WP:	0.000	X:	0.024	Y:	0.009	Z:	0.057	yaw:	-3.892	yaw rate:	8.328	Roll:	0.858	Pitch:	0.359	Yaw:	-9.248	Thrust:	0.000
Time:	2.072	Roll Set Point:	-0.048	Pitch Set Point:	-0.019	Yaw Set Point:	0.065	X_WP:	0.000	Y_WP:	0.000	Y_WP:	0.000	X:	0.024	Y:	0.009	Z:	0.057	yaw:	-3.738	yaw rate:	-15.386	Roll:	0.745	Pitch:	0.242	Yaw:	-5.549	Thrust:	0.000
Time:	2.092	Roll Set Point:	-0.048	Pitch Set Point:	-0.019	Yaw Set Point:	0.065	X_WP:	0.000	Y_WP:	0.000	Y_WP:	0.000	X:	0.024	Y:	0.009	Z:	0.057	yaw:	-3.738	yaw rate:	-0.025	Roll:	0.821	Pitch:	0.348	Yaw:	-8.084	Thrust:	0.000
Time:	2.112	Roll Set Point:	-0.048	Pitch Set Point:	-0.019	Yaw Set Point:	0.065	X_WP:	0.000	Y_WP:	0.000	Y_WP:	0.000	X:	0.024	Y:	0.009	Z:	0.057	yaw:	-3.746	yaw rate:	0.774	Roll:	0.787	Pitch:	0.350	Yaw:	-8.155	Thrust:	0.000
Time:	2.133	Roll Set Point:	-0.048	Pitch Set Point:	-0.019	Yaw Set Point:	0.065	X_WP:	0.000	Y_WP:	0.000	Y_WP:	0.000	X:	0.024	Y:	0.009	Z:	0.057	yaw:	-3.749	yaw rate:	0.333	Roll:	0.813	Pitch:	0.351	Yaw:	-8.084	Thrust:	0.000
Time:	2.152	Roll Set Point:	-0.048	Pitch Set Point:	-0.019	Yaw Set Point:	0.068	X_WP:	0.000	Y_WP:	0.000	Y_WP:	0.000	X:	0.024	Y:	0.009	Z:	0.057	yaw:	-3.883	yaw rate:	13.419	Roll:	0.856	Pitch:	0.430	Yaw:	-9.963	Thrust:	0.000
Time:	2.172	Roll Set Point:	-0.048	Pitch Set Point:	-0.019	Yaw Set Point:	0.065	X_WP:	0.000	Y_WP:	0.000	Y_WP:	0.000	X:	0.024	Y:	0.009	Z:	0.057	yaw:	-3.742	yaw rate:	-14.066	Roll:	0.742	Pitch:	0.264	Yaw:	-6.279	Thrust:	0.000
Time:	2.194	Roll Set Point:	-0.048	Pitch Set Point:	-0.019	Yaw Set Point:	0.069	X_WP:	0.000	Y_WP:	0.000	Y_WP:	0.000	X:	0.024	Y:	0.009	Z:	0.057	yaw:	-3.952	yaw rate:	20.927	Roll:	0.857	Pitch:	0.502	Yaw:	-11.172	Thrust:	0.000
Time:	2.212	Roll Set Point:	-0.048	Pitch Set Point:	-0.019	Yaw Set Point:	0.065	X_WP:	0.000	Y_WP:	0.000	Y_WP:	0.000	X:	0.024	Y:	0.009	Z:	0.057	yaw:	-3.742	yaw rate:	-21.011	Roll:	0.760	Pitch:	0.175	Yaw:	-4.888	Thrust:	0.000
Time:	2.233	Roll Set Point:	-0.048	Pitch Set Point:	-0.019	Yaw Set Point:	0.065	X_WP:	0.000	Y_WP:	0.000	Y_WP:	0.000	X:	0.024	Y:	0.009	Z:	0.057	yaw:	-3.740	yaw rate:	-0.200	Roll:	0.818	Pitch:	0.355	Yaw:	-8.130	Thrust:	0.000
Time:	2.254	Roll Set Point:	-0.048	Pitch Set Point:	-0.019	Yaw Set Point:	0.065	X_WP:	0.000	Y_WP:	0.000	Y_WP:	0.000	X:	0.024	Y:	0.009	Z:	0.057	yaw:	-3.739	yaw rate:	-0.099	Roll:	0.809	Pitch:	0.349	Yaw:	-8.180	Thrust:	0.000
Time:	2.273	Roll Set Point:	-0.048	Pitch Set Point:	-0.019	Yaw Set Point:	0.065	X_WP:	0.000	Y_WP:	0.000	Y_WP:	0.000	X:	0.024	Y:	0.009	Z:	0.057	yaw:	-3.745	yaw rate:	0.611	Roll:	0.816	Pitch:	0.347	Yaw:	-8.172	Thrust:	0.000
Time:	2.293	Roll Set Point:	-0.048	Pitch Set Point:	-0.019	Yaw Set Point:	0.068	X_WP:	0.000	Y_WP:	0.000	Y_WP:	0.000	X:	0.024	Y:	0.009	Z:	0.057	yaw:	-3.885	yaw rate:	14.018	Roll:	0.857	Pitch:	0.440	Yaw:	-10.332	Thrust:	0.000
Time:	2.313	Roll Set Point:	-0.048	Pitch Set Point:	-0.019	Yaw Set Point:	0.068	X_WP:	0.000	Y_WP:	0.000	Y_WP:	0.000	X:	0.024	Y:	0.009	Z:	0.057	yaw:	-3.893	yaw rate:	0.790	Roll:	0.812	Pitch:	0.361	Yaw:	-8.556	Thrust:	0.000
Time:	2.333	Roll Set Point:	-0.048	Pitch Set Point:	-0.019	Yaw Set Point:	0.069	X_WP:	0.000	Y_WP:	0.000	Y_WP:	0.000	X:	0.024	Y:	0.009	Z:	0.057	yaw:	-3.954	yaw rate:	6.094	Roll:	0.810	Pitch:	0.419	Yaw:	-9.442	Thrust:	0.000
Time:	2.352	Roll Set Point:	-0.048	Pitch Set Point:	-0.019	Yaw Set Point:	0.065	X_WP:	0.000	Y_WP:	0.000	Y_WP:	0.000	X:	0.024	Y:	0.009	Z:	0.057	yaw:	-3.736	yaw rate:	-21.803	Roll:	0.778	Pitch:	0.185	Yaw:	-4.966	Thrust:	0.000
Time:	2.372	Roll Set Point:	-0.048	Pitch Set Point:	-0.019	Yaw Set Point:	0.065	X_WP:	0.000	Y_WP:	0.000	Y_WP:	0.000	X:	0.024	Y:	0.009	Z:	0.057	yaw:	-3.743	yaw rate:	0.718	Roll:	0.816	Pitch:	0.349	Yaw:	-8.456	Thrust:	0.000
Time:	2.394	Roll Set Point:	-0.048	Pitch Set Point:	-0.019	Yaw Set Point:	0.069	X_WP:	0.000	Y_WP:	0.000	Y_WP:	0.000	X:	0.024	Y:	0.009	Z:	0.057	yaw:	-3.958	yaw rate:	21.523	Roll:	0.849	Pitch:	0.516	Yaw:	-11.541	Thrust:	0.000
Time:	2.412	Roll Set Point:	-0.048	Pitch Set Point:	-0.019	Yaw Set Point:	0.065	X_WP:	0.000	Y_WP:	0.000	Y_WP:	0.000	X:	0.024	Y:	0.009	Z:	0.057	yaw:	-3.733	yaw rate:	-22.493	Roll:	0.784	Pitch:	0.164	Yaw:	-4.625	Thrust:	0.000
Time:	2.433	Roll Set Point:	-0.048	Pitch Set Point:	-0.019	Yaw Set Point:	0.065	X_WP:	0.000	Y_WP:	0.000	Y_WP:	0.000	X:	0.024	Y:	0.009	Z:	0.057	yaw:	-3.738	yaw rate:	0.459	Roll:	0.825	Pitch:	0.360	Yaw:	-8.645	Thrust:	0.000
Time:	2.453	Roll Set Point:	-0.048	Pitch Set Point:	-0.019	Yaw Set Point:	0.069	X_WP:	0.000	Y_WP:	0.000	Y_WP:	0.000	X:	0.024	Y:	0.009	Z:	0.057	yaw:	-3.952	yaw rate:	21.422	Roll:	0.855	Pitch:	0.521	Yaw:	-11.545	Thrust:	0.000
Time:	2.472	Roll Set Point:	-0.048	Pitch Set Point:	-0.019	Yaw Set Point:	0.065	X_WP:	0.000	Y_WP:	0.000	Y_WP:	0.000	X:	0.024	Y:	0.009	Z:	0.057	yaw:	-3.740	yaw rate:	-21.237	Roll:	0.792	Pitch:	0.190	Yaw:	-5.564	Thrust:	0.000
Time:	2.492	Roll Set Point:	-0.048	Pitch Set Point:	-0.019	Yaw Set Point:	0.065	X_WP:	0.000	Y_WP:	0.000	Y_WP:	0.000	X:	0.024	Y:	0.009	Z:	0.057	yaw:	-3.743	yaw rate:	0.328	Roll:	0.832	Pitch:	0.357	Yaw:	-8.490	Thrust:	0.000
Time:	2.513	Roll Set Point:	-0.048	Pitch Set Point:	-0.019	Yaw Set Point:	0.068	X_WP:	0.000	Y_WP:	0.000	Y_WP:	0.000	X:	0.024	Y:	0.009	Z:	0.057	yaw:	-3.889	yaw rate:	14.643	Roll:	0.874	Pitch:	0.443	Yaw:	-10.743	Thrust:	0.000
Time:	2.533	Roll Set Point:	-0.048	Pitch Set Point:	-0.019	Yaw Set Point:	0.065	X_WP:	0.000	Y_WP:	0.000	Y_WP:	0.000	X:	0.024	Y:	0.009	Z:	0.057	yaw:	-3.747	yaw rate:	-14.194	Roll:	0.762	Pitch:	0.260	Yaw:	-6.589	Thrust:	0.000
Time:	2.552	Roll Set Point:	-0.048	Pitch Set Point:	-0.019	Yaw Set Point:	0.068	X_WP:	0.000	Y_WP:	0.000	Y_WP:	0.000	X:	0.024	Y:	0.009	Z:	0.057	yaw:	-3.888	yaw rate:	14.055	Roll:	0.894	Pitch:	0.464	Yaw:	-10.562	Thrust:	0.000
Time:	2.572	Roll Set Point:	-0.048	Pitch Set Point:	-0.019	Yaw Set Point:	0.065	X_WP:	0.000	Y_WP:	0.000	Y_WP:	0.000	X:	0.024	Y:	0.009	Z:	0.057	yaw:	-3.744	yaw rate:	-14.401	Roll:	0.779	Pitch:	0.260	Yaw:	-6.767	Thrust:	0.000
Time:	2.595	Roll Set Point:	-0.048	Pitch Set Point:	-0.019	Yaw Set Point:	0.068	X_WP:	0.000	Y_WP:	0.000	Y_WP:	0.000	X:	0.024	Y:	0.009	Z:	0.057	yaw:	-3.888	yaw rate:	14.399	Roll:	0.881	Pitch:	0.449	Yaw:	-10.945	Thrust:	0.000
Time:	2.612	Roll Set Point:	-0.048	Pitch Set Point:	-0.019	Yaw Set Point:	0.065	X_WP:	0.000	Y_WP:	0.000	Y_WP:	0.000	X:	0.024	Y:	0.009	Z:	0.057	yaw:	-3.740	yaw rate:	-14.772	Roll:	0.756	Pitch:	0.237	Yaw:	-6.038	Thrust:	0.000
Time:	2.632	Roll Set Point:	-0.048	Pitch Set Point:	-0.019	Yaw Set Point:	0.065	X_WP:	0.000	Y_WP:	0.000	Y_WP:	0.000	X:	0.024	Y:	0.009	Z:	0.057	yaw:	-3.739	yaw rate:	-0.104	Roll:	0.843	Pitch:	0.360	Yaw:	-8.695	Thrust:	0.000
Time:	2.653	Roll Set Point:	-0.048	Pitch Set Point:	-0.019	Yaw Set Point:	0.068	X_WP:	0.000	Y_WP:	0.000	Y_WP:	0.000	X:	0.024	Y:	0.009	Z:	0.057	yaw:	-3.879	yaw rate:	13.937	Roll:	0.883	Pitch:	0.448	Yaw:	-10.746	Thrust:	0.000
Time:	2.673	Roll Set Point:	-0.048	Pitch Set Point:	-0.019	Yaw Set Point:	0.065	X_WP:	0.000	Y_WP:	0.000	Y_WP:	0.000	X:	0.024	Y:	0.009	Z:	0.057	yaw:	-3.743	yaw rate:	-13.604	Roll:	0.805	Pitch:	0.278	Yaw:	-7.004	Thrust:	0.000
Time:	2.692	Roll Set Point:	-0.048	Pitch Set Point:	-0.019	Yaw Set Point:	0.065	X_WP:	0.000	Y_WP:	0.000	Y_WP:	0.000	X:	0.024	Y:	0.009	Z:	0.057	yaw:	-3.744	yaw rate:	0.196	Roll:	0.819	Pitch:	0.356	Yaw:	-8.722	Thrust:	0.000
Time:	2.713	Roll Set Point:	-0.048	Pitch Set Point:	-0.019	Yaw Set Point:	0.065	X_WP:	0.000	Y_WP:	0.000	Y_WP:	0.000	X:	0.024	Y:	0.009	Z:	0.057	yaw:	-3.742	yaw rate:	-0.218	Roll:	0.849	Pitch:	0.366	Yaw:	-8.805	Thrust:	0.000
Time:	2.733	Roll Set Point:	-0.048	Pitch Set Point:	-0.019	Yaw Set Point:	0.068	X_WP:	0.000	Y_WP:	0.000	Y_WP:	0.000	X:	0.024	Y:	0.009	Z:	0.057	yaw:	-3.887	yaw rate:	14.427	Roll:	0.889	Pitch:	0.457	Yaw:	-10.915	Thrust:	0.000
Time:	2.752	Roll Set Point:	-0.048	Pitch Set Point:	-0.019	Yaw Set Point:	0.068	X_WP:	0.000	Y_WP:	0.000	Y_WP:	0.000	X:	0.024	Y:	0.009	Z:	0.057	yaw:	-3.884	yaw rate:	-0.237	Roll:	0.817	Pitch:	0.356	Yaw:	-8.963	Thrust:	0.000
Time:	2.772	Roll Set Point:	-0.048	Pitch Set Point:	-0.019	Yaw Set Point:	0.065	X_WP:	0.000	Y_WP:	0.000	Y_WP:	0.000	X:	0.024	Y:	0.009	Z:	0.057	yaw:	-3.750	yaw rate:	-13.386	Roll:	0.822	Pitch:	0.278	Yaw:	-6.969	Thrust:	0.000
Time:	2.794	Roll Set Point:	-0.048	Pitch Set Point:	-0.019	Yaw Set Point:	0.065	X_WP:	0.000	Y_WP:	0.000	Y_WP:	0.000	X:	0.024	Y:	0.009	Z:	0.057	yaw:	-3.740	yaw rate:	-1.003	Roll:	0.843	Pitch:	0.372	Yaw:	-9.063	Thrust:	0.000
Time:	2.812	Roll Set Point:	-0.048	Pitch Set Point:	-0.019	Yaw Set Point:	0.065	X_WP:	0.000	Y_WP:	0.000	Y_WP:	0.000	X:	0.024	Y:	0.009	Z:	0.057	yaw:	-3.747	yaw rate:	0.700	Roll:	0.840	Pitch:	0.351	Yaw:	-8.675	Thrust:	0.000
Time:	2.832	Roll Set Point:	-0.048	Pitch Set Point:	-0.019	Yaw Set Point:	0.065	X_WP:	0.000	Y_WP:	0.000	Y_WP:	0.000	X:	0.024	Y:	0.009	Z:	0.057	yaw:	-3.745	yaw rate:	-0.261	Roll:	0.839	Pitch:	0.362	Yaw:	-9.069	Thrust:	0.000
Time:	2.853	Roll Set Point:	-0.048	Pitch Set Point:	-0.019	Yaw Set Point:	0.068	X_WP:	0.000	Y_WP:	0.000	Y_WP:	0.000	X:	0.024	Y:	0.009	Z:	0.057	yaw:	-3.890	yaw rate:	14.479	Roll:	0.906	Pitch:	0.463	Yaw:	-11.189	Thrust:	0.000
Time:	2.872	Roll Set Point:	-0.048	Pitch Set Point:	-0.019	Yaw Set Point:	0.068	X_WP:	0.000	Y_WP:	0.000	Y_WP:	0.000	X:	0.024	Y:	0.009	Z:	0.057	yaw:	-3.886	yaw rate:	-0.343	Roll:	0.835	Pitch:	0.358	Yaw:	-8.897	Thrust:	0.000
Time:	2.892	Roll Set Point:	-0.048	Pitch Set Point:	-0.019	Yaw Set Point:	0.065	X_WP:	0.000	Y_WP:	0.000	Y_WP:	0.000	X:	0.024	Y:	0.009	Z:	0.057	yaw:	-3.742	yaw rate:	-14.380	Roll:	0.805	Pitch:	0.276	Yaw:	-7.107	Thrust:	0.000
Time:	2.913	Roll Set Point:	-0.048	Pitch Set Point:	-0.019	Yaw Set Point:	0.065	X_WP:	0.000	Y_WP:	0.000	Y_WP:	0.000	X:	0.024	Y:	0.009	Z:	0.057	yaw:	-3.746	yaw rate:	0.415	Roll:	0.858	Pitch:	0.370	Yaw:	-9.343	Thrust:	0.000
Time:	2.933	Roll Set Point:	-0.048	Pitch Set Point:	-0.019	Yaw Set Point:	0.068	X_WP:	0.000	Y_WP:	0.000	Y_WP:	0.000	X:	0.024	Y:	0.009	Z:	0.057	yaw:	-3.893	yaw rate:	14.616	Roll:	0.908	Pitch:	0.467	Yaw:	-11.211	Thrust:	0.000
Time:	2.952	Roll Set Point:	-0.048	Pitch Set Point:	-0.019	Yaw Set Point:	0.068	X_WP:	0.000	Y_WP:	0.000	Y_WP:	0.000	X:	0.024	Y:	0.009	Z:	0.057	yaw:	-3.882	yaw rate:	-1.099	Roll:	0.825	Pitch:	0.353	Yaw:	-8.675	Thrust:	0.000
Time:	2.972	Roll Set Point:	-0.048	Pitch Set Point:	-0.019	Yaw Set Point:	0.068	X_WP:	0.000	Y_WP:	0.000	Y_WP:	0.000	X:	0.024	Y:	0.009	Z:	0.057	yaw:	-3.889	yaw rate:	0.718	Roll:	0.861	Pitch:	0.381	Yaw:	-9.504	Thrust:	0.000
Time:	2.993	Roll Set Point:	-0.048	Pitch Set Point:	-0.019	Yaw Set Point:	0.068	X_WP:	0.000	Y_WP:	0.000	Y_WP:	0.000	X:	0.024	Y:	0.009	Z:	0.057	yaw:	-3.892	yaw rate:	0.370	Roll:	0.867	Pitch:	0.374	Yaw:	-9.826	Thrust:	0.000
Time:	3.011	Roll Set Point:	-0.048	Pitch Set Point:	-0.019	Yaw Set Point:	0.065	X_WP:	0.000	Y_WP:	0.000	Y_WP:	0.000	X:	0.024	Y:	0.009	Z:	0.057	yaw:	-3.738	yaw rate:	-15.482	Roll:	0.787	Pitch:	0.257	Yaw:	-6.350	Thrust:	0.000
Time:	3.032	Roll Set Point:	-0.048	Pitch Set Point:	-0.019	Yaw Set Point:	0.068	X_WP:	0.000	Y_WP:	0.000	Y_WP:	0.000	X:	0.024	Y:	0.009	Z:	0.057	yaw:	-3.883	yaw rate:	14.565	Roll:	0.905	Pitch:	0.462	Yaw:	-11.438	Thrust:	0.000
Time:	3.052	Roll Set Point:	-0.048	Pitch Set Point:	-0.019	Yaw Set Point:	0.065	X_WP:	0.000	Y_WP:	0.000	Y_WP:	0.000	X:	0.024	Y:	0.009	Z:	0.057	yaw:	-3.743	yaw rate:	-14.068	Roll:	0.833	Pitch:	0.297	Yaw:	-7.617	Thrust:	0.000
Time:	3.072	Roll Set Point:	-0.048	Pitch Set Point:	-0.019	Yaw Set Point:	0.065	X_WP:	0.000	Y_WP:	0.000	Y_WP:	0.000	X:	0.024	Y:	0.009	Z:	0.057	yaw:	-3.742	yaw rate:	-0.042	Roll:	0.850	Pitch:	0.358	Yaw:	-9.023	Thrust:	0.000
Time:	3.092	Roll Set Point:	-0.048	Pitch Set Point:	-0.019	Yaw Set Point:	0.065	X_WP:	0.000	Y_WP:	0.000	Y_WP:	0.000	X:	0.024	Y:	0.009	Z:	0.057	yaw:	-3.735	yaw rate:	-0.741	Roll:	0.857	Pitch:	0.373	Yaw:	-9.210	Thrust:	0.000
Time:	3.112	Roll Set Point:	-0.048	Pitch Set Point:	-0.019	Yaw Set Point:	0.065	X_WP:	0.000	Y_WP:	0.000	Y_WP:	0.000	X:	0.024	Y:	0.009	Z:	0.057	yaw:	-3.746	yaw rate:	1.123	Roll:	0.869	Pitch:	0.379	Yaw:	-9.394	Thrust:	0.000
Time:	3.134	Roll Set Point:	-0.048	Pitch Set Point:	-0.019	Yaw Set Point:	0.068	X_WP:	0.000	Y_WP:	0.000	Y_WP:	0.000	X:	0.024	Y:	0.009	Z:	0.057	yaw:	-3.892	yaw rate:	14.561	Roll:	0.918	Pitch:	0.463	Yaw:	-11.447	Thrust:	0.000
Time:	3.152	Roll Set Point:	-0.048	Pitch Set Point:	-0.019	Yaw Set Point:	0.068	X_WP:	0.000	Y_WP:	0.000	Y_WP:	0.000	X:	0.024	Y:	0.009	Z:	0.057	yaw:	-3.886	yaw rate:	-0.591	Roll:	0.837	Pitch:	0.365	Yaw:	-9.078	Thrust:	0.000
Time:	3.172	Roll Set Point:	-0.048	Pitch Set Point:	-0.019	Yaw Set Point:	0.065	X_WP:	0.000	Y_WP:	0.000	Y_WP:	0.000	X:	0.024	Y:	0.009	Z:	0.057	yaw:	-3.732	yaw rate:	-15.387	Roll:	0.830	Pitch:	0.284	Yaw:	-7.294	Thrust:	0.000
Time:	3.195	Roll Set Point:	-0.048	Pitch Set Point:	-0.019	Yaw Set Point:	0.068	X_WP:	0.000	Y_WP:	0.000	Y_WP:	0.000	X:	0.024	Y:	0.009	Z:	0.057	yaw:	-3.888	yaw rate:	15.647	Roll:	0.923	Pitch:	0.463	Yaw:	-11.588	Thrust:	0.000
Time:	3.211	Roll Set Point:	-0.048	Pitch Set Point:	-0.019	Yaw Set Point:	0.068	X_WP:	0.000	Y_WP:	0.000	Y_WP:	0.000	X:	0.024	Y:	0.009	Z:	0.057	yaw:	-3.890	yaw rate:	0.159	Roll:	0.853	Pitch:	0.377	Yaw:	-9.073	Thrust:	0.000
Time:	3.233	Roll Set Point:	-0.048	Pitch Set Point:	-0.019	Yaw Set Point:	0.068	X_WP:	0.000	Y_WP:	0.000	Y_WP:	0.000	X:	0.024	Y:	0.009	Z:	0.057	yaw:	-3.884	yaw rate:	-0.574	Roll:	0.875	Pitch:	0.378	Yaw:	-9.539	Thrust:	0.000
Time:	3.253	Roll Set Point:	-0.048	Pitch Set Point:	-0.019	Yaw Set Point:	0.065	X_WP:	0.000	Y_WP:	0.000	Y_WP:	0.000	X:	0.024	Y:	0.009	Z:	0.057	yaw:	-3.743	yaw rate:	-14.161	Roll:	0.824	Pitch:	0.293	Yaw:	-7.560	Thrust:	0.000
Time:	3.272	Roll Set Point:	-0.048	Pitch Set Point:	-0.019	Yaw Set Point:	0.068	X_WP:	0.000	Y_WP:	0.000	Y_WP:	0.000	X:	0.024	Y:	0.009	Z:	0.057	yaw:	-3.887	yaw rate:	14.470	Roll:	0.915	Pitch:	0.460	Yaw:	-11.181	Thrust:	0.000
Time:	3.292	Roll Set Point:	-0.048	Pitch Set Point:	-0.019	Yaw Set Point:	0.068	X_WP:	0.000	Y_WP:	0.000	Y_WP:	0.000	X:	0.024	Y:	0.009	Z:	0.057	yaw:	-3.888	yaw rate:	0.114	Roll:	0.891	Pitch:	0.387	Yaw:	-9.559	Thrust:	0.000
Time:	3.312	Roll Set Point:	-0.048	Pitch Set Point:	-0.019	Yaw Set Point:	0.068	X_WP:	0.000	Y_WP:	0.000	Y_WP:	0.000	X:	0.024	Y:	0.009	Z:	0.057	yaw:	-3.884	yaw rate:	-0.387	Roll:	0.867	Pitch:	0.379	Yaw:	-9.437	Thrust:	0.000
Time:	3.333	Roll Set Point:	-0.048	Pitch Set Point:	-0.019	Yaw Set Point:	0.068	X_WP:	0.000	Y_WP:	0.000	Y_WP:	0.000	X:	0.024	Y:	0.009	Z:	0.057	yaw:	-3.885	yaw rate:	0.069	Roll:	0.886	Pitch:	0.391	Yaw:	-9.669	Thrust:	0.000
Time:	3.351	Roll Set Point:	-0.048	Pitch Set Point:	-0.019	Yaw Set Point:	0.068	X_WP:	0.000	Y_WP:	0.000	Y_WP:	0.000	X:	0.024	Y:	0.009	Z:	0.057	yaw:	-3.898	yaw rate:	1.248	Roll:	0.864	Pitch:	0.369	Yaw:	-9.236	Thrust:	0.000
Time:	3.372	Roll Set Point:	-0.048	Pitch Set Point:	-0.019	Yaw Set Point:	0.065	X_WP:	0.000	Y_WP:	0.000	Y_WP:	0.000	X:	0.024	Y:	0.009	Z:	0.057	yaw:	-3.741	yaw rate:	-15.629	Roll:	0.823	Pitch:	0.284	Yaw:	-7.034	Thrust:	0.000
Time:	3.392	Roll Set Point:	-0.048	Pitch Set Point:	-0.019	Yaw Set Point:	0.065	X_WP:	0.000	Y_WP:	0.000	Y_WP:	0.000	X:	0.024	Y:	0.009	Z:	0.057	yaw:	-3.745	yaw rate:	0.404	Roll:	0.885	Pitch:	0.385	Yaw:	-9.489	Thrust:	0.000
Time:	3.412	Roll Set Point:	-0.048	Pitch Set Point:	-0.019	Yaw Set Point:	0.068	X_WP:	0.000	Y_WP:	0.000	Y_WP:	0.000	X:	0.024	Y:	0.009	Z:	0.057	yaw:	-3.891	yaw rate:	14.577	Roll:	0.914	Pitch:	0.466	Yaw:	-11.355	Thrust:	0.000
Time:	3.432	Roll Set Point:	-0.048	Pitch Set Point:	-0.019	Yaw Set Point:	0.065	X_WP:	0.000	Y_WP:	0.000	Y_WP:	0.000	X:	0.024	Y:	0.009	Z:	0.057	yaw:	-3.743	yaw rate:	-14.839	Roll:	0.849	Pitch:	0.290	Yaw:	-7.191	Thrust:	0.000
Time:	3.452	Roll Set Point:	-0.048	Pitch Set Point:	-0.019	Yaw Set Point:	0.065	X_WP:	0.000	Y_WP:	0.000	Y_WP:	0.000	X:	0.024	Y:	0.009	Z:	0.057	yaw:	-3.739	yaw rate:	-0.335	Roll:	0.881	Pitch:	0.377	Yaw:	-9.303	Thrust:	0.000
Time:	3.473	Roll Set Point:	-0.048	Pitch Set Point:	-0.019	Yaw Set Point:	0.065	X_WP:	0.000	Y_WP:	0.000	Y_WP:	0.000	X:	0.024	Y:	0.009	Z:	0.057	yaw:	-3.740	yaw rate:	0.078	Roll:	0.877	Pitch:	0.386	Yaw:	-9.267	Thrust:	0.000
Time:	3.492	Roll Set Point:	-0.048	Pitch Set Point:	-0.019	Yaw Set Point:	0.065	X_WP:	0.000	Y_WP:	0.000	Y_WP:	0.000	X:	0.024	Y:	0.009	Z:	0.057	yaw:	-3.741	yaw rate:	0.078	Roll:	0.892	Pitch:	0.378	Yaw:	-9.045	Thrust:	0.000
Time:	3.512	Roll Set Point:	-0.048	Pitch Set Point:	-0.019	Yaw Set Point:	0.065	X_WP:	0.000	Y_WP:	0.000	Y_WP:	0.000	X:	0.024	Y:	0.009	Z:	0.057	yaw:	-3.746	yaw rate:	0.470	Roll:	0.876	Pitch:	0.383	Yaw:	-9.411	Thrust:	0.000
Time:	3.533	Roll Set Point:	-0.048	Pitch Set Point:	-0.019	Yaw Set Point:	0.065	X_WP:	0.000	Y_WP:	0.000	Y_WP:	0.000	X:	0.024	Y:	0.009	Z:	0.057	yaw:	-3.737	yaw rate:	-0.824	Roll:	0.900	Pitch:	0.392	Yaw:	-9.329	Thrust:	0.000
Time:	3.553	Roll Set Point:	-0.048	Pitch Set Point:	-0.019	Yaw Set Point:	0.068	X_WP:	0.000	Y_WP:	0.000	Y_WP:	0.000	X:	0.024	Y:	0.009	Z:	0.057	yaw:	-3.886	yaw rate:	14.876	Roll:	0.935	Pitch:	0.475	Yaw:	-11.300	Thrust:	0.000
Time:	3.572	Roll Set Point:	-0.048	Pitch Set Point:	-0.019	Yaw Set Point:	0.068	X_WP:	0.000	Y_WP:	0.000	Y_WP:	0.000	X:	0.024	Y:	0.009	Z:	0.057	yaw:	-3.892	yaw rate:	0.540	Roll:	0.886	Pitch:	0.384	Yaw:	-9.334	Thrust:	0.000
Time:	3.592	Roll Set Point:	-0.048	Pitch Set Point:	-0.019	Yaw Set Point:	0.068	X_WP:	0.000	Y_WP:	0.000	Y_WP:	0.000	X:	0.024	Y:	0.009	Z:	0.057	yaw:	-3.895	yaw rate:	0.332	Roll:	0.896	Pitch:	0.390	Yaw:	-9.592	Thrust:	0.000
Time:	3.611	Roll Set Point:	-0.048	Pitch Set Point:	-0.019	Yaw Set Point:	0.065	X_WP:	0.000	Y_WP:	0.000	Y_WP:	0.000	X:	0.024	Y:	0.009	Z:	0.057	yaw:	-3.738	yaw rate:	-15.724	Roll:	0.841	Pitch:	0.285	Yaw:	-6.902	Thrust:	0.000
Time:	3.633	Roll Set Point:	-0.048	Pitch Set Point:	-0.019	Yaw Set Point:	0.068	X_WP:	0.000	Y_WP:	0.000	Y_WP:	0.000	X:	0.024	Y:	0.009	Z:	0.057	yaw:	-3.889	yaw rate:	15.136	Roll:	0.932	Pitch:	0.483	Yaw:	-11.497	Thrust:	0.000
Time:	3.652	Roll Set Point:	-0.048	Pitch Set Point:	-0.019	Yaw Set Point:	0.066	X_WP:	0.000	Y_WP:	0.000	Y_WP:	0.000	X:	0.024	Y:	0.009	Z:	0.057	yaw:	-3.805	yaw rate:	-8.428	Roll:	0.844	Pitch:	0.365	Yaw:	-8.259	Thrust:	0.000
Time:	3.673	Roll Set Point:	-0.048	Pitch Set Point:	-0.019	Yaw Set Point:	0.068	X_WP:	0.000	Y_WP:	0.000	Y_WP:	0.000	X:	0.024	Y:	0.009	Z:	0.057	yaw:	-3.888	yaw rate:	8.274	Roll:	0.957	Pitch:	0.410	Yaw:	-10.400	Thrust:	0.000
Time:	3.693	Roll Set Point:	-0.048	Pitch Set Point:	-0.019	Yaw Set Point:	0.068	X_WP:	0.000	Y_WP:	0.000	Y_WP:	0.000	X:	0.024	Y:	0.009	Z:	0.057	yaw:	-3.887	yaw rate:	-0.008	Roll:	0.895	Pitch:	0.393	Yaw:	-9.636	Thrust:	0.000
Time:	3.712	Roll Set Point:	-0.048	Pitch Set Point:	-0.019	Yaw Set Point:	0.068	X_WP:	0.000	Y_WP:	0.000	Y_WP:	0.000	X:	0.024	Y:	0.009	Z:	0.057	yaw:	-3.893	yaw rate:	0.511	Roll:	0.893	Pitch:	0.388	Yaw:	-9.439	Thrust:	0.000
Time:	3.734	Roll Set Point:	-0.048	Pitch Set Point:	-0.019	Yaw Set Point:	0.068	X_WP:	0.000	Y_WP:	0.000	Y_WP:	0.000	X:	0.024	Y:	0.009	Z:	0.057	yaw:	-3.891	yaw rate:	-0.166	Roll:	0.930	Pitch:	0.394	Yaw:	-9.729	Thrust:	0.000
Time:	3.752	Roll Set Point:	-0.048	Pitch Set Point:	-0.019	Yaw Set Point:	0.065	X_WP:	0.000	Y_WP:	0.000	Y_WP:	0.000	X:	0.024	Y:	0.009	Z:	0.057	yaw:	-3.742	yaw rate:	-14.882	Roll:	0.827	Pitch:	0.287	Yaw:	-6.600	Thrust:	0.000
Time:	3.772	Roll Set Point:	-0.048	Pitch Set Point:	-0.019	Yaw Set Point:	0.068	X_WP:	0.000	Y_WP:	0.000	Y_WP:	0.000	X:	0.024	Y:	0.009	Z:	0.057	yaw:	-3.886	yaw rate:	14.364	Roll:	0.926	Pitch:	0.472	Yaw:	-11.341	Thrust:	0.000
Time:	3.793	Roll Set Point:	-0.048	Pitch Set Point:	-0.019	Yaw Set Point:	0.068	X_WP:	0.000	Y_WP:	0.000	Y_WP:	0.000	X:	0.024	Y:	0.009	Z:	0.057	yaw:	-3.891	yaw rate:	0.539	Roll:	0.925	Pitch:	0.396	Yaw:	-9.617	Thrust:	0.000
Time:	3.811	Roll Set Point:	-0.048	Pitch Set Point:	-0.019	Yaw Set Point:	0.068	X_WP:	0.000	Y_WP:	0.000	Y_WP:	0.000	X:	0.024	Y:	0.009	Z:	0.057	yaw:	-3.882	yaw rate:	-0.878	Roll:	0.896	Pitch:	0.382	Yaw:	-9.027	Thrust:	0.000
Time:	3.832	Roll Set Point:	-0.048	Pitch Set Point:	-0.019	Yaw Set Point:	0.068	X_WP:	0.000	Y_WP:	0.000	Y_WP:	0.000	X:	0.024	Y:	0.009	Z:	0.057	yaw:	-3.891	yaw rate:	0.873	Roll:	0.908	Pitch:	0.408	Yaw:	-9.656	Thrust:	0.000
Time:	3.853	Roll Set Point:	-0.048	Pitch Set Point:	-0.019	Yaw Set Point:	0.065	X_WP:	0.000	Y_WP:	0.000	Y_WP:	0.000	X:	0.024	Y:	0.009	Z:	0.057	yaw:	-3.734	yaw rate:	-15.729	Roll:	0.844	Pitch:	0.283	Yaw:	-7.098	Thrust:	0.000
Time:	3.872	Roll Set Point:	-0.048	Pitch Set Point:	-0.019	Yaw Set Point:	0.065	X_WP:	0.000	Y_WP:	0.000	Y_WP:	0.000	X:	0.024	Y:	0.009	Z:	0.057	yaw:	-3.741	yaw rate:	0.678	Roll:	0.918	Pitch:	0.393	Yaw:	-9.347	Thrust:	0.000
Time:	3.893	Roll Set Point:	-0.048	Pitch Set Point:	-0.019	Yaw Set Point:	0.065	X_WP:	0.000	Y_WP:	0.000	Y_WP:	0.000	X:	0.024	Y:	0.009	Z:	0.057	yaw:	-3.742	yaw rate:	0.192	Roll:	0.918	Pitch:	0.402	Yaw:	-9.537	Thrust:	0.000
Time:	3.914	Roll Set Point:	-0.048	Pitch Set Point:	-0.019	Yaw Set Point:	0.068	X_WP:	0.000	Y_WP:	0.000	Y_WP:	0.000	X:	0.024	Y:	0.009	Z:	0.057	yaw:	-3.894	yaw rate:	15.147	Roll:	0.960	Pitch:	0.494	Yaw:	-11.362	Thrust:	0.000
Time:	3.935	Roll Set Point:	-0.048	Pitch Set Point:	-0.019	Yaw Set Point:	0.068	X_WP:	0.000	Y_WP:	0.000	Y_WP:	0.000	X:	0.024	Y:	0.009	Z:	0.057	yaw:	-3.884	yaw rate:	-0.991	Roll:	0.933	Pitch:	0.397	Yaw:	-9.719	Thrust:	0.000
Time:	3.952	Roll Set Point:	-0.048	Pitch Set Point:	-0.019	Yaw Set Point:	0.068	X_WP:	0.000	Y_WP:	0.000	Y_WP:	0.000	X:	0.024	Y:	0.009	Z:	0.057	yaw:	-3.885	yaw rate:	0.115	Roll:	0.864	Pitch:	0.379	Yaw:	-8.854	Thrust:	0.000
Time:	3.972	Roll Set Point:	-0.048	Pitch Set Point:	-0.019	Yaw Set Point:	0.068	X_WP:	0.000	Y_WP:	0.000	Y_WP:	0.000	X:	0.024	Y:	0.009	Z:	0.057	yaw:	-3.884	yaw rate:	-0.126	Roll:	0.922	Pitch:	0.404	Yaw:	-9.439	Thrust:	0.000
Time:	3.993	Roll Set Point:	-0.048	Pitch Set Point:	-0.019	Yaw Set Point:	0.065	X_WP:	0.000	Y_WP:	0.000	Y_WP:	0.000	X:	0.024	Y:	0.009	Z:	0.057	yaw:	-3.740	yaw rate:	-14.370	Roll:	0.883	Pitch:	0.305	Yaw:	-7.655	Thrust:	0.000
Time:	4.011	Roll Set Point:	-0.048	Pitch Set Point:	-0.019	Yaw Set Point:	0.065	X_WP:	0.000	Y_WP:	0.000	Y_WP:	0.000	X:	0.024	Y:	0.009	Z:	0.057	yaw:	-3.743	yaw rate:	0.305	Roll:	0.883	Pitch:	0.381	Yaw:	-8.887	Thrust:	0.000
Time:	4.032	Roll Set Point:	-0.048	Pitch Set Point:	-0.019	Yaw Set Point:	0.068	X_WP:	0.000	Y_WP:	0.000	Y_WP:	0.000	X:	0.024	Y:	0.009	Z:	0.057	yaw:	-3.891	yaw rate:	14.724	Roll:	0.970	Pitch:	0.490	Yaw:	-11.420	Thrust:	0.000
Time:	4.056	Roll Set Point:	-0.048	Pitch Set Point:	-0.019	Yaw Set Point:	0.068	X_WP:	0.000	Y_WP:	0.000	Y_WP:	0.000	X:	0.024	Y:	0.009	Z:	0.057	yaw:	-3.890	yaw rate:	-0.055	Roll:	0.969	Pitch:	0.423	Yaw:	-10.096	Thrust:	0.000
Time:	4.072	Roll Set Point:	-0.048	Pitch Set Point:	-0.019	Yaw Set Point:	0.068	X_WP:	0.000	Y_WP:	0.000	Y_WP:	0.000	X:	0.024	Y:	0.009	Z:	0.057	yaw:	-3.887	yaw rate:	-0.324	Roll:	0.874	Pitch:	0.374	Yaw:	-8.672	Thrust:	0.000
Time:	4.093	Roll Set Point:	-0.048	Pitch Set Point:	-0.019	Yaw Set Point:	0.068	X_WP:	0.000	Y_WP:	0.000	Y_WP:	0.000	X:	0.024	Y:	0.009	Z:	0.057	yaw:	-3.882	yaw rate:	-0.426	Roll:	0.927	Pitch:	0.407	Yaw:	-9.488	Thrust:	0.000
Time:	4.112	Roll Set Point:	-0.048	Pitch Set Point:	-0.019	Yaw Set Point:	0.065	X_WP:	0.000	Y_WP:	0.000	Y_WP:	0.000	X:	0.024	Y:	0.009	Z:	0.057	yaw:	-3.744	yaw rate:	-13.823	Roll:	0.879	Pitch:	0.305	Yaw:	-7.475	Thrust:	0.000
Time:	4.134	Roll Set Point:	-0.048	Pitch Set Point:	-0.019	Yaw Set Point:	0.068	X_WP:	0.000	Y_WP:	0.000	Y_WP:	0.000	X:	0.024	Y:	0.009	Z:	0.057	yaw:	-3.886	yaw rate:	14.223	Roll:	0.972	Pitch:	0.493	Yaw:	-11.407	Thrust:	0.000
Time:	4.152	Roll Set Point:	-0.048	Pitch Set Point:	-0.019	Yaw Set Point:	0.065	X_WP:	0.000	Y_WP:	0.000	Y_WP:	0.000	X:	0.024	Y:	0.009	Z:	0.057	yaw:	-3.740	yaw rate:	-14.602	Roll:	0.855	Pitch:	0.293	Yaw:	-6.722	Thrust:	0.000
Time:	4.172	Roll Set Point:	-0.048	Pitch Set Point:	-0.019	Yaw Set Point:	0.068	X_WP:	0.000	Y_WP:	0.000	Y_WP:	0.000	X:	0.024	Y:	0.009	Z:	0.057	yaw:	-3.888	yaw rate:	14.790	Roll:	0.972	Pitch:	0.489	Yaw:	-11.417	Thrust:	0.000
Time:	4.200	Roll Set Point:	-0.048	Pitch Set Point:	-0.019	Yaw Set Point:	0.068	X_WP:	0.000	Y_WP:	0.000	Y_WP:	0.000	X:	0.024	Y:	0.009	Z:	0.057	yaw:	-3.890	yaw rate:	0.156	Roll:	1.012	Pitch:	0.436	Yaw:	-10.864	Thrust:	0.000
Time:	4.213	Roll Set Point:	-0.048	Pitch Set Point:	-0.019	Yaw Set Point:	0.068	X_WP:	0.000	Y_WP:	0.000	Y_WP:	0.000	X:	0.024	Y:	0.009	Z:	0.057	yaw:	-3.894	yaw rate:	0.416	Roll:	0.840	Pitch:	0.374	Yaw:	-8.032	Thrust:	0.000
Time:	4.232	Roll Set Point:	-0.048	Pitch Set Point:	-0.019	Yaw Set Point:	0.065	X_WP:	0.000	Y_WP:	0.000	Y_WP:	0.000	X:	0.024	Y:	0.009	Z:	0.057	yaw:	-3.745	yaw rate:	-14.931	Roll:	0.898	Pitch:	0.309	Yaw:	-7.275	Thrust:	0.000
Time:	4.253	Roll Set Point:	-0.048	Pitch Set Point:	-0.019	Yaw Set Point:	0.065	X_WP:	0.000	Y_WP:	0.000	Y_WP:	0.000	X:	0.024	Y:	0.009	Z:	0.057	yaw:	-3.740	yaw rate:	-0.444	Roll:	0.939	Pitch:	0.403	Yaw:	-9.503	Thrust:	0.000
Time:	4.272	Roll Set Point:	-0.048	Pitch Set Point:	-0.019	Yaw Set Point:	0.068	X_WP:	0.000	Y_WP:	0.000	Y_WP:	0.000	X:	0.024	Y:	0.009	Z:	0.057	yaw:	-3.889	yaw rate:	14.843	Roll:	0.972	Pitch:	0.500	Yaw:	-11.244	Thrust:	0.000
Time:	4.292	Roll Set Point:	-0.048	Pitch Set Point:	-0.019	Yaw Set Point:	0.065	X_WP:	0.000	Y_WP:	0.000	Y_WP:	0.000	X:	0.024	Y:	0.009	Z:	0.057	yaw:	-3.743	yaw rate:	-14.592	Roll:	0.870	Pitch:	0.306	Yaw:	-7.356	Thrust:	0.000
Time:	4.313	Roll Set Point:	-0.048	Pitch Set Point:	-0.019	Yaw Set Point:	0.066	X_WP:	0.000	Y_WP:	0.000	Y_WP:	0.000	X:	0.024	Y:	0.009	Z:	0.057	yaw:	-3.801	yaw rate:	5.862	Roll:	0.924	Pitch:	0.485	Yaw:	-10.100	Thrust:	0.000
Time:	4.334	Roll Set Point:	-0.048	Pitch Set Point:	-0.019	Yaw Set Point:	0.068	X_WP:	0.000	Y_WP:	0.000	Y_WP:	0.000	X:	0.024	Y:	0.009	Z:	0.057	yaw:	-3.890	yaw rate:	8.895	Roll:	1.012	Pitch:	0.429	Yaw:	-10.824	Thrust:	0.000
Time:	4.352	Roll Set Point:	-0.048	Pitch Set Point:	-0.019	Yaw Set Point:	0.065	X_WP:	0.000	Y_WP:	0.000	Y_WP:	0.000	X:	0.024	Y:	0.009	Z:	0.057	yaw:	-3.742	yaw rate:	-14.849	Roll:	0.868	Pitch:	0.289	Yaw:	-6.691	Thrust:	0.000
Time:	4.372	Roll Set Point:	-0.048	Pitch Set Point:	-0.019	Yaw Set Point:	0.068	X_WP:	0.000	Y_WP:	0.000	Y_WP:	0.000	X:	0.024	Y:	0.009	Z:	0.057	yaw:	-3.887	yaw rate:	14.542	Roll:	0.981	Pitch:	0.501	Yaw:	-11.335	Thrust:	0.000
Time:	4.394	Roll Set Point:	-0.048	Pitch Set Point:	-0.019	Yaw Set Point:	0.068	X_WP:	0.000	Y_WP:	0.000	Y_WP:	0.000	X:	0.024	Y:	0.009	Z:	0.057	yaw:	-3.890	yaw rate:	0.304	Roll:	0.943	Pitch:	0.412	Yaw:	-9.683	Thrust:	0.000
Time:	4.411	Roll Set Point:	-0.048	Pitch Set Point:	-0.019	Yaw Set Point:	0.068	X_WP:	0.000	Y_WP:	0.000	Y_WP:	0.000	X:	0.024	Y:	0.009	Z:	0.057	yaw:	-3.883	yaw rate:	-0.704	Roll:	0.929	Pitch:	0.402	Yaw:	-8.947	Thrust:	0.000
Time:	4.432	Roll Set Point:	-0.048	Pitch Set Point:	-0.019	Yaw Set Point:	0.068	X_WP:	0.000	Y_WP:	0.000	Y_WP:	0.000	X:	0.024	Y:	0.009	Z:	0.057	yaw:	-3.891	yaw rate:	0.752	Roll:	0.937	Pitch:	0.408	Yaw:	-9.630	Thrust:	0.000
Time:	4.454	Roll Set Point:	-0.048	Pitch Set Point:	-0.019	Yaw Set Point:	0.065	X_WP:	0.000	Y_WP:	0.000	Y_WP:	0.000	X:	0.024	Y:	0.009	Z:	0.057	yaw:	-3.736	yaw rate:	-15.445	Roll:	0.922	Pitch:	0.327	Yaw:	-7.547	Thrust:	0.000
Time:	4.472	Roll Set Point:	-0.048	Pitch Set Point:	-0.019	Yaw Set Point:	0.065	X_WP:	0.000	Y_WP:	0.000	Y_WP:	0.000	X:	0.024	Y:	0.009	Z:	0.057	yaw:	-3.747	yaw rate:	1.113	Roll:	0.930	Pitch:	0.405	Yaw:	-9.294	Thrust:	0.000
Time:	4.492	Roll Set Point:	-0.048	Pitch Set Point:	-0.019	Yaw Set Point:	0.068	X_WP:	0.000	Y_WP:	0.000	Y_WP:	0.000	X:	0.024	Y:	0.009	Z:	0.057	yaw:	-3.888	yaw rate:	14.052	Roll:	0.975	Pitch:	0.496	Yaw:	-11.221	Thrust:	0.000
Time:	4.513	Roll Set Point:	-0.048	Pitch Set Point:	-0.019	Yaw Set Point:	0.065	X_WP:	0.000	Y_WP:	0.000	Y_WP:	0.000	X:	0.024	Y:	0.009	Z:	0.057	yaw:	-3.748	yaw rate:	-14.034	Roll:	0.915	Pitch:	0.327	Yaw:	-7.590	Thrust:	0.000
Time:	4.534	Roll Set Point:	-0.048	Pitch Set Point:	-0.019	Yaw Set Point:	0.066	X_WP:	0.000	Y_WP:	0.000	Y_WP:	0.000	X:	0.024	Y:	0.009	Z:	0.057	yaw:	-3.806	yaw rate:	5.792	Roll:	0.954	Pitch:	0.481	Yaw:	-10.330	Thrust:	0.000
Time:	4.552	Roll Set Point:	-0.048	Pitch Set Point:	-0.019	Yaw Set Point:	0.068	X_WP:	0.000	Y_WP:	0.000	Y_WP:	0.000	X:	0.024	Y:	0.009	Z:	0.057	yaw:	-3.885	yaw rate:	7.989	Roll:	0.971	Pitch:	0.411	Yaw:	-10.074	Thrust:	0.000
Time:	4.572	Roll Set Point:	-0.048	Pitch Set Point:	-0.019	Yaw Set Point:	0.065	X_WP:	0.000	Y_WP:	0.000	Y_WP:	0.000	X:	0.024	Y:	0.009	Z:	0.057	yaw:	-3.737	yaw rate:	-14.862	Roll:	0.900	Pitch:	0.308	Yaw:	-7.437	Thrust:	0.000
Time:	4.593	Roll Set Point:	-0.048	Pitch Set Point:	-0.019	Yaw Set Point:	0.068	X_WP:	0.000	Y_WP:	0.000	Y_WP:	0.000	X:	0.024	Y:	0.009	Z:	0.057	yaw:	-3.886	yaw rate:	14.881	Roll:	1.017	Pitch:	0.520	Yaw:	-11.434	Thrust:	0.000
Time:	4.612	Roll Set Point:	-0.048	Pitch Set Point:	-0.019	Yaw Set Point:	0.068	X_WP:	0.000	Y_WP:	0.000	Y_WP:	0.000	X:	0.024	Y:	0.009	Z:	0.057	yaw:	-3.884	yaw rate:	-0.139	Roll:	0.937	Pitch:	0.397	Yaw:	-9.341	Thrust:	0.000
Time:	4.632	Roll Set Point:	-0.048	Pitch Set Point:	-0.019	Yaw Set Point:	0.069	X_WP:	0.000	Y_WP:	0.000	Y_WP:	0.000	X:	0.024	Y:	0.009	Z:	0.057	yaw:	-3.949	yaw rate:	6.459	Roll:	0.937	Pitch:	0.495	Yaw:	-10.299	Thrust:	0.000
Time:	4.655	Roll Set Point:	-0.048	Pitch Set Point:	-0.019	Yaw Set Point:	0.065	X_WP:	0.000	Y_WP:	0.000	Y_WP:	0.000	X:	0.024	Y:	0.009	Z:	0.057	yaw:	-3.743	yaw rate:	-20.576	Roll:	0.945	Pitch:	0.265	Yaw:	-7.045	Thrust:	0.000
Time:	4.672	Roll Set Point:	-0.048	Pitch Set Point:	-0.019	Yaw Set Point:	0.065	X_WP:	0.000	Y_WP:	0.000	Y_WP:	0.000	X:	0.024	Y:	0.009	Z:	0.057	yaw:	-3.743	yaw rate:	-20.576	Roll:	0.920	Pitch:	0.403	Yaw:	-8.954	Thrust:	0.000
Time:	4.692	Roll Set Point:	-0.048	Pitch Set Point:	-0.019	Yaw Set Point:	0.068	X_WP:	0.000	Y_WP:	0.000	Y_WP:	0.000	X:	0.024	Y:	0.009	Z:	0.057	yaw:	-3.883	yaw rate:	-0.779	Roll:	1.022	Pitch:	0.500	Yaw:	-11.271	Thrust:	0.000
Time:	4.713	Roll Set Point:	-0.048	Pitch Set Point:	-0.019	Yaw Set Point:	0.065	X_WP:	0.000	Y_WP:	0.000	Y_WP:	0.000	X:	0.024	Y:	0.009	Z:	0.057	yaw:	-3.739	yaw rate:	-14.385	Roll:	0.909	Pitch:	0.333	Yaw:	-7.326	Thrust:	0.000
Time:	4.734	Roll Set Point:	-0.048	Pitch Set Point:	-0.019	Yaw Set Point:	0.066	X_WP:	0.000	Y_WP:	0.000	Y_WP:	0.000	X:	0.024	Y:	0.009	Z:	0.057	yaw:	-3.807	yaw rate:	6.724	Roll:	0.957	Pitch:	0.495	Yaw:	-10.434	Thrust:	0.000
Time:	4.753	Roll Set Point:	-0.048	Pitch Set Point:	-0.019	Yaw Set Point:	0.068	X_WP:	0.000	Y_WP:	0.000	Y_WP:	0.000	X:	0.024	Y:	0.009	Z:	0.057	yaw:	-3.886	yaw rate:	7.936	Roll:	1.015	Pitch:	0.419	Yaw:	-10.247	Thrust:	0.000
Time:	4.775	Roll Set Point:	-0.047	Pitch Set Point:	-0.019	Yaw Set Point:	0.066	X_WP:	0.000	Y_WP:	0.000	Y_WP:	0.000	X:	0.024	Y:	0.009	Z:	0.057	yaw:	-3.801	yaw rate:	-8.496	Roll:	0.870	Pitch:	0.404	Yaw:	-8.876	Thrust:	0.000
Time:	4.795	Roll Set Point:	-0.048	Pitch Set Point:	-0.019	Yaw Set Point:	0.066	X_WP:	0.000	Y_WP:	0.000	Y_WP:	0.000	X:	0.024	Y:	0.009	Z:	0.057	yaw:	-3.808	yaw rate:	0.707	Roll:	1.002	Pitch:	0.431	Yaw:	-9.322	Thrust:	0.000
Time:	4.812	Roll Set Point:	-0.048	Pitch Set Point:	-0.019	Yaw Set Point:	0.068	X_WP:	0.000	Y_WP:	0.000	Y_WP:	0.000	X:	0.024	Y:	0.009	Z:	0.057	yaw:	-3.887	yaw rate:	7.943	Roll:	1.006	Pitch:	0.411	Yaw:	-10.149	Thrust:	0.000
Time:	4.832	Roll Set Point:	-0.048	Pitch Set Point:	-0.019	Yaw Set Point:	0.065	X_WP:	0.000	Y_WP:	0.000	Y_WP:	0.000	X:	0.024	Y:	0.009	Z:	0.057	yaw:	-3.743	yaw rate:	-14.481	Roll:	0.909	Pitch:	0.324	Yaw:	-7.327	Thrust:	0.000
Time:	4.853	Roll Set Point:	-0.048	Pitch Set Point:	-0.019	Yaw Set Point:	0.065	X_WP:	0.000	Y_WP:	0.000	Y_WP:	0.000	X:	0.024	Y:	0.009	Z:	0.057	yaw:	-3.743	yaw rate:	0.059	Roll:	0.964	Pitch:	0.418	Yaw:	-9.161	Thrust:	0.000
Time:	4.872	Roll Set Point:	-0.048	Pitch Set Point:	-0.019	Yaw Set Point:	0.068	X_WP:	0.000	Y_WP:	0.000	Y_WP:	0.000	X:	0.024	Y:	0.009	Z:	0.057	yaw:	-3.902	yaw rate:	15.881	Roll:	1.015	Pitch:	0.514	Yaw:	-11.545	Thrust:	0.000
Time:	4.892	Roll Set Point:	-0.048	Pitch Set Point:	-0.019	Yaw Set Point:	0.068	X_WP:	0.000	Y_WP:	0.000	Y_WP:	0.000	X:	0.024	Y:	0.009	Z:	0.057	yaw:	-3.902	yaw rate:	15.881	Roll:	0.977	Pitch:	0.427	Yaw:	-9.465	Thrust:	0.000
Time:	4.912	Roll Set Point:	-0.048	Pitch Set Point:	-0.019	Yaw Set Point:	0.065	X_WP:	0.000	Y_WP:	0.000	Y_WP:	0.000	X:	0.024	Y:	0.009	Z:	0.057	yaw:	-3.745	yaw rate:	-14.327	Roll:	0.929	Pitch:	0.323	Yaw:	-7.233	Thrust:	0.000
Time:	4.934	Roll Set Point:	-0.048	Pitch Set Point:	-0.019	Yaw Set Point:	0.068	X_WP:	0.000	Y_WP:	0.000	Y_WP:	0.000	X:	0.024	Y:	0.009	Z:	0.057	yaw:	-3.888	yaw rate:	14.326	Roll:	1.016	Pitch:	0.517	Yaw:	-11.422	Thrust:	0.000
Time:	4.952	Roll Set Point:	-0.048	Pitch Set Point:	-0.019	Yaw Set Point:	0.065	X_WP:	0.000	Y_WP:	0.000	Y_WP:	0.000	X:	0.024	Y:	0.009	Z:	0.057	yaw:	-3.743	yaw rate:	-14.492	Roll:	0.922	Pitch:	0.318	Yaw:	-7.080	Thrust:	0.000
Time:	4.972	Roll Set Point:	-0.048	Pitch Set Point:	-0.019	Yaw Set Point:	0.065	X_WP:	0.000	Y_WP:	0.000	Y_WP:	0.000	X:	0.024	Y:	0.009	Z:	0.057	yaw:	-3.742	yaw rate:	-0.113	Roll:	0.963	Pitch:	0.417	Yaw:	-9.085	Thrust:	0.000
Time:	4.992	Roll Set Point:	-0.048	Pitch Set Point:	-0.019	Yaw Set Point:	0.068	X_WP:	0.000	Y_WP:	0.000	Y_WP:	0.000	X:	0.024	Y:	0.009	Z:	0.057	yaw:	-3.886	yaw rate:	14.422	Roll:	1.018	Pitch:	0.503	Yaw:	-11.349	Thrust:	0.000
Time:	5.012	Roll Set Point:	1.699	Pitch Set Point:	0.095	Yaw Set Point:	0.065	X_WP:	1.750	Y_WP:	0.000	Y_WP:	0.000	X:	0.024	Y:	0.009	Z:	0.057	yaw:	-3.739	yaw rate:	-14.773	Roll:	-30.000	Pitch:	-30.000	Yaw:	-7.090	Thrust:	0.000
Time:	5.032	Roll Set Point:	1.698	Pitch Set Point:	0.100	Yaw Set Point:	0.068	X_WP:	1.750	Y_WP:	0.000	Y_WP:	0.000	X:	0.024	Y:	0.009	Z:	0.057	yaw:	-3.891	yaw rate:	15.284	Roll:	-30.000	Pitch:	-6.869	Yaw:	-11.503	Thrust:	0.000
Time:	5.059	Roll Set Point:	1.699	Pitch Set Point:	0.095	Yaw Set Point:	0.065	X_WP:	1.750	Y_WP:	0.000	Y_WP:	0.000	X:	0.024	Y:	0.009	Z:	0.057	yaw:	-3.739	yaw rate:	-15.249	Roll:	-30.000	Pitch:	0.737	Yaw:	-8.418	Thrust:	0.000
