Time:	0.044	Roll Set Point:	-0.183	Pitch Set Point:	0.120	Yaw Set Point:	-1.457	X_WP:	0.000	Y_WP:	0.000	Y_WP:	1.000	X:	0.145	Y:	0.022	Z:	0.062	yaw:	83.478	yaw rate:	1.638	Roll:	1.100	Pitch:	-4.108	Yaw:	116.557	Thrust:	51.602
Time:	0.065	Roll Set Point:	-0.183	Pitch Set Point:	0.120	Yaw Set Point:	-1.457	X_WP:	0.000	Y_WP:	0.000	Y_WP:	1.000	X:	0.145	Y:	0.022	Z:	0.062	yaw:	83.489	yaw rate:	-1.135	Roll:	1.078	Pitch:	-4.115	Yaw:	117.341	Thrust:	54.042
Time:	0.083	Roll Set Point:	-0.183	Pitch Set Point:	0.120	Yaw Set Point:	-1.457	X_WP:	0.000	Y_WP:	0.000	Y_WP:	1.000	X:	0.145	Y:	0.022	Z:	0.062	yaw:	83.476	yaw rate:	1.316	Roll:	1.152	Pitch:	-4.108	Yaw:	117.379	Thrust:	55.684
Time:	0.103	Roll Set Point:	-0.183	Pitch Set Point:	0.120	Yaw Set Point:	-1.457	X_WP:	0.000	Y_WP:	0.000	Y_WP:	1.000	X:	0.145	Y:	0.022	Z:	0.062	yaw:	83.481	yaw rate:	-0.508	Roll:	1.077	Pitch:	-4.135	Yaw:	118.382	Thrust:	58.380
Time:	0.128	Roll Set Point:	-0.183	Pitch Set Point:	0.120	Yaw Set Point:	-1.457	X_WP:	0.000	Y_WP:	0.000	Y_WP:	1.000	X:	0.145	Y:	0.022	Z:	0.062	yaw:	83.477	yaw rate:	0.393	Roll:	1.127	Pitch:	-4.134	Yaw:	118.886	Thrust:	61.802
Time:	0.144	Roll Set Point:	-0.183	Pitch Set Point:	0.120	Yaw Set Point:	-1.457	X_WP:	0.000	Y_WP:	0.000	Y_WP:	1.000	X:	0.145	Y:	0.022	Z:	0.062	yaw:	83.474	yaw rate:	0.377	Roll:	1.118	Pitch:	-4.132	Yaw:	118.198	Thrust:	61.552
Time:	0.165	Roll Set Point:	-0.183	Pitch Set Point:	0.120	Yaw Set Point:	-1.457	X_WP:	0.000	Y_WP:	0.000	Y_WP:	1.000	X:	0.145	Y:	0.022	Z:	0.062	yaw:	83.475	yaw rate:	-0.103	Roll:	1.105	Pitch:	-4.154	Yaw:	118.693	Thrust:	64.893
Time:	0.183	Roll Set Point:	-0.183	Pitch Set Point:	0.120	Yaw Set Point:	-1.457	X_WP:	0.000	Y_WP:	0.000	Y_WP:	1.000	X:	0.145	Y:	0.022	Z:	0.062	yaw:	83.490	yaw rate:	-1.481	Roll:	1.085	Pitch:	-4.171	Yaw:	118.598	Thrust:	67.473
Time:	0.209	Roll Set Point:	-0.183	Pitch Set Point:	0.120	Yaw Set Point:	-1.457	X_WP:	0.000	Y_WP:	0.000	Y_WP:	1.000	X:	0.145	Y:	0.022	Z:	0.062	yaw:	83.475	yaw rate:	1.448	Roll:	1.140	Pitch:	-4.172	Yaw:	118.984	Thrust:	74.829
Time:	0.222	Roll Set Point:	-0.183	Pitch Set Point:	0.120	Yaw Set Point:	-1.457	X_WP:	0.000	Y_WP:	0.000	Y_WP:	1.000	X:	0.145	Y:	0.022	Z:	0.062	yaw:	83.480	yaw rate:	-0.513	Roll:	1.099	Pitch:	-4.146	Yaw:	118.023	Thrust:	65.388
Time:	0.243	Roll Set Point:	-0.183	Pitch Set Point:	0.120	Yaw Set Point:	-1.457	X_WP:	0.000	Y_WP:	0.000	Y_WP:	1.000	X:	0.145	Y:	0.022	Z:	0.062	yaw:	83.481	yaw rate:	-0.031	Roll:	1.128	Pitch:	-4.191	Yaw:	118.625	Thrust:	74.269
Time:	0.268	Roll Set Point:	-0.183	Pitch Set Point:	0.120	Yaw Set Point:	-1.457	X_WP:	0.000	Y_WP:	0.000	Y_WP:	1.000	X:	0.145	Y:	0.022	Z:	0.062	yaw:	83.485	yaw rate:	-0.408	Roll:	1.110	Pitch:	-4.205	Yaw:	119.049	Thrust:	81.802
Time:	0.283	Roll Set Point:	-0.183	Pitch Set Point:	0.120	Yaw Set Point:	-1.457	X_WP:	0.000	Y_WP:	0.000	Y_WP:	1.000	X:	0.145	Y:	0.022	Z:	0.062	yaw:	83.473	yaw rate:	1.157	Roll:	1.162	Pitch:	-4.142	Yaw:	117.865	Thrust:	72.719
Time:	0.303	Roll Set Point:	-0.183	Pitch Set Point:	0.120	Yaw Set Point:	-1.457	X_WP:	0.000	Y_WP:	0.000	Y_WP:	1.000	X:	0.145	Y:	0.022	Z:	0.062	yaw:	83.482	yaw rate:	-0.933	Roll:	1.103	Pitch:	-4.220	Yaw:	118.692	Thrust:	80.975
Time:	0.323	Roll Set Point:	-0.183	Pitch Set Point:	0.120	Yaw Set Point:	-1.457	X_WP:	0.000	Y_WP:	0.000	Y_WP:	1.000	X:	0.145	Y:	0.022	Z:	0.062	yaw:	83.484	yaw rate:	-0.181	Roll:	1.111	Pitch:	-4.211	Yaw:	118.606	Thrust:	83.432
Time:	0.344	Roll Set Point:	-0.183	Pitch Set Point:	0.120	Yaw Set Point:	-1.457	X_WP:	0.000	Y_WP:	0.000	Y_WP:	1.000	X:	0.145	Y:	0.022	Z:	0.062	yaw:	83.483	yaw rate:	0.099	Roll:	1.139	Pitch:	-4.215	Yaw:	118.659	Thrust:	87.169
Time:	0.363	Roll Set Point:	-0.183	Pitch Set Point:	0.120	Yaw Set Point:	-1.457	X_WP:	0.000	Y_WP:	0.000	Y_WP:	1.000	X:	0.145	Y:	0.022	Z:	0.062	yaw:	83.479	yaw rate:	0.442	Roll:	1.141	Pitch:	-4.205	Yaw:	118.369	Thrust:	85.292
Time:	0.382	Roll Set Point:	-0.183	Pitch Set Point:	0.120	Yaw Set Point:	-1.457	X_WP:	0.000	Y_WP:	0.000	Y_WP:	1.000	X:	0.145	Y:	0.022	Z:	0.062	yaw:	83.476	yaw rate:	0.245	Roll:	1.135	Pitch:	-4.230	Yaw:	118.498	Thrust:	89.427
Time:	0.407	Roll Set Point:	-0.183	Pitch Set Point:	0.120	Yaw Set Point:	-1.457	X_WP:	0.000	Y_WP:	0.000	Y_WP:	1.000	X:	0.145	Y:	0.022	Z:	0.062	yaw:	83.485	yaw rate:	-0.882	Roll:	1.121	Pitch:	-4.261	Yaw:	119.022	Thrust:	99.408
Time:	0.425	Roll Set Point:	-0.183	Pitch Set Point:	0.120	Yaw Set Point:	-1.457	X_WP:	0.000	Y_WP:	0.000	Y_WP:	1.000	X:	0.145	Y:	0.022	Z:	0.062	yaw:	83.480	yaw rate:	0.540	Roll:	1.148	Pitch:	-4.222	Yaw:	118.343	Thrust:	91.350
Time:	0.443	Roll Set Point:	-0.183	Pitch Set Point:	0.120	Yaw Set Point:	-1.457	X_WP:	0.000	Y_WP:	0.000	Y_WP:	1.000	X:	0.145	Y:	0.022	Z:	0.062	yaw:	83.477	yaw rate:	0.274	Roll:	1.140	Pitch:	-4.242	Yaw:	118.384	Thrust:	93.598
Time:	0.475	Roll Set Point:	-0.183	Pitch Set Point:	0.120	Yaw Set Point:	-1.457	X_WP:	0.000	Y_WP:	0.000	Y_WP:	1.000	X:	0.145	Y:	0.022	Z:	0.062	yaw:	83.484	yaw rate:	-0.740	Roll:	1.155	Pitch:	-4.338	Yaw:	119.775	Thrust:	100.000
Time:	0.486	Roll Set Point:	-0.183	Pitch Set Point:	0.120	Yaw Set Point:	-1.457	X_WP:	0.000	Y_WP:	0.000	Y_WP:	1.000	X:	0.145	Y:	0.022	Z:	0.062	yaw:	83.477	yaw rate:	0.781	Roll:	1.153	Pitch:	-4.207	Yaw:	117.469	Thrust:	81.179
Time:	0.503	Roll Set Point:	-0.183	Pitch Set Point:	0.120	Yaw Set Point:	-1.457	X_WP:	0.000	Y_WP:	0.000	Y_WP:	1.000	X:	0.145	Y:	0.022	Z:	0.062	yaw:	83.482	yaw rate:	-0.506	Roll:	1.109	Pitch:	-4.240	Yaw:	118.335	Thrust:	95.496
Time:	0.528	Roll Set Point:	-0.183	Pitch Set Point:	0.120	Yaw Set Point:	-1.457	X_WP:	0.000	Y_WP:	0.000	Y_WP:	1.000	X:	0.145	Y:	0.022	Z:	0.062	yaw:	83.481	yaw rate:	0.103	Roll:	1.162	Pitch:	-4.313	Yaw:	119.068	Thrust:	100.000
Time:	0.544	Roll Set Point:	-0.183	Pitch Set Point:	0.120	Yaw Set Point:	-1.457	X_WP:	0.000	Y_WP:	0.000	Y_WP:	1.000	X:	0.145	Y:	0.022	Z:	0.062	yaw:	83.486	yaw rate:	-0.526	Roll:	1.129	Pitch:	-4.265	Yaw:	118.258	Thrust:	99.456
Time:	0.566	Roll Set Point:	-0.183	Pitch Set Point:	0.120	Yaw Set Point:	-1.457	X_WP:	0.000	Y_WP:	0.000	Y_WP:	1.000	X:	0.145	Y:	0.022	Z:	0.062	yaw:	83.484	yaw rate:	0.233	Roll:	1.164	Pitch:	-4.313	Yaw:	118.657	Thrust:	100.000
Time:	0.583	Roll Set Point:	-0.183	Pitch Set Point:	0.120	Yaw Set Point:	-1.457	X_WP:	0.000	Y_WP:	0.000	Y_WP:	1.000	X:	0.145	Y:	0.022	Z:	0.062	yaw:	83.474	yaw rate:	0.956	Roll:	1.156	Pitch:	-4.261	Yaw:	118.170	Thrust:	100.000
Time:	0.610	Roll Set Point:	-0.183	Pitch Set Point:	0.120	Yaw Set Point:	-1.457	X_WP:	0.000	Y_WP:	0.000	Y_WP:	1.000	X:	0.145	Y:	0.022	Z:	0.062	yaw:	83.481	yaw rate:	-0.666	Roll:	1.160	Pitch:	-4.371	Yaw:	119.306	Thrust:	100.000
Time:	0.623	Roll Set Point:	-0.183	Pitch Set Point:	0.120	Yaw Set Point:	-1.457	X_WP:	0.000	Y_WP:	0.000	Y_WP:	1.000	X:	0.145	Y:	0.022	Z:	0.062	yaw:	83.483	yaw rate:	-0.271	Roll:	1.137	Pitch:	-4.257	Yaw:	117.876	Thrust:	94.082
Time:	0.644	Roll Set Point:	-0.183	Pitch Set Point:	0.120	Yaw Set Point:	-1.457	X_WP:	0.000	Y_WP:	0.000	Y_WP:	1.000	X:	0.145	Y:	0.022	Z:	0.062	yaw:	83.481	yaw rate:	0.263	Roll:	1.159	Pitch:	-4.317	Yaw:	118.613	Thrust:	100.000
Time:	0.671	Roll Set Point:	-0.183	Pitch Set Point:	0.120	Yaw Set Point:	-1.457	X_WP:	0.000	Y_WP:	0.000	Y_WP:	1.000	X:	0.145	Y:	0.022	Z:	0.062	yaw:	83.481	yaw rate:	0.005	Roll:	1.176	Pitch:	-4.402	Yaw:	119.236	Thrust:	100.000
Time:	0.683	Roll Set Point:	-0.183	Pitch Set Point:	0.120	Yaw Set Point:	-1.457	X_WP:	0.000	Y_WP:	0.000	Y_WP:	1.000	X:	0.145	Y:	0.022	Z:	0.062	yaw:	83.487	yaw rate:	-0.677	Roll:	1.132	Pitch:	-4.255	Yaw:	117.965	Thrust:	96.657
Time:	0.703	Roll Set Point:	-0.183	Pitch Set Point:	0.120	Yaw Set Point:	-1.457	X_WP:	0.000	Y_WP:	0.000	Y_WP:	1.000	X:	0.145	Y:	0.022	Z:	0.062	yaw:	83.482	yaw rate:	0.568	Roll:	1.171	Pitch:	-4.343	Yaw:	118.511	Thrust:	100.000
Time:	0.726	Roll Set Point:	-0.183	Pitch Set Point:	0.120	Yaw Set Point:	-1.457	X_WP:	0.000	Y_WP:	0.000	Y_WP:	1.000	X:	0.145	Y:	0.022	Z:	0.062	yaw:	83.479	yaw rate:	0.237	Roll:	1.167	Pitch:	-4.357	Yaw:	118.744	Thrust:	100.000
Time:	0.746	Roll Set Point:	-0.183	Pitch Set Point:	0.120	Yaw Set Point:	-1.457	X_WP:	0.000	Y_WP:	0.000	Y_WP:	1.000	X:	0.145	Y:	0.022	Z:	0.062	yaw:	83.483	yaw rate:	-0.368	Roll:	1.165	Pitch:	-4.381	Yaw:	118.592	Thrust:	100.000
Time:	0.763	Roll Set Point:	-0.183	Pitch Set Point:	0.120	Yaw Set Point:	-1.457	X_WP:	0.000	Y_WP:	0.000	Y_WP:	1.000	X:	0.145	Y:	0.022	Z:	0.062	yaw:	83.483	yaw rate:	-0.007	Roll:	1.169	Pitch:	-4.328	Yaw:	118.350	Thrust:	100.000
Time:	0.783	Roll Set Point:	-0.183	Pitch Set Point:	0.120	Yaw Set Point:	-1.457	X_WP:	0.000	Y_WP:	0.000	Y_WP:	1.000	X:	0.145	Y:	0.022	Z:	0.062	yaw:	83.485	yaw rate:	-0.183	Roll:	1.168	Pitch:	-4.353	Yaw:	118.602	Thrust:	100.000
Time:	0.806	Roll Set Point:	-0.183	Pitch Set Point:	0.120	Yaw Set Point:	-1.457	X_WP:	0.000	Y_WP:	0.000	Y_WP:	1.000	X:	0.145	Y:	0.022	Z:	0.062	yaw:	83.479	yaw rate:	0.545	Roll:	1.181	Pitch:	-4.409	Yaw:	118.747	Thrust:	100.000
Time:	0.824	Roll Set Point:	-0.183	Pitch Set Point:	0.120	Yaw Set Point:	-1.457	X_WP:	0.000	Y_WP:	0.000	Y_WP:	1.000	X:	0.145	Y:	0.022	Z:	0.062	yaw:	83.485	yaw rate:	-0.576	Roll:	1.162	Pitch:	-4.376	Yaw:	118.457	Thrust:	100.000
Time:	0.843	Roll Set Point:	-0.183	Pitch Set Point:	0.120	Yaw Set Point:	-1.457	X_WP:	0.000	Y_WP:	0.000	Y_WP:	1.000	X:	0.145	Y:	0.022	Z:	0.062	yaw:	83.481	yaw rate:	0.389	Roll:	1.187	Pitch:	-4.378	Yaw:	118.466	Thrust:	100.000
Time:	0.869	Roll Set Point:	-0.183	Pitch Set Point:	0.120	Yaw Set Point:	-1.457	X_WP:	0.000	Y_WP:	0.000	Y_WP:	1.000	X:	0.145	Y:	0.022	Z:	0.062	yaw:	83.481	yaw rate:	0.084	Roll:	1.191	Pitch:	-4.473	Yaw:	119.160	Thrust:	100.000
Time:	0.883	Roll Set Point:	-0.183	Pitch Set Point:	0.120	Yaw Set Point:	-1.457	X_WP:	0.000	Y_WP:	0.000	Y_WP:	1.000	X:	0.145	Y:	0.022	Z:	0.062	yaw:	83.488	yaw rate:	-0.773	Roll:	1.142	Pitch:	-4.315	Yaw:	118.076	Thrust:	100.000
Time:	0.903	Roll Set Point:	-0.183	Pitch Set Point:	0.120	Yaw Set Point:	-1.457	X_WP:	0.000	Y_WP:	0.000	Y_WP:	1.000	X:	0.145	Y:	0.022	Z:	0.062	yaw:	83.482	yaw rate:	0.612	Roll:	1.189	Pitch:	-4.421	Yaw:	118.458	Thrust:	100.000
Time:	0.923	Roll Set Point:	-0.183	Pitch Set Point:	0.120	Yaw Set Point:	-1.457	X_WP:	0.000	Y_WP:	0.000	Y_WP:	1.000	X:	0.145	Y:	0.022	Z:	0.062	yaw:	83.479	yaw rate:	0.338	Roll:	1.204	Pitch:	-4.399	Yaw:	118.537	Thrust:	100.000
Time:	0.944	Roll Set Point:	-0.183	Pitch Set Point:	0.120	Yaw Set Point:	-1.457	X_WP:	0.000	Y_WP:	0.000	Y_WP:	1.000	X:	0.145	Y:	0.022	Z:	0.062	yaw:	83.481	yaw rate:	-0.259	Roll:	1.179	Pitch:	-4.455	Yaw:	118.664	Thrust:	100.000
Time:	0.964	Roll Set Point:	-0.183	Pitch Set Point:	0.120	Yaw Set Point:	-1.457	X_WP:	0.000	Y_WP:	0.000	Y_WP:	1.000	X:	0.145	Y:	0.022	Z:	0.062	yaw:	83.479	yaw rate:	0.232	Roll:	1.193	Pitch:	-4.425	Yaw:	118.508	Thrust:	100.000
Time:	0.983	Roll Set Point:	-0.183	Pitch Set Point:	0.120	Yaw Set Point:	-1.457	X_WP:	0.000	Y_WP:	0.000	Y_WP:	1.000	X:	0.145	Y:	0.022	Z:	0.062	yaw:	83.487	yaw rate:	-0.818	Roll:	1.172	Pitch:	-4.442	Yaw:	118.620	Thrust:	100.000
Time:	1.007	Roll Set Point:	-0.183	Pitch Set Point:	0.120	Yaw Set Point:	-1.457	X_WP:	0.000	Y_WP:	0.000	Y_WP:	1.000	X:	0.145	Y:	0.022	Z:	0.062	yaw:	83.476	yaw rate:	1.106	Roll:	1.218	Pitch:	-4.499	Yaw:	118.811	Thrust:	100.000
Time:	1.023	Roll Set Point:	-0.183	Pitch Set Point:	0.120	Yaw Set Point:	-1.457	X_WP:	0.000	Y_WP:	0.000	Y_WP:	1.000	X:	0.145	Y:	0.022	Z:	0.062	yaw:	83.477	yaw rate:	-0.044	Roll:	1.177	Pitch:	-4.394	Yaw:	118.211	Thrust:	100.000
Time:	1.044	Roll Set Point:	-0.183	Pitch Set Point:	0.120	Yaw Set Point:	-1.457	X_WP:	0.000	Y_WP:	0.000	Y_WP:	1.000	X:	0.145	Y:	0.022	Z:	0.062	yaw:	83.486	yaw rate:	-0.978	Roll:	1.183	Pitch:	-4.480	Yaw:	118.790	Thrust:	100.000
Time:	1.070	Roll Set Point:	-0.183	Pitch Set Point:	0.120	Yaw Set Point:	-1.457	X_WP:	0.000	Y_WP:	0.000	Y_WP:	1.000	X:	0.145	Y:	0.022	Z:	0.062	yaw:	83.488	yaw rate:	-0.140	Roll:	1.224	Pitch:	-4.575	Yaw:	119.172	Thrust:	100.000
Time:	1.083	Roll Set Point:	-0.183	Pitch Set Point:	0.120	Yaw Set Point:	-1.457	X_WP:	0.000	Y_WP:	0.000	Y_WP:	1.000	X:	0.145	Y:	0.022	Z:	0.062	yaw:	83.485	yaw rate:	0.304	Roll:	1.166	Pitch:	-4.350	Yaw:	117.811	Thrust:	100.000
Time:	1.104	Roll Set Point:	-0.183	Pitch Set Point:	0.120	Yaw Set Point:	-1.457	X_WP:	0.000	Y_WP:	0.000	Y_WP:	1.000	X:	0.145	Y:	0.022	Z:	0.062	yaw:	83.487	yaw rate:	-0.201	Roll:	1.203	Pitch:	-4.497	Yaw:	118.608	Thrust:	100.000
Time:	1.126	Roll Set Point:	-0.183	Pitch Set Point:	0.120	Yaw Set Point:	-1.457	X_WP:	0.000	Y_WP:	0.000	Y_WP:	1.000	X:	0.145	Y:	0.022	Z:	0.062	yaw:	83.488	yaw rate:	-0.118	Roll:	1.213	Pitch:	-4.533	Yaw:	118.845	Thrust:	100.000
Time:	1.144	Roll Set Point:	-0.183	Pitch Set Point:	0.120	Yaw Set Point:	-1.457	X_WP:	0.000	Y_WP:	0.000	Y_WP:	1.000	X:	0.145	Y:	0.022	Z:	0.062	yaw:	83.482	yaw rate:	0.542	Roll:	1.204	Pitch:	-4.456	Yaw:	118.205	Thrust:	100.000
Time:	1.164	Roll Set Point:	-0.183	Pitch Set Point:	0.120	Yaw Set Point:	-1.457	X_WP:	0.000	Y_WP:	0.000	Y_WP:	1.000	X:	0.145	Y:	0.022	Z:	0.062	yaw:	83.492	yaw rate:	-0.967	Roll:	1.190	Pitch:	-4.512	Yaw:	118.798	Thrust:	100.000
Time:	1.189	Roll Set Point:	-0.183	Pitch Set Point:	0.120	Yaw Set Point:	-1.457	X_WP:	0.000	Y_WP:	0.000	Y_WP:	1.000	X:	0.145	Y:	0.022	Z:	0.062	yaw:	83.482	yaw rate:	0.985	Roll:	1.251	Pitch:	-4.602	Yaw:	119.000	Thrust:	100.000
Time:	1.209	Roll Set Point:	-0.183	Pitch Set Point:	0.120	Yaw Set Point:	-1.457	X_WP:	0.000	Y_WP:	0.000	Y_WP:	1.000	X:	0.145	Y:	0.022	Z:	0.062	yaw:	83.486	yaw rate:	-0.404	Roll:	1.203	Pitch:	-4.544	Yaw:	118.576	Thrust:	100.000
Time:	1.223	Roll Set Point:	-0.183	Pitch Set Point:	0.120	Yaw Set Point:	-1.457	X_WP:	0.000	Y_WP:	0.000	Y_WP:	1.000	X:	0.145	Y:	0.022	Z:	0.062	yaw:	83.485	yaw rate:	0.122	Roll:	1.188	Pitch:	-4.381	Yaw:	117.920	Thrust:	100.000
Time:	1.243	Roll Set Point:	-0.183	Pitch Set Point:	0.120	Yaw Set Point:	-1.457	X_WP:	0.000	Y_WP:	0.000	Y_WP:	1.000	X:	0.145	Y:	0.022	Z:	0.062	yaw:	83.491	yaw rate:	-0.604	Roll:	1.197	Pitch:	-4.546	Yaw:	118.700	Thrust:	100.000
Time:	1.269	Roll Set Point:	-0.183	Pitch Set Point:	0.120	Yaw Set Point:	-1.457	X_WP:	0.000	Y_WP:	0.000	Y_WP:	1.000	X:	0.145	Y:	0.022	Z:	0.062	yaw:	83.487	yaw rate:	0.412	Roll:	1.253	Pitch:	-4.633	Yaw:	119.089	Thrust:	100.000
Time:	1.282	Roll Set Point:	-0.183	Pitch Set Point:	0.120	Yaw Set Point:	-1.457	X_WP:	0.000	Y_WP:	0.000	Y_WP:	1.000	X:	0.145	Y:	0.022	Z:	0.062	yaw:	83.488	yaw rate:	-0.044	Roll:	1.174	Pitch:	-4.421	Yaw:	117.933	Thrust:	100.000
Time:	1.303	Roll Set Point:	-0.183	Pitch Set Point:	0.120	Yaw Set Point:	-1.457	X_WP:	0.000	Y_WP:	0.000	Y_WP:	1.000	X:	0.145	Y:	0.022	Z:	0.062	yaw:	83.486	yaw rate:	0.158	Roll:	1.230	Pitch:	-4.573	Yaw:	118.635	Thrust:	100.000
Time:	1.325	Roll Set Point:	-0.183	Pitch Set Point:	0.120	Yaw Set Point:	-1.457	X_WP:	0.000	Y_WP:	0.000	Y_WP:	1.000	X:	0.145	Y:	0.022	Z:	0.062	yaw:	83.481	yaw rate:	0.469	Roll:	1.234	Pitch:	-4.605	Yaw:	118.672	Thrust:	100.000
Time:	1.344	Roll Set Point:	-0.183	Pitch Set Point:	0.120	Yaw Set Point:	-1.457	X_WP:	0.000	Y_WP:	0.000	Y_WP:	1.000	X:	0.145	Y:	0.022	Z:	0.062	yaw:	83.488	yaw rate:	-0.653	Roll:	1.207	Pitch:	-4.528	Yaw:	118.533	Thrust:	100.000
Time:	1.364	Roll Set Point:	-0.183	Pitch Set Point:	0.120	Yaw Set Point:	-1.457	X_WP:	0.000	Y_WP:	0.000	Y_WP:	1.000	X:	0.145	Y:	0.022	Z:	0.062	yaw:	83.476	yaw rate:	1.142	Roll:	1.252	Pitch:	-4.568	Yaw:	118.424	Thrust:	100.000
Time:	1.383	Roll Set Point:	-0.183	Pitch Set Point:	0.120	Yaw Set Point:	-1.457	X_WP:	0.000	Y_WP:	0.000	Y_WP:	1.000	X:	0.145	Y:	0.022	Z:	0.062	yaw:	83.487	yaw rate:	-1.016	Roll:	1.203	Pitch:	-4.592	Yaw:	118.629	Thrust:	100.000
Time:	1.410	Roll Set Point:	-0.183	Pitch Set Point:	0.120	Yaw Set Point:	-1.457	X_WP:	0.000	Y_WP:	0.000	Y_WP:	1.000	X:	0.145	Y:	0.022	Z:	0.062	yaw:	83.489	yaw rate:	-0.253	Roll:	1.258	Pitch:	-4.740	Yaw:	119.262	Thrust:	100.000
Time:	1.425	Roll Set Point:	-0.183	Pitch Set Point:	0.120	Yaw Set Point:	-1.457	X_WP:	0.000	Y_WP:	0.000	Y_WP:	1.000	X:	0.145	Y:	0.022	Z:	0.062	yaw:	83.482	yaw rate:	0.681	Roll:	1.230	Pitch:	-4.456	Yaw:	118.012	Thrust:	100.000
Time:	1.444	Roll Set Point:	-0.183	Pitch Set Point:	0.120	Yaw Set Point:	-1.457	X_WP:	0.000	Y_WP:	0.000	Y_WP:	1.000	X:	0.145	Y:	0.022	Z:	0.062	yaw:	83.485	yaw rate:	-0.299	Roll:	1.215	Pitch:	-4.579	Yaw:	118.440	Thrust:	100.000
Time:	1.470	Roll Set Point:	-0.183	Pitch Set Point:	0.120	Yaw Set Point:	-1.457	X_WP:	0.000	Y_WP:	0.000	Y_WP:	1.000	X:	0.145	Y:	0.022	Z:	0.062	yaw:	83.491	yaw rate:	-0.547	Roll:	1.242	Pitch:	-4.740	Yaw:	119.268	Thrust:	100.000
Time:	1.483	Roll Set Point:	-0.183	Pitch Set Point:	0.120	Yaw Set Point:	-1.457	X_WP:	0.000	Y_WP:	0.000	Y_WP:	1.000	X:	0.145	Y:	0.022	Z:	0.062	yaw:	83.480	yaw rate:	1.022	Roll:	1.249	Pitch:	-4.448	Yaw:	117.660	Thrust:	100.000
Time:	1.503	Roll Set Point:	-0.183	Pitch Set Point:	0.120	Yaw Set Point:	-1.457	X_WP:	0.000	Y_WP:	0.000	Y_WP:	1.000	X:	0.145	Y:	0.022	Z:	0.062	yaw:	83.484	yaw rate:	-0.337	Roll:	1.227	Pitch:	-4.635	Yaw:	118.620	Thrust:	100.000
Time:	1.523	Roll Set Point:	-0.183	Pitch Set Point:	0.120	Yaw Set Point:	-1.457	X_WP:	0.000	Y_WP:	0.000	Y_WP:	1.000	X:	0.145	Y:	0.022	Z:	0.062	yaw:	83.487	yaw rate:	-0.317	Roll:	1.226	Pitch:	-4.597	Yaw:	118.575	Thrust:	100.000
Time:	1.544	Roll Set Point:	-0.183	Pitch Set Point:	0.120	Yaw Set Point:	-1.457	X_WP:	0.000	Y_WP:	0.000	Y_WP:	1.000	X:	0.145	Y:	0.022	Z:	0.062	yaw:	83.484	yaw rate:	0.293	Roll:	1.261	Pitch:	-4.695	Yaw:	118.670	Thrust:	100.000
Time:	1.564	Roll Set Point:	-0.183	Pitch Set Point:	0.120	Yaw Set Point:	-1.457	X_WP:	0.000	Y_WP:	0.000	Y_WP:	1.000	X:	0.145	Y:	0.022	Z:	0.062	yaw:	83.480	yaw rate:	0.394	Roll:	1.260	Pitch:	-4.646	Yaw:	118.519	Thrust:	100.000
Time:	1.583	Roll Set Point:	-0.183	Pitch Set Point:	0.120	Yaw Set Point:	-1.457	X_WP:	0.000	Y_WP:	0.000	Y_WP:	1.000	X:	0.145	Y:	0.022	Z:	0.062	yaw:	83.491	yaw rate:	-1.045	Roll:	1.216	Pitch:	-4.646	Yaw:	118.633	Thrust:	100.000
Time:	1.610	Roll Set Point:	-0.183	Pitch Set Point:	0.120	Yaw Set Point:	-1.457	X_WP:	0.000	Y_WP:	0.000	Y_WP:	1.000	X:	0.145	Y:	0.022	Z:	0.062	yaw:	83.477	yaw rate:	1.400	Roll:	1.298	Pitch:	-4.781	Yaw:	119.045	Thrust:	100.000
Time:	1.624	Roll Set Point:	-0.183	Pitch Set Point:	0.120	Yaw Set Point:	-1.457	X_WP:	0.000	Y_WP:	0.000	Y_WP:	1.000	X:	0.145	Y:	0.022	Z:	0.062	yaw:	83.483	yaw rate:	-0.687	Roll:	1.216	Pitch:	-4.567	Yaw:	118.168	Thrust:	100.000
Time:	1.647	Roll Set Point:	-0.183	Pitch Set Point:	0.120	Yaw Set Point:	-1.457	X_WP:	0.000	Y_WP:	0.000	Y_WP:	1.000	X:	0.145	Y:	0.022	Z:	0.062	yaw:	83.489	yaw rate:	-0.548	Roll:	1.255	Pitch:	-4.765	Yaw:	118.926	Thrust:	100.000
Time:	1.670	Roll Set Point:	-0.183	Pitch Set Point:	0.120	Yaw Set Point:	-1.457	X_WP:	0.000	Y_WP:	0.000	Y_WP:	1.000	X:	0.145	Y:	0.022	Z:	0.062	yaw:	83.483	yaw rate:	0.597	Roll:	1.268	Pitch:	-4.672	Yaw:	118.757	Thrust:	100.000
Time:	1.685	Roll Set Point:	-0.183	Pitch Set Point:	0.120	Yaw Set Point:	-1.457	X_WP:	0.000	Y_WP:	0.000	Y_WP:	1.000	X:	0.145	Y:	0.022	Z:	0.062	yaw:	83.489	yaw rate:	-0.624	Roll:	1.216	Pitch:	-4.614	Yaw:	118.186	Thrust:	100.000
Time:	1.703	Roll Set Point:	-0.183	Pitch Set Point:	0.120	Yaw Set Point:	-1.457	X_WP:	0.000	Y_WP:	0.000	Y_WP:	1.000	X:	0.145	Y:	0.022	Z:	0.062	yaw:	83.483	yaw rate:	0.573	Roll:	1.268	Pitch:	-4.632	Yaw:	118.292	Thrust:	100.000
Time:	1.727	Roll Set Point:	-0.183	Pitch Set Point:	0.120	Yaw Set Point:	-1.457	X_WP:	0.000	Y_WP:	0.000	Y_WP:	1.000	X:	0.145	Y:	0.022	Z:	0.062	yaw:	83.482	yaw rate:	0.166	Roll:	1.277	Pitch:	-4.806	Yaw:	118.866	Thrust:	100.000
Time:	1.743	Roll Set Point:	-0.183	Pitch Set Point:	0.120	Yaw Set Point:	-1.457	X_WP:	0.000	Y_WP:	0.000	Y_WP:	1.000	X:	0.145	Y:	0.022	Z:	0.062	yaw:	83.481	yaw rate:	0.060	Roll:	1.247	Pitch:	-4.627	Yaw:	118.257	Thrust:	100.000
Time:	1.763	Roll Set Point:	-0.183	Pitch Set Point:	0.120	Yaw Set Point:	-1.457	X_WP:	0.000	Y_WP:	0.000	Y_WP:	1.000	X:	0.145	Y:	0.022	Z:	0.062	yaw:	83.484	yaw rate:	-0.295	Roll:	1.260	Pitch:	-4.715	Yaw:	118.601	Thrust:	100.000
Time:	1.783	Roll Set Point:	-0.183	Pitch Set Point:	0.120	Yaw Set Point:	-1.457	X_WP:	0.000	Y_WP:	0.000	Y_WP:	1.000	X:	0.145	Y:	0.022	Z:	0.062	yaw:	83.484	yaw rate:	0.010	Roll:	1.250	Pitch:	-4.718	Yaw:	118.507	Thrust:	100.000
Time:	1.808	Roll Set Point:	-0.183	Pitch Set Point:	0.120	Yaw Set Point:	-1.457	X_WP:	0.000	Y_WP:	0.000	Y_WP:	1.000	X:	0.145	Y:	0.022	Z:	0.062	yaw:	83.484	yaw rate:	-0.013	Roll:	1.309	Pitch:	-4.880	Yaw:	119.120	Thrust:	100.000
Time:	1.823	Roll Set Point:	-0.183	Pitch Set Point:	0.120	Yaw Set Point:	-1.457	X_WP:	0.000	Y_WP:	0.000	Y_WP:	1.000	X:	0.145	Y:	0.022	Z:	0.062	yaw:	83.479	yaw rate:	0.508	Roll:	1.244	Pitch:	-4.569	Yaw:	117.981	Thrust:	100.000
Time:	1.844	Roll Set Point:	-0.183	Pitch Set Point:	0.120	Yaw Set Point:	-1.457	X_WP:	0.000	Y_WP:	0.000	Y_WP:	1.000	X:	0.145	Y:	0.022	Z:	0.062	yaw:	83.486	yaw rate:	-0.715	Roll:	1.261	Pitch:	-4.790	Yaw:	118.720	Thrust:	100.000
Time:	1.871	Roll Set Point:	-0.183	Pitch Set Point:	0.120	Yaw Set Point:	-1.457	X_WP:	0.000	Y_WP:	0.000	Y_WP:	1.000	X:	0.145	Y:	0.022	Z:	0.062	yaw:	83.488	yaw rate:	-0.204	Roll:	1.312	Pitch:	-4.938	Yaw:	119.283	Thrust:	100.000
Time:	1.883	Roll Set Point:	-0.183	Pitch Set Point:	0.120	Yaw Set Point:	-1.457	X_WP:	0.000	Y_WP:	0.000	Y_WP:	1.000	X:	0.145	Y:	0.022	Z:	0.062	yaw:	83.482	yaw rate:	0.596	Roll:	1.240	Pitch:	-4.524	Yaw:	117.643	Thrust:	100.000
Time:	1.903	Roll Set Point:	-0.183	Pitch Set Point:	0.120	Yaw Set Point:	-1.457	X_WP:	0.000	Y_WP:	0.000	Y_WP:	1.000	X:	0.145	Y:	0.022	Z:	0.062	yaw:	83.483	yaw rate:	-0.038	Roll:	1.281	Pitch:	-4.772	Yaw:	118.532	Thrust:	100.000
Time:	1.927	Roll Set Point:	-0.183	Pitch Set Point:	0.120	Yaw Set Point:	-1.457	X_WP:	0.000	Y_WP:	0.000	Y_WP:	1.000	X:	0.145	Y:	0.022	Z:	0.062	yaw:	83.488	yaw rate:	-0.574	Roll:	1.266	Pitch:	-4.852	Yaw:	119.009	Thrust:	100.000
Time:	1.943	Roll Set Point:	-0.183	Pitch Set Point:	0.120	Yaw Set Point:	-1.457	X_WP:	0.000	Y_WP:	0.000	Y_WP:	1.000	X:	0.145	Y:	0.022	Z:	0.062	yaw:	83.484	yaw rate:	0.414	Roll:	1.295	Pitch:	-4.701	Yaw:	118.155	Thrust:	100.000
Time:	1.964	Roll Set Point:	-0.183	Pitch Set Point:	0.120	Yaw Set Point:	-1.457	X_WP:	0.000	Y_WP:	0.000	Y_WP:	1.000	X:	0.145	Y:	0.022	Z:	0.062	yaw:	83.483	yaw rate:	0.181	Roll:	1.291	Pitch:	-4.806	Yaw:	118.629	Thrust:	100.000
Time:	1.983	Roll Set Point:	-0.183	Pitch Set Point:	0.120	Yaw Set Point:	-1.457	X_WP:	0.000	Y_WP:	0.000	Y_WP:	1.000	X:	0.145	Y:	0.022	Z:	0.062	yaw:	83.486	yaw rate:	-0.318	Roll:	1.267	Pitch:	-4.790	Yaw:	118.551	Thrust:	100.000
Time:	2.009	Roll Set Point:	-0.183	Pitch Set Point:	0.120	Yaw Set Point:	-1.457	X_WP:	0.000	Y_WP:	0.000	Y_WP:	1.000	X:	0.145	Y:	0.022	Z:	0.062	yaw:	83.483	yaw rate:	0.302	Roll:	1.331	Pitch:	-4.950	Yaw:	119.093	Thrust:	100.000
Time:	2.025	Roll Set Point:	-0.183	Pitch Set Point:	0.120	Yaw Set Point:	-1.457	X_WP:	0.000	Y_WP:	0.000	Y_WP:	1.000	X:	0.145	Y:	0.022	Z:	0.062	yaw:	83.491	yaw rate:	-0.846	Roll:	1.239	Pitch:	-4.741	Yaw:	118.342	Thrust:	100.000
Time:	2.044	Roll Set Point:	-0.183	Pitch Set Point:	0.120	Yaw Set Point:	-1.457	X_WP:	0.000	Y_WP:	0.000	Y_WP:	1.000	X:	0.145	Y:	0.022	Z:	0.062	yaw:	83.487	yaw rate:	0.397	Roll:	1.291	Pitch:	-4.754	Yaw:	118.408	Thrust:	100.000
Time:	2.070	Roll Set Point:	-0.183	Pitch Set Point:	0.120	Yaw Set Point:	-1.457	X_WP:	0.000	Y_WP:	0.000	Y_WP:	1.000	X:	0.145	Y:	0.022	Z:	0.062	yaw:	83.485	yaw rate:	0.263	Roll:	1.318	Pitch:	-4.927	Yaw:	119.059	Thrust:	100.000
Time:	2.083	Roll Set Point:	-0.183	Pitch Set Point:	0.120	Yaw Set Point:	-1.457	X_WP:	0.000	Y_WP:	0.000	Y_WP:	1.000	X:	0.145	Y:	0.022	Z:	0.062	yaw:	83.486	yaw rate:	-0.158	Roll:	1.254	Pitch:	-4.639	Yaw:	117.953	Thrust:	100.000
Time:	2.104	Roll Set Point:	-0.183	Pitch Set Point:	0.120	Yaw Set Point:	-1.457	X_WP:	0.000	Y_WP:	0.000	Y_WP:	1.000	X:	0.145	Y:	0.022	Z:	0.062	yaw:	83.489	yaw rate:	-0.326	Roll:	1.300	Pitch:	-4.913	Yaw:	118.722	Thrust:	100.000
Time:	2.127	Roll Set Point:	-0.183	Pitch Set Point:	0.120	Yaw Set Point:	-1.457	X_WP:	0.000	Y_WP:	0.000	Y_WP:	1.000	X:	0.145	Y:	0.022	Z:	0.062	yaw:	83.479	yaw rate:	1.010	Roll:	1.327	Pitch:	-4.897	Yaw:	118.698	Thrust:	100.000
Time:	2.143	Roll Set Point:	-0.183	Pitch Set Point:	0.120	Yaw Set Point:	-1.457	X_WP:	0.000	Y_WP:	0.000	Y_WP:	1.000	X:	0.145	Y:	0.022	Z:	0.062	yaw:	83.481	yaw rate:	-0.159	Roll:	1.291	Pitch:	-4.794	Yaw:	118.280	Thrust:	100.000
Time:	2.163	Roll Set Point:	-0.183	Pitch Set Point:	0.120	Yaw Set Point:	-1.457	X_WP:	0.000	Y_WP:	0.000	Y_WP:	1.000	X:	0.145	Y:	0.022	Z:	0.062	yaw:	83.479	yaw rate:	0.171	Roll:	1.298	Pitch:	-4.853	Yaw:	118.534	Thrust:	100.000
Time:	2.184	Roll Set Point:	-0.183	Pitch Set Point:	0.120	Yaw Set Point:	-1.457	X_WP:	0.000	Y_WP:	0.000	Y_WP:	1.000	X:	0.145	Y:	0.022	Z:	0.062	yaw:	83.482	yaw rate:	-0.307	Roll:	1.307	Pitch:	-4.859	Yaw:	118.700	Thrust:	100.000
Time:	2.207	Roll Set Point:	-0.183	Pitch Set Point:	0.120	Yaw Set Point:	-1.457	X_WP:	0.000	Y_WP:	0.000	Y_WP:	1.000	X:	0.145	Y:	0.022	Z:	0.062	yaw:	83.487	yaw rate:	-0.471	Roll:	1.313	Pitch:	-4.974	Yaw:	118.832	Thrust:	100.000
Time:	2.223	Roll Set Point:	-0.183	Pitch Set Point:	0.120	Yaw Set Point:	-1.457	X_WP:	0.000	Y_WP:	0.000	Y_WP:	1.000	X:	0.145	Y:	0.022	Z:	0.062	yaw:	83.485	yaw rate:	0.165	Roll:	1.280	Pitch:	-4.706	Yaw:	118.146	Thrust:	100.000
Time:	2.244	Roll Set Point:	-0.183	Pitch Set Point:	0.120	Yaw Set Point:	-1.457	X_WP:	0.000	Y_WP:	0.000	Y_WP:	1.000	X:	0.145	Y:	0.022	Z:	0.062	yaw:	83.479	yaw rate:	0.616	Roll:	1.330	Pitch:	-4.898	Yaw:	118.595	Thrust:	100.000
Time:	2.271	Roll Set Point:	-0.183	Pitch Set Point:	0.120	Yaw Set Point:	-1.457	X_WP:	0.000	Y_WP:	0.000	Y_WP:	1.000	X:	0.145	Y:	0.022	Z:	0.062	yaw:	83.483	yaw rate:	-0.378	Roll:	1.338	Pitch:	-5.002	Yaw:	119.231	Thrust:	100.000
Time:	2.283	Roll Set Point:	-0.183	Pitch Set Point:	0.120	Yaw Set Point:	-1.457	X_WP:	0.000	Y_WP:	0.000	Y_WP:	1.000	X:	0.145	Y:	0.022	Z:	0.062	yaw:	83.486	yaw rate:	-0.263	Roll:	1.265	Pitch:	-4.672	Yaw:	117.927	Thrust:	100.000
Time:	2.302	Roll Set Point:	-0.183	Pitch Set Point:	0.120	Yaw Set Point:	-1.457	X_WP:	0.000	Y_WP:	0.000	Y_WP:	1.000	X:	0.145	Y:	0.022	Z:	0.062	yaw:	83.486	yaw rate:	-0.069	Roll:	1.302	Pitch:	-4.851	Yaw:	118.543	Thrust:	100.000
Time:	2.327	Roll Set Point:	-0.183	Pitch Set Point:	0.120	Yaw Set Point:	-1.457	X_WP:	0.000	Y_WP:	0.000	Y_WP:	1.000	X:	0.145	Y:	0.022	Z:	0.062	yaw:	83.480	yaw rate:	0.613	Roll:	1.358	Pitch:	-4.981	Yaw:	118.904	Thrust:	100.000
Time:	2.344	Roll Set Point:	-0.183	Pitch Set Point:	0.120	Yaw Set Point:	-1.457	X_WP:	0.000	Y_WP:	0.000	Y_WP:	1.000	X:	0.145	Y:	0.022	Z:	0.062	yaw:	83.484	yaw rate:	-0.387	Roll:	1.295	Pitch:	-4.747	Yaw:	118.317	Thrust:	100.000
Time:	2.364	Roll Set Point:	-0.183	Pitch Set Point:	0.120	Yaw Set Point:	-1.457	X_WP:	0.000	Y_WP:	0.000	Y_WP:	1.000	X:	0.145	Y:	0.022	Z:	0.062	yaw:	83.490	yaw rate:	-0.575	Roll:	1.303	Pitch:	-4.865	Yaw:	118.657	Thrust:	100.000
Time:	2.382	Roll Set Point:	-0.183	Pitch Set Point:	0.120	Yaw Set Point:	-1.457	X_WP:	0.000	Y_WP:	0.000	Y_WP:	1.000	X:	0.145	Y:	0.022	Z:	0.062	yaw:	83.478	yaw rate:	1.171	Roll:	1.340	Pitch:	-4.827	Yaw:	118.270	Thrust:	100.000
Time:	2.407	Roll Set Point:	-0.183	Pitch Set Point:	0.120	Yaw Set Point:	-1.457	X_WP:	0.000	Y_WP:	0.000	Y_WP:	1.000	X:	0.145	Y:	0.022	Z:	0.062	yaw:	83.481	yaw rate:	-0.306	Roll:	1.371	Pitch:	-5.036	Yaw:	119.086	Thrust:	100.000
Time:	2.424	Roll Set Point:	-0.183	Pitch Set Point:	0.120	Yaw Set Point:	-1.457	X_WP:	0.000	Y_WP:	0.000	Y_WP:	1.000	X:	0.145	Y:	0.022	Z:	0.062	yaw:	83.490	yaw rate:	-0.942	Roll:	1.255	Pitch:	-4.760	Yaw:	118.378	Thrust:	100.000
Time:	2.443	Roll Set Point:	-0.183	Pitch Set Point:	0.120	Yaw Set Point:	-1.457	X_WP:	0.000	Y_WP:	0.000	Y_WP:	1.000	X:	0.145	Y:	0.022	Z:	0.062	yaw:	83.486	yaw rate:	0.417	Roll:	1.337	Pitch:	-4.793	Yaw:	118.464	Thrust:	100.000
Time:	2.471	Roll Set Point:	-0.183	Pitch Set Point:	0.120	Yaw Set Point:	-1.457	X_WP:	0.000	Y_WP:	0.000	Y_WP:	1.000	X:	0.145	Y:	0.022	Z:	0.062	yaw:	83.491	yaw rate:	-0.421	Roll:	1.384	Pitch:	-5.114	Yaw:	119.375	Thrust:	100.000
Time:	2.484	Roll Set Point:	-0.183	Pitch Set Point:	0.120	Yaw Set Point:	-1.457	X_WP:	0.000	Y_WP:	0.000	Y_WP:	1.000	X:	0.145	Y:	0.022	Z:	0.062	yaw:	83.488	yaw rate:	0.270	Roll:	1.281	Pitch:	-4.617	Yaw:	117.822	Thrust:	100.000
Time:	2.504	Roll Set Point:	-0.183	Pitch Set Point:	0.120	Yaw Set Point:	-1.457	X_WP:	0.000	Y_WP:	0.000	Y_WP:	1.000	X:	0.145	Y:	0.022	Z:	0.062	yaw:	83.485	yaw rate:	0.330	Roll:	1.337	Pitch:	-4.876	Yaw:	118.481	Thrust:	100.000
Time:	2.526	Roll Set Point:	-0.183	Pitch Set Point:	0.120	Yaw Set Point:	-1.457	X_WP:	0.000	Y_WP:	0.000	Y_WP:	1.000	X:	0.145	Y:	0.022	Z:	0.062	yaw:	83.480	yaw rate:	0.448	Roll:	1.367	Pitch:	-4.933	Yaw:	118.776	Thrust:	100.000
Time:	2.544	Roll Set Point:	-0.183	Pitch Set Point:	0.120	Yaw Set Point:	-1.457	X_WP:	0.000	Y_WP:	0.000	Y_WP:	1.000	X:	0.145	Y:	0.022	Z:	0.062	yaw:	83.480	yaw rate:	-0.015	Roll:	1.332	Pitch:	-4.800	Yaw:	118.342	Thrust:	100.000
Time:	2.563	Roll Set Point:	-0.183	Pitch Set Point:	0.120	Yaw Set Point:	-1.457	X_WP:	0.000	Y_WP:	0.000	Y_WP:	1.000	X:	0.145	Y:	0.022	Z:	0.062	yaw:	83.487	yaw rate:	-0.688	Roll:	1.302	Pitch:	-4.824	Yaw:	118.579	Thrust:	100.000
Time:	2.584	Roll Set Point:	-0.183	Pitch Set Point:	0.120	Yaw Set Point:	-1.457	X_WP:	0.000	Y_WP:	0.000	Y_WP:	1.000	X:	0.145	Y:	0.022	Z:	0.062	yaw:	83.483	yaw rate:	0.372	Roll:	1.362	Pitch:	-4.857	Yaw:	118.517	Thrust:	100.000
Time:	2.606	Roll Set Point:	-0.183	Pitch Set Point:	0.120	Yaw Set Point:	-1.457	X_WP:	0.000	Y_WP:	0.000	Y_WP:	1.000	X:	0.145	Y:	0.022	Z:	0.062	yaw:	83.478	yaw rate:	0.567	Roll:	1.362	Pitch:	-4.961	Yaw:	118.800	Thrust:	100.000
Time:	2.623	Roll Set Point:	-0.183	Pitch Set Point:	0.120	Yaw Set Point:	-1.457	X_WP:	0.000	Y_WP:	0.000	Y_WP:	1.000	X:	0.145	Y:	0.022	Z:	0.062	yaw:	83.487	yaw rate:	-0.958	Roll:	1.304	Pitch:	-4.750	Yaw:	118.424	Thrust:	100.000
Time:	2.644	Roll Set Point:	-0.183	Pitch Set Point:	0.120	Yaw Set Point:	-1.457	X_WP:	0.000	Y_WP:	0.000	Y_WP:	1.000	X:	0.145	Y:	0.022	Z:	0.062	yaw:	83.482	yaw rate:	0.537	Roll:	1.367	Pitch:	-4.864	Yaw:	118.501	Thrust:	100.000
Time:	2.671	Roll Set Point:	-0.183	Pitch Set Point:	0.120	Yaw Set Point:	-1.457	X_WP:	0.000	Y_WP:	0.000	Y_WP:	1.000	X:	0.145	Y:	0.022	Z:	0.062	yaw:	83.493	yaw rate:	-1.084	Roll:	1.366	Pitch:	-5.010	Yaw:	119.270	Thrust:	100.000
Time:	2.684	Roll Set Point:	-0.183	Pitch Set Point:	0.120	Yaw Set Point:	-1.457	X_WP:	0.000	Y_WP:	0.000	Y_WP:	1.000	X:	0.145	Y:	0.022	Z:	0.062	yaw:	83.479	yaw rate:	1.345	Roll:	1.339	Pitch:	-4.720	Yaw:	117.770	Thrust:	100.000
Time:	2.703	Roll Set Point:	-0.183	Pitch Set Point:	0.120	Yaw Set Point:	-1.457	X_WP:	0.000	Y_WP:	0.000	Y_WP:	1.000	X:	0.145	Y:	0.022	Z:	0.062	yaw:	83.485	yaw rate:	-0.593	Roll:	1.331	Pitch:	-4.808	Yaw:	118.561	Thrust:	100.000
Time:	2.726	Roll Set Point:	-0.183	Pitch Set Point:	0.120	Yaw Set Point:	-1.457	X_WP:	0.000	Y_WP:	0.000	Y_WP:	1.000	X:	0.145	Y:	0.022	Z:	0.062	yaw:	83.478	yaw rate:	0.694	Roll:	1.373	Pitch:	-4.914	Yaw:	118.745	Thrust:	100.000
Time:	2.746	Roll Set Point:	-0.183	Pitch Set Point:	0.120	Yaw Set Point:	-1.457	X_WP:	0.000	Y_WP:	0.000	Y_WP:	1.000	X:	0.145	Y:	0.022	Z:	0.062	yaw:	83.484	yaw rate:	-0.622	Roll:	1.382	Pitch:	-4.925	Yaw:	118.664	Thrust:	100.000
Time:	2.764	Roll Set Point:	-0.183	Pitch Set Point:	0.120	Yaw Set Point:	-1.457	X_WP:	0.000	Y_WP:	0.000	Y_WP:	1.000	X:	0.145	Y:	0.022	Z:	0.062	yaw:	83.484	yaw rate:	0.084	Roll:	1.337	Pitch:	-4.752	Yaw:	118.328	Thrust:	100.000
Time:	2.784	Roll Set Point:	-0.183	Pitch Set Point:	0.120	Yaw Set Point:	-1.457	X_WP:	0.000	Y_WP:	0.000	Y_WP:	1.000	X:	0.145	Y:	0.022	Z:	0.062	yaw:	83.484	yaw rate:	0.002	Roll:	1.359	Pitch:	-4.876	Yaw:	118.572	Thrust:	100.000
Time:	2.806	Roll Set Point:	-0.183	Pitch Set Point:	0.120	Yaw Set Point:	-1.457	X_WP:	0.000	Y_WP:	0.000	Y_WP:	1.000	X:	0.145	Y:	0.022	Z:	0.062	yaw:	83.480	yaw rate:	0.404	Roll:	1.380	Pitch:	-4.895	Yaw:	118.727	Thrust:	100.000
Time:	2.823	Roll Set Point:	-0.183	Pitch Set Point:	0.120	Yaw Set Point:	-1.457	X_WP:	0.000	Y_WP:	0.000	Y_WP:	1.000	X:	0.145	Y:	0.022	Z:	0.062	yaw:	83.479	yaw rate:	0.089	Roll:	1.337	Pitch:	-4.774	Yaw:	118.302	Thrust:	100.000
Time:	2.844	Roll Set Point:	-0.183	Pitch Set Point:	0.120	Yaw Set Point:	-1.457	X_WP:	0.000	Y_WP:	0.000	Y_WP:	1.000	X:	0.145	Y:	0.022	Z:	0.062	yaw:	83.481	yaw rate:	-0.243	Roll:	1.380	Pitch:	-4.879	Yaw:	118.616	Thrust:	100.000
Time:	2.869	Roll Set Point:	-0.183	Pitch Set Point:	0.120	Yaw Set Point:	-1.457	X_WP:	0.000	Y_WP:	0.000	Y_WP:	1.000	X:	0.145	Y:	0.022	Z:	0.062	yaw:	83.484	yaw rate:	-0.239	Roll:	1.398	Pitch:	-5.029	Yaw:	119.148	Thrust:	100.000
Time:	2.884	Roll Set Point:	-0.183	Pitch Set Point:	0.120	Yaw Set Point:	-1.457	X_WP:	0.000	Y_WP:	0.000	Y_WP:	1.000	X:	0.145	Y:	0.022	Z:	0.062	yaw:	83.486	yaw rate:	-0.204	Roll:	1.332	Pitch:	-4.707	Yaw:	118.061	Thrust:	100.000
Time:	2.904	Roll Set Point:	-0.183	Pitch Set Point:	0.120	Yaw Set Point:	-1.457	X_WP:	0.000	Y_WP:	0.000	Y_WP:	1.000	X:	0.145	Y:	0.022	Z:	0.062	yaw:	83.479	yaw rate:	0.697	Roll:	1.384	Pitch:	-4.849	Yaw:	118.492	Thrust:	100.000
Time:	2.925	Roll Set Point:	-0.183	Pitch Set Point:	0.120	Yaw Set Point:	-1.457	X_WP:	0.000	Y_WP:	0.000	Y_WP:	1.000	X:	0.145	Y:	0.022	Z:	0.062	yaw:	83.469	yaw rate:	0.942	Roll:	1.392	Pitch:	-4.878	Yaw:	118.482	Thrust:	100.000
Time:	2.944	Roll Set Point:	-0.183	Pitch Set Point:	0.120	Yaw Set Point:	-1.457	X_WP:	0.000	Y_WP:	0.000	Y_WP:	1.000	X:	0.145	Y:	0.022	Z:	0.062	yaw:	83.476	yaw rate:	-0.686	Roll:	1.362	Pitch:	-4.819	Yaw:	118.505	Thrust:	100.000
Time:	2.963	Roll Set Point:	-0.183	Pitch Set Point:	0.120	Yaw Set Point:	-1.457	X_WP:	0.000	Y_WP:	0.000	Y_WP:	1.000	X:	0.145	Y:	0.022	Z:	0.062	yaw:	83.486	yaw rate:	-0.973	Roll:	1.361	Pitch:	-4.861	Yaw:	118.713	Thrust:	100.000
Time:	2.983	Roll Set Point:	-0.183	Pitch Set Point:	0.120	Yaw Set Point:	-1.457	X_WP:	0.000	Y_WP:	0.000	Y_WP:	1.000	X:	0.145	Y:	0.022	Z:	0.062	yaw:	83.480	yaw rate:	0.586	Roll:	1.390	Pitch:	-4.869	Yaw:	118.498	Thrust:	100.000
Time:	3.006	Roll Set Point:	-0.183	Pitch Set Point:	0.120	Yaw Set Point:	-1.457	X_WP:	0.000	Y_WP:	0.000	Y_WP:	1.000	X:	0.145	Y:	0.022	Z:	0.062	yaw:	83.489	yaw rate:	-0.960	Roll:	1.372	Pitch:	-4.924	Yaw:	118.943	Thrust:	100.000
Time:	3.022	Roll Set Point:	-0.183	Pitch Set Point:	0.120	Yaw Set Point:	-1.457	X_WP:	0.000	Y_WP:	0.000	Y_WP:	1.000	X:	0.145	Y:	0.022	Z:	0.062	yaw:	83.483	yaw rate:	0.663	Roll:	1.366	Pitch:	-4.735	Yaw:	118.061	Thrust:	100.000
Time:	3.043	Roll Set Point:	-0.183	Pitch Set Point:	0.120	Yaw Set Point:	-1.457	X_WP:	0.000	Y_WP:	0.000	Y_WP:	1.000	X:	0.145	Y:	0.022	Z:	0.062	yaw:	83.482	yaw rate:	0.095	Roll:	1.401	Pitch:	-4.882	Yaw:	118.629	Thrust:	100.000
Time:	3.077	Roll Set Point:	-0.183	Pitch Set Point:	0.120	Yaw Set Point:	-1.457	X_WP:	0.000	Y_WP:	0.000	Y_WP:	1.000	X:	0.145	Y:	0.022	Z:	0.062	yaw:	83.471	yaw rate:	1.053	Roll:	1.579	Pitch:	-5.346	Yaw:	119.756	Thrust:	100.000
Time:	3.087	Roll Set Point:	-0.183	Pitch Set Point:	0.120	Yaw Set Point:	-1.457	X_WP:	0.000	Y_WP:	0.000	Y_WP:	1.000	X:	0.145	Y:	0.022	Z:	0.062	yaw:	83.483	yaw rate:	-1.118	Roll:	1.235	Pitch:	-4.516	Yaw:	117.931	Thrust:	100.000
Time:	3.104	Roll Set Point:	-0.183	Pitch Set Point:	0.120	Yaw Set Point:	-1.457	X_WP:	0.000	Y_WP:	0.000	Y_WP:	1.000	X:	0.145	Y:	0.022	Z:	0.062	yaw:	83.477	yaw rate:	0.544	Roll:	1.360	Pitch:	-4.744	Yaw:	118.175	Thrust:	100.000
Time:	3.126	Roll Set Point:	-0.183	Pitch Set Point:	0.120	Yaw Set Point:	-1.457	X_WP:	0.000	Y_WP:	0.000	Y_WP:	1.000	X:	0.145	Y:	0.022	Z:	0.062	yaw:	83.483	yaw rate:	-0.562	Roll:	1.389	Pitch:	-4.909	Yaw:	118.901	Thrust:	100.000
Time:	3.144	Roll Set Point:	-0.183	Pitch Set Point:	0.120	Yaw Set Point:	-1.457	X_WP:	0.000	Y_WP:	0.000	Y_WP:	1.000	X:	0.145	Y:	0.022	Z:	0.062	yaw:	83.473	yaw rate:	0.955	Roll:	1.399	Pitch:	-4.772	Yaw:	118.110	Thrust:	100.000
Time:	3.164	Roll Set Point:	-0.183	Pitch Set Point:	0.120	Yaw Set Point:	-1.457	X_WP:	0.000	Y_WP:	0.000	Y_WP:	1.000	X:	0.145	Y:	0.022	Z:	0.062	yaw:	83.484	yaw rate:	-1.074	Roll:	1.369	Pitch:	-4.865	Yaw:	118.708	Thrust:	100.000
Time:	3.183	Roll Set Point:	-0.183	Pitch Set Point:	0.120	Yaw Set Point:	-1.457	X_WP:	0.000	Y_WP:	0.000	Y_WP:	1.000	X:	0.145	Y:	0.022	Z:	0.062	yaw:	83.477	yaw rate:	0.662	Roll:	1.423	Pitch:	-4.869	Yaw:	118.437	Thrust:	100.000
Time:	3.207	Roll Set Point:	-0.183	Pitch Set Point:	0.120	Yaw Set Point:	-1.457	X_WP:	0.000	Y_WP:	0.000	Y_WP:	1.000	X:	0.145	Y:	0.022	Z:	0.062	yaw:	83.485	yaw rate:	-0.799	Roll:	1.425	Pitch:	-4.972	Yaw:	119.064	Thrust:	100.000
Time:	3.223	Roll Set Point:	-0.183	Pitch Set Point:	0.120	Yaw Set Point:	-1.456	X_WP:	0.000	Y_WP:	0.000	Y_WP:	1.000	X:	0.145	Y:	0.022	Z:	0.062	yaw:	83.450	yaw rate:	3.508	Roll:	1.449	Pitch:	-4.717	Yaw:	117.558	Thrust:	100.000
Time:	3.244	Roll Set Point:	-0.183	Pitch Set Point:	0.120	Yaw Set Point:	-1.459	X_WP:	0.000	Y_WP:	0.000	Y_WP:	1.000	X:	0.145	Y:	0.022	Z:	0.062	yaw:	83.583	yaw rate:	-13.326	Roll:	1.035	Pitch:	-5.103	Yaw:	120.445	Thrust:	100.000
Time:	3.268	Roll Set Point:	-0.183	Pitch Set Point:	0.120	Yaw Set Point:	-1.454	X_WP:	0.000	Y_WP:	0.000	Y_WP:	1.000	X:	0.145	Y:	0.022	Z:	0.062	yaw:	83.300	yaw rate:	28.318	Roll:	2.110	Pitch:	-4.580	Yaw:	115.554	Thrust:	100.000
Time:	3.283	Roll Set Point:	-0.183	Pitch Set Point:	0.120	Yaw Set Point:	-1.454	X_WP:	0.000	Y_WP:	0.000	Y_WP:	1.000	X:	0.145	Y:	0.022	Z:	0.062	yaw:	83.312	yaw rate:	-1.207	Roll:	1.364	Pitch:	-4.772	Yaw:	118.164	Thrust:	100.000
Time:	3.304	Roll Set Point:	-0.183	Pitch Set Point:	0.120	Yaw Set Point:	-1.453	X_WP:	0.000	Y_WP:	0.000	Y_WP:	1.000	X:	0.145	Y:	0.022	Z:	0.062	yaw:	83.249	yaw rate:	6.350	Roll:	1.520	Pitch:	-4.854	Yaw:	117.483	Thrust:	100.000
Time:	3.327	Roll Set Point:	-0.184	Pitch Set Point:	0.120	Yaw Set Point:	-1.451	X_WP:	0.000	Y_WP:	0.000	Y_WP:	1.000	X:	0.145	Y:	0.022	Z:	0.062	yaw:	83.141	yaw rate:	10.750	Roll:	1.696	Pitch:	-4.909	Yaw:	117.183	Thrust:	100.000
Time:	3.342	Roll Set Point:	-0.185	Pitch Set Point:	0.119	Yaw Set Point:	-1.444	X_WP:	0.000	Y_WP:	0.000	Y_WP:	1.000	X:	0.145	Y:	0.022	Z:	0.062	yaw:	82.741	yaw rate:	39.986	Roll:	2.370	Pitch:	-4.387	Yaw:	110.344	Thrust:	100.000
Time:	3.363	Roll Set Point:	-0.186	Pitch Set Point:	0.119	Yaw Set Point:	-1.433	X_WP:	0.000	Y_WP:	0.000	Y_WP:	1.000	X:	0.145	Y:	0.022	Z:	0.063	yaw:	82.109	yaw rate:	63.257	Roll:	2.799	Pitch:	-4.383	Yaw:	108.489	Thrust:	100.000
Time:	3.383	Roll Set Point:	-0.188	Pitch Set Point:	0.118	Yaw Set Point:	-1.418	X_WP:	0.000	Y_WP:	0.000	Y_WP:	1.000	X:	0.145	Y:	0.022	Z:	0.065	yaw:	81.239	yaw rate:	87.031	Roll:	3.218	Pitch:	-4.171	Yaw:	104.510	Thrust:	100.000
Time:	3.406	Roll Set Point:	-0.190	Pitch Set Point:	0.117	Yaw Set Point:	-1.398	X_WP:	0.000	Y_WP:	0.000	Y_WP:	1.000	X:	0.144	Y:	0.021	Z:	0.068	yaw:	80.089	yaw rate:	114.955	Roll:	3.729	Pitch:	-3.889	Yaw:	100.460	Thrust:	100.000
Time:	3.422	Roll Set Point:	-0.193	Pitch Set Point:	0.116	Yaw Set Point:	-1.371	X_WP:	0.000	Y_WP:	0.000	Y_WP:	1.000	X:	0.144	Y:	0.021	Z:	0.073	yaw:	78.562	yaw rate:	152.739	Roll:	4.829	Pitch:	-2.875	Yaw:	87.113	Thrust:	100.000
Time:	3.444	Roll Set Point:	-0.195	Pitch Set Point:	0.115	Yaw Set Point:	-1.343	X_WP:	0.000	Y_WP:	0.000	Y_WP:	1.000	X:	0.143	Y:	0.020	Z:	0.079	yaw:	76.920	yaw rate:	164.185	Roll:	4.271	Pitch:	-3.219	Yaw:	89.741	Thrust:	100.000
Time:	3.470	Roll Set Point:	-0.198	Pitch Set Point:	0.113	Yaw Set Point:	-1.312	X_WP:	0.000	Y_WP:	0.000	Y_WP:	1.000	X:	0.142	Y:	0.019	Z:	0.086	yaw:	75.159	yaw rate:	176.037	Roll:	4.340	Pitch:	-3.193	Yaw:	89.850	Thrust:	100.000
Time:	3.484	Roll Set Point:	-0.200	Pitch Set Point:	0.112	Yaw Set Point:	-1.277	X_WP:	0.000	Y_WP:	0.000	Y_WP:	1.000	X:	0.141	Y:	0.018	Z:	0.095	yaw:	73.155	yaw rate:	200.431	Roll:	4.939	Pitch:	-1.417	Yaw:	63.198	Thrust:	100.000
Time:	3.504	Roll Set Point:	-0.202	Pitch Set Point:	0.110	Yaw Set Point:	-1.236	X_WP:	0.000	Y_WP:	0.000	Y_WP:	1.000	X:	0.140	Y:	0.017	Z:	0.106	yaw:	70.836	yaw rate:	231.879	Roll:	5.078	Pitch:	-1.932	Yaw:	71.608	Thrust:	100.000
Time:	3.526	Roll Set Point:	-0.204	Pitch Set Point:	0.108	Yaw Set Point:	-1.190	X_WP:	0.000	Y_WP:	0.000	Y_WP:	1.000	X:	0.139	Y:	0.015	Z:	0.118	yaw:	68.198	yaw rate:	263.868	Roll:	5.519	Pitch:	-1.280	Yaw:	65.464	Thrust:	100.000
Time:	3.544	Roll Set Point:	-0.206	Pitch Set Point:	0.106	Yaw Set Point:	-1.143	X_WP:	0.000	Y_WP:	0.000	Y_WP:	1.000	X:	0.137	Y:	0.013	Z:	0.132	yaw:	65.493	yaw rate:	270.488	Roll:	5.146	Pitch:	-0.846	Yaw:	55.069	Thrust:	100.000
Time:	3.564	Roll Set Point:	-0.208	Pitch Set Point:	0.104	Yaw Set Point:	-1.093	X_WP:	0.000	Y_WP:	0.000	Y_WP:	1.000	X:	0.136	Y:	0.011	Z:	0.147	yaw:	62.610	yaw rate:	288.314	Roll:	5.266	Pitch:	-0.601	Yaw:	51.309	Thrust:	100.000
Time:	3.582	Roll Set Point:	-0.209	Pitch Set Point:	0.103	Yaw Set Point:	-1.039	X_WP:	0.000	Y_WP:	0.000	Y_WP:	1.000	X:	0.134	Y:	0.008	Z:	0.164	yaw:	59.547	yaw rate:	306.236	Roll:	4.963	Pitch:	-0.251	Yaw:	42.613	Thrust:	100.000
Time:	3.606	Roll Set Point:	-0.210	Pitch Set Point:	0.102	Yaw Set Point:	-0.985	X_WP:	0.000	Y_WP:	0.000	Y_WP:	1.000	X:	0.132	Y:	0.005	Z:	0.182	yaw:	56.422	yaw rate:	312.529	Roll:	4.495	Pitch:	-0.908	Yaw:	44.975	Thrust:	100.000
Time:	3.623	Roll Set Point:	-0.210	Pitch Set Point:	0.102	Yaw Set Point:	-0.929	X_WP:	0.000	Y_WP:	0.000	Y_WP:	1.000	X:	0.131	Y:	0.001	Z:	0.201	yaw:	53.205	yaw rate:	321.666	Roll:	4.634	Pitch:	-0.541	Yaw:	29.255	Thrust:	100.000
Time:	3.643	Roll Set Point:	-0.212	Pitch Set Point:	0.102	Yaw Set Point:	-0.860	X_WP:	0.000	Y_WP:	0.000	Y_WP:	1.000	X:	0.129	Y:	-0.003	Z:	0.222	yaw:	49.279	yaw rate:	392.666	Roll:	5.220	Pitch:	-0.070	Yaw:	19.920	Thrust:	100.000
Time:	3.666	Roll Set Point:	-0.213	Pitch Set Point:	0.104	Yaw Set Point:	-0.800	X_WP:	0.000	Y_WP:	0.000	Y_WP:	1.000	X:	0.129	Y:	-0.007	Z:	0.244	yaw:	45.845	yaw rate:	343.346	Roll:	4.605	Pitch:	-1.480	Yaw:	27.396	Thrust:	100.000
Time:	3.683	Roll Set Point:	-0.215	Pitch Set Point:	0.106	Yaw Set Point:	-0.740	X_WP:	0.000	Y_WP:	0.000	Y_WP:	1.000	X:	0.128	Y:	-0.011	Z:	0.267	yaw:	42.400	yaw rate:	344.500	Roll:	4.976	Pitch:	-1.077	Yaw:	6.339	Thrust:	100.000
Time:	3.705	Roll Set Point:	-0.217	Pitch Set Point:	0.108	Yaw Set Point:	-0.677	X_WP:	0.000	Y_WP:	0.000	Y_WP:	1.000	X:	0.128	Y:	-0.016	Z:	0.292	yaw:	38.814	yaw rate:	358.670	Roll:	5.148	Pitch:	-1.822	Yaw:	12.557	Thrust:	100.000
Time:	3.728	Roll Set Point:	-0.221	Pitch Set Point:	0.112	Yaw Set Point:	-0.623	X_WP:	0.000	Y_WP:	0.000	Y_WP:	1.000	X:	0.128	Y:	-0.020	Z:	0.316	yaw:	35.683	yaw rate:	313.080	Roll:	5.154	Pitch:	-2.712	Yaw:	16.613	Thrust:	100.000
Time:	3.744	Roll Set Point:	-0.226	Pitch Set Point:	0.116	Yaw Set Point:	-0.566	X_WP:	0.000	Y_WP:	0.000	Y_WP:	1.000	X:	0.130	Y:	-0.025	Z:	0.342	yaw:	32.418	yaw rate:	326.514	Roll:	6.613	Pitch:	-2.648	Yaw:	-6.432	Thrust:	100.000
Time:	3.763	Roll Set Point:	-0.233	Pitch Set Point:	0.120	Yaw Set Point:	-0.504	X_WP:	0.000	Y_WP:	0.000	Y_WP:	1.000	X:	0.132	Y:	-0.030	Z:	0.368	yaw:	28.897	yaw rate:	352.070	Roll:	7.599	Pitch:	-2.746	Yaw:	-3.940	Thrust:	100.000
Time:	3.783	Roll Set Point:	-0.241	Pitch Set Point:	0.125	Yaw Set Point:	-0.454	X_WP:	0.000	Y_WP:	0.000	Y_WP:	1.000	X:	0.135	Y:	-0.035	Z:	0.395	yaw:	26.000	yaw rate:	289.689	Roll:	8.007	Pitch:	-3.720	Yaw:	0.546	Thrust:	100.000
Time:	3.806	Roll Set Point:	-0.251	Pitch Set Point:	0.131	Yaw Set Point:	-0.409	X_WP:	0.000	Y_WP:	0.000	Y_WP:	1.000	X:	0.139	Y:	-0.040	Z:	0.423	yaw:	23.445	yaw rate:	255.493	Roll:	8.123	Pitch:	-4.505	Yaw:	4.775	Thrust:	100.000
Time:	3.822	Roll Set Point:	-0.263	Pitch Set Point:	0.138	Yaw Set Point:	-0.361	X_WP:	0.000	Y_WP:	0.000	Y_WP:	1.000	X:	0.144	Y:	-0.045	Z:	0.450	yaw:	20.697	yaw rate:	274.856	Roll:	10.509	Pitch:	-4.581	Yaw:	-12.452	Thrust:	100.000
Time:	3.844	Roll Set Point:	-0.277	Pitch Set Point:	0.146	Yaw Set Point:	-0.322	X_WP:	0.000	Y_WP:	0.000	Y_WP:	1.000	X:	0.150	Y:	-0.050	Z:	0.478	yaw:	18.442	yaw rate:	225.464	Roll:	10.130	Pitch:	-5.361	Yaw:	0.236	Thrust:	100.000
Time:	3.872	Roll Set Point:	-0.292	Pitch Set Point:	0.154	Yaw Set Point:	-0.285	X_WP:	0.000	Y_WP:	0.000	Y_WP:	1.000	X:	0.157	Y:	-0.056	Z:	0.506	yaw:	16.349	yaw rate:	209.303	Roll:	10.178	Pitch:	-5.621	Yaw:	5.338	Thrust:	100.000
Time:	3.884	Roll Set Point:	-0.308	Pitch Set Point:	0.163	Yaw Set Point:	-0.247	X_WP:	0.000	Y_WP:	0.000	Y_WP:	1.000	X:	0.164	Y:	-0.062	Z:	0.535	yaw:	14.179	yaw rate:	217.002	Roll:	14.342	Pitch:	-6.680	Yaw:	-22.346	Thrust:	100.000
Time:	3.904	Roll Set Point:	-0.327	Pitch Set Point:	0.174	Yaw Set Point:	-0.221	X_WP:	0.000	Y_WP:	0.000	Y_WP:	1.000	X:	0.173	Y:	-0.069	Z:	0.563	yaw:	12.641	yaw rate:	153.775	Roll:	13.610	Pitch:	-7.516	Yaw:	-1.006	Thrust:	100.000
Time:	3.924	Roll Set Point:	-0.347	Pitch Set Point:	0.185	Yaw Set Point:	-0.189	X_WP:	0.000	Y_WP:	0.000	Y_WP:	1.000	X:	0.182	Y:	-0.076	Z:	0.591	yaw:	10.801	yaw rate:	184.005	Roll:	14.597	Pitch:	-7.204	Yaw:	-8.258	Thrust:	100.000
Time:	3.944	Roll Set Point:	-0.368	Pitch Set Point:	0.198	Yaw Set Point:	-0.165	X_WP:	0.000	Y_WP:	0.000	Y_WP:	1.000	X:	0.192	Y:	-0.084	Z:	0.620	yaw:	9.470	yaw rate:	133.115	Roll:	14.441	Pitch:	-8.417	Yaw:	-0.770	Thrust:	100.000
Time:	3.964	Roll Set Point:	-0.390	Pitch Set Point:	0.214	Yaw Set Point:	-0.147	X_WP:	0.000	Y_WP:	0.000	Y_WP:	1.000	X:	0.203	Y:	-0.092	Z:	0.648	yaw:	8.398	yaw rate:	107.224	Roll:	15.672	Pitch:	-10.235	Yaw:	-0.372	Thrust:	100.000
Time:	3.984	Roll Set Point:	-0.412	Pitch Set Point:	0.231	Yaw Set Point:	-0.133	X_WP:	0.000	Y_WP:	0.000	Y_WP:	1.000	X:	0.214	Y:	-0.102	Z:	0.677	yaw:	7.615	yaw rate:	78.282	Roll:	16.207	Pitch:	-11.722	Yaw:	2.163	Thrust:	100.000
Time:	4.006	Roll Set Point:	-0.436	Pitch Set Point:	0.251	Yaw Set Point:	-0.121	X_WP:	0.000	Y_WP:	0.000	Y_WP:	1.000	X:	0.225	Y:	-0.112	Z:	0.705	yaw:	6.906	yaw rate:	70.830	Roll:	16.373	Pitch:	-12.320	Yaw:	3.173	Thrust:	100.000
Time:	4.024	Roll Set Point:	-0.458	Pitch Set Point:	0.275	Yaw Set Point:	-0.117	X_WP:	0.000	Y_WP:	0.000	Y_WP:	1.000	X:	0.237	Y:	-0.124	Z:	0.734	yaw:	6.716	yaw rate:	19.019	Roll:	15.967	Pitch:	-16.071	Yaw:	8.563	Thrust:	100.000
Time:	4.044	Roll Set Point:	-0.483	Pitch Set Point:	0.301	Yaw Set Point:	-0.109	X_WP:	0.000	Y_WP:	0.000	Y_WP:	1.000	X:	0.250	Y:	-0.137	Z:	0.762	yaw:	6.227	yaw rate:	48.948	Roll:	17.704	Pitch:	-15.747	Yaw:	4.288	Thrust:	100.000
Time:	4.066	Roll Set Point:	-0.505	Pitch Set Point:	0.332	Yaw Set Point:	-0.110	X_WP:	0.000	Y_WP:	0.000	Y_WP:	1.000	X:	0.262	Y:	-0.152	Z:	0.790	yaw:	6.328	yaw rate:	-10.082	Roll:	15.277	Pitch:	-18.633	Yaw:	12.256	Thrust:	100.000
Time:	4.086	Roll Set Point:	-0.530	Pitch Set Point:	0.362	Yaw Set Point:	-0.098	X_WP:	0.000	Y_WP:	0.000	Y_WP:	1.000	X:	0.274	Y:	-0.168	Z:	0.819	yaw:	5.609	yaw rate:	71.842	Roll:	19.423	Pitch:	-18.300	Yaw:	0.177	Thrust:	100.000
Time:	4.103	Roll Set Point:	-0.552	Pitch Set Point:	0.400	Yaw Set Point:	-0.101	X_WP:	0.000	Y_WP:	0.000	Y_WP:	1.000	X:	0.286	Y:	-0.186	Z:	0.847	yaw:	5.814	yaw rate:	-20.491	Roll:	17.147	Pitch:	-26.224	Yaw:	12.927	Thrust:	100.000
Time:	4.126	Roll Set Point:	-0.575	Pitch Set Point:	0.441	Yaw Set Point:	-0.101	X_WP:	0.000	Y_WP:	0.000	Y_WP:	1.000	X:	0.299	Y:	-0.206	Z:	0.875	yaw:	5.814	yaw rate:	0.061	Roll:	17.107	Pitch:	-24.949	Yaw:	10.326	Thrust:	100.000
Time:	4.144	Roll Set Point:	-0.596	Pitch Set Point:	0.486	Yaw Set Point:	-0.104	X_WP:	0.000	Y_WP:	0.000	Y_WP:	1.000	X:	0.310	Y:	-0.228	Z:	0.903	yaw:	5.932	yaw rate:	-11.862	Roll:	16.518	Pitch:	-28.782	Yaw:	11.808	Thrust:	100.000
Time:	4.164	Roll Set Point:	-0.616	Pitch Set Point:	0.536	Yaw Set Point:	-0.105	X_WP:	0.000	Y_WP:	0.000	Y_WP:	1.000	X:	0.322	Y:	-0.252	Z:	0.931	yaw:	5.995	yaw rate:	-6.284	Roll:	16.854	Pitch:	-30.000	Yaw:	11.196	Thrust:	100.000
Time:	4.186	Roll Set Point:	-0.635	Pitch Set Point:	0.591	Yaw Set Point:	-0.109	X_WP:	0.000	Y_WP:	0.000	Y_WP:	1.000	X:	0.334	Y:	-0.278	Z:	0.959	yaw:	6.270	yaw rate:	-27.464	Roll:	14.624	Pitch:	-30.000	Yaw:	14.186	Thrust:	100.000
Time:	4.207	Roll Set Point:	-0.653	Pitch Set Point:	0.649	Yaw Set Point:	-0.112	X_WP:	0.000	Y_WP:	0.000	Y_WP:	1.000	X:	0.345	Y:	-0.306	Z:	0.986	yaw:	6.397	yaw rate:	-12.780	Roll:	15.925	Pitch:	-30.000	Yaw:	12.594	Thrust:	100.000
Time:	4.224	Roll Set Point:	-0.671	Pitch Set Point:	0.711	Yaw Set Point:	-0.113	X_WP:	0.000	Y_WP:	0.000	Y_WP:	1.000	X:	0.356	Y:	-0.337	Z:	1.014	yaw:	6.464	yaw rate:	-6.627	Roll:	16.369	Pitch:	-30.000	Yaw:	11.806	Thrust:	100.000
Time:	4.242	Roll Set Point:	-0.686	Pitch Set Point:	0.779	Yaw Set Point:	-0.117	X_WP:	0.000	Y_WP:	0.000	Y_WP:	1.000	X:	0.366	Y:	-0.369	Z:	1.041	yaw:	6.712	yaw rate:	-24.843	Roll:	14.016	Pitch:	-30.000	Yaw:	14.753	Thrust:	100.000
Time:	4.269	Roll Set Point:	-0.701	Pitch Set Point:	0.848	Yaw Set Point:	-0.117	X_WP:	0.000	Y_WP:	0.000	Y_WP:	1.000	X:	0.375	Y:	-0.404	Z:	1.069	yaw:	6.702	yaw rate:	0.972	Roll:	14.263	Pitch:	-30.000	Yaw:	11.876	Thrust:	100.000
Time:	4.286	Roll Set Point:	-0.714	Pitch Set Point:	0.922	Yaw Set Point:	-0.119	X_WP:	0.000	Y_WP:	0.000	Y_WP:	1.000	X:	0.384	Y:	-0.440	Z:	1.097	yaw:	6.819	yaw rate:	-11.613	Roll:	13.508	Pitch:	-30.000	Yaw:	13.008	Thrust:	100.000
Time:	4.304	Roll Set Point:	-0.723	Pitch Set Point:	1.000	Yaw Set Point:	-0.125	X_WP:	0.000	Y_WP:	0.000	Y_WP:	1.000	X:	0.393	Y:	-0.477	Z:	1.124	yaw:	7.148	yaw rate:	-32.959	Roll:	11.086	Pitch:	-30.000	Yaw:	16.617	Thrust:	100.000
Time:	4.327	Roll Set Point:	-0.734	Pitch Set Point:	1.078	Yaw Set Point:	-0.124	X_WP:	0.000	Y_WP:	0.000	Y_WP:	1.000	X:	0.401	Y:	-0.516	Z:	1.153	yaw:	7.107	yaw rate:	4.064	Roll:	13.020	Pitch:	-30.000	Yaw:	11.742	Thrust:	100.000
Time:	4.344	Roll Set Point:	-0.743	Pitch Set Point:	1.158	Yaw Set Point:	-0.126	X_WP:	0.000	Y_WP:	0.000	Y_WP:	1.000	X:	0.408	Y:	-0.556	Z:	1.181	yaw:	7.199	yaw rate:	-9.114	Roll:	11.465	Pitch:	-30.000	Yaw:	13.166	Thrust:	100.000
Time:	4.364	Roll Set Point:	-0.751	Pitch Set Point:	1.238	Yaw Set Point:	-0.123	X_WP:	0.000	Y_WP:	0.000	Y_WP:	1.000	X:	0.414	Y:	-0.596	Z:	1.211	yaw:	7.055	yaw rate:	14.323	Roll:	12.783	Pitch:	-30.000	Yaw:	9.899	Thrust:	100.000
Time:	4.384	Roll Set Point:	-0.754	Pitch Set Point:	1.320	Yaw Set Point:	-0.128	X_WP:	0.000	Y_WP:	0.000	Y_WP:	1.000	X:	0.419	Y:	-0.636	Z:	1.241	yaw:	7.326	yaw rate:	-27.012	Roll:	8.162	Pitch:	-30.000	Yaw:	15.724	Thrust:	100.000
Time:	4.406	Roll Set Point:	-0.757	Pitch Set Point:	1.400	Yaw Set Point:	-0.129	X_WP:	0.000	Y_WP:	0.000	Y_WP:	1.000	X:	0.424	Y:	-0.675	Z:	1.271	yaw:	7.390	yaw rate:	-6.477	Roll:	9.433	Pitch:	-30.000	Yaw:	13.294	Thrust:	100.000
Time:	4.424	Roll Set Point:	-0.751	Pitch Set Point:	1.481	Yaw Set Point:	-0.140	X_WP:	0.000	Y_WP:	0.000	Y_WP:	1.000	X:	0.427	Y:	-0.714	Z:	1.301	yaw:	8.034	yaw rate:	-64.379	Roll:	0.669	Pitch:	-30.000	Yaw:	22.328	Thrust:	100.000
Time:	4.444	Roll Set Point:	-0.742	Pitch Set Point:	1.560	Yaw Set Point:	-0.151	X_WP:	0.000	Y_WP:	0.000	Y_WP:	1.000	X:	0.430	Y:	-0.752	Z:	1.332	yaw:	8.650	yaw rate:	-61.614	Roll:	-0.273	Pitch:	-30.000	Yaw:	22.543	Thrust:	100.000
Time:	4.469	Roll Set Point:	-0.729	Pitch Set Point:	1.636	Yaw Set Point:	-0.163	X_WP:	0.000	Y_WP:	0.000	Y_WP:	1.000	X:	0.431	Y:	-0.788	Z:	1.364	yaw:	9.314	yaw rate:	-66.374	Roll:	-0.539	Pitch:	-30.000	Yaw:	22.429	Thrust:	100.000
Time:	4.486	Roll Set Point:	-0.717	Pitch Set Point:	1.706	Yaw Set Point:	-0.169	X_WP:	0.000	Y_WP:	0.000	Y_WP:	1.000	X:	0.431	Y:	-0.823	Z:	1.395	yaw:	9.676	yaw rate:	-36.194	Roll:	-1.424	Pitch:	-30.000	Yaw:	20.662	Thrust:	100.000
Time:	4.504	Roll Set Point:	-0.701	Pitch Set Point:	1.772	Yaw Set Point:	-0.176	X_WP:	0.000	Y_WP:	0.000	Y_WP:	1.000	X:	0.429	Y:	-0.855	Z:	1.427	yaw:	10.070	yaw rate:	-39.446	Roll:	-4.651	Pitch:	-30.000	Yaw:	21.594	Thrust:	100.000
Time:	4.524	Roll Set Point:	-0.686	Pitch Set Point:	1.832	Yaw Set Point:	-0.179	X_WP:	0.000	Y_WP:	0.000	Y_WP:	1.000	X:	0.425	Y:	-0.885	Z:	1.459	yaw:	10.276	yaw rate:	-20.570	Roll:	-2.063	Pitch:	-30.000	Yaw:	19.042	Thrust:	100.000
Time:	4.544	Roll Set Point:	-0.659	Pitch Set Point:	1.888	Yaw Set Point:	-0.192	X_WP:	0.000	Y_WP:	0.000	Y_WP:	1.000	X:	0.420	Y:	-0.912	Z:	1.491	yaw:	10.988	yaw rate:	-71.181	Roll:	-10.583	Pitch:	-30.000	Yaw:	26.812	Thrust:	100.000
Time:	4.566	Roll Set Point:	-0.628	Pitch Set Point:	1.938	Yaw Set Point:	-0.205	X_WP:	0.000	Y_WP:	0.000	Y_WP:	1.000	X:	0.413	Y:	-0.937	Z:	1.522	yaw:	11.747	yaw rate:	-75.925	Roll:	-12.105	Pitch:	-30.000	Yaw:	27.561	Thrust:	100.000
Time:	4.583	Roll Set Point:	-0.594	Pitch Set Point:	1.981	Yaw Set Point:	-0.218	X_WP:	0.000	Y_WP:	0.000	Y_WP:	1.000	X:	0.405	Y:	-0.958	Z:	1.553	yaw:	12.463	yaw rate:	-71.593	Roll:	-18.877	Pitch:	-30.000	Yaw:	30.213	Thrust:	100.000
Time:	4.607	Roll Set Point:	-0.560	Pitch Set Point:	2.017	Yaw Set Point:	-0.227	X_WP:	0.000	Y_WP:	0.000	Y_WP:	1.000	X:	0.395	Y:	-0.976	Z:	1.582	yaw:	13.005	yaw rate:	-54.178	Roll:	-11.458	Pitch:	-30.000	Yaw:	26.398	Thrust:	100.000
Time:	4.628	Roll Set Point:	-0.519	Pitch Set Point:	2.045	Yaw Set Point:	-0.240	X_WP:	0.000	Y_WP:	0.000	Y_WP:	1.000	X:	0.383	Y:	-0.991	Z:	1.611	yaw:	13.743	yaw rate:	-73.857	Roll:	-17.673	Pitch:	-30.000	Yaw:	30.460	Thrust:	100.000
Time:	4.643	Roll Set Point:	-0.497	Pitch Set Point:	2.064	Yaw Set Point:	-0.232	X_WP:	0.000	Y_WP:	0.000	Y_WP:	1.000	X:	0.369	Y:	-1.003	Z:	1.639	yaw:	13.303	yaw rate:	44.023	Roll:	-4.840	Pitch:	-30.000	Yaw:	12.387	Thrust:	86.405
Time:	4.668	Roll Set Point:	-0.465	Pitch Set Point:	2.076	Yaw Set Point:	-0.232	X_WP:	0.000	Y_WP:	0.000	Y_WP:	1.000	X:	0.354	Y:	-1.011	Z:	1.665	yaw:	13.303	yaw rate:	0.062	Roll:	-7.695	Pitch:	-30.000	Yaw:	21.087	Thrust:	100.000
Time:	4.683	Roll Set Point:	-0.432	Pitch Set Point:	2.081	Yaw Set Point:	-0.230	X_WP:	0.000	Y_WP:	0.000	Y_WP:	1.000	X:	0.336	Y:	-1.016	Z:	1.690	yaw:	13.189	yaw rate:	11.312	Roll:	-13.220	Pitch:	-30.000	Yaw:	17.834	Thrust:	80.984
Time:	4.704	Roll Set Point:	-0.401	Pitch Set Point:	2.079	Yaw Set Point:	-0.225	X_WP:	0.000	Y_WP:	0.000	Y_WP:	1.000	X:	0.318	Y:	-1.017	Z:	1.713	yaw:	12.880	yaw rate:	30.913	Roll:	-7.521	Pitch:	-28.891	Yaw:	16.204	Thrust:	100.000
Time:	4.725	Roll Set Point:	-0.360	Pitch Set Point:	2.071	Yaw Set Point:	-0.226	X_WP:	0.000	Y_WP:	0.000	Y_WP:	1.000	X:	0.298	Y:	-1.015	Z:	1.736	yaw:	12.970	yaw rate:	-8.928	Roll:	-15.185	Pitch:	-25.872	Yaw:	21.285	Thrust:	100.000
