Time:	0.035	Roll Set Point:	0.000	Pitch Set Point:	0.000	Yaw Set Point:	3.116	X_WP:	0.000	Y_WP:	0.000	Z_WP:	0.500	X:	-0.015	Y:	0.003	Z:	0.049	yaw:	-178.537	yaw rate:	-0.929	Roll:	0.228	Pitch:	-0.057	Yaw:	-249.285	Thrust:	24.818
Time:	0.055	Roll Set Point:	0.000	Pitch Set Point:	0.000	Yaw Set Point:	3.116	X_WP:	0.000	Y_WP:	0.000	Z_WP:	0.500	X:	-0.015	Y:	0.003	Z:	0.049	yaw:	-178.554	yaw rate:	1.656	Roll:	0.211	Pitch:	-0.058	Yaw:	-250.802	Thrust:	25.874
Time:	0.074	Roll Set Point:	0.000	Pitch Set Point:	0.000	Yaw Set Point:	3.140	X_WP:	0.000	Y_WP:	0.000	Z_WP:	0.500	X:	-0.015	Y:	0.003	Z:	0.048	yaw:	-179.885	yaw rate:	133.062	Roll:	0.354	Pitch:	0.261	Yaw:	-271.750	Thrust:	28.287
Time:	0.095	Roll Set Point:	0.000	Pitch Set Point:	0.000	Yaw Set Point:	3.121	X_WP:	0.000	Y_WP:	0.000	Z_WP:	0.500	X:	-0.016	Y:	0.004	Z:	0.049	yaw:	-178.828	yaw rate:	-105.662	Roll:	0.501	Pitch:	-0.384	Yaw:	-240.089	Thrust:	26.226
Time:	0.118	Roll Set Point:	0.000	Pitch Set Point:	0.000	Yaw Set Point:	3.127	X_WP:	0.000	Y_WP:	0.000	Z_WP:	0.500	X:	-0.016	Y:	0.004	Z:	0.049	yaw:	-179.151	yaw rate:	32.267	Roll:	0.254	Pitch:	0.038	Yaw:	-258.388	Thrust:	29.588
Time:	0.135	Roll Set Point:	0.000	Pitch Set Point:	0.001	Yaw Set Point:	3.108	X_WP:	0.000	Y_WP:	0.000	Z_WP:	0.500	X:	-0.016	Y:	0.003	Z:	0.049	yaw:	-178.081	yaw rate:	-106.946	Roll:	0.202	Pitch:	-0.242	Yaw:	-236.198	Thrust:	29.009
Time:	0.155	Roll Set Point:	0.000	Pitch Set Point:	0.000	Yaw Set Point:	3.137	X_WP:	0.000	Y_WP:	0.000	Z_WP:	0.500	X:	-0.016	Y:	0.004	Z:	0.049	yaw:	-179.753	yaw rate:	167.183	Roll:	0.188	Pitch:	0.231	Yaw:	-276.641	Thrust:	32.267
Time:	0.175	Roll Set Point:	0.000	Pitch Set Point:	0.000	Yaw Set Point:	3.122	X_WP:	0.000	Y_WP:	0.000	Z_WP:	0.500	X:	-0.016	Y:	0.003	Z:	0.049	yaw:	-178.884	yaw rate:	-86.916	Roll:	0.330	Pitch:	-0.192	Yaw:	-242.511	Thrust:	32.053
Time:	0.195	Roll Set Point:	0.000	Pitch Set Point:	0.000	Yaw Set Point:	3.120	X_WP:	0.000	Y_WP:	0.000	Z_WP:	0.500	X:	-0.016	Y:	0.004	Z:	0.049	yaw:	-178.791	yaw rate:	-9.329	Roll:	0.292	Pitch:	-0.165	Yaw:	-252.457	Thrust:	33.591
Time:	0.219	Roll Set Point:	0.000	Pitch Set Point:	0.001	Yaw Set Point:	3.106	X_WP:	0.000	Y_WP:	0.000	Z_WP:	0.500	X:	-0.016	Y:	0.003	Z:	0.049	yaw:	-177.982	yaw rate:	-80.828	Roll:	0.183	Pitch:	-0.129	Yaw:	-244.305	Thrust:	34.890
Time:	0.234	Roll Set Point:	0.000	Pitch Set Point:	0.000	Yaw Set Point:	3.133	X_WP:	0.000	Y_WP:	0.000	Z_WP:	0.500	X:	-0.016	Y:	0.004	Z:	0.049	yaw:	-179.504	yaw rate:	152.145	Roll:	0.244	Pitch:	0.241	Yaw:	-279.378	Thrust:	34.802
Time:	0.256	Roll Set Point:	0.000	Pitch Set Point:	0.001	Yaw Set Point:	3.104	X_WP:	0.000	Y_WP:	0.000	Z_WP:	0.500	X:	-0.016	Y:	0.004	Z:	0.049	yaw:	-177.849	yaw rate:	-165.459	Roll:	0.376	Pitch:	-0.761	Yaw:	-231.519	Thrust:	37.737
Time:	0.275	Roll Set Point:	0.000	Pitch Set Point:	0.001	Yaw Set Point:	3.100	X_WP:	0.000	Y_WP:	0.000	Z_WP:	0.500	X:	-0.016	Y:	0.003	Z:	0.049	yaw:	-177.600	yaw rate:	-24.867	Roll:	0.217	Pitch:	0.523	Yaw:	-248.607	Thrust:	37.064
Time:	0.295	Roll Set Point:	0.000	Pitch Set Point:	0.001	Yaw Set Point:	3.072	X_WP:	0.000	Y_WP:	0.000	Z_WP:	0.500	X:	-0.016	Y:	0.002	Z:	0.050	yaw:	-176.005	yaw rate:	-159.521	Roll:	0.320	Pitch:	0.438	Yaw:	-229.038	Thrust:	37.515
Time:	0.318	Roll Set Point:	0.000	Pitch Set Point:	0.002	Yaw Set Point:	3.010	X_WP:	0.000	Y_WP:	0.000	Z_WP:	0.500	X:	-0.015	Y:	0.001	Z:	0.049	yaw:	-172.449	yaw rate:	-355.623	Roll:	-0.343	Pitch:	-0.247	Yaw:	-205.554	Thrust:	43.281
Time:	0.335	Roll Set Point:	0.000	Pitch Set Point:	0.003	Yaw Set Point:	2.965	X_WP:	0.000	Y_WP:	0.000	Z_WP:	0.500	X:	-0.016	Y:	0.001	Z:	0.050	yaw:	-169.893	yaw rate:	-255.644	Roll:	1.040	Pitch:	-0.172	Yaw:	-200.625	Thrust:	36.541
Time:	0.355	Roll Set Point:	0.000	Pitch Set Point:	0.004	Yaw Set Point:	2.892	X_WP:	0.000	Y_WP:	0.000	Z_WP:	0.500	X:	-0.016	Y:	-0.000	Z:	0.050	yaw:	-165.720	yaw rate:	-417.266	Roll:	0.199	Pitch:	-0.211	Yaw:	-181.188	Thrust:	41.825
Time:	0.375	Roll Set Point:	0.000	Pitch Set Point:	0.005	Yaw Set Point:	2.828	X_WP:	0.000	Y_WP:	0.000	Z_WP:	0.500	X:	-0.016	Y:	-0.001	Z:	0.050	yaw:	-162.031	yaw rate:	-368.854	Roll:	0.322	Pitch:	-0.262	Yaw:	-181.794	Thrust:	43.025
Time:	0.395	Roll Set Point:	0.000	Pitch Set Point:	0.007	Yaw Set Point:	2.749	X_WP:	0.000	Y_WP:	0.000	Z_WP:	0.500	X:	-0.017	Y:	-0.002	Z:	0.051	yaw:	-157.516	yaw rate:	-451.525	Roll:	0.793	Pitch:	-0.174	Yaw:	-164.201	Thrust:	42.542
Time:	0.419	Roll Set Point:	-0.000	Pitch Set Point:	0.008	Yaw Set Point:	2.687	X_WP:	0.000	Y_WP:	0.000	Z_WP:	0.500	X:	-0.017	Y:	-0.004	Z:	0.051	yaw:	-153.969	yaw rate:	-354.738	Roll:	0.936	Pitch:	0.130	Yaw:	-180.400	Thrust:	47.824
Time:	0.435	Roll Set Point:	-0.000	Pitch Set Point:	0.010	Yaw Set Point:	2.625	X_WP:	0.000	Y_WP:	0.000	Z_WP:	0.500	X:	-0.018	Y:	-0.006	Z:	0.052	yaw:	-150.400	yaw rate:	-356.830	Roll:	1.155	Pitch:	-0.195	Yaw:	-155.055	Thrust:	41.504
Time:	0.455	Roll Set Point:	-0.001	Pitch Set Point:	0.011	Yaw Set Point:	2.555	X_WP:	0.000	Y_WP:	0.000	Z_WP:	0.500	X:	-0.018	Y:	-0.007	Z:	0.051	yaw:	-146.369	yaw rate:	-403.100	Roll:	0.797	Pitch:	-0.457	Yaw:	-156.493	Thrust:	49.629
Time:	0.475	Roll Set Point:	-0.001	Pitch Set Point:	0.014	Yaw Set Point:	2.465	X_WP:	0.000	Y_WP:	0.000	Z_WP:	0.500	X:	-0.019	Y:	-0.009	Z:	0.051	yaw:	-141.225	yaw rate:	-514.443	Roll:	1.057	Pitch:	-0.514	Yaw:	-133.038	Thrust:	48.073
Time:	0.495	Roll Set Point:	-0.002	Pitch Set Point:	0.015	Yaw Set Point:	2.384	X_WP:	0.000	Y_WP:	0.000	Z_WP:	0.500	X:	-0.018	Y:	-0.010	Z:	0.050	yaw:	-136.601	yaw rate:	-462.449	Roll:	0.886	Pitch:	-0.285	Yaw:	-135.152	Thrust:	51.418
Time:	0.519	Roll Set Point:	-0.003	Pitch Set Point:	0.017	Yaw Set Point:	2.338	X_WP:	0.000	Y_WP:	0.000	Z_WP:	0.500	X:	-0.018	Y:	-0.012	Z:	0.049	yaw:	-133.940	yaw rate:	-266.023	Roll:	0.965	Pitch:	0.054	Yaw:	-162.294	Thrust:	57.935
Time:	0.536	Roll Set Point:	-0.004	Pitch Set Point:	0.018	Yaw Set Point:	2.301	X_WP:	0.000	Y_WP:	0.000	Z_WP:	0.500	X:	-0.018	Y:	-0.013	Z:	0.049	yaw:	-131.850	yaw rate:	-209.077	Roll:	1.272	Pitch:	0.158	Yaw:	-155.411	Thrust:	46.298
Time:	0.557	Roll Set Point:	-0.005	Pitch Set Point:	0.020	Yaw Set Point:	2.274	X_WP:	0.000	Y_WP:	0.000	Z_WP:	0.500	X:	-0.019	Y:	-0.015	Z:	0.050	yaw:	-130.312	yaw rate:	-153.771	Roll:	1.391	Pitch:	-0.160	Yaw:	-167.593	Thrust:	52.196
Time:	0.575	Roll Set Point:	-0.006	Pitch Set Point:	0.021	Yaw Set Point:	2.231	X_WP:	0.000	Y_WP:	0.000	Z_WP:	0.500	X:	-0.019	Y:	-0.016	Z:	0.052	yaw:	-127.804	yaw rate:	-250.754	Roll:	1.245	Pitch:	0.066	Yaw:	-145.599	Thrust:	48.945
Time:	0.596	Roll Set Point:	-0.008	Pitch Set Point:	0.023	Yaw Set Point:	2.164	X_WP:	0.000	Y_WP:	0.000	Z_WP:	0.500	X:	-0.018	Y:	-0.019	Z:	0.053	yaw:	-123.970	yaw rate:	-383.396	Roll:	1.093	Pitch:	0.285	Yaw:	-126.972	Thrust:	52.383
Time:	0.617	Roll Set Point:	-0.009	Pitch Set Point:	0.025	Yaw Set Point:	2.102	X_WP:	0.000	Y_WP:	0.000	Z_WP:	0.500	X:	-0.017	Y:	-0.020	Z:	0.054	yaw:	-120.419	yaw rate:	-355.161	Roll:	1.202	Pitch:	-0.271	Yaw:	-129.659	Thrust:	54.219
Time:	0.634	Roll Set Point:	-0.011	Pitch Set Point:	0.026	Yaw Set Point:	2.029	X_WP:	0.000	Y_WP:	0.000	Z_WP:	0.500	X:	-0.016	Y:	-0.022	Z:	0.054	yaw:	-116.259	yaw rate:	-416.005	Roll:	1.002	Pitch:	0.228	Yaw:	-102.936	Thrust:	53.032
Time:	0.656	Roll Set Point:	-0.012	Pitch Set Point:	0.030	Yaw Set Point:	1.894	X_WP:	0.000	Y_WP:	0.000	Z_WP:	0.500	X:	-0.015	Y:	-0.023	Z:	0.055	yaw:	-108.543	yaw rate:	-771.570	Roll:	0.232	Pitch:	-2.149	Yaw:	-57.774	Thrust:	57.381
Time:	0.675	Roll Set Point:	-0.012	Pitch Set Point:	0.034	Yaw Set Point:	1.741	X_WP:	0.000	Y_WP:	0.000	Z_WP:	0.500	X:	-0.014	Y:	-0.024	Z:	0.056	yaw:	-99.760	yaw rate:	-878.325	Roll:	-0.111	Pitch:	-2.580	Yaw:	-29.632	Thrust:	57.358
Time:	0.695	Roll Set Point:	-0.016	Pitch Set Point:	0.035	Yaw Set Point:	1.656	X_WP:	0.000	Y_WP:	0.000	Z_WP:	0.500	X:	-0.011	Y:	-0.026	Z:	0.058	yaw:	-94.882	yaw rate:	-487.740	Roll:	1.479	Pitch:	0.229	Yaw:	-72.874	Thrust:	56.619
Time:	0.718	Roll Set Point:	-0.020	Pitch Set Point:	0.037	Yaw Set Point:	1.600	X_WP:	0.000	Y_WP:	0.000	Z_WP:	0.500	X:	-0.009	Y:	-0.029	Z:	0.060	yaw:	-91.664	yaw rate:	-321.805	Roll:	1.752	Pitch:	0.374	Yaw:	-94.349	Thrust:	60.442
Time:	0.734	Roll Set Point:	-0.023	Pitch Set Point:	0.039	Yaw Set Point:	1.514	X_WP:	0.000	Y_WP:	0.000	Z_WP:	0.500	X:	-0.007	Y:	-0.031	Z:	0.062	yaw:	-86.742	yaw rate:	-492.194	Roll:	1.975	Pitch:	-0.291	Yaw:	-48.296	Thrust:	50.883
Time:	0.756	Roll Set Point:	-0.026	Pitch Set Point:	0.043	Yaw Set Point:	1.384	X_WP:	0.000	Y_WP:	0.000	Z_WP:	0.500	X:	-0.005	Y:	-0.032	Z:	0.063	yaw:	-79.319	yaw rate:	-742.366	Roll:	0.612	Pitch:	-1.968	Yaw:	-20.747	Thrust:	60.075
Time:	0.775	Roll Set Point:	-0.030	Pitch Set Point:	0.046	Yaw Set Point:	1.303	X_WP:	0.000	Y_WP:	0.000	Z_WP:	0.500	X:	-0.002	Y:	-0.034	Z:	0.066	yaw:	-74.678	yaw rate:	-464.018	Roll:	2.229	Pitch:	-0.673	Yaw:	-47.302	Thrust:	58.707
Time:	0.795	Roll Set Point:	-0.035	Pitch Set Point:	0.049	Yaw Set Point:	1.219	X_WP:	0.000	Y_WP:	0.000	Z_WP:	0.500	X:	0.000	Y:	-0.037	Z:	0.068	yaw:	-69.850	yaw rate:	-482.893	Roll:	2.271	Pitch:	-0.908	Yaw:	-36.902	Thrust:	57.496
Time:	0.819	Roll Set Point:	-0.042	Pitch Set Point:	0.050	Yaw Set Point:	1.179	X_WP:	0.000	Y_WP:	0.000	Z_WP:	0.500	X:	0.004	Y:	-0.039	Z:	0.072	yaw:	-67.547	yaw rate:	-230.294	Roll:	3.046	Pitch:	0.624	Yaw:	-74.634	Thrust:	68.446
Time:	0.835	Roll Set Point:	-0.047	Pitch Set Point:	0.054	Yaw Set Point:	1.102	X_WP:	0.000	Y_WP:	0.000	Z_WP:	0.500	X:	0.007	Y:	-0.042	Z:	0.075	yaw:	-63.156	yaw rate:	-439.084	Roll:	3.088	Pitch:	-1.576	Yaw:	-17.495	Thrust:	47.414
Time:	0.855	Roll Set Point:	-0.053	Pitch Set Point:	0.056	Yaw Set Point:	1.049	X_WP:	0.000	Y_WP:	0.000	Z_WP:	0.500	X:	0.010	Y:	-0.043	Z:	0.079	yaw:	-60.080	yaw rate:	-307.530	Roll:	2.805	Pitch:	-0.600	Yaw:	-48.731	Thrust:	59.978
Time:	0.875	Roll Set Point:	-0.058	Pitch Set Point:	0.059	Yaw Set Point:	0.971	X_WP:	0.000	Y_WP:	0.000	Z_WP:	0.500	X:	0.013	Y:	-0.045	Z:	0.082	yaw:	-55.615	yaw rate:	-446.504	Roll:	2.168	Pitch:	-1.638	Yaw:	-22.264	Thrust:	59.308
Time:	0.896	Roll Set Point:	-0.064	Pitch Set Point:	0.062	Yaw Set Point:	0.921	X_WP:	0.000	Y_WP:	0.000	Z_WP:	0.500	X:	0.017	Y:	-0.047	Z:	0.087	yaw:	-52.767	yaw rate:	-284.802	Roll:	3.207	Pitch:	-0.736	Yaw:	-41.700	Thrust:	61.234
Time:	0.918	Roll Set Point:	-0.072	Pitch Set Point:	0.067	Yaw Set Point:	0.841	X_WP:	0.000	Y_WP:	0.000	Z_WP:	0.500	X:	0.021	Y:	-0.049	Z:	0.092	yaw:	-48.158	yaw rate:	-460.962	Roll:	3.462	Pitch:	-2.038	Yaw:	-18.731	Thrust:	65.779
Time:	0.935	Roll Set Point:	-0.078	Pitch Set Point:	0.068	Yaw Set Point:	0.809	X_WP:	0.000	Y_WP:	0.000	Z_WP:	0.500	X:	0.024	Y:	-0.051	Z:	0.096	yaw:	-46.378	yaw rate:	-177.976	Roll:	3.423	Pitch:	-0.356	Yaw:	-39.838	Thrust:	49.289
Time:	0.955	Roll Set Point:	-0.085	Pitch Set Point:	0.072	Yaw Set Point:	0.759	X_WP:	0.000	Y_WP:	0.000	Z_WP:	0.500	X:	0.028	Y:	-0.053	Z:	0.101	yaw:	-43.471	yaw rate:	-290.746	Roll:	3.710	Pitch:	-1.771	Yaw:	-26.960	Thrust:	61.087
Time:	0.974	Roll Set Point:	-0.093	Pitch Set Point:	0.074	Yaw Set Point:	0.725	X_WP:	0.000	Y_WP:	0.000	Z_WP:	0.500	X:	0.032	Y:	-0.054	Z:	0.107	yaw:	-41.527	yaw rate:	-194.348	Roll:	4.003	Pitch:	-0.500	Yaw:	-35.503	Thrust:	56.338
Time:	0.995	Roll Set Point:	-0.100	Pitch Set Point:	0.075	Yaw Set Point:	0.696	X_WP:	0.000	Y_WP:	0.000	Z_WP:	0.500	X:	0.036	Y:	-0.056	Z:	0.112	yaw:	-39.879	yaw rate:	-164.849	Roll:	3.803	Pitch:	-0.471	Yaw:	-39.472	Thrust:	62.491
Time:	1.019	Roll Set Point:	-0.107	Pitch Set Point:	0.078	Yaw Set Point:	0.662	X_WP:	0.000	Y_WP:	0.000	Z_WP:	0.500	X:	0.040	Y:	-0.057	Z:	0.119	yaw:	-37.940	yaw rate:	-193.880	Roll:	3.755	Pitch:	-0.856	Yaw:	-35.738	Thrust:	68.968
Time:	1.035	Roll Set Point:	-0.115	Pitch Set Point:	0.078	Yaw Set Point:	0.642	X_WP:	0.000	Y_WP:	0.000	Z_WP:	0.500	X:	0.045	Y:	-0.058	Z:	0.125	yaw:	-36.775	yaw rate:	-116.463	Roll:	4.370	Pitch:	0.074	Yaw:	-35.899	Thrust:	45.145
Time:	1.055	Roll Set Point:	-0.123	Pitch Set Point:	0.078	Yaw Set Point:	0.624	X_WP:	0.000	Y_WP:	0.000	Z_WP:	0.500	X:	0.049	Y:	-0.059	Z:	0.132	yaw:	-35.735	yaw rate:	-103.972	Roll:	4.028	Pitch:	0.200	Yaw:	-40.784	Thrust:	59.137
Time:	1.075	Roll Set Point:	-0.131	Pitch Set Point:	0.080	Yaw Set Point:	0.589	X_WP:	0.000	Y_WP:	0.000	Z_WP:	0.500	X:	0.053	Y:	-0.060	Z:	0.139	yaw:	-33.750	yaw rate:	-198.572	Roll:	4.480	Pitch:	-1.231	Yaw:	-24.295	Thrust:	59.043
Time:	1.095	Roll Set Point:	-0.138	Pitch Set Point:	0.080	Yaw Set Point:	0.576	X_WP:	0.000	Y_WP:	0.000	Z_WP:	0.500	X:	0.057	Y:	-0.060	Z:	0.146	yaw:	-33.011	yaw rate:	-73.833	Roll:	3.941	Pitch:	0.523	Yaw:	-40.818	Thrust:	58.518
Time:	1.115	Roll Set Point:	-0.146	Pitch Set Point:	0.080	Yaw Set Point:	0.556	X_WP:	0.000	Y_WP:	0.000	Z_WP:	0.500	X:	0.062	Y:	-0.061	Z:	0.153	yaw:	-31.856	yaw rate:	-115.519	Roll:	4.298	Pitch:	-0.127	Yaw:	-33.174	Thrust:	60.951
Time:	1.139	Roll Set Point:	-0.153	Pitch Set Point:	0.079	Yaw Set Point:	0.540	X_WP:	0.000	Y_WP:	0.000	Z_WP:	0.500	X:	0.066	Y:	-0.061	Z:	0.160	yaw:	-30.923	yaw rate:	-93.276	Roll:	3.882	Pitch:	0.180	Yaw:	-36.969	Thrust:	68.889
Time:	1.155	Roll Set Point:	-0.159	Pitch Set Point:	0.081	Yaw Set Point:	0.504	X_WP:	0.000	Y_WP:	0.000	Z_WP:	0.500	X:	0.069	Y:	-0.061	Z:	0.168	yaw:	-28.888	yaw rate:	-203.542	Roll:	3.766	Pitch:	-1.642	Yaw:	-12.489	Thrust:	47.069
Time:	1.175	Roll Set Point:	-0.166	Pitch Set Point:	0.079	Yaw Set Point:	0.498	X_WP:	0.000	Y_WP:	0.000	Z_WP:	0.500	X:	0.073	Y:	-0.060	Z:	0.175	yaw:	-28.540	yaw rate:	-34.842	Roll:	4.082	Pitch:	1.159	Yaw:	-39.190	Thrust:	58.592
Time:	1.201	Roll Set Point:	-0.173	Pitch Set Point:	0.077	Yaw Set Point:	0.486	X_WP:	0.000	Y_WP:	0.000	Z_WP:	0.500	X:	0.077	Y:	-0.060	Z:	0.183	yaw:	-27.865	yaw rate:	-67.434	Roll:	3.551	Pitch:	0.294	Yaw:	-37.543	Thrust:	83.184
Time:	1.218	Roll Set Point:	-0.180	Pitch Set Point:	0.076	Yaw Set Point:	0.475	X_WP:	0.000	Y_WP:	0.000	Z_WP:	0.500	X:	0.081	Y:	-0.060	Z:	0.191	yaw:	-27.231	yaw rate:	-63.379	Roll:	4.665	Pitch:	0.990	Yaw:	-30.464	Thrust:	41.191
Time:	1.235	Roll Set Point:	-0.186	Pitch Set Point:	0.074	Yaw Set Point:	0.464	X_WP:	0.000	Y_WP:	0.000	Z_WP:	0.500	X:	0.084	Y:	-0.059	Z:	0.199	yaw:	-26.573	yaw rate:	-65.802	Roll:	4.133	Pitch:	0.857	Yaw:	-31.131	Thrust:	51.133
Time:	1.256	Roll Set Point:	-0.192	Pitch Set Point:	0.072	Yaw Set Point:	0.454	X_WP:	0.000	Y_WP:	0.000	Z_WP:	0.500	X:	0.088	Y:	-0.058	Z:	0.207	yaw:	-25.988	yaw rate:	-58.557	Roll:	4.006	Pitch:	0.819	Yaw:	-33.192	Thrust:	63.593
Time:	1.275	Roll Set Point:	-0.197	Pitch Set Point:	0.068	Yaw Set Point:	0.457	X_WP:	0.000	Y_WP:	0.000	Z_WP:	0.500	X:	0.091	Y:	-0.057	Z:	0.216	yaw:	-26.160	yaw rate:	17.198	Roll:	3.667	Pitch:	2.031	Yaw:	-42.714	Thrust:	55.064
Time:	1.296	Roll Set Point:	-0.203	Pitch Set Point:	0.067	Yaw Set Point:	0.424	X_WP:	0.000	Y_WP:	0.000	Z_WP:	0.500	X:	0.094	Y:	-0.055	Z:	0.225	yaw:	-24.312	yaw rate:	-184.787	Roll:	3.623	Pitch:	-0.544	Yaw:	-14.650	Thrust:	58.606
Time:	1.319	Roll Set Point:	-0.208	Pitch Set Point:	0.063	Yaw Set Point:	0.436	X_WP:	0.000	Y_WP:	0.000	Z_WP:	0.500	X:	0.097	Y:	-0.054	Z:	0.234	yaw:	-24.965	yaw rate:	65.338	Roll:	3.349	Pitch:	2.226	Yaw:	-47.023	Thrust:	67.760
Time:	1.335	Roll Set Point:	-0.213	Pitch Set Point:	0.059	Yaw Set Point:	0.422	X_WP:	0.000	Y_WP:	0.000	Z_WP:	0.500	X:	0.100	Y:	-0.052	Z:	0.243	yaw:	-24.151	yaw rate:	-81.426	Roll:	3.760	Pitch:	1.266	Yaw:	-24.652	Thrust:	45.851
Time:	1.356	Roll Set Point:	-0.217	Pitch Set Point:	0.056	Yaw Set Point:	0.413	X_WP:	0.000	Y_WP:	0.000	Z_WP:	0.500	X:	0.103	Y:	-0.051	Z:	0.252	yaw:	-23.652	yaw rate:	-49.934	Roll:	3.253	Pitch:	1.249	Yaw:	-30.572	Thrust:	57.755
Time:	1.375	Roll Set Point:	-0.221	Pitch Set Point:	0.053	Yaw Set Point:	0.402	X_WP:	0.000	Y_WP:	0.000	Z_WP:	0.500	X:	0.105	Y:	-0.049	Z:	0.262	yaw:	-23.022	yaw rate:	-62.997	Roll:	3.253	Pitch:	0.987	Yaw:	-27.678	Thrust:	55.905
Time:	1.395	Roll Set Point:	-0.225	Pitch Set Point:	0.049	Yaw Set Point:	0.396	X_WP:	0.000	Y_WP:	0.000	Z_WP:	0.500	X:	0.108	Y:	-0.047	Z:	0.271	yaw:	-22.680	yaw rate:	-34.166	Roll:	3.052	Pitch:	1.512	Yaw:	-31.528	Thrust:	58.213
Time:	1.419	Roll Set Point:	-0.228	Pitch Set Point:	0.046	Yaw Set Point:	0.386	X_WP:	0.000	Y_WP:	0.000	Z_WP:	0.500	X:	0.110	Y:	-0.045	Z:	0.281	yaw:	-22.131	yaw rate:	-54.917	Roll:	2.904	Pitch:	0.961	Yaw:	-29.694	Thrust:	76.103
Time:	1.435	Roll Set Point:	-0.231	Pitch Set Point:	0.043	Yaw Set Point:	0.377	X_WP:	0.000	Y_WP:	0.000	Z_WP:	0.500	X:	0.112	Y:	-0.043	Z:	0.291	yaw:	-21.626	yaw rate:	-50.531	Roll:	3.059	Pitch:	1.712	Yaw:	-24.412	Thrust:	32.886
Time:	1.456	Roll Set Point:	-0.234	Pitch Set Point:	0.039	Yaw Set Point:	0.371	X_WP:	0.000	Y_WP:	0.000	Z_WP:	0.500	X:	0.113	Y:	-0.041	Z:	0.300	yaw:	-21.260	yaw rate:	-36.581	Roll:	2.736	Pitch:	1.496	Yaw:	-29.131	Thrust:	59.829
Time:	1.475	Roll Set Point:	-0.237	Pitch Set Point:	0.035	Yaw Set Point:	0.365	X_WP:	0.000	Y_WP:	0.000	Z_WP:	0.500	X:	0.115	Y:	-0.039	Z:	0.310	yaw:	-20.931	yaw rate:	-32.892	Roll:	2.647	Pitch:	1.645	Yaw:	-28.773	Thrust:	55.096
Time:	1.495	Roll Set Point:	-0.239	Pitch Set Point:	0.031	Yaw Set Point:	0.359	X_WP:	0.000	Y_WP:	0.000	Z_WP:	0.500	X:	0.117	Y:	-0.037	Z:	0.319	yaw:	-20.555	yaw rate:	-37.563	Roll:	2.585	Pitch:	1.537	Yaw:	-27.928	Thrust:	58.829
Time:	1.519	Roll Set Point:	-0.241	Pitch Set Point:	0.027	Yaw Set Point:	0.350	X_WP:	0.000	Y_WP:	0.000	Z_WP:	0.500	X:	0.118	Y:	-0.035	Z:	0.329	yaw:	-20.034	yaw rate:	-52.130	Roll:	2.469	Pitch:	1.037	Yaw:	-26.865	Thrust:	68.653
Time:	1.535	Roll Set Point:	-0.242	Pitch Set Point:	0.024	Yaw Set Point:	0.341	X_WP:	0.000	Y_WP:	0.000	Z_WP:	0.500	X:	0.119	Y:	-0.033	Z:	0.338	yaw:	-19.516	yaw rate:	-51.833	Roll:	2.327	Pitch:	1.408	Yaw:	-22.401	Thrust:	46.203
Time:	1.555	Roll Set Point:	-0.243	Pitch Set Point:	0.020	Yaw Set Point:	0.337	X_WP:	0.000	Y_WP:	0.000	Z_WP:	0.500	X:	0.120	Y:	-0.031	Z:	0.347	yaw:	-19.281	yaw rate:	-23.464	Roll:	2.136	Pitch:	1.542	Yaw:	-27.893	Thrust:	59.105
Time:	1.575	Roll Set Point:	-0.243	Pitch Set Point:	0.017	Yaw Set Point:	0.326	X_WP:	0.000	Y_WP:	0.000	Z_WP:	0.500	X:	0.120	Y:	-0.028	Z:	0.356	yaw:	-18.683	yaw rate:	-59.840	Roll:	2.038	Pitch:	1.230	Yaw:	-22.172	Thrust:	56.600
Time:	1.595	Roll Set Point:	-0.244	Pitch Set Point:	0.014	Yaw Set Point:	0.316	X_WP:	0.000	Y_WP:	0.000	Z_WP:	0.500	X:	0.121	Y:	-0.026	Z:	0.365	yaw:	-18.110	yaw rate:	-57.219	Roll:	2.103	Pitch:	0.908	Yaw:	-21.667	Thrust:	56.987
Time:	1.618	Roll Set Point:	-0.244	Pitch Set Point:	0.009	Yaw Set Point:	0.314	X_WP:	0.000	Y_WP:	0.000	Z_WP:	0.500	X:	0.121	Y:	-0.024	Z:	0.374	yaw:	-17.973	yaw rate:	-13.712	Roll:	1.857	Pitch:	1.612	Yaw:	-28.194	Thrust:	71.468
Time:	1.635	Roll Set Point:	-0.244	Pitch Set Point:	0.006	Yaw Set Point:	0.305	X_WP:	0.000	Y_WP:	0.000	Z_WP:	0.500	X:	0.122	Y:	-0.022	Z:	0.383	yaw:	-17.477	yaw rate:	-49.602	Roll:	1.752	Pitch:	1.297	Yaw:	-20.159	Thrust:	41.910
Time:	1.655	Roll Set Point:	-0.243	Pitch Set Point:	0.002	Yaw Set Point:	0.308	X_WP:	0.000	Y_WP:	0.000	Z_WP:	0.500	X:	0.121	Y:	-0.020	Z:	0.393	yaw:	-17.641	yaw rate:	16.348	Roll:	1.332	Pitch:	2.244	Yaw:	-30.776	Thrust:	56.680
Time:	1.675	Roll Set Point:	-0.243	Pitch Set Point:	-0.000	Yaw Set Point:	0.289	X_WP:	0.000	Y_WP:	0.000	Z_WP:	0.500	X:	0.121	Y:	-0.018	Z:	0.402	yaw:	-16.570	yaw rate:	-107.090	Roll:	1.863	Pitch:	-0.004	Yaw:	-12.883	Thrust:	55.208
Time:	1.695	Roll Set Point:	-0.242	Pitch Set Point:	-0.004	Yaw Set Point:	0.289	X_WP:	0.000	Y_WP:	0.000	Z_WP:	0.500	X:	0.121	Y:	-0.016	Z:	0.411	yaw:	-16.575	yaw rate:	0.528	Roll:	1.241	Pitch:	1.897	Yaw:	-27.283	Thrust:	57.360
Time:	1.718	Roll Set Point:	-0.241	Pitch Set Point:	-0.006	Yaw Set Point:	0.273	X_WP:	0.000	Y_WP:	0.000	Z_WP:	0.500	X:	0.121	Y:	-0.014	Z:	0.420	yaw:	-15.646	yaw rate:	-92.920	Roll:	1.951	Pitch:	0.051	Yaw:	-16.008	Thrust:	70.672
Time:	1.735	Roll Set Point:	-0.239	Pitch Set Point:	-0.010	Yaw Set Point:	0.278	X_WP:	0.000	Y_WP:	0.000	Z_WP:	0.500	X:	0.120	Y:	-0.012	Z:	0.430	yaw:	-15.912	yaw rate:	26.581	Roll:	0.688	Pitch:	2.865	Yaw:	-29.731	Thrust:	38.168
Time:	1.755	Roll Set Point:	-0.239	Pitch Set Point:	-0.013	Yaw Set Point:	0.265	X_WP:	0.000	Y_WP:	0.000	Z_WP:	0.500	X:	0.120	Y:	-0.010	Z:	0.439	yaw:	-15.182	yaw rate:	-72.986	Roll:	1.567	Pitch:	0.531	Yaw:	-15.420	Thrust:	53.751
Time:	1.775	Roll Set Point:	-0.237	Pitch Set Point:	-0.014	Yaw Set Point:	0.247	X_WP:	0.000	Y_WP:	0.000	Z_WP:	0.500	X:	0.119	Y:	-0.008	Z:	0.448	yaw:	-14.142	yaw rate:	-103.941	Roll:	1.266	Pitch:	-0.053	Yaw:	-10.265	Thrust:	55.220
Time:	1.795	Roll Set Point:	-0.235	Pitch Set Point:	-0.017	Yaw Set Point:	0.239	X_WP:	0.000	Y_WP:	0.000	Z_WP:	0.500	X:	0.119	Y:	-0.006	Z:	0.458	yaw:	-13.698	yaw rate:	-44.443	Roll:	1.210	Pitch:	0.894	Yaw:	-17.312	Thrust:	52.895
Time:	1.819	Roll Set Point:	-0.233	Pitch Set Point:	-0.021	Yaw Set Point:	0.241	X_WP:	0.000	Y_WP:	0.000	Z_WP:	0.500	X:	0.118	Y:	-0.004	Z:	0.467	yaw:	-13.834	yaw rate:	13.569	Roll:	0.850	Pitch:	1.883	Yaw:	-25.551	Thrust:	70.778
Time:	1.835	Roll Set Point:	-0.232	Pitch Set Point:	-0.023	Yaw Set Point:	0.232	X_WP:	0.000	Y_WP:	0.000	Z_WP:	0.500	X:	0.117	Y:	-0.002	Z:	0.477	yaw:	-13.290	yaw rate:	-54.342	Roll:	1.432	Pitch:	0.689	Yaw:	-13.068	Thrust:	33.716
Time:	1.855	Roll Set Point:	-0.229	Pitch Set Point:	-0.027	Yaw Set Point:	0.238	X_WP:	0.000	Y_WP:	0.000	Z_WP:	0.500	X:	0.116	Y:	-0.000	Z:	0.486	yaw:	-13.626	yaw rate:	33.588	Roll:	0.560	Pitch:	2.301	Yaw:	-27.415	Thrust:	54.963
Time:	1.875	Roll Set Point:	-0.226	Pitch Set Point:	-0.029	Yaw Set Point:	0.227	X_WP:	0.000	Y_WP:	0.000	Z_WP:	0.500	X:	0.115	Y:	0.001	Z:	0.496	yaw:	-13.012	yaw rate:	-61.396	Roll:	0.864	Pitch:	0.465	Yaw:	-13.848	Thrust:	48.588
Time:	1.895	Roll Set Point:	-0.224	Pitch Set Point:	-0.031	Yaw Set Point:	0.225	X_WP:	0.000	Y_WP:	0.000	Z_WP:	0.500	X:	0.114	Y:	0.003	Z:	0.506	yaw:	-12.885	yaw rate:	-12.683	Roll:	1.093	Pitch:	1.359	Yaw:	-20.396	Thrust:	50.018
Time:	1.917	Roll Set Point:	-0.222	Pitch Set Point:	-0.033	Yaw Set Point:	0.212	X_WP:	0.000	Y_WP:	0.000	Z_WP:	0.500	X:	0.113	Y:	0.005	Z:	0.516	yaw:	-12.133	yaw rate:	-75.270	Roll:	1.031	Pitch:	0.533	Yaw:	-12.518	Thrust:	58.059
Time:	1.935	Roll Set Point:	-0.221	Pitch Set Point:	-0.036	Yaw Set Point:	0.204	X_WP:	0.000	Y_WP:	0.000	Z_WP:	0.500	X:	0.112	Y:	0.007	Z:	0.525	yaw:	-11.686	yaw rate:	-44.649	Roll:	1.201	Pitch:	1.076	Yaw:	-13.011	Thrust:	42.938
Time:	1.956	Roll Set Point:	-0.218	Pitch Set Point:	-0.037	Yaw Set Point:	0.197	X_WP:	0.000	Y_WP:	0.000	Z_WP:	0.500	X:	0.111	Y:	0.008	Z:	0.535	yaw:	-11.261	yaw rate:	-42.490	Roll:	0.700	Pitch:	0.524	Yaw:	-14.434	Thrust:	51.656
Time:	1.975	Roll Set Point:	-0.215	Pitch Set Point:	-0.037	Yaw Set Point:	0.167	X_WP:	0.000	Y_WP:	0.000	Z_WP:	0.500	X:	0.109	Y:	0.010	Z:	0.543	yaw:	-9.570	yaw rate:	-169.181	Roll:	0.818	Pitch:	-1.131	Yaw:	5.152	Thrust:	50.307
Time:	1.995	Roll Set Point:	-0.212	Pitch Set Point:	-0.040	Yaw Set Point:	0.169	X_WP:	0.000	Y_WP:	0.000	Z_WP:	0.500	X:	0.108	Y:	0.011	Z:	0.552	yaw:	-9.678	yaw rate:	10.829	Roll:	0.767	Pitch:	1.726	Yaw:	-18.904	Thrust:	49.943
Time:	2.019	Roll Set Point:	-0.209	Pitch Set Point:	-0.035	Yaw Set Point:	0.107	X_WP:	0.000	Y_WP:	0.000	Z_WP:	0.500	X:	0.105	Y:	0.012	Z:	0.561	yaw:	-6.110	yaw rate:	-356.819	Roll:	1.214	Pitch:	-4.144	Yaw:	25.350	Thrust:	66.078
Time:	2.035	Roll Set Point:	-0.208	Pitch Set Point:	-0.036	Yaw Set Point:	0.099	X_WP:	0.000	Y_WP:	0.000	Z_WP:	0.500	X:	0.105	Y:	0.013	Z:	0.569	yaw:	-5.681	yaw rate:	-42.816	Roll:	1.313	Pitch:	0.773	Yaw:	-4.180	Thrust:	32.999
Time:	2.055	Roll Set Point:	-0.204	Pitch Set Point:	-0.040	Yaw Set Point:	0.111	X_WP:	0.000	Y_WP:	0.000	Z_WP:	0.500	X:	0.103	Y:	0.014	Z:	0.576	yaw:	-6.369	yaw rate:	68.736	Roll:	0.161	Pitch:	2.464	Yaw:	-21.828	Thrust:	52.879
Time:	2.075	Roll Set Point:	-0.203	Pitch Set Point:	-0.040	Yaw Set Point:	0.093	X_WP:	0.000	Y_WP:	0.000	Z_WP:	0.500	X:	0.102	Y:	0.015	Z:	0.583	yaw:	-5.334	yaw rate:	-103.443	Roll:	1.553	Pitch:	-0.425	Yaw:	2.433	Thrust:	51.282
Time:	2.095	Roll Set Point:	-0.200	Pitch Set Point:	-0.043	Yaw Set Point:	0.099	X_WP:	0.000	Y_WP:	0.000	Z_WP:	0.500	X:	0.101	Y:	0.017	Z:	0.589	yaw:	-5.692	yaw rate:	35.751	Roll:	0.308	Pitch:	1.915	Yaw:	-16.619	Thrust:	54.812
Time:	2.119	Roll Set Point:	-0.197	Pitch Set Point:	-0.045	Yaw Set Point:	0.098	X_WP:	0.000	Y_WP:	0.000	Z_WP:	0.500	X:	0.100	Y:	0.018	Z:	0.594	yaw:	-5.628	yaw rate:	-6.392	Roll:	0.928	Pitch:	0.982	Yaw:	-11.839	Thrust:	69.654
Time:	2.135	Roll Set Point:	-0.196	Pitch Set Point:	-0.045	Yaw Set Point:	0.079	X_WP:	0.000	Y_WP:	0.000	Z_WP:	0.500	X:	0.099	Y:	0.019	Z:	0.598	yaw:	-4.551	yaw rate:	-107.666	Roll:	1.381	Pitch:	-0.586	Yaw:	7.804	Thrust:	39.470
Time:	2.155	Roll Set Point:	-0.194	Pitch Set Point:	-0.047	Yaw Set Point:	0.085	X_WP:	0.000	Y_WP:	0.000	Z_WP:	0.500	X:	0.098	Y:	0.019	Z:	0.603	yaw:	-4.882	yaw rate:	33.117	Roll:	0.958	Pitch:	1.510	Yaw:	-15.150	Thrust:	56.577
Time:	2.174	Roll Set Point:	-0.191	Pitch Set Point:	-0.050	Yaw Set Point:	0.101	X_WP:	0.000	Y_WP:	0.000	Z_WP:	0.500	X:	0.097	Y:	0.020	Z:	0.606	yaw:	-5.788	yaw rate:	90.515	Roll:	0.063	Pitch:	2.338	Yaw:	-24.098	Thrust:	54.884
Time:	2.195	Roll Set Point:	-0.190	Pitch Set Point:	-0.050	Yaw Set Point:	0.083	X_WP:	0.000	Y_WP:	0.000	Z_WP:	0.500	X:	0.096	Y:	0.021	Z:	0.610	yaw:	-4.770	yaw rate:	-101.774	Roll:	1.494	Pitch:	-0.443	Yaw:	2.276	Thrust:	58.400
Time:	2.218	Roll Set Point:	-0.186	Pitch Set Point:	-0.050	Yaw Set Point:	0.078	X_WP:	0.000	Y_WP:	0.000	Z_WP:	0.500	X:	0.094	Y:	0.021	Z:	0.613	yaw:	-4.495	yaw rate:	-27.450	Roll:	0.702	Pitch:	0.388	Yaw:	-7.932	Thrust:	70.076
Time:	2.235	Roll Set Point:	-0.185	Pitch Set Point:	-0.051	Yaw Set Point:	0.065	X_WP:	0.000	Y_WP:	0.000	Z_WP:	0.500	X:	0.093	Y:	0.022	Z:	0.617	yaw:	-3.696	yaw rate:	-79.897	Roll:	1.190	Pitch:	0.009	Yaw:	4.173	Thrust:	41.551
Time:	2.255	Roll Set Point:	-0.183	Pitch Set Point:	-0.050	Yaw Set Point:	0.058	X_WP:	0.000	Y_WP:	0.000	Z_WP:	0.500	X:	0.092	Y:	0.022	Z:	0.621	yaw:	-3.333	yaw rate:	-36.372	Roll:	1.120	Pitch:	0.028	Yaw:	-3.840	Thrust:	55.110
Time:	2.275	Roll Set Point:	-0.180	Pitch Set Point:	-0.052	Yaw Set Point:	0.069	X_WP:	0.000	Y_WP:	0.000	Z_WP:	0.500	X:	0.091	Y:	0.023	Z:	0.625	yaw:	-3.927	yaw rate:	59.450	Roll:	0.139	Pitch:	1.566	Yaw:	-17.225	Thrust:	54.712
Time:	2.295	Roll Set Point:	-0.179	Pitch Set Point:	-0.057	Yaw Set Point:	0.112	X_WP:	0.000	Y_WP:	0.000	Z_WP:	0.500	X:	0.091	Y:	0.023	Z:	0.627	yaw:	-6.423	yaw rate:	249.568	Roll:	0.836	Pitch:	4.185	Yaw:	-45.509	Thrust:	58.444
Time:	2.318	Roll Set Point:	-0.177	Pitch Set Point:	-0.052	Yaw Set Point:	0.063	X_WP:	0.000	Y_WP:	0.000	Z_WP:	0.500	X:	0.089	Y:	0.023	Z:	0.632	yaw:	-3.634	yaw rate:	-278.848	Roll:	1.420	Pitch:	-2.800	Yaw:	21.874	Thrust:	61.946
Time:	2.335	Roll Set Point:	-0.175	Pitch Set Point:	-0.053	Yaw Set Point:	0.061	X_WP:	0.000	Y_WP:	0.000	Z_WP:	0.500	X:	0.088	Y:	0.024	Z:	0.635	yaw:	-3.490	yaw rate:	-14.462	Roll:	0.624	Pitch:	0.579	Yaw:	-5.849	Thrust:	41.087
Time:	2.355	Roll Set Point:	-0.173	Pitch Set Point:	-0.053	Yaw Set Point:	0.063	X_WP:	0.000	Y_WP:	0.000	Z_WP:	0.500	X:	0.087	Y:	0.024	Z:	0.637	yaw:	-3.613	yaw rate:	12.286	Roll:	0.790	Pitch:	0.352	Yaw:	-10.738	Thrust:	56.056
Time:	2.375	Roll Set Point:	-0.171	Pitch Set Point:	-0.049	Yaw Set Point:	0.053	X_WP:	0.000	Y_WP:	0.000	Z_WP:	0.500	X:	0.086	Y:	0.022	Z:	0.641	yaw:	-3.014	yaw rate:	-59.912	Roll:	1.344	Pitch:	-1.327	Yaw:	-0.108	Thrust:	52.412
Time:	2.395	Roll Set Point:	-0.170	Pitch Set Point:	-0.052	Yaw Set Point:	0.051	X_WP:	0.000	Y_WP:	0.000	Z_WP:	0.500	X:	0.086	Y:	0.024	Z:	0.642	yaw:	-2.918	yaw rate:	-9.584	Roll:	1.098	Pitch:	1.376	Yaw:	-6.740	Thrust:	55.115
Time:	2.418	Roll Set Point:	-0.167	Pitch Set Point:	-0.053	Yaw Set Point:	0.050	X_WP:	0.000	Y_WP:	0.000	Z_WP:	0.500	X:	0.084	Y:	0.024	Z:	0.644	yaw:	-2.890	yaw rate:	-2.771	Roll:	0.818	Pitch:	0.722	Yaw:	-8.306	Thrust:	67.035
Time:	2.435	Roll Set Point:	-0.166	Pitch Set Point:	-0.050	Yaw Set Point:	0.029	X_WP:	0.000	Y_WP:	0.000	Z_WP:	0.500	X:	0.083	Y:	0.024	Z:	0.645	yaw:	-1.635	yaw rate:	-125.456	Roll:	1.209	Pitch:	-1.551	Yaw:	13.575	Thrust:	46.133
Time:	2.456	Roll Set Point:	-0.164	Pitch Set Point:	-0.050	Yaw Set Point:	0.040	X_WP:	0.000	Y_WP:	0.000	Z_WP:	0.500	X:	0.082	Y:	0.023	Z:	0.647	yaw:	-2.302	yaw rate:	66.658	Roll:	0.512	Pitch:	0.630	Yaw:	-15.708	Thrust:	58.328
Time:	2.475	Roll Set Point:	-0.162	Pitch Set Point:	-0.049	Yaw Set Point:	0.029	X_WP:	0.000	Y_WP:	0.000	Z_WP:	0.500	X:	0.082	Y:	0.023	Z:	0.648	yaw:	-1.658	yaw rate:	-64.364	Roll:	1.199	Pitch:	-0.525	Yaw:	2.677	Thrust:	53.413
Time:	2.495	Roll Set Point:	-0.161	Pitch Set Point:	-0.048	Yaw Set Point:	0.034	X_WP:	0.000	Y_WP:	0.000	Z_WP:	0.500	X:	0.081	Y:	0.023	Z:	0.648	yaw:	-1.970	yaw rate:	31.192	Roll:	0.883	Pitch:	0.409	Yaw:	-10.834	Thrust:	56.526
Time:	2.516	Roll Set Point:	-0.159	Pitch Set Point:	-0.047	Yaw Set Point:	0.030	X_WP:	0.000	Y_WP:	0.000	Z_WP:	0.500	X:	0.080	Y:	0.022	Z:	0.649	yaw:	-1.714	yaw rate:	-25.632	Roll:	0.873	Pitch:	-0.348	Yaw:	-3.447	Thrust:	59.058
Time:	2.535	Roll Set Point:	-0.157	Pitch Set Point:	-0.046	Yaw Set Point:	0.036	X_WP:	0.000	Y_WP:	0.000	Z_WP:	0.500	X:	0.079	Y:	0.022	Z:	0.651	yaw:	-2.038	yaw rate:	32.441	Roll:	0.959	Pitch:	0.328	Yaw:	-11.119	Thrust:	50.538
Time:	2.555	Roll Set Point:	-0.155	Pitch Set Point:	-0.047	Yaw Set Point:	0.054	X_WP:	0.000	Y_WP:	0.000	Z_WP:	0.500	X:	0.078	Y:	0.022	Z:	0.652	yaw:	-3.077	yaw rate:	103.855	Roll:	0.706	Pitch:	1.424	Yaw:	-22.079	Thrust:	52.658
Time:	2.575	Roll Set Point:	-0.155	Pitch Set Point:	-0.043	Yaw Set Point:	0.030	X_WP:	0.000	Y_WP:	0.000	Z_WP:	0.500	X:	0.078	Y:	0.021	Z:	0.653	yaw:	-1.720	yaw rate:	-135.675	Roll:	1.489	Pitch:	-1.993	Yaw:	10.859	Thrust:	55.931
Time:	2.595	Roll Set Point:	-0.153	Pitch Set Point:	-0.041	Yaw Set Point:	0.013	X_WP:	0.000	Y_WP:	0.000	Z_WP:	0.500	X:	0.077	Y:	0.020	Z:	0.653	yaw:	-0.719	yaw rate:	-100.112	Roll:	1.040	Pitch:	-1.366	Yaw:	8.013	Thrust:	54.777
Time:	2.618	Roll Set Point:	-0.153	Pitch Set Point:	-0.039	Yaw Set Point:	0.008	X_WP:	0.000	Y_WP:	0.000	Z_WP:	0.500	X:	0.076	Y:	0.019	Z:	0.654	yaw:	-0.444	yaw rate:	-27.473	Roll:	1.635	Pitch:	-0.585	Yaw:	-1.961	Thrust:	62.391
Time:	2.635	Roll Set Point:	-0.151	Pitch Set Point:	-0.038	Yaw Set Point:	0.024	X_WP:	0.000	Y_WP:	0.000	Z_WP:	0.500	X:	0.076	Y:	0.018	Z:	0.654	yaw:	-1.377	yaw rate:	93.217	Roll:	0.449	Pitch:	0.531	Yaw:	-19.795	Thrust:	43.928
Time:	2.655	Roll Set Point:	-0.149	Pitch Set Point:	-0.037	Yaw Set Point:	0.011	X_WP:	0.000	Y_WP:	0.000	Z_WP:	0.500	X:	0.074	Y:	0.018	Z:	0.655	yaw:	-0.603	yaw rate:	-77.359	Roll:	0.861	Pitch:	-0.331	Yaw:	4.965	Thrust:	54.901
Time:	2.676	Roll Set Point:	-0.148	Pitch Set Point:	-0.036	Yaw Set Point:	0.008	X_WP:	0.000	Y_WP:	0.000	Z_WP:	0.500	X:	0.074	Y:	0.018	Z:	0.655	yaw:	-0.472	yaw rate:	-13.100	Roll:	1.127	Pitch:	-0.428	Yaw:	-3.121	Thrust:	56.011
Time:	2.695	Roll Set Point:	-0.146	Pitch Set Point:	-0.033	Yaw Set Point:	-0.001	X_WP:	0.000	Y_WP:	0.000	Z_WP:	0.500	X:	0.073	Y:	0.016	Z:	0.655	yaw:	0.034	yaw rate:	-50.634	Roll:	1.169	Pitch:	-1.323	Yaw:	3.145	Thrust:	51.476
Time:	2.718	Roll Set Point:	-0.146	Pitch Set Point:	-0.032	Yaw Set Point:	0.007	X_WP:	0.000	Y_WP:	0.000	Z_WP:	0.500	X:	0.073	Y:	0.016	Z:	0.655	yaw:	-0.420	yaw rate:	45.424	Roll:	1.325	Pitch:	0.303	Yaw:	-10.344	Thrust:	60.875
Time:	2.735	Roll Set Point:	-0.145	Pitch Set Point:	-0.032	Yaw Set Point:	0.008	X_WP:	0.000	Y_WP:	0.000	Z_WP:	0.500	X:	0.072	Y:	0.016	Z:	0.655	yaw:	-0.441	yaw rate:	2.127	Roll:	0.978	Pitch:	0.061	Yaw:	-4.201	Thrust:	45.463
Time:	2.755	Roll Set Point:	-0.144	Pitch Set Point:	-0.029	Yaw Set Point:	0.004	X_WP:	0.000	Y_WP:	0.000	Z_WP:	0.500	X:	0.072	Y:	0.015	Z:	0.654	yaw:	-0.213	yaw rate:	-22.834	Roll:	1.302	Pitch:	-0.897	Yaw:	-1.501	Thrust:	53.661
Time:	2.775	Roll Set Point:	-0.144	Pitch Set Point:	-0.026	Yaw Set Point:	-0.018	X_WP:	0.000	Y_WP:	0.000	Z_WP:	0.500	X:	0.072	Y:	0.014	Z:	0.653	yaw:	1.012	yaw rate:	-122.496	Roll:	1.561	Pitch:	-1.909	Yaw:	13.801	Thrust:	54.899
Time:	2.795	Roll Set Point:	-0.144	Pitch Set Point:	-0.025	Yaw Set Point:	-0.005	X_WP:	0.000	Y_WP:	0.000	Z_WP:	0.500	X:	0.072	Y:	0.013	Z:	0.652	yaw:	0.295	yaw rate:	71.674	Roll:	1.513	Pitch:	0.220	Yaw:	-12.962	Thrust:	54.739
Time:	2.818	Roll Set Point:	-0.142	Pitch Set Point:	-0.025	Yaw Set Point:	-0.000	X_WP:	0.000	Y_WP:	0.000	Z_WP:	0.500	X:	0.071	Y:	0.013	Z:	0.652	yaw:	0.001	yaw rate:	29.488	Roll:	0.979	Pitch:	0.600	Yaw:	-7.957	Thrust:	62.006
Time:	2.835	Roll Set Point:	-0.141	Pitch Set Point:	-0.024	Yaw Set Point:	0.007	X_WP:	0.000	Y_WP:	0.000	Z_WP:	0.500	X:	0.071	Y:	0.012	Z:	0.651	yaw:	-0.400	yaw rate:	40.018	Roll:	1.281	Pitch:	-0.107	Yaw:	-10.114	Thrust:	45.972
Time:	2.855	Roll Set Point:	-0.142	Pitch Set Point:	-0.020	Yaw Set Point:	0.020	X_WP:	0.000	Y_WP:	0.000	Z_WP:	0.500	X:	0.071	Y:	0.009	Z:	0.649	yaw:	-1.158	yaw rate:	75.823	Roll:	1.739	Pitch:	-1.219	Yaw:	-15.582	Thrust:	53.652
Time:	2.874	Roll Set Point:	-0.141	Pitch Set Point:	-0.020	Yaw Set Point:	0.016	X_WP:	0.000	Y_WP:	0.000	Z_WP:	0.500	X:	0.071	Y:	0.010	Z:	0.647	yaw:	-0.895	yaw rate:	-26.299	Roll:	1.096	Pitch:	0.243	Yaw:	-1.507	Thrust:	54.588
Time:	2.895	Roll Set Point:	-0.140	Pitch Set Point:	-0.020	Yaw Set Point:	0.001	X_WP:	0.000	Y_WP:	0.000	Z_WP:	0.500	X:	0.070	Y:	0.010	Z:	0.644	yaw:	-0.045	yaw rate:	-85.014	Roll:	1.200	Pitch:	-0.441	Yaw:	6.224	Thrust:	59.873
Time:	2.918	Roll Set Point:	-0.139	Pitch Set Point:	-0.016	Yaw Set Point:	-0.023	X_WP:	0.000	Y_WP:	0.000	Z_WP:	0.500	X:	0.070	Y:	0.009	Z:	0.642	yaw:	1.338	yaw rate:	-138.264	Roll:	1.516	Pitch:	-1.773	Yaw:	13.187	Thrust:	63.418
Time:	2.935	Roll Set Point:	-0.139	Pitch Set Point:	-0.018	Yaw Set Point:	0.002	X_WP:	0.000	Y_WP:	0.000	Z_WP:	0.500	X:	0.069	Y:	0.009	Z:	0.639	yaw:	-0.109	yaw rate:	144.652	Roll:	1.116	Pitch:	1.696	Yaw:	-25.775	Thrust:	48.001
Time:	2.955	Roll Set Point:	-0.138	Pitch Set Point:	-0.016	Yaw Set Point:	0.002	X_WP:	0.000	Y_WP:	0.000	Z_WP:	0.500	X:	0.069	Y:	0.008	Z:	0.637	yaw:	-0.114	yaw rate:	0.550	Roll:	1.303	Pitch:	-0.613	Yaw:	-4.155	Thrust:	55.803
Time:	2.975	Roll Set Point:	-0.138	Pitch Set Point:	-0.012	Yaw Set Point:	-0.008	X_WP:	0.000	Y_WP:	0.000	Z_WP:	0.500	X:	0.069	Y:	0.007	Z:	0.634	yaw:	0.485	yaw rate:	-59.871	Roll:	1.709	Pitch:	-1.658	Yaw:	4.868	Thrust:	54.645
Time:	2.995	Roll Set Point:	-0.140	Pitch Set Point:	-0.016	Yaw Set Point:	0.035	X_WP:	0.000	Y_WP:	0.000	Z_WP:	0.500	X:	0.070	Y:	0.007	Z:	0.629	yaw:	-1.991	yaw rate:	247.531	Roll:	2.172	Pitch:	2.790	Yaw:	-37.585	Thrust:	62.803
Time:	3.018	Roll Set Point:	-0.140	Pitch Set Point:	-0.015	Yaw Set Point:	0.033	X_WP:	0.000	Y_WP:	0.000	Z_WP:	0.500	X:	0.070	Y:	0.006	Z:	0.626	yaw:	-1.898	yaw rate:	-9.316	Roll:	1.628	Pitch:	-0.193	Yaw:	-6.088	Thrust:	62.776
Time:	3.035	Roll Set Point:	-0.137	Pitch Set Point:	-0.015	Yaw Set Point:	0.016	X_WP:	0.000	Y_WP:	0.000	Z_WP:	0.500	X:	0.068	Y:	0.007	Z:	0.625	yaw:	-0.899	yaw rate:	-99.896	Roll:	-0.076	Pitch:	-0.610	Yaw:	11.295	Thrust:	44.093
Time:	3.055	Roll Set Point:	-0.137	Pitch Set Point:	-0.014	Yaw Set Point:	0.017	X_WP:	0.000	Y_WP:	0.000	Z_WP:	0.500	X:	0.068	Y:	0.006	Z:	0.622	yaw:	-0.966	yaw rate:	6.793	Roll:	1.508	Pitch:	-0.142	Yaw:	-6.299	Thrust:	56.828
Time:	3.075	Roll Set Point:	-0.136	Pitch Set Point:	-0.014	Yaw Set Point:	0.019	X_WP:	0.000	Y_WP:	0.000	Z_WP:	0.500	X:	0.068	Y:	0.006	Z:	0.619	yaw:	-1.096	yaw rate:	12.926	Roll:	1.389	Pitch:	0.221	Yaw:	-7.242	Thrust:	56.438
Time:	3.095	Roll Set Point:	-0.136	Pitch Set Point:	-0.008	Yaw Set Point:	-0.023	X_WP:	0.000	Y_WP:	0.000	Z_WP:	0.500	X:	0.068	Y:	0.005	Z:	0.616	yaw:	1.308	yaw rate:	-240.374	Roll:	1.763	Pitch:	-3.192	Yaw:	29.251	Thrust:	55.974
Time:	3.118	Roll Set Point:	-0.135	Pitch Set Point:	-0.009	Yaw Set Point:	-0.012	X_WP:	0.000	Y_WP:	0.000	Z_WP:	0.500	X:	0.068	Y:	0.005	Z:	0.613	yaw:	0.671	yaw rate:	63.705	Roll:	1.293	Pitch:	0.703	Yaw:	-10.889	Thrust:	62.899
Time:	3.135	Roll Set Point:	-0.135	Pitch Set Point:	-0.010	Yaw Set Point:	0.006	X_WP:	0.000	Y_WP:	0.000	Z_WP:	0.500	X:	0.068	Y:	0.005	Z:	0.610	yaw:	-0.364	yaw rate:	103.450	Roll:	1.451	Pitch:	1.056	Yaw:	-20.017	Thrust:	48.268
Time:	3.155	Roll Set Point:	-0.136	Pitch Set Point:	-0.010	Yaw Set Point:	0.009	X_WP:	0.000	Y_WP:	0.000	Z_WP:	0.500	X:	0.068	Y:	0.005	Z:	0.607	yaw:	-0.522	yaw rate:	15.830	Roll:	1.658	Pitch:	0.439	Yaw:	-6.831	Thrust:	56.937
Time:	3.175	Roll Set Point:	-0.136	Pitch Set Point:	-0.008	Yaw Set Point:	-0.002	X_WP:	0.000	Y_WP:	0.000	Z_WP:	0.500	X:	0.068	Y:	0.004	Z:	0.604	yaw:	0.092	yaw rate:	-61.384	Roll:	1.638	Pitch:	-1.148	Yaw:	4.867	Thrust:	51.909
Time:	3.195	Roll Set Point:	-0.138	Pitch Set Point:	-0.007	Yaw Set Point:	0.034	X_WP:	0.000	Y_WP:	0.000	Z_WP:	0.500	X:	0.069	Y:	0.002	Z:	0.600	yaw:	-1.964	yaw rate:	205.635	Roll:	2.732	Pitch:	0.497	Yaw:	-32.962	Thrust:	58.990
Time:	3.218	Roll Set Point:	-0.138	Pitch Set Point:	-0.006	Yaw Set Point:	0.032	X_WP:	0.000	Y_WP:	0.000	Z_WP:	0.500	X:	0.069	Y:	0.002	Z:	0.598	yaw:	-1.843	yaw rate:	-12.178	Roll:	1.471	Pitch:	-0.099	Yaw:	-5.835	Thrust:	62.902
Time:	3.235	Roll Set Point:	-0.135	Pitch Set Point:	-0.006	Yaw Set Point:	0.002	X_WP:	0.000	Y_WP:	0.000	Z_WP:	0.500	X:	0.067	Y:	0.003	Z:	0.596	yaw:	-0.098	yaw rate:	-174.468	Roll:	0.040	Pitch:	-0.899	Yaw:	23.256	Thrust:	42.230
Time:	3.256	Roll Set Point:	-0.135	Pitch Set Point:	-0.006	Yaw Set Point:	-0.003	X_WP:	0.000	Y_WP:	0.000	Z_WP:	0.500	X:	0.067	Y:	0.003	Z:	0.593	yaw:	0.152	yaw rate:	-24.952	Roll:	1.667	Pitch:	-0.136	Yaw:	-0.474	Thrust:	56.997
Time:	3.275	Roll Set Point:	-0.137	Pitch Set Point:	-0.005	Yaw Set Point:	0.013	X_WP:	0.000	Y_WP:	0.000	Z_WP:	0.500	X:	0.068	Y:	0.002	Z:	0.589	yaw:	-0.769	yaw rate:	92.031	Roll:	2.470	Pitch:	-0.137	Yaw:	-17.100	Thrust:	57.282
Time:	3.295	Roll Set Point:	-0.139	Pitch Set Point:	-0.007	Yaw Set Point:	0.063	X_WP:	0.000	Y_WP:	0.000	Z_WP:	0.500	X:	0.069	Y:	0.001	Z:	0.587	yaw:	-3.617	yaw rate:	284.840	Roll:	2.244	Pitch:	2.736	Yaw:	-46.188	Thrust:	52.556
Time:	3.319	Roll Set Point:	-0.134	Pitch Set Point:	-0.002	Yaw Set Point:	-0.026	X_WP:	0.000	Y_WP:	0.000	Z_WP:	0.500	X:	0.067	Y:	0.002	Z:	0.585	yaw:	1.465	yaw rate:	-508.230	Roll:	0.126	Pitch:	-3.834	Yaw:	54.327	Thrust:	61.982
Time:	3.336	Roll Set Point:	-0.134	Pitch Set Point:	-0.002	Yaw Set Point:	-0.024	X_WP:	0.000	Y_WP:	0.000	Z_WP:	0.500	X:	0.067	Y:	0.002	Z:	0.582	yaw:	1.389	yaw rate:	7.661	Roll:	1.320	Pitch:	-0.269	Yaw:	-2.635	Thrust:	47.592
Time:	3.355	Roll Set Point:	-0.134	Pitch Set Point:	-0.002	Yaw Set Point:	-0.025	X_WP:	0.000	Y_WP:	0.000	Z_WP:	0.500	X:	0.067	Y:	0.002	Z:	0.579	yaw:	1.452	yaw rate:	-6.342	Roll:	1.506	Pitch:	0.246	Yaw:	-1.087	Thrust:	54.968
Time:	3.374	Roll Set Point:	-0.134	Pitch Set Point:	-0.001	Yaw Set Point:	-0.038	X_WP:	0.000	Y_WP:	0.000	Z_WP:	0.500	X:	0.067	Y:	0.002	Z:	0.575	yaw:	2.200	yaw rate:	-74.797	Roll:	1.615	Pitch:	-1.082	Yaw:	9.869	Thrust:	54.974
Time:	3.395	Roll Set Point:	-0.133	Pitch Set Point:	-0.001	Yaw Set Point:	-0.025	X_WP:	0.000	Y_WP:	0.000	Z_WP:	0.500	X:	0.067	Y:	0.001	Z:	0.571	yaw:	1.458	yaw rate:	74.211	Roll:	1.366	Pitch:	0.649	Yaw:	-11.511	Thrust:	56.328
Time:	3.416	Roll Set Point:	-0.133	Pitch Set Point:	-0.001	Yaw Set Point:	-0.026	X_WP:	0.000	Y_WP:	0.000	Z_WP:	0.500	X:	0.066	Y:	0.001	Z:	0.568	yaw:	1.517	yaw rate:	-5.875	Roll:	1.571	Pitch:	0.003	Yaw:	-1.482	Thrust:	60.085
Time:	3.434	Roll Set Point:	-0.133	Pitch Set Point:	-0.003	Yaw Set Point:	-0.008	X_WP:	0.000	Y_WP:	0.000	Z_WP:	0.500	X:	0.066	Y:	0.002	Z:	0.564	yaw:	0.471	yaw rate:	104.554	Roll:	1.469	Pitch:	1.604	Yaw:	-17.986	Thrust:	53.202
Time:	3.455	Roll Set Point:	-0.132	Pitch Set Point:	-0.000	Yaw Set Point:	-0.033	X_WP:	0.000	Y_WP:	0.000	Z_WP:	0.500	X:	0.066	Y:	0.001	Z:	0.561	yaw:	1.889	yaw rate:	-141.816	Roll:	1.349	Pitch:	-1.834	Yaw:	16.654	Thrust:	57.320
Time:	3.474	Roll Set Point:	-0.132	Pitch Set Point:	-0.001	Yaw Set Point:	-0.022	X_WP:	0.000	Y_WP:	0.000	Z_WP:	0.500	X:	0.066	Y:	0.001	Z:	0.557	yaw:	1.269	yaw rate:	62.049	Roll:	1.752	Pitch:	0.534	Yaw:	-10.482	Thrust:	54.637
Time:	3.495	Roll Set Point:	-0.132	Pitch Set Point:	-0.000	Yaw Set Point:	-0.036	X_WP:	0.000	Y_WP:	0.000	Z_WP:	0.500	X:	0.066	Y:	0.001	Z:	0.553	yaw:	2.090	yaw rate:	-82.149	Roll:	1.537	Pitch:	-0.562	Yaw:	9.201	Thrust:	58.335
Time:	3.518	Roll Set Point:	-0.131	Pitch Set Point:	-0.001	Yaw Set Point:	-0.026	X_WP:	0.000	Y_WP:	0.000	Z_WP:	0.500	X:	0.066	Y:	0.001	Z:	0.549	yaw:	1.517	yaw rate:	57.332	Roll:	1.312	Pitch:	0.591	Yaw:	-9.007	Thrust:	62.416
Time:	3.536	Roll Set Point:	-0.131	Pitch Set Point:	-0.001	Yaw Set Point:	-0.025	X_WP:	0.000	Y_WP:	0.000	Z_WP:	0.500	X:	0.066	Y:	0.001	Z:	0.544	yaw:	1.450	yaw rate:	6.688	Roll:	1.668	Pitch:	0.134	Yaw:	-2.491	Thrust:	55.340
Time:	3.556	Roll Set Point:	-0.131	Pitch Set Point:	-0.001	Yaw Set Point:	-0.027	X_WP:	0.000	Y_WP:	0.000	Z_WP:	0.500	X:	0.066	Y:	0.001	Z:	0.540	yaw:	1.533	yaw rate:	-8.317	Roll:	1.612	Pitch:	0.003	Yaw:	-0.812	Thrust:	58.257
Time:	3.575	Roll Set Point:	-0.131	Pitch Set Point:	-0.002	Yaw Set Point:	-0.018	X_WP:	0.000	Y_WP:	0.000	Z_WP:	0.500	X:	0.065	Y:	0.002	Z:	0.536	yaw:	1.045	yaw rate:	48.843	Roll:	1.310	Pitch:	0.611	Yaw:	-8.940	Thrust:	57.740
Time:	3.595	Roll Set Point:	-0.130	Pitch Set Point:	-0.002	Yaw Set Point:	-0.022	X_WP:	0.000	Y_WP:	0.000	Z_WP:	0.500	X:	0.065	Y:	0.002	Z:	0.531	yaw:	1.249	yaw rate:	-20.422	Roll:	1.314	Pitch:	0.152	Yaw:	0.519	Thrust:	59.733
Time:	3.620	Roll Set Point:	-0.130	Pitch Set Point:	-0.002	Yaw Set Point:	-0.021	X_WP:	0.000	Y_WP:	0.000	Z_WP:	0.500	X:	0.065	Y:	0.002	Z:	0.527	yaw:	1.222	yaw rate:	2.672	Roll:	1.755	Pitch:	-0.025	Yaw:	-3.239	Thrust:	67.463
Time:	3.635	Roll Set Point:	-0.130	Pitch Set Point:	-0.003	Yaw Set Point:	-0.016	X_WP:	0.000	Y_WP:	0.000	Z_WP:	0.500	X:	0.065	Y:	0.002	Z:	0.523	yaw:	0.893	yaw rate:	32.928	Roll:	1.288	Pitch:	0.695	Yaw:	-7.279	Thrust:	50.893
Time:	3.656	Roll Set Point:	-0.129	Pitch Set Point:	-0.004	Yaw Set Point:	-0.011	X_WP:	0.000	Y_WP:	0.000	Z_WP:	0.500	X:	0.064	Y:	0.002	Z:	0.519	yaw:	0.648	yaw rate:	24.497	Roll:	1.265	Pitch:	0.667	Yaw:	-6.144	Thrust:	59.943
Time:	3.675	Roll Set Point:	-0.130	Pitch Set Point:	-0.002	Yaw Set Point:	0.003	X_WP:	0.000	Y_WP:	0.000	Z_WP:	0.500	X:	0.065	Y:	0.001	Z:	0.514	yaw:	-0.166	yaw rate:	81.451	Roll:	2.123	Pitch:	-0.230	Yaw:	-14.693	Thrust:	57.798
Time:	3.695	Roll Set Point:	-0.130	Pitch Set Point:	-0.003	Yaw Set Point:	-0.012	X_WP:	0.000	Y_WP:	0.000	Z_WP:	0.500	X:	0.065	Y:	0.002	Z:	0.510	yaw:	0.694	yaw rate:	-86.010	Roll:	1.517	Pitch:	-0.286	Yaw:	8.432	Thrust:	60.732
Time:	3.718	Roll Set Point:	-0.130	Pitch Set Point:	-0.006	Yaw Set Point:	0.018	X_WP:	0.000	Y_WP:	0.000	Z_WP:	0.500	X:	0.065	Y:	0.002	Z:	0.504	yaw:	-1.029	yaw rate:	172.306	Roll:	1.865	Pitch:	2.022	Yaw:	-25.483	Thrust:	69.162
Time:	3.735	Roll Set Point:	-0.128	Pitch Set Point:	-0.006	Yaw Set Point:	0.001	X_WP:	0.000	Y_WP:	0.000	Z_WP:	0.500	X:	0.064	Y:	0.003	Z:	0.500	yaw:	-0.083	yaw rate:	-94.662	Roll:	0.670	Pitch:	-0.237	Yaw:	11.101	Thrust:	52.879
Time:	3.755	Roll Set Point:	-0.128	Pitch Set Point:	-0.007	Yaw Set Point:	0.005	X_WP:	0.000	Y_WP:	0.000	Z_WP:	0.500	X:	0.064	Y:	0.003	Z:	0.497	yaw:	-0.306	yaw rate:	22.299	Roll:	1.474	Pitch:	0.409	Yaw:	-7.161	Thrust:	58.757
Time:	3.775	Roll Set Point:	-0.129	Pitch Set Point:	-0.007	Yaw Set Point:	0.017	X_WP:	0.000	Y_WP:	0.000	Z_WP:	0.500	X:	0.064	Y:	0.003	Z:	0.494	yaw:	-0.979	yaw rate:	67.331	Roll:	1.848	Pitch:	0.380	Yaw:	-13.964	Thrust:	57.586
Time:	3.795	Roll Set Point:	-0.128	Pitch Set Point:	-0.007	Yaw Set Point:	0.029	X_WP:	0.000	Y_WP:	0.000	Z_WP:	0.500	X:	0.064	Y:	0.003	Z:	0.491	yaw:	-1.678	yaw rate:	69.910	Roll:	1.523	Pitch:	0.571	Yaw:	-15.276	Thrust:	56.252
Time:	3.818	Roll Set Point:	-0.126	Pitch Set Point:	-0.005	Yaw Set Point:	-0.030	X_WP:	0.000	Y_WP:	0.000	Z_WP:	0.500	X:	0.063	Y:	0.003	Z:	0.491	yaw:	1.721	yaw rate:	-339.894	Roll:	0.692	Pitch:	-2.158	Yaw:	36.939	Thrust:	61.215
Time:	3.835	Roll Set Point:	-0.124	Pitch Set Point:	-0.005	Yaw Set Point:	-0.032	X_WP:	0.000	Y_WP:	0.000	Z_WP:	0.500	X:	0.062	Y:	0.003	Z:	0.488	yaw:	1.830	yaw rate:	-10.922	Roll:	1.029	Pitch:	0.096	Yaw:	0.963	Thrust:	48.682
Time:	3.855	Roll Set Point:	-0.123	Pitch Set Point:	-0.005	Yaw Set Point:	-0.031	X_WP:	0.000	Y_WP:	0.000	Z_WP:	0.500	X:	0.062	Y:	0.003	Z:	0.486	yaw:	1.750	yaw rate:	7.975	Roll:	1.041	Pitch:	0.181	Yaw:	-2.455	Thrust:	57.333
Time:	3.875	Roll Set Point:	-0.123	Pitch Set Point:	-0.006	Yaw Set Point:	-0.026	X_WP:	0.000	Y_WP:	0.000	Z_WP:	0.500	X:	0.061	Y:	0.004	Z:	0.484	yaw:	1.467	yaw rate:	28.296	Roll:	1.366	Pitch:	0.516	Yaw:	-5.469	Thrust:	55.120
Time:	3.895	Roll Set Point:	-0.123	Pitch Set Point:	-0.005	Yaw Set Point:	-0.016	X_WP:	0.000	Y_WP:	0.000	Z_WP:	0.500	X:	0.061	Y:	0.003	Z:	0.483	yaw:	0.938	yaw rate:	52.925	Roll:	1.756	Pitch:	0.206	Yaw:	-9.371	Thrust:	55.943
Time:	3.916	Roll Set Point:	-0.122	Pitch Set Point:	-0.006	Yaw Set Point:	-0.027	X_WP:	0.000	Y_WP:	0.000	Z_WP:	0.500	X:	0.061	Y:	0.004	Z:	0.481	yaw:	1.538	yaw rate:	-59.948	Roll:	1.167	Pitch:	0.165	Yaw:	5.958	Thrust:	57.637
Time:	3.935	Roll Set Point:	-0.121	Pitch Set Point:	-0.006	Yaw Set Point:	-0.031	X_WP:	0.000	Y_WP:	0.000	Z_WP:	0.500	X:	0.060	Y:	0.004	Z:	0.479	yaw:	1.788	yaw rate:	-25.087	Roll:	1.120	Pitch:	-0.077	Yaw:	2.203	Thrust:	54.651
Time:	3.955	Roll Set Point:	-0.121	Pitch Set Point:	-0.005	Yaw Set Point:	-0.038	X_WP:	0.000	Y_WP:	0.000	Z_WP:	0.500	X:	0.061	Y:	0.004	Z:	0.476	yaw:	2.188	yaw rate:	-39.959	Roll:	1.926	Pitch:	-0.622	Yaw:	4.485	Thrust:	58.396
Time:	3.975	Roll Set Point:	-0.120	Pitch Set Point:	-0.006	Yaw Set Point:	-0.029	X_WP:	0.000	Y_WP:	0.000	Z_WP:	0.500	X:	0.060	Y:	0.004	Z:	0.474	yaw:	1.655	yaw rate:	53.258	Roll:	0.870	Pitch:	0.825	Yaw:	-8.478	Thrust:	55.926
Time:	3.995	Roll Set Point:	-0.118	Pitch Set Point:	-0.006	Yaw Set Point:	-0.037	X_WP:	0.000	Y_WP:	0.000	Z_WP:	0.500	X:	0.059	Y:	0.004	Z:	0.471	yaw:	2.122	yaw rate:	-46.705	Roll:	0.915	Pitch:	-0.057	Yaw:	5.291	Thrust:	59.109
Time:	4.018	Roll Set Point:	-0.118	Pitch Set Point:	-0.007	Yaw Set Point:	-0.030	X_WP:	0.000	Y_WP:	0.000	Z_WP:	0.500	X:	0.059	Y:	0.004	Z:	0.469	yaw:	1.703	yaw rate:	41.972	Roll:	1.689	Pitch:	0.465	Yaw:	-6.689	Thrust:	65.609
Time:	4.035	Roll Set Point:	-0.117	Pitch Set Point:	-0.007	Yaw Set Point:	-0.032	X_WP:	0.000	Y_WP:	0.000	Z_WP:	0.500	X:	0.059	Y:	0.004	Z:	0.466	yaw:	1.846	yaw rate:	-14.334	Roll:	1.051	Pitch:	-0.045	Yaw:	1.610	Thrust:	52.505
Time:	4.055	Roll Set Point:	-0.117	Pitch Set Point:	-0.007	Yaw Set Point:	-0.022	X_WP:	0.000	Y_WP:	0.000	Z_WP:	0.500	X:	0.059	Y:	0.004	Z:	0.464	yaw:	1.287	yaw rate:	55.898	Roll:	1.498	Pitch:	0.336	Yaw:	-9.205	Thrust:	58.886
Time:	4.075	Roll Set Point:	-0.116	Pitch Set Point:	-0.007	Yaw Set Point:	-0.030	X_WP:	0.000	Y_WP:	0.000	Z_WP:	0.500	X:	0.058	Y:	0.004	Z:	0.460	yaw:	1.735	yaw rate:	-44.790	Roll:	1.055	Pitch:	0.123	Yaw:	4.649	Thrust:	60.671
Time:	4.096	Roll Set Point:	-0.115	Pitch Set Point:	-0.007	Yaw Set Point:	-0.041	X_WP:	0.000	Y_WP:	0.000	Z_WP:	0.500	X:	0.058	Y:	0.005	Z:	0.457	yaw:	2.341	yaw rate:	-60.640	Roll:	1.436	Pitch:	-0.169	Yaw:	7.176	Thrust:	60.193
Time:	4.118	Roll Set Point:	-0.113	Pitch Set Point:	-0.007	Yaw Set Point:	-0.043	X_WP:	0.000	Y_WP:	0.000	Z_WP:	0.500	X:	0.057	Y:	0.005	Z:	0.455	yaw:	2.458	yaw rate:	-11.650	Roll:	0.740	Pitch:	0.171	Yaw:	0.679	Thrust:	66.741
Time:	4.135	Roll Set Point:	-0.114	Pitch Set Point:	-0.008	Yaw Set Point:	-0.041	X_WP:	0.000	Y_WP:	0.000	Z_WP:	0.500	X:	0.057	Y:	0.005	Z:	0.452	yaw:	2.347	yaw rate:	11.059	Roll:	1.647	Pitch:	0.254	Yaw:	-1.540	Thrust:	52.456
Time:	4.155	Roll Set Point:	-0.113	Pitch Set Point:	-0.008	Yaw Set Point:	-0.037	X_WP:	0.000	Y_WP:	0.000	Z_WP:	0.500	X:	0.056	Y:	0.005	Z:	0.450	yaw:	2.097	yaw rate:	24.983	Roll:	1.134	Pitch:	0.430	Yaw:	-3.973	Thrust:	58.791
Time:	4.175	Roll Set Point:	-0.112	Pitch Set Point:	-0.008	Yaw Set Point:	-0.044	X_WP:	0.000	Y_WP:	0.000	Z_WP:	0.500	X:	0.056	Y:	0.005	Z:	0.448	yaw:	2.526	yaw rate:	-42.877	Roll:	1.534	Pitch:	-0.113	Yaw:	5.382	Thrust:	60.339
Time:	4.195	Roll Set Point:	-0.110	Pitch Set Point:	-0.009	Yaw Set Point:	-0.038	X_WP:	0.000	Y_WP:	0.000	Z_WP:	0.500	X:	0.055	Y:	0.006	Z:	0.446	yaw:	2.202	yaw rate:	32.437	Roll:	0.704	Pitch:	0.729	Yaw:	-4.778	Thrust:	58.828
Time:	4.218	Roll Set Point:	-0.110	Pitch Set Point:	-0.009	Yaw Set Point:	-0.041	X_WP:	0.000	Y_WP:	0.000	Z_WP:	0.500	X:	0.055	Y:	0.006	Z:	0.444	yaw:	2.366	yaw rate:	-16.371	Roll:	1.602	Pitch:	0.118	Yaw:	0.972	Thrust:	67.162
Time:	4.235	Roll Set Point:	-0.109	Pitch Set Point:	-0.009	Yaw Set Point:	-0.045	X_WP:	0.000	Y_WP:	0.000	Z_WP:	0.500	X:	0.055	Y:	0.006	Z:	0.442	yaw:	2.566	yaw rate:	-20.028	Roll:	0.990	Pitch:	-0.035	Yaw:	3.836	Thrust:	50.795
Time:	4.255	Roll Set Point:	-0.109	Pitch Set Point:	-0.010	Yaw Set Point:	-0.044	X_WP:	0.000	Y_WP:	0.000	Z_WP:	0.500	X:	0.055	Y:	0.006	Z:	0.441	yaw:	2.537	yaw rate:	2.911	Roll:	1.533	Pitch:	0.400	Yaw:	-0.418	Thrust:	58.529
Time:	4.275	Roll Set Point:	-0.108	Pitch Set Point:	-0.011	Yaw Set Point:	-0.038	X_WP:	0.000	Y_WP:	0.000	Z_WP:	0.500	X:	0.054	Y:	0.006	Z:	0.440	yaw:	2.198	yaw rate:	33.863	Roll:	0.988	Pitch:	0.757	Yaw:	-4.898	Thrust:	58.486
Time:	4.295	Roll Set Point:	-0.108	Pitch Set Point:	-0.010	Yaw Set Point:	-0.055	X_WP:	0.000	Y_WP:	0.000	Z_WP:	0.500	X:	0.054	Y:	0.007	Z:	0.439	yaw:	3.131	yaw rate:	-93.256	Roll:	1.647	Pitch:	-0.572	Yaw:	12.794	Thrust:	59.834
Time:	4.318	Roll Set Point:	-0.107	Pitch Set Point:	-0.012	Yaw Set Point:	-0.039	X_WP:	0.000	Y_WP:	0.000	Z_WP:	0.500	X:	0.053	Y:	0.007	Z:	0.438	yaw:	2.237	yaw rate:	89.413	Roll:	1.005	Pitch:	1.110	Yaw:	-11.357	Thrust:	63.348
Time:	4.335	Roll Set Point:	-0.106	Pitch Set Point:	-0.012	Yaw Set Point:	-0.043	X_WP:	0.000	Y_WP:	0.000	Z_WP:	0.500	X:	0.053	Y:	0.007	Z:	0.437	yaw:	2.450	yaw rate:	-21.346	Roll:	1.188	Pitch:	0.285	Yaw:	3.492	Thrust:	52.937
Time:	4.356	Roll Set Point:	-0.106	Pitch Set Point:	-0.012	Yaw Set Point:	-0.048	X_WP:	0.000	Y_WP:	0.000	Z_WP:	0.500	X:	0.053	Y:	0.007	Z:	0.436	yaw:	2.737	yaw rate:	-28.652	Roll:	1.464	Pitch:	-0.165	Yaw:	3.884	Thrust:	59.111
Time:	4.375	Roll Set Point:	-0.105	Pitch Set Point:	-0.013	Yaw Set Point:	-0.053	X_WP:	0.000	Y_WP:	0.000	Z_WP:	0.500	X:	0.052	Y:	0.008	Z:	0.435	yaw:	3.060	yaw rate:	-32.372	Roll:	1.183	Pitch:	0.422	Yaw:	5.378	Thrust:	58.076
Time:	4.394	Roll Set Point:	-0.104	Pitch Set Point:	-0.014	Yaw Set Point:	-0.043	X_WP:	0.000	Y_WP:	0.000	Z_WP:	0.500	X:	0.052	Y:	0.008	Z:	0.434	yaw:	2.446	yaw rate:	61.447	Roll:	1.178	Pitch:	0.808	Yaw:	-8.136	Thrust:	57.784
Time:	4.419	Roll Set Point:	-0.104	Pitch Set Point:	-0.015	Yaw Set Point:	-0.041	X_WP:	0.000	Y_WP:	0.000	Z_WP:	0.500	X:	0.052	Y:	0.008	Z:	0.433	yaw:	2.324	yaw rate:	12.214	Roll:	1.499	Pitch:	0.548	Yaw:	-2.268	Thrust:	68.820
Time:	4.435	Roll Set Point:	-0.104	Pitch Set Point:	-0.014	Yaw Set Point:	-0.047	X_WP:	0.000	Y_WP:	0.000	Z_WP:	0.500	X:	0.052	Y:	0.008	Z:	0.432	yaw:	2.669	yaw rate:	-34.539	Roll:	1.571	Pitch:	-0.355	Yaw:	6.637	Thrust:	51.305
Time:	4.455	Roll Set Point:	-0.103	Pitch Set Point:	-0.015	Yaw Set Point:	-0.049	X_WP:	0.000	Y_WP:	0.000	Z_WP:	0.500	X:	0.051	Y:	0.009	Z:	0.432	yaw:	2.803	yaw rate:	-13.415	Roll:	1.029	Pitch:	0.693	Yaw:	2.380	Thrust:	59.064
Time:	4.475	Roll Set Point:	-0.102	Pitch Set Point:	-0.015	Yaw Set Point:	-0.057	X_WP:	0.000	Y_WP:	0.000	Z_WP:	0.500	X:	0.051	Y:	0.009	Z:	0.430	yaw:	3.243	yaw rate:	-44.016	Roll:	1.280	Pitch:	-0.117	Yaw:	6.920	Thrust:	60.909
Time:	4.495	Roll Set Point:	-0.104	Pitch Set Point:	-0.019	Yaw Set Point:	-0.004	X_WP:	0.000	Y_WP:	0.000	Z_WP:	0.500	X:	0.052	Y:	0.009	Z:	0.428	yaw:	0.237	yaw rate:	300.628	Roll:	2.248	Pitch:	2.691	Yaw:	-42.459	Thrust:	62.996
Time:	4.518	Roll Set Point:	-0.102	Pitch Set Point:	-0.017	Yaw Set Point:	-0.032	X_WP:	0.000	Y_WP:	0.000	Z_WP:	0.500	X:	0.051	Y:	0.009	Z:	0.429	yaw:	1.840	yaw rate:	-160.265	Roll:	1.064	Pitch:	-0.805	Yaw:	16.447	Thrust:	65.579
Time:	4.535	Roll Set Point:	-0.102	Pitch Set Point:	-0.017	Yaw Set Point:	-0.036	X_WP:	0.000	Y_WP:	0.000	Z_WP:	0.500	X:	0.051	Y:	0.009	Z:	0.428	yaw:	2.048	yaw rate:	-20.831	Roll:	1.101	Pitch:	-0.139	Yaw:	3.409	Thrust:	50.778
Time:	4.555	Roll Set Point:	-0.100	Pitch Set Point:	-0.018	Yaw Set Point:	-0.052	X_WP:	0.000	Y_WP:	0.000	Z_WP:	0.500	X:	0.050	Y:	0.011	Z:	0.427	yaw:	2.970	yaw rate:	-92.217	Roll:	0.811	Pitch:	0.555	Yaw:	13.239	Thrust:	60.810
Time:	4.575	Roll Set Point:	-0.100	Pitch Set Point:	-0.020	Yaw Set Point:	-0.041	X_WP:	0.000	Y_WP:	0.000	Z_WP:	0.500	X:	0.050	Y:	0.011	Z:	0.427	yaw:	2.365	yaw rate:	60.489	Roll:	1.445	Pitch:	0.891	Yaw:	-7.774	Thrust:	61.461
Time:	4.595	Roll Set Point:	-0.100	Pitch Set Point:	-0.020	Yaw Set Point:	-0.040	X_WP:	0.000	Y_WP:	0.000	Z_WP:	0.500	X:	0.050	Y:	0.011	Z:	0.426	yaw:	2.300	yaw rate:	6.555	Roll:	1.499	Pitch:	0.422	Yaw:	-0.930	Thrust:	60.306
Time:	4.619	Roll Set Point:	-0.099	Pitch Set Point:	-0.021	Yaw Set Point:	-0.039	X_WP:	0.000	Y_WP:	0.000	Z_WP:	0.500	X:	0.049	Y:	0.011	Z:	0.426	yaw:	2.257	yaw rate:	4.232	Roll:	1.327	Pitch:	0.535	Yaw:	-1.138	Thrust:	69.083
Time:	4.635	Roll Set Point:	-0.099	Pitch Set Point:	-0.021	Yaw Set Point:	-0.042	X_WP:	0.000	Y_WP:	0.000	Z_WP:	0.500	X:	0.049	Y:	0.012	Z:	0.426	yaw:	2.389	yaw rate:	-13.205	Roll:	1.044	Pitch:	0.314	Yaw:	2.896	Thrust:	47.627
Time:	4.655	Roll Set Point:	-0.099	Pitch Set Point:	-0.022	Yaw Set Point:	-0.044	X_WP:	0.000	Y_WP:	0.000	Z_WP:	0.500	X:	0.049	Y:	0.012	Z:	0.426	yaw:	2.506	yaw rate:	-11.694	Roll:	1.781	Pitch:	0.354	Yaw:	1.736	Thrust:	61.118
Time:	4.675	Roll Set Point:	-0.098	Pitch Set Point:	-0.023	Yaw Set Point:	-0.033	X_WP:	0.000	Y_WP:	0.000	Z_WP:	0.500	X:	0.049	Y:	0.012	Z:	0.427	yaw:	1.887	yaw rate:	61.954	Roll:	0.998	Pitch:	1.102	Yaw:	-8.682	Thrust:	58.189
Time:	4.695	Roll Set Point:	-0.098	Pitch Set Point:	-0.024	Yaw Set Point:	-0.032	X_WP:	0.000	Y_WP:	0.000	Z_WP:	0.500	X:	0.049	Y:	0.013	Z:	0.428	yaw:	1.859	yaw rate:	2.799	Roll:	1.409	Pitch:	0.384	Yaw:	-0.970	Thrust:	57.645
Time:	4.718	Roll Set Point:	-0.097	Pitch Set Point:	-0.025	Yaw Set Point:	-0.028	X_WP:	0.000	Y_WP:	0.000	Z_WP:	0.500	X:	0.049	Y:	0.013	Z:	0.428	yaw:	1.621	yaw rate:	23.809	Roll:	1.372	Pitch:	0.730	Yaw:	-4.081	Thrust:	67.268
Time:	4.735	Roll Set Point:	-0.097	Pitch Set Point:	-0.025	Yaw Set Point:	-0.032	X_WP:	0.000	Y_WP:	0.000	Z_WP:	0.500	X:	0.048	Y:	0.013	Z:	0.429	yaw:	1.833	yaw rate:	-21.226	Roll:	1.125	Pitch:	0.244	Yaw:	3.084	Thrust:	49.935
Time:	4.755	Roll Set Point:	-0.097	Pitch Set Point:	-0.024	Yaw Set Point:	-0.033	X_WP:	0.000	Y_WP:	0.000	Z_WP:	0.500	X:	0.048	Y:	0.013	Z:	0.429	yaw:	1.890	yaw rate:	-5.735	Roll:	1.550	Pitch:	0.031	Yaw:	0.130	Thrust:	61.649
Time:	4.775	Roll Set Point:	-0.096	Pitch Set Point:	-0.026	Yaw Set Point:	-0.028	X_WP:	0.000	Y_WP:	0.000	Z_WP:	0.500	X:	0.048	Y:	0.014	Z:	0.430	yaw:	1.589	yaw rate:	30.164	Roll:	1.034	Pitch:	0.941	Yaw:	-4.896	Thrust:	56.719
Time:	4.795	Roll Set Point:	-0.096	Pitch Set Point:	-0.025	Yaw Set Point:	-0.034	X_WP:	0.000	Y_WP:	0.000	Z_WP:	0.500	X:	0.048	Y:	0.013	Z:	0.430	yaw:	1.951	yaw rate:	-36.261	Roll:	1.647	Pitch:	-0.099	Yaw:	4.254	Thrust:	58.982
Time:	4.818	Roll Set Point:	-0.096	Pitch Set Point:	-0.026	Yaw Set Point:	-0.031	X_WP:	0.000	Y_WP:	0.000	Z_WP:	0.500	X:	0.048	Y:	0.014	Z:	0.431	yaw:	1.754	yaw rate:	19.709	Roll:	1.386	Pitch:	0.626	Yaw:	-3.386	Thrust:	70.373
Time:	4.835	Roll Set Point:	-0.096	Pitch Set Point:	-0.026	Yaw Set Point:	-0.034	X_WP:	0.000	Y_WP:	0.000	Z_WP:	0.500	X:	0.048	Y:	0.014	Z:	0.431	yaw:	1.946	yaw rate:	-19.138	Roll:	1.325	Pitch:	0.326	Yaw:	3.013	Thrust:	50.991
Time:	4.856	Roll Set Point:	-0.096	Pitch Set Point:	-0.026	Yaw Set Point:	-0.029	X_WP:	0.000	Y_WP:	0.000	Z_WP:	0.500	X:	0.048	Y:	0.014	Z:	0.432	yaw:	1.648	yaw rate:	29.791	Roll:	1.348	Pitch:	0.281	Yaw:	-4.700	Thrust:	59.702
Time:	4.875	Roll Set Point:	-0.095	Pitch Set Point:	-0.027	Yaw Set Point:	-0.026	X_WP:	0.000	Y_WP:	0.000	Z_WP:	0.500	X:	0.047	Y:	0.014	Z:	0.433	yaw:	1.499	yaw rate:	14.925	Roll:	1.125	Pitch:	0.859	Yaw:	-2.877	Thrust:	55.184
Time:	4.895	Roll Set Point:	-0.095	Pitch Set Point:	-0.027	Yaw Set Point:	-0.030	X_WP:	0.000	Y_WP:	0.000	Z_WP:	0.500	X:	0.047	Y:	0.014	Z:	0.433	yaw:	1.698	yaw rate:	-19.977	Roll:	1.510	Pitch:	0.104	Yaw:	1.581	Thrust:	63.984
Time:	4.919	Roll Set Point:	-0.095	Pitch Set Point:	-0.027	Yaw Set Point:	-0.030	X_WP:	0.000	Y_WP:	0.000	Z_WP:	0.500	X:	0.047	Y:	0.014	Z:	0.434	yaw:	1.717	yaw rate:	-1.838	Roll:	1.461	Pitch:	0.284	Yaw:	-0.996	Thrust:	67.514
Time:	4.935	Roll Set Point:	-0.095	Pitch Set Point:	-0.027	Yaw Set Point:	-0.035	X_WP:	0.000	Y_WP:	0.000	Z_WP:	0.500	X:	0.047	Y:	0.014	Z:	0.434	yaw:	2.030	yaw rate:	-31.332	Roll:	1.703	Pitch:	-0.139	Yaw:	5.487	Thrust:	52.288
Time:	4.955	Roll Set Point:	-0.094	Pitch Set Point:	-0.028	Yaw Set Point:	-0.026	X_WP:	0.000	Y_WP:	0.000	Z_WP:	0.500	X:	0.047	Y:	0.015	Z:	0.435	yaw:	1.467	yaw rate:	56.277	Roll:	0.828	Pitch:	1.028	Yaw:	-8.284	Thrust:	60.072
Time:	4.975	Roll Set Point:	-0.094	Pitch Set Point:	-0.028	Yaw Set Point:	-0.024	X_WP:	0.000	Y_WP:	0.000	Z_WP:	0.500	X:	0.047	Y:	0.014	Z:	0.435	yaw:	1.377	yaw rate:	9.069	Roll:	1.548	Pitch:	0.246	Yaw:	-2.251	Thrust:	59.814
Time:	4.995	Roll Set Point:	-0.094	Pitch Set Point:	-0.027	Yaw Set Point:	-0.039	X_WP:	0.000	Y_WP:	0.000	Z_WP:	0.500	X:	0.047	Y:	0.014	Z:	0.436	yaw:	2.249	yaw rate:	-87.258	Roll:	1.523	Pitch:	-0.381	Yaw:	11.403	Thrust:	60.524
Time:	5.018	Roll Set Point:	-0.093	Pitch Set Point:	-0.028	Yaw Set Point:	-0.025	X_WP:	0.000	Y_WP:	0.000	Z_WP:	0.500	X:	0.046	Y:	0.014	Z:	0.438	yaw:	1.436	yaw rate:	81.280	Roll:	1.112	Pitch:	0.825	Yaw:	-10.587	Thrust:	69.256
Time:	5.036	Roll Set Point:	-0.093	Pitch Set Point:	-0.027	Yaw Set Point:	-0.031	X_WP:	0.000	Y_WP:	0.000	Z_WP:	0.500	X:	0.046	Y:	0.014	Z:	0.439	yaw:	1.786	yaw rate:	-34.937	Roll:	1.447	Pitch:	-0.163	Yaw:	5.292	Thrust:	50.377
Time:	5.056	Roll Set Point:	-0.092	Pitch Set Point:	-0.028	Yaw Set Point:	-0.030	X_WP:	0.000	Y_WP:	0.000	Z_WP:	0.500	X:	0.046	Y:	0.015	Z:	0.440	yaw:	1.698	yaw rate:	8.803	Roll:	1.124	Pitch:	0.469	Yaw:	-1.808	Thrust:	61.202
Time:	5.075	Roll Set Point:	-0.092	Pitch Set Point:	-0.028	Yaw Set Point:	-0.020	X_WP:	0.000	Y_WP:	0.000	Z_WP:	0.500	X:	0.046	Y:	0.014	Z:	0.442	yaw:	1.135	yaw rate:	56.304	Roll:	1.306	Pitch:	0.514	Yaw:	-8.941	Thrust:	55.904
Time:	5.096	Roll Set Point:	-0.093	Pitch Set Point:	-0.027	Yaw Set Point:	-0.036	X_WP:	0.000	Y_WP:	0.000	Z_WP:	0.500	X:	0.046	Y:	0.014	Z:	0.443	yaw:	2.050	yaw rate:	-91.568	Roll:	1.778	Pitch:	-0.572	Yaw:	11.288	Thrust:	60.201
Time:	5.119	Roll Set Point:	-0.092	Pitch Set Point:	-0.027	Yaw Set Point:	-0.025	X_WP:	0.000	Y_WP:	0.000	Z_WP:	0.500	X:	0.046	Y:	0.014	Z:	0.445	yaw:	1.436	yaw rate:	61.424	Roll:	1.055	Pitch:	0.779	Yaw:	-8.445	Thrust:	67.975
Time:	5.135	Roll Set Point:	-0.093	Pitch Set Point:	-0.025	Yaw Set Point:	-0.027	X_WP:	0.000	Y_WP:	0.000	Z_WP:	0.500	X:	0.046	Y:	0.013	Z:	0.447	yaw:	1.529	yaw rate:	-9.275	Roll:	1.983	Pitch:	-1.042	Yaw:	1.091	Thrust:	46.773
Time:	5.156	Roll Set Point:	-0.092	Pitch Set Point:	-0.027	Yaw Set Point:	-0.026	X_WP:	0.000	Y_WP:	0.000	Z_WP:	0.500	X:	0.046	Y:	0.014	Z:	0.449	yaw:	1.470	yaw rate:	5.868	Roll:	0.933	Pitch:	1.017	Yaw:	-1.683	Thrust:	60.832
Time:	5.175	Roll Set Point:	-0.091	Pitch Set Point:	-0.027	Yaw Set Point:	-0.029	X_WP:	0.000	Y_WP:	0.000	Z_WP:	0.500	X:	0.045	Y:	0.014	Z:	0.450	yaw:	1.683	yaw rate:	-21.301	Roll:	1.002	Pitch:	0.130	Yaw:	2.464	Thrust:	56.417
Time:	5.196	Roll Set Point:	-0.091	Pitch Set Point:	-0.026	Yaw Set Point:	-0.029	X_WP:	0.000	Y_WP:	0.000	Z_WP:	0.500	X:	0.045	Y:	0.014	Z:	0.453	yaw:	1.686	yaw rate:	-0.252	Roll:	1.629	Pitch:	0.149	Yaw:	-0.562	Thrust:	56.423
Time:	5.220	Roll Set Point:	-0.091	Pitch Set Point:	-0.026	Yaw Set Point:	-0.017	X_WP:	0.000	Y_WP:	0.000	Z_WP:	0.500	X:	0.045	Y:	0.014	Z:	0.454	yaw:	0.995	yaw rate:	69.110	Roll:	1.410	Pitch:	0.489	Yaw:	-9.682	Thrust:	67.795
Time:	5.236	Roll Set Point:	-0.091	Pitch Set Point:	-0.026	Yaw Set Point:	-0.023	X_WP:	0.000	Y_WP:	0.000	Z_WP:	0.500	X:	0.045	Y:	0.014	Z:	0.457	yaw:	1.343	yaw rate:	-34.845	Roll:	1.420	Pitch:	-0.048	Yaw:	4.980	Thrust:	49.257
Time:	5.256	Roll Set Point:	-0.091	Pitch Set Point:	-0.025	Yaw Set Point:	-0.016	X_WP:	0.000	Y_WP:	0.000	Z_WP:	0.500	X:	0.045	Y:	0.013	Z:	0.459	yaw:	0.907	yaw rate:	43.587	Roll:	1.361	Pitch:	-0.111	Yaw:	-7.293	Thrust:	56.440
Time:	5.275	Roll Set Point:	-0.090	Pitch Set Point:	-0.025	Yaw Set Point:	-0.023	X_WP:	0.000	Y_WP:	0.000	Z_WP:	0.500	X:	0.045	Y:	0.013	Z:	0.461	yaw:	1.338	yaw rate:	-43.042	Roll:	1.065	Pitch:	0.347	Yaw:	5.012	Thrust:	56.898
Time:	5.296	Roll Set Point:	-0.092	Pitch Set Point:	-0.026	Yaw Set Point:	0.009	X_WP:	0.000	Y_WP:	0.000	Z_WP:	0.500	X:	0.046	Y:	0.013	Z:	0.463	yaw:	-0.514	yaw rate:	185.115	Roll:	1.883	Pitch:	1.047	Yaw:	-26.722	Thrust:	59.427
Time:	5.317	Roll Set Point:	-0.091	Pitch Set Point:	-0.023	Yaw Set Point:	-0.025	X_WP:	0.000	Y_WP:	0.000	Z_WP:	0.500	X:	0.045	Y:	0.012	Z:	0.464	yaw:	1.439	yaw rate:	-195.288	Roll:	1.272	Pitch:	-1.405	Yaw:	24.396	Thrust:	61.183
