Time:	0.032	Roll Set Point:	-0.039	Pitch Set Point:	-0.025	Yaw Set Point:	0.043	X_WP:	0.000	Y_WP:	0.000	Y_WP:	0.000	X:	0.020	Y:	0.012	Z:	0.057	yaw:	-2.444	yaw rate:	0.682	Roll:	0.556	Pitch:	0.376	Yaw:	-3.413	Thrust:	0.000
Time:	0.057	Roll Set Point:	-0.039	Pitch Set Point:	-0.025	Yaw Set Point:	0.043	X_WP:	0.000	Y_WP:	0.000	Y_WP:	0.000	X:	0.020	Y:	0.012	Z:	0.057	yaw:	-2.437	yaw rate:	-0.766	Roll:	0.551	Pitch:	0.380	Yaw:	-3.340	Thrust:	0.000
Time:	0.071	Roll Set Point:	-0.039	Pitch Set Point:	-0.025	Yaw Set Point:	0.042	X_WP:	0.000	Y_WP:	0.000	Y_WP:	0.000	X:	0.020	Y:	0.012	Z:	0.057	yaw:	-2.429	yaw rate:	-0.785	Roll:	0.565	Pitch:	0.367	Yaw:	-3.273	Thrust:	0.000
Time:	0.090	Roll Set Point:	-0.039	Pitch Set Point:	-0.025	Yaw Set Point:	0.043	X_WP:	0.000	Y_WP:	0.000	Y_WP:	0.000	X:	0.020	Y:	0.012	Z:	0.057	yaw:	-2.441	yaw rate:	1.220	Roll:	0.557	Pitch:	0.386	Yaw:	-3.619	Thrust:	0.000
Time:	0.113	Roll Set Point:	-0.039	Pitch Set Point:	-0.025	Yaw Set Point:	0.042	X_WP:	0.000	Y_WP:	0.000	Y_WP:	0.000	X:	0.020	Y:	0.012	Z:	0.057	yaw:	-2.435	yaw rate:	-0.623	Roll:	0.560	Pitch:	0.372	Yaw:	-3.403	Thrust:	0.000
Time:	0.130	Roll Set Point:	-0.039	Pitch Set Point:	-0.025	Yaw Set Point:	0.042	X_WP:	0.000	Y_WP:	0.000	Y_WP:	0.000	X:	0.020	Y:	0.012	Z:	0.057	yaw:	-2.435	yaw rate:	0.020	Roll:	0.544	Pitch:	0.380	Yaw:	-3.478	Thrust:	0.000
Time:	0.151	Roll Set Point:	-0.039	Pitch Set Point:	-0.025	Yaw Set Point:	0.043	X_WP:	0.000	Y_WP:	0.000	Y_WP:	0.000	X:	0.020	Y:	0.012	Z:	0.057	yaw:	-2.437	yaw rate:	0.152	Roll:	0.583	Pitch:	0.379	Yaw:	-3.526	Thrust:	0.000
Time:	0.170	Roll Set Point:	-0.039	Pitch Set Point:	-0.025	Yaw Set Point:	0.043	X_WP:	0.000	Y_WP:	0.000	Y_WP:	0.000	X:	0.020	Y:	0.012	Z:	0.057	yaw:	-2.440	yaw rate:	0.342	Roll:	0.553	Pitch:	0.376	Yaw:	-3.569	Thrust:	0.000
Time:	0.193	Roll Set Point:	-0.039	Pitch Set Point:	-0.025	Yaw Set Point:	0.043	X_WP:	0.000	Y_WP:	0.000	Y_WP:	0.000	X:	0.020	Y:	0.012	Z:	0.057	yaw:	-2.437	yaw rate:	-0.318	Roll:	0.560	Pitch:	0.394	Yaw:	-3.522	Thrust:	0.000
Time:	0.210	Roll Set Point:	-0.039	Pitch Set Point:	-0.025	Yaw Set Point:	0.043	X_WP:	0.000	Y_WP:	0.000	Y_WP:	0.000	X:	0.020	Y:	0.012	Z:	0.057	yaw:	-2.437	yaw rate:	-0.014	Roll:	0.570	Pitch:	0.372	Yaw:	-3.532	Thrust:	0.000
Time:	0.230	Roll Set Point:	-0.039	Pitch Set Point:	-0.025	Yaw Set Point:	0.043	X_WP:	0.000	Y_WP:	0.000	Y_WP:	0.000	X:	0.020	Y:	0.012	Z:	0.057	yaw:	-2.439	yaw rate:	0.221	Roll:	0.573	Pitch:	0.390	Yaw:	-3.599	Thrust:	0.000
Time:	0.253	Roll Set Point:	-0.039	Pitch Set Point:	-0.025	Yaw Set Point:	0.042	X_WP:	0.000	Y_WP:	0.000	Y_WP:	0.000	X:	0.020	Y:	0.012	Z:	0.057	yaw:	-2.434	yaw rate:	-0.443	Roll:	0.556	Pitch:	0.377	Yaw:	-3.567	Thrust:	0.000
Time:	0.270	Roll Set Point:	-0.039	Pitch Set Point:	-0.025	Yaw Set Point:	0.043	X_WP:	0.000	Y_WP:	0.000	Y_WP:	0.000	X:	0.020	Y:	0.012	Z:	0.057	yaw:	-2.437	yaw rate:	0.256	Roll:	0.565	Pitch:	0.379	Yaw:	-3.618	Thrust:	0.000
Time:	0.290	Roll Set Point:	-0.039	Pitch Set Point:	-0.025	Yaw Set Point:	0.043	X_WP:	0.000	Y_WP:	0.000	Y_WP:	0.000	X:	0.020	Y:	0.012	Z:	0.057	yaw:	-2.435	yaw rate:	-0.180	Roll:	0.580	Pitch:	0.396	Yaw:	-3.596	Thrust:	0.000
Time:	0.313	Roll Set Point:	-0.039	Pitch Set Point:	-0.025	Yaw Set Point:	0.043	X_WP:	0.000	Y_WP:	0.000	Y_WP:	0.000	X:	0.020	Y:	0.012	Z:	0.057	yaw:	-2.437	yaw rate:	0.153	Roll:	0.565	Pitch:	0.384	Yaw:	-3.689	Thrust:	0.000
Time:	0.330	Roll Set Point:	-0.039	Pitch Set Point:	-0.025	Yaw Set Point:	0.043	X_WP:	0.000	Y_WP:	0.000	Y_WP:	0.000	X:	0.020	Y:	0.012	Z:	0.057	yaw:	-2.439	yaw rate:	0.254	Roll:	0.558	Pitch:	0.387	Yaw:	-3.657	Thrust:	0.000
Time:	0.350	Roll Set Point:	-0.039	Pitch Set Point:	-0.025	Yaw Set Point:	0.043	X_WP:	0.000	Y_WP:	0.000	Y_WP:	0.000	X:	0.020	Y:	0.012	Z:	0.057	yaw:	-2.437	yaw rate:	-0.238	Roll:	0.588	Pitch:	0.386	Yaw:	-3.660	Thrust:	0.000
Time:	0.370	Roll Set Point:	-0.039	Pitch Set Point:	-0.025	Yaw Set Point:	0.043	X_WP:	0.000	Y_WP:	0.000	Y_WP:	0.000	X:	0.020	Y:	0.012	Z:	0.057	yaw:	-2.443	yaw rate:	0.582	Roll:	0.558	Pitch:	0.389	Yaw:	-3.773	Thrust:	0.000
Time:	0.392	Roll Set Point:	-0.039	Pitch Set Point:	-0.025	Yaw Set Point:	0.043	X_WP:	0.000	Y_WP:	0.000	Y_WP:	0.000	X:	0.020	Y:	0.012	Z:	0.057	yaw:	-2.437	yaw rate:	-0.556	Roll:	0.583	Pitch:	0.384	Yaw:	-3.683	Thrust:	0.000
Time:	0.410	Roll Set Point:	-0.039	Pitch Set Point:	-0.025	Yaw Set Point:	0.042	X_WP:	0.000	Y_WP:	0.000	Y_WP:	0.000	X:	0.020	Y:	0.012	Z:	0.057	yaw:	-2.434	yaw rate:	-0.330	Roll:	0.571	Pitch:	0.385	Yaw:	-3.642	Thrust:	0.000
Time:	0.430	Roll Set Point:	-0.039	Pitch Set Point:	-0.025	Yaw Set Point:	0.043	X_WP:	0.000	Y_WP:	0.000	Y_WP:	0.000	X:	0.020	Y:	0.012	Z:	0.057	yaw:	-2.445	yaw rate:	1.098	Roll:	0.568	Pitch:	0.399	Yaw:	-3.889	Thrust:	0.000
Time:	0.453	Roll Set Point:	-0.039	Pitch Set Point:	-0.025	Yaw Set Point:	0.043	X_WP:	0.000	Y_WP:	0.000	Y_WP:	0.000	X:	0.020	Y:	0.012	Z:	0.057	yaw:	-2.435	yaw rate:	-0.968	Roll:	0.588	Pitch:	0.380	Yaw:	-3.708	Thrust:	0.000
Time:	0.470	Roll Set Point:	-0.039	Pitch Set Point:	-0.025	Yaw Set Point:	0.043	X_WP:	0.000	Y_WP:	0.000	Y_WP:	0.000	X:	0.020	Y:	0.012	Z:	0.057	yaw:	-2.439	yaw rate:	0.348	Roll:	0.565	Pitch:	0.400	Yaw:	-3.766	Thrust:	0.000
Time:	0.490	Roll Set Point:	-0.039	Pitch Set Point:	-0.025	Yaw Set Point:	0.043	X_WP:	0.000	Y_WP:	0.000	Y_WP:	0.000	X:	0.020	Y:	0.012	Z:	0.057	yaw:	-2.437	yaw rate:	-0.147	Roll:	0.585	Pitch:	0.388	Yaw:	-3.796	Thrust:	0.000
Time:	0.513	Roll Set Point:	-0.039	Pitch Set Point:	-0.025	Yaw Set Point:	0.043	X_WP:	0.000	Y_WP:	0.000	Y_WP:	0.000	X:	0.020	Y:	0.012	Z:	0.057	yaw:	-2.443	yaw rate:	0.534	Roll:	0.571	Pitch:	0.395	Yaw:	-3.926	Thrust:	0.000
Time:	0.530	Roll Set Point:	-0.039	Pitch Set Point:	-0.025	Yaw Set Point:	0.043	X_WP:	0.000	Y_WP:	0.000	Y_WP:	0.000	X:	0.020	Y:	0.012	Z:	0.057	yaw:	-2.438	yaw rate:	-0.481	Roll:	0.587	Pitch:	0.390	Yaw:	-3.710	Thrust:	0.000
Time:	0.550	Roll Set Point:	-0.039	Pitch Set Point:	-0.025	Yaw Set Point:	0.042	X_WP:	0.000	Y_WP:	0.000	Y_WP:	0.000	X:	0.020	Y:	0.012	Z:	0.057	yaw:	-2.431	yaw rate:	-0.682	Roll:	0.591	Pitch:	0.394	Yaw:	-3.749	Thrust:	0.000
Time:	0.569	Roll Set Point:	-0.039	Pitch Set Point:	-0.025	Yaw Set Point:	0.042	X_WP:	0.000	Y_WP:	0.000	Y_WP:	0.000	X:	0.020	Y:	0.012	Z:	0.057	yaw:	-2.433	yaw rate:	0.172	Roll:	0.570	Pitch:	0.392	Yaw:	-3.863	Thrust:	0.000
Time:	0.594	Roll Set Point:	-0.039	Pitch Set Point:	-0.025	Yaw Set Point:	0.043	X_WP:	0.000	Y_WP:	0.000	Y_WP:	0.000	X:	0.020	Y:	0.012	Z:	0.057	yaw:	-2.443	yaw rate:	1.037	Roll:	0.586	Pitch:	0.400	Yaw:	-4.098	Thrust:	0.000
Time:	0.611	Roll Set Point:	-0.039	Pitch Set Point:	-0.025	Yaw Set Point:	0.043	X_WP:	0.000	Y_WP:	0.000	Y_WP:	0.000	X:	0.020	Y:	0.012	Z:	0.057	yaw:	-2.443	yaw rate:	-0.047	Roll:	0.579	Pitch:	0.394	Yaw:	-3.827	Thrust:	0.000
Time:	0.630	Roll Set Point:	-0.039	Pitch Set Point:	-0.025	Yaw Set Point:	0.043	X_WP:	0.000	Y_WP:	0.000	Y_WP:	0.000	X:	0.020	Y:	0.012	Z:	0.057	yaw:	-2.440	yaw rate:	-0.260	Roll:	0.599	Pitch:	0.397	Yaw:	-3.834	Thrust:	0.000
Time:	0.655	Roll Set Point:	-0.039	Pitch Set Point:	-0.025	Yaw Set Point:	0.043	X_WP:	0.000	Y_WP:	0.000	Y_WP:	0.000	X:	0.020	Y:	0.012	Z:	0.057	yaw:	-2.444	yaw rate:	0.362	Roll:	0.578	Pitch:	0.397	Yaw:	-4.136	Thrust:	0.000
Time:	0.670	Roll Set Point:	-0.039	Pitch Set Point:	-0.025	Yaw Set Point:	0.043	X_WP:	0.000	Y_WP:	0.000	Y_WP:	0.000	X:	0.020	Y:	0.012	Z:	0.057	yaw:	-2.441	yaw rate:	-0.271	Roll:	0.596	Pitch:	0.401	Yaw:	-3.756	Thrust:	0.000
Time:	0.690	Roll Set Point:	-0.039	Pitch Set Point:	-0.025	Yaw Set Point:	0.043	X_WP:	0.000	Y_WP:	0.000	Y_WP:	0.000	X:	0.020	Y:	0.012	Z:	0.057	yaw:	-2.443	yaw rate:	0.195	Roll:	0.580	Pitch:	0.395	Yaw:	-4.012	Thrust:	0.000
Time:	0.712	Roll Set Point:	-0.039	Pitch Set Point:	-0.025	Yaw Set Point:	0.042	X_WP:	0.000	Y_WP:	0.000	Y_WP:	0.000	X:	0.020	Y:	0.012	Z:	0.057	yaw:	-2.431	yaw rate:	-1.170	Roll:	0.594	Pitch:	0.399	Yaw:	-3.875	Thrust:	0.000
Time:	0.730	Roll Set Point:	-0.039	Pitch Set Point:	-0.025	Yaw Set Point:	0.042	X_WP:	0.000	Y_WP:	0.000	Y_WP:	0.000	X:	0.020	Y:	0.012	Z:	0.057	yaw:	-2.433	yaw rate:	0.211	Roll:	0.590	Pitch:	0.389	Yaw:	-3.952	Thrust:	0.000
Time:	0.750	Roll Set Point:	-0.039	Pitch Set Point:	-0.025	Yaw Set Point:	0.043	X_WP:	0.000	Y_WP:	0.000	Y_WP:	0.000	X:	0.020	Y:	0.012	Z:	0.057	yaw:	-2.441	yaw rate:	0.777	Roll:	0.592	Pitch:	0.401	Yaw:	-4.143	Thrust:	0.000
Time:	0.770	Roll Set Point:	-0.039	Pitch Set Point:	-0.025	Yaw Set Point:	0.043	X_WP:	0.000	Y_WP:	0.000	Y_WP:	0.000	X:	0.020	Y:	0.012	Z:	0.057	yaw:	-2.438	yaw rate:	-0.317	Roll:	0.588	Pitch:	0.403	Yaw:	-3.995	Thrust:	0.000
Time:	0.793	Roll Set Point:	-0.039	Pitch Set Point:	-0.025	Yaw Set Point:	0.043	X_WP:	0.000	Y_WP:	0.000	Y_WP:	0.000	X:	0.020	Y:	0.012	Z:	0.057	yaw:	-2.447	yaw rate:	0.922	Roll:	0.598	Pitch:	0.406	Yaw:	-4.256	Thrust:	0.000
Time:	0.811	Roll Set Point:	-0.039	Pitch Set Point:	-0.025	Yaw Set Point:	0.043	X_WP:	0.000	Y_WP:	0.000	Y_WP:	0.000	X:	0.020	Y:	0.012	Z:	0.057	yaw:	-2.441	yaw rate:	-0.584	Roll:	0.599	Pitch:	0.398	Yaw:	-3.906	Thrust:	0.000
Time:	0.830	Roll Set Point:	-0.039	Pitch Set Point:	-0.025	Yaw Set Point:	0.043	X_WP:	0.000	Y_WP:	0.000	Y_WP:	0.000	X:	0.020	Y:	0.012	Z:	0.057	yaw:	-2.439	yaw rate:	-0.223	Roll:	0.580	Pitch:	0.398	Yaw:	-4.044	Thrust:	0.000
Time:	0.856	Roll Set Point:	-0.039	Pitch Set Point:	-0.025	Yaw Set Point:	0.043	X_WP:	0.000	Y_WP:	0.000	Y_WP:	0.000	X:	0.020	Y:	0.012	Z:	0.057	yaw:	-2.438	yaw rate:	-0.066	Roll:	0.613	Pitch:	0.411	Yaw:	-4.290	Thrust:	0.000
Time:	0.870	Roll Set Point:	-0.039	Pitch Set Point:	-0.025	Yaw Set Point:	0.043	X_WP:	0.000	Y_WP:	0.000	Y_WP:	0.000	X:	0.020	Y:	0.012	Z:	0.057	yaw:	-2.445	yaw rate:	0.626	Roll:	0.570	Pitch:	0.395	Yaw:	-4.032	Thrust:	0.000
Time:	0.890	Roll Set Point:	-0.039	Pitch Set Point:	-0.025	Yaw Set Point:	0.043	X_WP:	0.000	Y_WP:	0.000	Y_WP:	0.000	X:	0.020	Y:	0.012	Z:	0.057	yaw:	-2.441	yaw rate:	-0.375	Roll:	0.609	Pitch:	0.410	Yaw:	-4.096	Thrust:	0.000
Time:	0.912	Roll Set Point:	-0.039	Pitch Set Point:	-0.025	Yaw Set Point:	0.043	X_WP:	0.000	Y_WP:	0.000	Y_WP:	0.000	X:	0.020	Y:	0.012	Z:	0.057	yaw:	-2.436	yaw rate:	-0.452	Roll:	0.603	Pitch:	0.406	Yaw:	-4.170	Thrust:	0.000
Time:	0.930	Roll Set Point:	-0.039	Pitch Set Point:	-0.025	Yaw Set Point:	0.043	X_WP:	0.000	Y_WP:	0.000	Y_WP:	0.000	X:	0.020	Y:	0.012	Z:	0.057	yaw:	-2.437	yaw rate:	0.101	Roll:	0.594	Pitch:	0.402	Yaw:	-4.129	Thrust:	0.000
Time:	0.950	Roll Set Point:	-0.039	Pitch Set Point:	-0.025	Yaw Set Point:	0.043	X_WP:	0.000	Y_WP:	0.000	Y_WP:	0.000	X:	0.020	Y:	0.012	Z:	0.057	yaw:	-2.440	yaw rate:	0.293	Roll:	0.590	Pitch:	0.404	Yaw:	-4.210	Thrust:	0.000
Time:	0.970	Roll Set Point:	-0.039	Pitch Set Point:	-0.025	Yaw Set Point:	0.043	X_WP:	0.000	Y_WP:	0.000	Y_WP:	0.000	X:	0.020	Y:	0.012	Z:	0.057	yaw:	-2.439	yaw rate:	-0.140	Roll:	0.610	Pitch:	0.412	Yaw:	-4.191	Thrust:	0.000
Time:	0.993	Roll Set Point:	-0.039	Pitch Set Point:	-0.025	Yaw Set Point:	0.043	X_WP:	0.000	Y_WP:	0.000	Y_WP:	0.000	X:	0.020	Y:	0.012	Z:	0.057	yaw:	-2.436	yaw rate:	-0.296	Roll:	0.604	Pitch:	0.413	Yaw:	-4.308	Thrust:	0.000
Time:	1.010	Roll Set Point:	-0.039	Pitch Set Point:	-0.025	Yaw Set Point:	0.043	X_WP:	0.000	Y_WP:	0.000	Y_WP:	0.000	X:	0.020	Y:	0.012	Z:	0.057	yaw:	-2.439	yaw rate:	0.265	Roll:	0.596	Pitch:	0.389	Yaw:	-4.176	Thrust:	0.000
Time:	1.030	Roll Set Point:	-0.039	Pitch Set Point:	-0.025	Yaw Set Point:	0.042	X_WP:	0.000	Y_WP:	0.000	Y_WP:	0.000	X:	0.020	Y:	0.012	Z:	0.057	yaw:	-2.434	yaw rate:	-0.474	Roll:	0.610	Pitch:	0.418	Yaw:	-4.120	Thrust:	0.000
Time:	1.054	Roll Set Point:	-0.039	Pitch Set Point:	-0.025	Yaw Set Point:	0.043	X_WP:	0.000	Y_WP:	0.000	Y_WP:	0.000	X:	0.020	Y:	0.012	Z:	0.057	yaw:	-2.440	yaw rate:	0.611	Roll:	0.609	Pitch:	0.414	Yaw:	-4.542	Thrust:	0.000
Time:	1.070	Roll Set Point:	-0.039	Pitch Set Point:	-0.025	Yaw Set Point:	0.043	X_WP:	0.000	Y_WP:	0.000	Y_WP:	0.000	X:	0.020	Y:	0.012	Z:	0.057	yaw:	-2.441	yaw rate:	0.136	Roll:	0.606	Pitch:	0.412	Yaw:	-4.142	Thrust:	0.000
Time:	1.090	Roll Set Point:	-0.039	Pitch Set Point:	-0.025	Yaw Set Point:	0.043	X_WP:	0.000	Y_WP:	0.000	Y_WP:	0.000	X:	0.020	Y:	0.012	Z:	0.057	yaw:	-2.438	yaw rate:	-0.331	Roll:	0.611	Pitch:	0.409	Yaw:	-4.268	Thrust:	0.000
Time:	1.112	Roll Set Point:	-0.039	Pitch Set Point:	-0.025	Yaw Set Point:	0.042	X_WP:	0.000	Y_WP:	0.000	Y_WP:	0.000	X:	0.020	Y:	0.012	Z:	0.057	yaw:	-2.434	yaw rate:	-0.347	Roll:	0.604	Pitch:	0.414	Yaw:	-4.375	Thrust:	0.000
Time:	1.130	Roll Set Point:	-0.039	Pitch Set Point:	-0.025	Yaw Set Point:	0.043	X_WP:	0.000	Y_WP:	0.000	Y_WP:	0.000	X:	0.020	Y:	0.012	Z:	0.057	yaw:	-2.437	yaw rate:	0.236	Roll:	0.601	Pitch:	0.404	Yaw:	-4.282	Thrust:	0.000
Time:	1.150	Roll Set Point:	-0.039	Pitch Set Point:	-0.025	Yaw Set Point:	0.043	X_WP:	0.000	Y_WP:	0.000	Y_WP:	0.000	X:	0.020	Y:	0.012	Z:	0.057	yaw:	-2.439	yaw rate:	0.260	Roll:	0.615	Pitch:	0.415	Yaw:	-4.404	Thrust:	0.000
Time:	1.170	Roll Set Point:	-0.039	Pitch Set Point:	-0.025	Yaw Set Point:	0.043	X_WP:	0.000	Y_WP:	0.000	Y_WP:	0.000	X:	0.020	Y:	0.012	Z:	0.057	yaw:	-2.438	yaw rate:	-0.109	Roll:	0.619	Pitch:	0.422	Yaw:	-4.344	Thrust:	0.000
Time:	1.193	Roll Set Point:	-0.039	Pitch Set Point:	-0.025	Yaw Set Point:	0.043	X_WP:	0.000	Y_WP:	0.000	Y_WP:	0.000	X:	0.020	Y:	0.012	Z:	0.057	yaw:	-2.442	yaw rate:	0.321	Roll:	0.610	Pitch:	0.409	Yaw:	-4.577	Thrust:	0.000
Time:	1.210	Roll Set Point:	-0.039	Pitch Set Point:	-0.025	Yaw Set Point:	0.043	X_WP:	0.000	Y_WP:	0.000	Y_WP:	0.000	X:	0.020	Y:	0.012	Z:	0.057	yaw:	-2.439	yaw rate:	-0.216	Roll:	0.606	Pitch:	0.417	Yaw:	-4.256	Thrust:	0.000
Time:	1.230	Roll Set Point:	-0.039	Pitch Set Point:	-0.025	Yaw Set Point:	0.042	X_WP:	0.000	Y_WP:	0.000	Y_WP:	0.000	X:	0.020	Y:	0.012	Z:	0.057	yaw:	-2.432	yaw rate:	-0.769	Roll:	0.623	Pitch:	0.414	Yaw:	-4.277	Thrust:	0.000
Time:	1.256	Roll Set Point:	-0.039	Pitch Set Point:	-0.025	Yaw Set Point:	0.042	X_WP:	0.000	Y_WP:	0.000	Y_WP:	0.000	X:	0.020	Y:	0.012	Z:	0.057	yaw:	-2.434	yaw rate:	0.197	Roll:	0.621	Pitch:	0.423	Yaw:	-4.670	Thrust:	0.000
Time:	1.269	Roll Set Point:	-0.039	Pitch Set Point:	-0.025	Yaw Set Point:	0.043	X_WP:	0.000	Y_WP:	0.000	Y_WP:	0.000	X:	0.020	Y:	0.012	Z:	0.057	yaw:	-2.438	yaw rate:	0.417	Roll:	0.589	Pitch:	0.401	Yaw:	-4.295	Thrust:	0.000
Time:	1.290	Roll Set Point:	-0.039	Pitch Set Point:	-0.025	Yaw Set Point:	0.042	X_WP:	0.000	Y_WP:	0.000	Y_WP:	0.000	X:	0.020	Y:	0.012	Z:	0.057	yaw:	-2.435	yaw rate:	-0.310	Roll:	0.637	Pitch:	0.422	Yaw:	-4.469	Thrust:	0.000
Time:	1.312	Roll Set Point:	-0.039	Pitch Set Point:	-0.025	Yaw Set Point:	0.043	X_WP:	0.000	Y_WP:	0.000	Y_WP:	0.000	X:	0.020	Y:	0.012	Z:	0.057	yaw:	-2.442	yaw rate:	0.680	Roll:	0.612	Pitch:	0.429	Yaw:	-4.693	Thrust:	0.000
Time:	1.330	Roll Set Point:	-0.039	Pitch Set Point:	-0.025	Yaw Set Point:	0.043	X_WP:	0.000	Y_WP:	0.000	Y_WP:	0.000	X:	0.020	Y:	0.012	Z:	0.057	yaw:	-2.437	yaw rate:	-0.423	Roll:	0.607	Pitch:	0.403	Yaw:	-4.315	Thrust:	0.000
Time:	1.350	Roll Set Point:	-0.039	Pitch Set Point:	-0.025	Yaw Set Point:	0.042	X_WP:	0.000	Y_WP:	0.000	Y_WP:	0.000	X:	0.020	Y:	0.012	Z:	0.057	yaw:	-2.434	yaw rate:	-0.323	Roll:	0.636	Pitch:	0.418	Yaw:	-4.486	Thrust:	0.000
Time:	1.370	Roll Set Point:	-0.039	Pitch Set Point:	-0.025	Yaw Set Point:	0.043	X_WP:	0.000	Y_WP:	0.000	Y_WP:	0.000	X:	0.020	Y:	0.012	Z:	0.057	yaw:	-2.440	yaw rate:	0.619	Roll:	0.608	Pitch:	0.421	Yaw:	-4.634	Thrust:	0.000
Time:	1.392	Roll Set Point:	-0.039	Pitch Set Point:	-0.025	Yaw Set Point:	0.043	X_WP:	0.000	Y_WP:	0.000	Y_WP:	0.000	X:	0.020	Y:	0.012	Z:	0.057	yaw:	-2.438	yaw rate:	-0.232	Roll:	0.631	Pitch:	0.431	Yaw:	-4.654	Thrust:	0.000
Time:	1.411	Roll Set Point:	-0.039	Pitch Set Point:	-0.025	Yaw Set Point:	0.043	X_WP:	0.000	Y_WP:	0.000	Y_WP:	0.000	X:	0.020	Y:	0.012	Z:	0.057	yaw:	-2.436	yaw rate:	-0.242	Roll:	0.615	Pitch:	0.419	Yaw:	-4.425	Thrust:	0.000
Time:	1.430	Roll Set Point:	-0.039	Pitch Set Point:	-0.025	Yaw Set Point:	0.042	X_WP:	0.000	Y_WP:	0.000	Y_WP:	0.000	X:	0.020	Y:	0.012	Z:	0.057	yaw:	-2.435	yaw rate:	-0.064	Roll:	0.620	Pitch:	0.409	Yaw:	-4.580	Thrust:	0.000
Time:	1.453	Roll Set Point:	-0.039	Pitch Set Point:	-0.025	Yaw Set Point:	0.042	X_WP:	0.000	Y_WP:	0.000	Y_WP:	0.000	X:	0.020	Y:	0.012	Z:	0.057	yaw:	-2.435	yaw rate:	-0.022	Roll:	0.636	Pitch:	0.431	Yaw:	-4.787	Thrust:	0.000
Time:	1.470	Roll Set Point:	-0.039	Pitch Set Point:	-0.025	Yaw Set Point:	0.042	X_WP:	0.000	Y_WP:	0.000	Y_WP:	0.000	X:	0.020	Y:	0.012	Z:	0.057	yaw:	-2.435	yaw rate:	0.036	Roll:	0.610	Pitch:	0.416	Yaw:	-4.420	Thrust:	0.000
Time:	1.490	Roll Set Point:	-0.039	Pitch Set Point:	-0.025	Yaw Set Point:	0.042	X_WP:	0.000	Y_WP:	0.000	Y_WP:	0.000	X:	0.020	Y:	0.012	Z:	0.057	yaw:	-2.433	yaw rate:	-0.251	Roll:	0.633	Pitch:	0.426	Yaw:	-4.636	Thrust:	0.000
Time:	1.512	Roll Set Point:	-0.039	Pitch Set Point:	-0.025	Yaw Set Point:	0.043	X_WP:	0.000	Y_WP:	0.000	Y_WP:	0.000	X:	0.020	Y:	0.012	Z:	0.057	yaw:	-2.438	yaw rate:	0.570	Roll:	0.626	Pitch:	0.431	Yaw:	-4.841	Thrust:	0.000
Time:	1.530	Roll Set Point:	-0.039	Pitch Set Point:	-0.025	Yaw Set Point:	0.043	X_WP:	0.000	Y_WP:	0.000	Y_WP:	0.000	X:	0.020	Y:	0.012	Z:	0.057	yaw:	-2.438	yaw rate:	-0.055	Roll:	0.618	Pitch:	0.419	Yaw:	-4.558	Thrust:	0.000
Time:	1.550	Roll Set Point:	-0.039	Pitch Set Point:	-0.025	Yaw Set Point:	0.042	X_WP:	0.000	Y_WP:	0.000	Y_WP:	0.000	X:	0.020	Y:	0.012	Z:	0.057	yaw:	-2.432	yaw rate:	-0.523	Roll:	0.646	Pitch:	0.428	Yaw:	-4.593	Thrust:	0.000
Time:	1.570	Roll Set Point:	-0.039	Pitch Set Point:	-0.025	Yaw Set Point:	0.043	X_WP:	0.000	Y_WP:	0.000	Y_WP:	0.000	X:	0.020	Y:	0.012	Z:	0.057	yaw:	-2.438	yaw rate:	0.601	Roll:	0.626	Pitch:	0.424	Yaw:	-4.822	Thrust:	0.000
Time:	1.594	Roll Set Point:	-0.039	Pitch Set Point:	-0.025	Yaw Set Point:	0.042	X_WP:	0.000	Y_WP:	0.000	Y_WP:	0.000	X:	0.020	Y:	0.012	Z:	0.057	yaw:	-2.434	yaw rate:	-0.487	Roll:	0.625	Pitch:	0.430	Yaw:	-4.909	Thrust:	0.000
Time:	1.610	Roll Set Point:	-0.039	Pitch Set Point:	-0.025	Yaw Set Point:	0.042	X_WP:	0.000	Y_WP:	0.000	Y_WP:	0.000	X:	0.020	Y:	0.012	Z:	0.057	yaw:	-2.434	yaw rate:	0.013	Roll:	0.637	Pitch:	0.432	Yaw:	-4.501	Thrust:	0.000
Time:	1.630	Roll Set Point:	-0.039	Pitch Set Point:	-0.025	Yaw Set Point:	0.042	X_WP:	0.000	Y_WP:	0.000	Y_WP:	0.000	X:	0.020	Y:	0.012	Z:	0.057	yaw:	-2.429	yaw rate:	-0.518	Roll:	0.632	Pitch:	0.424	Yaw:	-4.676	Thrust:	0.000
Time:	1.655	Roll Set Point:	-0.039	Pitch Set Point:	-0.025	Yaw Set Point:	0.042	X_WP:	0.000	Y_WP:	0.000	Y_WP:	0.000	X:	0.020	Y:	0.012	Z:	0.057	yaw:	-2.435	yaw rate:	0.634	Roll:	0.643	Pitch:	0.438	Yaw:	-5.128	Thrust:	0.000
Time:	1.670	Roll Set Point:	-0.039	Pitch Set Point:	-0.025	Yaw Set Point:	0.042	X_WP:	0.000	Y_WP:	0.000	Y_WP:	0.000	X:	0.020	Y:	0.012	Z:	0.057	yaw:	-2.434	yaw rate:	-0.040	Roll:	0.624	Pitch:	0.411	Yaw:	-4.477	Thrust:	0.000
Time:	1.690	Roll Set Point:	-0.039	Pitch Set Point:	-0.025	Yaw Set Point:	0.043	X_WP:	0.000	Y_WP:	0.000	Y_WP:	0.000	X:	0.020	Y:	0.012	Z:	0.057	yaw:	-2.441	yaw rate:	0.648	Roll:	0.633	Pitch:	0.439	Yaw:	-4.945	Thrust:	0.000
Time:	1.712	Roll Set Point:	-0.039	Pitch Set Point:	-0.025	Yaw Set Point:	0.043	X_WP:	0.000	Y_WP:	0.000	Y_WP:	0.000	X:	0.020	Y:	0.012	Z:	0.057	yaw:	-2.438	yaw rate:	-0.330	Roll:	0.646	Pitch:	0.434	Yaw:	-4.925	Thrust:	0.000
Time:	1.730	Roll Set Point:	-0.039	Pitch Set Point:	-0.025	Yaw Set Point:	0.043	X_WP:	0.000	Y_WP:	0.000	Y_WP:	0.000	X:	0.020	Y:	0.012	Z:	0.057	yaw:	-2.441	yaw rate:	0.377	Roll:	0.630	Pitch:	0.422	Yaw:	-4.749	Thrust:	0.000
Time:	1.750	Roll Set Point:	-0.039	Pitch Set Point:	-0.025	Yaw Set Point:	0.043	X_WP:	0.000	Y_WP:	0.000	Y_WP:	0.000	X:	0.020	Y:	0.012	Z:	0.057	yaw:	-2.440	yaw rate:	-0.149	Roll:	0.639	Pitch:	0.438	Yaw:	-4.873	Thrust:	0.000
Time:	1.770	Roll Set Point:	-0.039	Pitch Set Point:	-0.025	Yaw Set Point:	0.043	X_WP:	0.000	Y_WP:	0.000	Y_WP:	0.000	X:	0.020	Y:	0.012	Z:	0.057	yaw:	-2.442	yaw rate:	0.181	Roll:	0.622	Pitch:	0.422	Yaw:	-4.854	Thrust:	0.000
Time:	1.794	Roll Set Point:	-0.039	Pitch Set Point:	-0.025	Yaw Set Point:	0.043	X_WP:	0.000	Y_WP:	0.000	Y_WP:	0.000	X:	0.020	Y:	0.012	Z:	0.057	yaw:	-2.441	yaw rate:	-0.100	Roll:	0.671	Pitch:	0.455	Yaw:	-5.237	Thrust:	0.000
Time:	1.810	Roll Set Point:	-0.039	Pitch Set Point:	-0.025	Yaw Set Point:	0.043	X_WP:	0.000	Y_WP:	0.000	Y_WP:	0.000	X:	0.020	Y:	0.012	Z:	0.057	yaw:	-2.439	yaw rate:	-0.182	Roll:	0.624	Pitch:	0.411	Yaw:	-4.591	Thrust:	0.000
Time:	1.830	Roll Set Point:	-0.039	Pitch Set Point:	-0.025	Yaw Set Point:	0.042	X_WP:	0.000	Y_WP:	0.000	Y_WP:	0.000	X:	0.020	Y:	0.012	Z:	0.057	yaw:	-2.434	yaw rate:	-0.460	Roll:	0.647	Pitch:	0.444	Yaw:	-4.856	Thrust:	0.000
Time:	1.858	Roll Set Point:	-0.039	Pitch Set Point:	-0.025	Yaw Set Point:	0.043	X_WP:	0.000	Y_WP:	0.000	Y_WP:	0.000	X:	0.020	Y:	0.012	Z:	0.057	yaw:	-2.439	yaw rate:	0.502	Roll:	0.646	Pitch:	0.442	Yaw:	-5.325	Thrust:	0.000
Time:	1.870	Roll Set Point:	-0.039	Pitch Set Point:	-0.025	Yaw Set Point:	0.043	X_WP:	0.000	Y_WP:	0.000	Y_WP:	0.000	X:	0.020	Y:	0.012	Z:	0.057	yaw:	-2.442	yaw rate:	0.311	Roll:	0.646	Pitch:	0.429	Yaw:	-4.718	Thrust:	0.000
Time:	1.890	Roll Set Point:	-0.039	Pitch Set Point:	-0.025	Yaw Set Point:	0.043	X_WP:	0.000	Y_WP:	0.000	Y_WP:	0.000	X:	0.020	Y:	0.012	Z:	0.057	yaw:	-2.441	yaw rate:	-0.168	Roll:	0.635	Pitch:	0.438	Yaw:	-4.975	Thrust:	0.000
Time:	1.912	Roll Set Point:	-0.039	Pitch Set Point:	-0.025	Yaw Set Point:	0.043	X_WP:	0.000	Y_WP:	0.000	Y_WP:	0.000	X:	0.020	Y:	0.012	Z:	0.057	yaw:	-2.437	yaw rate:	-0.360	Roll:	0.657	Pitch:	0.439	Yaw:	-5.113	Thrust:	0.000
Time:	1.930	Roll Set Point:	-0.039	Pitch Set Point:	-0.025	Yaw Set Point:	0.043	X_WP:	0.000	Y_WP:	0.000	Y_WP:	0.000	X:	0.020	Y:	0.012	Z:	0.057	yaw:	-2.440	yaw rate:	0.262	Roll:	0.640	Pitch:	0.434	Yaw:	-4.930	Thrust:	0.000
Time:	1.950	Roll Set Point:	-0.039	Pitch Set Point:	-0.025	Yaw Set Point:	0.043	X_WP:	0.000	Y_WP:	0.000	Y_WP:	0.000	X:	0.020	Y:	0.012	Z:	0.057	yaw:	-2.438	yaw rate:	-0.214	Roll:	0.649	Pitch:	0.433	Yaw:	-4.984	Thrust:	0.000
Time:	1.970	Roll Set Point:	-0.039	Pitch Set Point:	-0.025	Yaw Set Point:	0.042	X_WP:	0.000	Y_WP:	0.000	Y_WP:	0.000	X:	0.020	Y:	0.012	Z:	0.057	yaw:	-2.434	yaw rate:	-0.324	Roll:	0.659	Pitch:	0.449	Yaw:	-5.020	Thrust:	0.000
Time:	1.993	Roll Set Point:	-0.039	Pitch Set Point:	-0.025	Yaw Set Point:	0.042	X_WP:	0.000	Y_WP:	0.000	Y_WP:	0.000	X:	0.020	Y:	0.012	Z:	0.057	yaw:	-2.430	yaw rate:	-0.407	Roll:	0.648	Pitch:	0.440	Yaw:	-5.232	Thrust:	0.000
Time:	2.010	Roll Set Point:	-0.039	Pitch Set Point:	-0.025	Yaw Set Point:	0.043	X_WP:	0.000	Y_WP:	0.000	Y_WP:	0.000	X:	0.020	Y:	0.012	Z:	0.057	yaw:	-2.438	yaw rate:	0.723	Roll:	0.642	Pitch:	0.443	Yaw:	-4.977	Thrust:	0.000
Time:	2.030	Roll Set Point:	-0.039	Pitch Set Point:	-0.025	Yaw Set Point:	0.043	X_WP:	0.000	Y_WP:	0.000	Y_WP:	0.000	X:	0.020	Y:	0.012	Z:	0.057	yaw:	-2.438	yaw rate:	0.067	Roll:	0.654	Pitch:	0.434	Yaw:	-5.107	Thrust:	0.000
Time:	2.054	Roll Set Point:	-0.039	Pitch Set Point:	-0.025	Yaw Set Point:	0.042	X_WP:	0.000	Y_WP:	0.000	Y_WP:	0.000	X:	0.020	Y:	0.012	Z:	0.057	yaw:	-2.434	yaw rate:	-0.453	Roll:	0.670	Pitch:	0.451	Yaw:	-5.379	Thrust:	0.000
Time:	2.070	Roll Set Point:	-0.039	Pitch Set Point:	-0.025	Yaw Set Point:	0.043	X_WP:	0.000	Y_WP:	0.000	Y_WP:	0.000	X:	0.020	Y:	0.012	Z:	0.057	yaw:	-2.435	yaw rate:	0.163	Roll:	0.628	Pitch:	0.429	Yaw:	-4.819	Thrust:	0.000
Time:	2.090	Roll Set Point:	-0.039	Pitch Set Point:	-0.025	Yaw Set Point:	0.043	X_WP:	0.000	Y_WP:	0.000	Y_WP:	0.000	X:	0.020	Y:	0.012	Z:	0.057	yaw:	-2.442	yaw rate:	0.639	Roll:	0.661	Pitch:	0.447	Yaw:	-5.294	Thrust:	0.000
Time:	2.112	Roll Set Point:	-0.039	Pitch Set Point:	-0.025	Yaw Set Point:	0.043	X_WP:	0.000	Y_WP:	0.000	Y_WP:	0.000	X:	0.020	Y:	0.012	Z:	0.057	yaw:	-2.439	yaw rate:	-0.276	Roll:	0.669	Pitch:	0.447	Yaw:	-5.291	Thrust:	0.000
Time:	2.130	Roll Set Point:	-0.039	Pitch Set Point:	-0.025	Yaw Set Point:	0.043	X_WP:	0.000	Y_WP:	0.000	Y_WP:	0.000	X:	0.020	Y:	0.012	Z:	0.057	yaw:	-2.442	yaw rate:	0.297	Roll:	0.650	Pitch:	0.445	Yaw:	-5.110	Thrust:	0.000
Time:	2.150	Roll Set Point:	-0.039	Pitch Set Point:	-0.025	Yaw Set Point:	0.043	X_WP:	0.000	Y_WP:	0.000	Y_WP:	0.000	X:	0.020	Y:	0.012	Z:	0.057	yaw:	-2.438	yaw rate:	-0.387	Roll:	0.649	Pitch:	0.439	Yaw:	-5.126	Thrust:	0.000
Time:	2.170	Roll Set Point:	-0.039	Pitch Set Point:	-0.025	Yaw Set Point:	0.043	X_WP:	0.000	Y_WP:	0.000	Y_WP:	0.000	X:	0.020	Y:	0.012	Z:	0.057	yaw:	-2.440	yaw rate:	0.160	Roll:	0.669	Pitch:	0.439	Yaw:	-5.205	Thrust:	0.000
Time:	2.192	Roll Set Point:	-0.039	Pitch Set Point:	-0.025	Yaw Set Point:	0.043	X_WP:	0.000	Y_WP:	0.000	Y_WP:	0.000	X:	0.020	Y:	0.012	Z:	0.057	yaw:	-2.440	yaw rate:	0.085	Roll:	0.659	Pitch:	0.465	Yaw:	-5.472	Thrust:	0.000
Time:	2.211	Roll Set Point:	-0.039	Pitch Set Point:	-0.025	Yaw Set Point:	0.043	X_WP:	0.000	Y_WP:	0.000	Y_WP:	0.000	X:	0.020	Y:	0.012	Z:	0.057	yaw:	-2.440	yaw rate:	-0.024	Roll:	0.655	Pitch:	0.435	Yaw:	-5.133	Thrust:	0.000
Time:	2.230	Roll Set Point:	-0.039	Pitch Set Point:	-0.025	Yaw Set Point:	0.042	X_WP:	0.000	Y_WP:	0.000	Y_WP:	0.000	X:	0.020	Y:	0.012	Z:	0.057	yaw:	-2.434	yaw rate:	-0.642	Roll:	0.661	Pitch:	0.442	Yaw:	-5.106	Thrust:	0.000
Time:	2.255	Roll Set Point:	-0.039	Pitch Set Point:	-0.025	Yaw Set Point:	0.043	X_WP:	0.000	Y_WP:	0.000	Y_WP:	0.000	X:	0.020	Y:	0.012	Z:	0.057	yaw:	-2.443	yaw rate:	0.917	Roll:	0.686	Pitch:	0.470	Yaw:	-5.831	Thrust:	0.000
Time:	2.270	Roll Set Point:	-0.039	Pitch Set Point:	-0.025	Yaw Set Point:	0.042	X_WP:	0.000	Y_WP:	0.000	Y_WP:	0.000	X:	0.020	Y:	0.012	Z:	0.057	yaw:	-2.434	yaw rate:	-0.859	Roll:	0.641	Pitch:	0.424	Yaw:	-4.683	Thrust:	0.000
Time:	2.290	Roll Set Point:	-0.039	Pitch Set Point:	-0.025	Yaw Set Point:	0.042	X_WP:	0.000	Y_WP:	0.000	Y_WP:	0.000	X:	0.020	Y:	0.012	Z:	0.057	yaw:	-2.435	yaw rate:	0.046	Roll:	0.662	Pitch:	0.452	Yaw:	-5.406	Thrust:	0.000
Time:	2.312	Roll Set Point:	-0.039	Pitch Set Point:	-0.025	Yaw Set Point:	0.043	X_WP:	0.000	Y_WP:	0.000	Y_WP:	0.000	X:	0.020	Y:	0.012	Z:	0.057	yaw:	-2.441	yaw rate:	0.644	Roll:	0.682	Pitch:	0.455	Yaw:	-5.583	Thrust:	0.000
Time:	2.330	Roll Set Point:	-0.039	Pitch Set Point:	-0.025	Yaw Set Point:	0.043	X_WP:	0.000	Y_WP:	0.000	Y_WP:	0.000	X:	0.020	Y:	0.012	Z:	0.057	yaw:	-2.441	yaw rate:	-0.021	Roll:	0.651	Pitch:	0.453	Yaw:	-5.192	Thrust:	0.000
Time:	2.350	Roll Set Point:	-0.039	Pitch Set Point:	-0.025	Yaw Set Point:	0.043	X_WP:	0.000	Y_WP:	0.000	Y_WP:	0.000	X:	0.020	Y:	0.012	Z:	0.057	yaw:	-2.445	yaw rate:	0.356	Roll:	0.670	Pitch:	0.441	Yaw:	-5.399	Thrust:	0.000
Time:	2.369	Roll Set Point:	-0.039	Pitch Set Point:	-0.025	Yaw Set Point:	0.042	X_WP:	0.000	Y_WP:	0.000	Y_WP:	0.000	X:	0.020	Y:	0.012	Z:	0.057	yaw:	-2.433	yaw rate:	-1.190	Roll:	0.669	Pitch:	0.460	Yaw:	-5.197	Thrust:	0.000
Time:	2.391	Roll Set Point:	-0.039	Pitch Set Point:	-0.025	Yaw Set Point:	0.043	X_WP:	0.000	Y_WP:	0.000	Y_WP:	0.000	X:	0.020	Y:	0.012	Z:	0.057	yaw:	-2.441	yaw rate:	0.808	Roll:	0.670	Pitch:	0.458	Yaw:	-5.674	Thrust:	0.000
Time:	2.409	Roll Set Point:	-0.039	Pitch Set Point:	-0.025	Yaw Set Point:	0.043	X_WP:	0.000	Y_WP:	0.000	Y_WP:	0.000	X:	0.020	Y:	0.012	Z:	0.057	yaw:	-2.436	yaw rate:	-0.487	Roll:	0.655	Pitch:	0.438	Yaw:	-5.209	Thrust:	0.000
Time:	2.429	Roll Set Point:	-0.039	Pitch Set Point:	-0.025	Yaw Set Point:	0.043	X_WP:	0.000	Y_WP:	0.000	Y_WP:	0.000	X:	0.020	Y:	0.012	Z:	0.057	yaw:	-2.441	yaw rate:	0.477	Roll:	0.687	Pitch:	0.468	Yaw:	-5.506	Thrust:	0.000
Time:	2.455	Roll Set Point:	-0.039	Pitch Set Point:	-0.025	Yaw Set Point:	0.043	X_WP:	0.000	Y_WP:	0.000	Y_WP:	0.000	X:	0.020	Y:	0.012	Z:	0.057	yaw:	-2.439	yaw rate:	-0.141	Roll:	0.678	Pitch:	0.460	Yaw:	-5.824	Thrust:	0.000
Time:	2.470	Roll Set Point:	-0.039	Pitch Set Point:	-0.025	Yaw Set Point:	0.043	X_WP:	0.000	Y_WP:	0.000	Y_WP:	0.000	X:	0.020	Y:	0.012	Z:	0.057	yaw:	-2.443	yaw rate:	0.415	Roll:	0.643	Pitch:	0.441	Yaw:	-5.097	Thrust:	0.000
Time:	2.490	Roll Set Point:	-0.039	Pitch Set Point:	-0.025	Yaw Set Point:	0.043	X_WP:	0.000	Y_WP:	0.000	Y_WP:	0.000	X:	0.020	Y:	0.012	Z:	0.057	yaw:	-2.442	yaw rate:	-0.144	Roll:	0.700	Pitch:	0.466	Yaw:	-5.540	Thrust:	0.000
Time:	2.512	Roll Set Point:	-0.039	Pitch Set Point:	-0.025	Yaw Set Point:	0.043	X_WP:	0.000	Y_WP:	0.000	Y_WP:	0.000	X:	0.020	Y:	0.012	Z:	0.057	yaw:	-2.438	yaw rate:	-0.447	Roll:	0.683	Pitch:	0.459	Yaw:	-5.741	Thrust:	0.000
Time:	2.530	Roll Set Point:	-0.039	Pitch Set Point:	-0.025	Yaw Set Point:	0.043	X_WP:	0.000	Y_WP:	0.000	Y_WP:	0.000	X:	0.020	Y:	0.012	Z:	0.057	yaw:	-2.437	yaw rate:	-0.037	Roll:	0.658	Pitch:	0.454	Yaw:	-5.375	Thrust:	0.000
Time:	2.549	Roll Set Point:	-0.039	Pitch Set Point:	-0.025	Yaw Set Point:	0.043	X_WP:	0.000	Y_WP:	0.000	Y_WP:	0.000	X:	0.020	Y:	0.012	Z:	0.057	yaw:	-2.443	yaw rate:	0.540	Roll:	0.668	Pitch:	0.450	Yaw:	-5.525	Thrust:	0.000
Time:	2.569	Roll Set Point:	-0.039	Pitch Set Point:	-0.025	Yaw Set Point:	0.043	X_WP:	0.000	Y_WP:	0.000	Y_WP:	0.000	X:	0.020	Y:	0.012	Z:	0.057	yaw:	-2.442	yaw rate:	-0.075	Roll:	0.689	Pitch:	0.471	Yaw:	-5.532	Thrust:	0.000
Time:	2.591	Roll Set Point:	-0.039	Pitch Set Point:	-0.025	Yaw Set Point:	0.043	X_WP:	0.000	Y_WP:	0.000	Y_WP:	0.000	X:	0.020	Y:	0.012	Z:	0.057	yaw:	-2.441	yaw rate:	-0.046	Roll:	0.682	Pitch:	0.456	Yaw:	-5.814	Thrust:	0.000
Time:	2.610	Roll Set Point:	-0.039	Pitch Set Point:	-0.025	Yaw Set Point:	0.043	X_WP:	0.000	Y_WP:	0.000	Y_WP:	0.000	X:	0.020	Y:	0.012	Z:	0.057	yaw:	-2.437	yaw rate:	-0.417	Roll:	0.663	Pitch:	0.461	Yaw:	-5.328	Thrust:	0.000
Time:	2.630	Roll Set Point:	-0.039	Pitch Set Point:	-0.025	Yaw Set Point:	0.042	X_WP:	0.000	Y_WP:	0.000	Y_WP:	0.000	X:	0.020	Y:	0.012	Z:	0.057	yaw:	-2.435	yaw rate:	-0.233	Roll:	0.698	Pitch:	0.449	Yaw:	-5.548	Thrust:	0.000
Time:	2.654	Roll Set Point:	-0.039	Pitch Set Point:	-0.025	Yaw Set Point:	0.043	X_WP:	0.000	Y_WP:	0.000	Y_WP:	0.000	X:	0.020	Y:	0.012	Z:	0.057	yaw:	-2.435	yaw rate:	0.052	Roll:	0.695	Pitch:	0.484	Yaw:	-6.201	Thrust:	0.000
Time:	2.670	Roll Set Point:	-0.039	Pitch Set Point:	-0.025	Yaw Set Point:	0.043	X_WP:	0.000	Y_WP:	0.000	Y_WP:	0.000	X:	0.020	Y:	0.012	Z:	0.057	yaw:	-2.435	yaw rate:	0.004	Roll:	0.656	Pitch:	0.444	Yaw:	-5.148	Thrust:	0.000
Time:	2.690	Roll Set Point:	-0.039	Pitch Set Point:	-0.025	Yaw Set Point:	0.043	X_WP:	0.000	Y_WP:	0.000	Y_WP:	0.000	X:	0.020	Y:	0.012	Z:	0.057	yaw:	-2.435	yaw rate:	-0.019	Roll:	0.688	Pitch:	0.466	Yaw:	-5.673	Thrust:	0.000
Time:	2.712	Roll Set Point:	-0.039	Pitch Set Point:	-0.025	Yaw Set Point:	0.043	X_WP:	0.000	Y_WP:	0.000	Y_WP:	0.000	X:	0.020	Y:	0.012	Z:	0.057	yaw:	-2.435	yaw rate:	-0.009	Roll:	0.693	Pitch:	0.472	Yaw:	-5.928	Thrust:	0.000
Time:	2.731	Roll Set Point:	-0.039	Pitch Set Point:	-0.025	Yaw Set Point:	0.043	X_WP:	0.000	Y_WP:	0.000	Y_WP:	0.000	X:	0.020	Y:	0.012	Z:	0.057	yaw:	-2.436	yaw rate:	0.060	Roll:	0.673	Pitch:	0.443	Yaw:	-5.440	Thrust:	0.000
Time:	2.750	Roll Set Point:	-0.039	Pitch Set Point:	-0.025	Yaw Set Point:	0.043	X_WP:	0.000	Y_WP:	0.000	Y_WP:	0.000	X:	0.020	Y:	0.012	Z:	0.057	yaw:	-2.439	yaw rate:	0.349	Roll:	0.687	Pitch:	0.469	Yaw:	-5.813	Thrust:	0.000
Time:	2.770	Roll Set Point:	-0.039	Pitch Set Point:	-0.025	Yaw Set Point:	0.042	X_WP:	0.000	Y_WP:	0.000	Y_WP:	0.000	X:	0.020	Y:	0.012	Z:	0.057	yaw:	-2.432	yaw rate:	-0.716	Roll:	0.678	Pitch:	0.466	Yaw:	-5.527	Thrust:	0.000
Time:	2.793	Roll Set Point:	-0.039	Pitch Set Point:	-0.025	Yaw Set Point:	0.043	X_WP:	0.000	Y_WP:	0.000	Y_WP:	0.000	X:	0.020	Y:	0.012	Z:	0.057	yaw:	-2.438	yaw rate:	0.545	Roll:	0.700	Pitch:	0.477	Yaw:	-6.236	Thrust:	0.000
Time:	2.810	Roll Set Point:	-0.039	Pitch Set Point:	-0.025	Yaw Set Point:	0.043	X_WP:	0.000	Y_WP:	0.000	Y_WP:	0.000	X:	0.020	Y:	0.012	Z:	0.057	yaw:	-2.448	yaw rate:	1.045	Roll:	0.689	Pitch:	0.456	Yaw:	-5.592	Thrust:	0.000
Time:	2.830	Roll Set Point:	-0.039	Pitch Set Point:	-0.025	Yaw Set Point:	0.042	X_WP:	0.000	Y_WP:	0.000	Y_WP:	0.000	X:	0.020	Y:	0.012	Z:	0.057	yaw:	-2.432	yaw rate:	-1.631	Roll:	0.690	Pitch:	0.472	Yaw:	-5.579	Thrust:	0.000
Time:	2.855	Roll Set Point:	-0.039	Pitch Set Point:	-0.025	Yaw Set Point:	0.042	X_WP:	0.000	Y_WP:	0.000	Y_WP:	0.000	X:	0.020	Y:	0.012	Z:	0.057	yaw:	-2.430	yaw rate:	-0.156	Roll:	0.705	Pitch:	0.474	Yaw:	-6.199	Thrust:	0.000
Time:	2.870	Roll Set Point:	-0.039	Pitch Set Point:	-0.025	Yaw Set Point:	0.043	X_WP:	0.000	Y_WP:	0.000	Y_WP:	0.000	X:	0.020	Y:	0.012	Z:	0.057	yaw:	-2.438	yaw rate:	0.820	Roll:	0.675	Pitch:	0.461	Yaw:	-5.479	Thrust:	0.000
Time:	2.890	Roll Set Point:	-0.039	Pitch Set Point:	-0.025	Yaw Set Point:	0.043	X_WP:	0.000	Y_WP:	0.000	Y_WP:	0.000	X:	0.020	Y:	0.012	Z:	0.057	yaw:	-2.436	yaw rate:	-0.277	Roll:	0.703	Pitch:	0.471	Yaw:	-5.812	Thrust:	0.000
Time:	2.912	Roll Set Point:	-0.039	Pitch Set Point:	-0.025	Yaw Set Point:	0.042	X_WP:	0.000	Y_WP:	0.000	Y_WP:	0.000	X:	0.020	Y:	0.012	Z:	0.057	yaw:	-2.435	yaw rate:	-0.100	Roll:	0.696	Pitch:	0.478	Yaw:	-6.109	Thrust:	0.000
Time:	2.930	Roll Set Point:	-0.039	Pitch Set Point:	-0.025	Yaw Set Point:	0.042	X_WP:	0.000	Y_WP:	0.000	Y_WP:	0.000	X:	0.020	Y:	0.012	Z:	0.057	yaw:	-2.431	yaw rate:	-0.364	Roll:	0.688	Pitch:	0.461	Yaw:	-5.628	Thrust:	0.000
Time:	2.949	Roll Set Point:	-0.039	Pitch Set Point:	-0.025	Yaw Set Point:	0.043	X_WP:	0.000	Y_WP:	0.000	Y_WP:	0.000	X:	0.020	Y:	0.012	Z:	0.057	yaw:	-2.436	yaw rate:	0.463	Roll:	0.701	Pitch:	0.468	Yaw:	-5.845	Thrust:	0.000
Time:	2.969	Roll Set Point:	-0.039	Pitch Set Point:	-0.025	Yaw Set Point:	0.042	X_WP:	0.000	Y_WP:	0.000	Y_WP:	0.000	X:	0.020	Y:	0.012	Z:	0.057	yaw:	-2.434	yaw rate:	-0.199	Roll:	0.682	Pitch:	0.473	Yaw:	-5.835	Thrust:	0.000
Time:	2.992	Roll Set Point:	-0.039	Pitch Set Point:	-0.025	Yaw Set Point:	0.042	X_WP:	0.000	Y_WP:	0.000	Y_WP:	0.000	X:	0.020	Y:	0.012	Z:	0.057	yaw:	-2.433	yaw rate:	-0.024	Roll:	0.711	Pitch:	0.475	Yaw:	-6.215	Thrust:	0.000
Time:	3.010	Roll Set Point:	-0.039	Pitch Set Point:	-0.025	Yaw Set Point:	0.042	X_WP:	0.000	Y_WP:	0.000	Y_WP:	0.000	X:	0.020	Y:	0.012	Z:	0.057	yaw:	-2.434	yaw rate:	0.046	Roll:	0.700	Pitch:	0.466	Yaw:	-5.691	Thrust:	0.000
Time:	3.030	Roll Set Point:	-0.039	Pitch Set Point:	-0.025	Yaw Set Point:	0.043	X_WP:	0.000	Y_WP:	0.000	Y_WP:	0.000	X:	0.020	Y:	0.012	Z:	0.057	yaw:	-2.440	yaw rate:	0.592	Roll:	0.697	Pitch:	0.477	Yaw:	-6.072	Thrust:	0.000
Time:	3.054	Roll Set Point:	-0.039	Pitch Set Point:	-0.025	Yaw Set Point:	0.043	X_WP:	0.000	Y_WP:	0.000	Y_WP:	0.000	X:	0.020	Y:	0.012	Z:	0.057	yaw:	-2.439	yaw rate:	-0.113	Roll:	0.721	Pitch:	0.491	Yaw:	-6.472	Thrust:	0.000
Time:	3.069	Roll Set Point:	-0.039	Pitch Set Point:	-0.025	Yaw Set Point:	0.042	X_WP:	0.000	Y_WP:	0.000	Y_WP:	0.000	X:	0.020	Y:	0.012	Z:	0.057	yaw:	-2.431	yaw rate:	-0.753	Roll:	0.673	Pitch:	0.449	Yaw:	-5.282	Thrust:	0.000
Time:	3.090	Roll Set Point:	-0.039	Pitch Set Point:	-0.025	Yaw Set Point:	0.042	X_WP:	0.000	Y_WP:	0.000	Y_WP:	0.000	X:	0.020	Y:	0.012	Z:	0.057	yaw:	-2.431	yaw rate:	0.006	Roll:	0.713	Pitch:	0.485	Yaw:	-6.079	Thrust:	0.000
Time:	3.112	Roll Set Point:	-0.039	Pitch Set Point:	-0.025	Yaw Set Point:	0.042	X_WP:	0.000	Y_WP:	0.000	Y_WP:	0.000	X:	0.020	Y:	0.012	Z:	0.057	yaw:	-2.432	yaw rate:	0.066	Roll:	0.709	Pitch:	0.486	Yaw:	-6.230	Thrust:	0.000
Time:	3.130	Roll Set Point:	-0.039	Pitch Set Point:	-0.025	Yaw Set Point:	0.042	X_WP:	0.000	Y_WP:	0.000	Y_WP:	0.000	X:	0.020	Y:	0.012	Z:	0.057	yaw:	-2.431	yaw rate:	-0.063	Roll:	0.699	Pitch:	0.466	Yaw:	-5.833	Thrust:	0.000
Time:	3.150	Roll Set Point:	-0.039	Pitch Set Point:	-0.025	Yaw Set Point:	0.043	X_WP:	0.000	Y_WP:	0.000	Y_WP:	0.000	X:	0.020	Y:	0.012	Z:	0.057	yaw:	-2.438	yaw rate:	0.653	Roll:	0.704	Pitch:	0.484	Yaw:	-6.085	Thrust:	0.000
Time:	3.170	Roll Set Point:	-0.039	Pitch Set Point:	-0.025	Yaw Set Point:	0.042	X_WP:	0.000	Y_WP:	0.000	Y_WP:	0.000	X:	0.020	Y:	0.012	Z:	0.057	yaw:	-2.428	yaw rate:	-0.939	Roll:	0.710	Pitch:	0.473	Yaw:	-5.956	Thrust:	0.000
Time:	3.192	Roll Set Point:	-0.039	Pitch Set Point:	-0.025	Yaw Set Point:	0.043	X_WP:	0.000	Y_WP:	0.000	Y_WP:	0.000	X:	0.020	Y:	0.012	Z:	0.057	yaw:	-2.438	yaw rate:	0.971	Roll:	0.701	Pitch:	0.480	Yaw:	-6.455	Thrust:	0.000
Time:	3.210	Roll Set Point:	-0.039	Pitch Set Point:	-0.025	Yaw Set Point:	0.042	X_WP:	0.000	Y_WP:	0.000	Y_WP:	0.000	X:	0.020	Y:	0.012	Z:	0.057	yaw:	-2.435	yaw rate:	-0.342	Roll:	0.716	Pitch:	0.481	Yaw:	-5.792	Thrust:	0.000
Time:	3.230	Roll Set Point:	-0.039	Pitch Set Point:	-0.025	Yaw Set Point:	0.043	X_WP:	0.000	Y_WP:	0.000	Y_WP:	0.000	X:	0.020	Y:	0.012	Z:	0.057	yaw:	-2.436	yaw rate:	0.160	Roll:	0.711	Pitch:	0.483	Yaw:	-6.126	Thrust:	0.000
Time:	3.256	Roll Set Point:	-0.039	Pitch Set Point:	-0.025	Yaw Set Point:	0.043	X_WP:	0.000	Y_WP:	0.000	Y_WP:	0.000	X:	0.020	Y:	0.012	Z:	0.057	yaw:	-2.436	yaw rate:	0.010	Roll:	0.721	Pitch:	0.492	Yaw:	-6.704	Thrust:	0.000
Time:	3.270	Roll Set Point:	-0.039	Pitch Set Point:	-0.025	Yaw Set Point:	0.042	X_WP:	0.000	Y_WP:	0.000	Y_WP:	0.000	X:	0.020	Y:	0.012	Z:	0.057	yaw:	-2.432	yaw rate:	-0.429	Roll:	0.694	Pitch:	0.465	Yaw:	-5.539	Thrust:	0.000
Time:	3.291	Roll Set Point:	-0.039	Pitch Set Point:	-0.025	Yaw Set Point:	0.043	X_WP:	0.000	Y_WP:	0.000	Y_WP:	0.000	X:	0.020	Y:	0.012	Z:	0.057	yaw:	-2.439	yaw rate:	0.661	Roll:	0.713	Pitch:	0.485	Yaw:	-6.299	Thrust:	0.000
Time:	3.312	Roll Set Point:	-0.039	Pitch Set Point:	-0.025	Yaw Set Point:	0.043	X_WP:	0.000	Y_WP:	0.000	Y_WP:	0.000	X:	0.020	Y:	0.012	Z:	0.057	yaw:	-2.442	yaw rate:	0.341	Roll:	0.732	Pitch:	0.498	Yaw:	-6.480	Thrust:	0.000
Time:	3.330	Roll Set Point:	-0.039	Pitch Set Point:	-0.025	Yaw Set Point:	0.042	X_WP:	0.000	Y_WP:	0.000	Y_WP:	0.000	X:	0.020	Y:	0.012	Z:	0.057	yaw:	-2.430	yaw rate:	-1.219	Roll:	0.687	Pitch:	0.464	Yaw:	-5.826	Thrust:	0.000
Time:	3.350	Roll Set Point:	-0.039	Pitch Set Point:	-0.025	Yaw Set Point:	0.042	X_WP:	0.000	Y_WP:	0.000	Y_WP:	0.000	X:	0.020	Y:	0.012	Z:	0.057	yaw:	-2.435	yaw rate:	0.507	Roll:	0.727	Pitch:	0.484	Yaw:	-6.161	Thrust:	0.000
Time:	3.370	Roll Set Point:	-0.039	Pitch Set Point:	-0.025	Yaw Set Point:	0.042	X_WP:	0.000	Y_WP:	0.000	Y_WP:	0.000	X:	0.020	Y:	0.012	Z:	0.057	yaw:	-2.431	yaw rate:	-0.374	Roll:	0.696	Pitch:	0.490	Yaw:	-6.261	Thrust:	0.000
Time:	3.391	Roll Set Point:	-0.039	Pitch Set Point:	-0.025	Yaw Set Point:	0.043	X_WP:	0.000	Y_WP:	0.000	Y_WP:	0.000	X:	0.020	Y:	0.012	Z:	0.057	yaw:	-2.442	yaw rate:	1.093	Roll:	0.741	Pitch:	0.493	Yaw:	-6.563	Thrust:	0.000
Time:	3.410	Roll Set Point:	-0.039	Pitch Set Point:	-0.025	Yaw Set Point:	0.042	X_WP:	0.000	Y_WP:	0.000	Y_WP:	0.000	X:	0.020	Y:	0.012	Z:	0.057	yaw:	-2.432	yaw rate:	-0.979	Roll:	0.713	Pitch:	0.472	Yaw:	-5.949	Thrust:	0.000
Time:	3.430	Roll Set Point:	-0.039	Pitch Set Point:	-0.025	Yaw Set Point:	0.043	X_WP:	0.000	Y_WP:	0.000	Y_WP:	0.000	X:	0.020	Y:	0.012	Z:	0.057	yaw:	-2.435	yaw rate:	0.321	Roll:	0.723	Pitch:	0.494	Yaw:	-6.344	Thrust:	0.000
Time:	3.455	Roll Set Point:	-0.039	Pitch Set Point:	-0.025	Yaw Set Point:	0.043	X_WP:	0.000	Y_WP:	0.000	Y_WP:	0.000	X:	0.020	Y:	0.012	Z:	0.057	yaw:	-2.439	yaw rate:	0.370	Roll:	0.735	Pitch:	0.506	Yaw:	-7.020	Thrust:	0.000
Time:	3.469	Roll Set Point:	-0.039	Pitch Set Point:	-0.025	Yaw Set Point:	0.043	X_WP:	0.000	Y_WP:	0.000	Y_WP:	0.000	X:	0.020	Y:	0.012	Z:	0.057	yaw:	-2.440	yaw rate:	0.033	Roll:	0.694	Pitch:	0.455	Yaw:	-5.613	Thrust:	0.000
Time:	3.490	Roll Set Point:	-0.039	Pitch Set Point:	-0.025	Yaw Set Point:	0.042	X_WP:	0.000	Y_WP:	0.000	Y_WP:	0.000	X:	0.020	Y:	0.012	Z:	0.057	yaw:	-2.434	yaw rate:	-0.522	Roll:	0.729	Pitch:	0.495	Yaw:	-6.312	Thrust:	0.000
Time:	3.511	Roll Set Point:	-0.039	Pitch Set Point:	-0.025	Yaw Set Point:	0.042	X_WP:	0.000	Y_WP:	0.000	Y_WP:	0.000	X:	0.020	Y:	0.012	Z:	0.057	yaw:	-2.434	yaw rate:	-0.058	Roll:	0.735	Pitch:	0.500	Yaw:	-6.616	Thrust:	0.000
Time:	3.530	Roll Set Point:	-0.039	Pitch Set Point:	-0.025	Yaw Set Point:	0.042	X_WP:	0.000	Y_WP:	0.000	Y_WP:	0.000	X:	0.020	Y:	0.012	Z:	0.057	yaw:	-2.430	yaw rate:	-0.363	Roll:	0.713	Pitch:	0.471	Yaw:	-6.183	Thrust:	0.000
Time:	3.550	Roll Set Point:	-0.039	Pitch Set Point:	-0.025	Yaw Set Point:	0.043	X_WP:	0.000	Y_WP:	0.000	Y_WP:	0.000	X:	0.020	Y:	0.012	Z:	0.057	yaw:	-2.437	yaw rate:	0.665	Roll:	0.717	Pitch:	0.507	Yaw:	-6.418	Thrust:	0.000
Time:	3.570	Roll Set Point:	-0.039	Pitch Set Point:	-0.025	Yaw Set Point:	0.043	X_WP:	0.000	Y_WP:	0.000	Y_WP:	0.000	X:	0.020	Y:	0.012	Z:	0.057	yaw:	-2.441	yaw rate:	0.380	Roll:	0.726	Pitch:	0.484	Yaw:	-6.487	Thrust:	0.000
Time:	3.592	Roll Set Point:	-0.039	Pitch Set Point:	-0.025	Yaw Set Point:	0.042	X_WP:	0.000	Y_WP:	0.000	Y_WP:	0.000	X:	0.020	Y:	0.012	Z:	0.057	yaw:	-2.434	yaw rate:	-0.614	Roll:	0.738	Pitch:	0.495	Yaw:	-6.591	Thrust:	0.000
Time:	3.610	Roll Set Point:	-0.039	Pitch Set Point:	-0.025	Yaw Set Point:	0.043	X_WP:	0.000	Y_WP:	0.000	Y_WP:	0.000	X:	0.020	Y:	0.012	Z:	0.057	yaw:	-2.438	yaw rate:	0.319	Roll:	0.713	Pitch:	0.491	Yaw:	-6.199	Thrust:	0.000
Time:	3.630	Roll Set Point:	-0.039	Pitch Set Point:	-0.025	Yaw Set Point:	0.043	X_WP:	0.000	Y_WP:	0.000	Y_WP:	0.000	X:	0.020	Y:	0.012	Z:	0.057	yaw:	-2.439	yaw rate:	0.139	Roll:	0.738	Pitch:	0.494	Yaw:	-6.601	Thrust:	0.000
Time:	3.654	Roll Set Point:	-0.039	Pitch Set Point:	-0.025	Yaw Set Point:	0.043	X_WP:	0.000	Y_WP:	0.000	Y_WP:	0.000	X:	0.020	Y:	0.012	Z:	0.057	yaw:	-2.439	yaw rate:	0.031	Roll:	0.745	Pitch:	0.510	Yaw:	-6.885	Thrust:	0.000
Time:	3.669	Roll Set Point:	-0.039	Pitch Set Point:	-0.025	Yaw Set Point:	0.042	X_WP:	0.000	Y_WP:	0.000	Y_WP:	0.000	X:	0.020	Y:	0.012	Z:	0.057	yaw:	-2.434	yaw rate:	-0.532	Roll:	0.704	Pitch:	0.476	Yaw:	-5.796	Thrust:	0.000
Time:	3.691	Roll Set Point:	-0.039	Pitch Set Point:	-0.025	Yaw Set Point:	0.043	X_WP:	0.000	Y_WP:	0.000	Y_WP:	0.000	X:	0.020	Y:	0.012	Z:	0.057	yaw:	-2.438	yaw rate:	0.428	Roll:	0.742	Pitch:	0.499	Yaw:	-6.737	Thrust:	0.000
Time:	3.712	Roll Set Point:	-0.039	Pitch Set Point:	-0.025	Yaw Set Point:	0.043	X_WP:	0.000	Y_WP:	0.000	Y_WP:	0.000	X:	0.020	Y:	0.012	Z:	0.057	yaw:	-2.437	yaw rate:	-0.153	Roll:	0.746	Pitch:	0.511	Yaw:	-6.877	Thrust:	0.000
Time:	3.730	Roll Set Point:	-0.039	Pitch Set Point:	-0.025	Yaw Set Point:	0.043	X_WP:	0.000	Y_WP:	0.000	Y_WP:	0.000	X:	0.020	Y:	0.012	Z:	0.057	yaw:	-2.437	yaw rate:	0.008	Roll:	0.722	Pitch:	0.478	Yaw:	-6.168	Thrust:	0.000
Time:	3.750	Roll Set Point:	-0.039	Pitch Set Point:	-0.025	Yaw Set Point:	0.043	X_WP:	0.000	Y_WP:	0.000	Y_WP:	0.000	X:	0.020	Y:	0.012	Z:	0.057	yaw:	-2.436	yaw rate:	-0.089	Roll:	0.716	Pitch:	0.504	Yaw:	-6.457	Thrust:	0.000
Time:	3.770	Roll Set Point:	-0.039	Pitch Set Point:	-0.025	Yaw Set Point:	0.042	X_WP:	0.000	Y_WP:	0.000	Y_WP:	0.000	X:	0.020	Y:	0.012	Z:	0.057	yaw:	-2.435	yaw rate:	-0.122	Roll:	0.746	Pitch:	0.486	Yaw:	-6.666	Thrust:	0.000
Time:	3.792	Roll Set Point:	-0.039	Pitch Set Point:	-0.025	Yaw Set Point:	0.043	X_WP:	0.000	Y_WP:	0.000	Y_WP:	0.000	X:	0.020	Y:	0.012	Z:	0.057	yaw:	-2.435	yaw rate:	0.073	Roll:	0.753	Pitch:	0.514	Yaw:	-6.789	Thrust:	0.000
Time:	3.810	Roll Set Point:	-0.039	Pitch Set Point:	-0.025	Yaw Set Point:	0.043	X_WP:	0.000	Y_WP:	0.000	Y_WP:	0.000	X:	0.020	Y:	0.012	Z:	0.057	yaw:	-2.442	yaw rate:	0.630	Roll:	0.722	Pitch:	0.486	Yaw:	-6.488	Thrust:	0.000
Time:	3.830	Roll Set Point:	-0.039	Pitch Set Point:	-0.025	Yaw Set Point:	0.042	X_WP:	0.000	Y_WP:	0.000	Y_WP:	0.000	X:	0.020	Y:	0.012	Z:	0.057	yaw:	-2.435	yaw rate:	-0.712	Roll:	0.730	Pitch:	0.507	Yaw:	-6.520	Thrust:	0.000
Time:	3.854	Roll Set Point:	-0.039	Pitch Set Point:	-0.025	Yaw Set Point:	0.043	X_WP:	0.000	Y_WP:	0.000	Y_WP:	0.000	X:	0.020	Y:	0.012	Z:	0.057	yaw:	-2.438	yaw rate:	0.374	Roll:	0.785	Pitch:	0.512	Yaw:	-7.386	Thrust:	0.000
Time:	3.870	Roll Set Point:	-0.039	Pitch Set Point:	-0.025	Yaw Set Point:	0.042	X_WP:	0.000	Y_WP:	0.000	Y_WP:	0.000	X:	0.020	Y:	0.012	Z:	0.057	yaw:	-2.431	yaw rate:	-0.746	Roll:	0.689	Pitch:	0.484	Yaw:	-5.789	Thrust:	0.000
Time:	3.890	Roll Set Point:	-0.039	Pitch Set Point:	-0.025	Yaw Set Point:	0.043	X_WP:	0.000	Y_WP:	0.000	Y_WP:	0.000	X:	0.020	Y:	0.012	Z:	0.057	yaw:	-2.438	yaw rate:	0.738	Roll:	0.749	Pitch:	0.508	Yaw:	-6.838	Thrust:	0.000
Time:	3.913	Roll Set Point:	-0.039	Pitch Set Point:	-0.025	Yaw Set Point:	0.043	X_WP:	0.000	Y_WP:	0.000	Y_WP:	0.000	X:	0.020	Y:	0.012	Z:	0.057	yaw:	-2.437	yaw rate:	-0.127	Roll:	0.761	Pitch:	0.512	Yaw:	-7.168	Thrust:	0.000
Time:	3.930	Roll Set Point:	-0.039	Pitch Set Point:	-0.025	Yaw Set Point:	0.043	X_WP:	0.000	Y_WP:	0.000	Y_WP:	0.000	X:	0.020	Y:	0.012	Z:	0.057	yaw:	-2.439	yaw rate:	0.225	Roll:	0.720	Pitch:	0.485	Yaw:	-6.355	Thrust:	0.000
Time:	3.950	Roll Set Point:	-0.039	Pitch Set Point:	-0.025	Yaw Set Point:	0.042	X_WP:	0.000	Y_WP:	0.000	Y_WP:	0.000	X:	0.020	Y:	0.012	Z:	0.057	yaw:	-2.435	yaw rate:	-0.422	Roll:	0.750	Pitch:	0.507	Yaw:	-6.723	Thrust:	0.000
Time:	3.970	Roll Set Point:	-0.039	Pitch Set Point:	-0.025	Yaw Set Point:	0.042	X_WP:	0.000	Y_WP:	0.000	Y_WP:	0.000	X:	0.020	Y:	0.012	Z:	0.057	yaw:	-2.434	yaw rate:	-0.092	Roll:	0.747	Pitch:	0.507	Yaw:	-6.672	Thrust:	0.000
Time:	3.992	Roll Set Point:	-0.039	Pitch Set Point:	-0.025	Yaw Set Point:	0.043	X_WP:	0.000	Y_WP:	0.000	Y_WP:	0.000	X:	0.020	Y:	0.012	Z:	0.057	yaw:	-2.440	yaw rate:	0.581	Roll:	0.749	Pitch:	0.511	Yaw:	-7.138	Thrust:	0.000
Time:	4.011	Roll Set Point:	-0.039	Pitch Set Point:	-0.025	Yaw Set Point:	0.042	X_WP:	0.000	Y_WP:	0.000	Y_WP:	0.000	X:	0.020	Y:	0.012	Z:	0.057	yaw:	-2.432	yaw rate:	-0.760	Roll:	0.747	Pitch:	0.498	Yaw:	-6.435	Thrust:	0.000
Time:	4.031	Roll Set Point:	-0.039	Pitch Set Point:	-0.025	Yaw Set Point:	0.043	X_WP:	0.000	Y_WP:	0.000	Y_WP:	0.000	X:	0.020	Y:	0.012	Z:	0.057	yaw:	-2.437	yaw rate:	0.440	Roll:	0.738	Pitch:	0.504	Yaw:	-6.919	Thrust:	0.000
Time:	4.055	Roll Set Point:	-0.039	Pitch Set Point:	-0.025	Yaw Set Point:	0.043	X_WP:	0.000	Y_WP:	0.000	Y_WP:	0.000	X:	0.020	Y:	0.012	Z:	0.057	yaw:	-2.444	yaw rate:	0.746	Roll:	0.791	Pitch:	0.545	Yaw:	-7.570	Thrust:	0.000
Time:	4.071	Roll Set Point:	-0.039	Pitch Set Point:	-0.025	Yaw Set Point:	0.042	X_WP:	0.000	Y_WP:	0.000	Y_WP:	0.000	X:	0.020	Y:	0.012	Z:	0.057	yaw:	-2.434	yaw rate:	-0.994	Roll:	0.697	Pitch:	0.470	Yaw:	-5.813	Thrust:	0.000
Time:	4.090	Roll Set Point:	-0.039	Pitch Set Point:	-0.025	Yaw Set Point:	0.043	X_WP:	0.000	Y_WP:	0.000	Y_WP:	0.000	X:	0.020	Y:	0.012	Z:	0.057	yaw:	-2.438	yaw rate:	0.338	Roll:	0.775	Pitch:	0.504	Yaw:	-6.992	Thrust:	0.000
Time:	4.112	Roll Set Point:	-0.039	Pitch Set Point:	-0.025	Yaw Set Point:	0.043	X_WP:	0.000	Y_WP:	0.000	Y_WP:	0.000	X:	0.020	Y:	0.012	Z:	0.057	yaw:	-2.438	yaw rate:	0.021	Roll:	0.752	Pitch:	0.522	Yaw:	-7.202	Thrust:	0.000
Time:	4.130	Roll Set Point:	-0.039	Pitch Set Point:	-0.025	Yaw Set Point:	0.043	X_WP:	0.000	Y_WP:	0.000	Y_WP:	0.000	X:	0.020	Y:	0.012	Z:	0.057	yaw:	-2.440	yaw rate:	0.199	Roll:	0.734	Pitch:	0.504	Yaw:	-6.584	Thrust:	0.000
Time:	4.150	Roll Set Point:	-0.039	Pitch Set Point:	-0.025	Yaw Set Point:	0.043	X_WP:	0.000	Y_WP:	0.000	Y_WP:	0.000	X:	0.020	Y:	0.012	Z:	0.057	yaw:	-2.439	yaw rate:	-0.032	Roll:	0.762	Pitch:	0.505	Yaw:	-6.836	Thrust:	0.000
Time:	4.169	Roll Set Point:	-0.039	Pitch Set Point:	-0.025	Yaw Set Point:	0.043	X_WP:	0.000	Y_WP:	0.000	Y_WP:	0.000	X:	0.020	Y:	0.012	Z:	0.057	yaw:	-2.435	yaw rate:	-0.435	Roll:	0.748	Pitch:	0.512	Yaw:	-6.820	Thrust:	0.000
Time:	4.192	Roll Set Point:	-0.039	Pitch Set Point:	-0.025	Yaw Set Point:	0.042	X_WP:	0.000	Y_WP:	0.000	Y_WP:	0.000	X:	0.020	Y:	0.012	Z:	0.057	yaw:	-2.433	yaw rate:	-0.211	Roll:	0.763	Pitch:	0.523	Yaw:	-7.344	Thrust:	0.000
Time:	4.210	Roll Set Point:	-0.039	Pitch Set Point:	-0.025	Yaw Set Point:	0.042	X_WP:	0.000	Y_WP:	0.000	Y_WP:	0.000	X:	0.020	Y:	0.012	Z:	0.057	yaw:	-2.434	yaw rate:	0.128	Roll:	0.755	Pitch:	0.508	Yaw:	-6.630	Thrust:	0.000
Time:	4.230	Roll Set Point:	-0.039	Pitch Set Point:	-0.025	Yaw Set Point:	0.043	X_WP:	0.000	Y_WP:	0.000	Y_WP:	0.000	X:	0.020	Y:	0.012	Z:	0.057	yaw:	-2.440	yaw rate:	0.620	Roll:	0.767	Pitch:	0.511	Yaw:	-7.068	Thrust:	0.000
Time:	4.253	Roll Set Point:	-0.039	Pitch Set Point:	-0.025	Yaw Set Point:	0.042	X_WP:	0.000	Y_WP:	0.000	Y_WP:	0.000	X:	0.020	Y:	0.012	Z:	0.057	yaw:	-2.431	yaw rate:	-0.904	Roll:	0.769	Pitch:	0.534	Yaw:	-7.342	Thrust:	0.000
Time:	4.270	Roll Set Point:	-0.039	Pitch Set Point:	-0.025	Yaw Set Point:	0.043	X_WP:	0.000	Y_WP:	0.000	Y_WP:	0.000	X:	0.020	Y:	0.012	Z:	0.057	yaw:	-2.438	yaw rate:	0.685	Roll:	0.745	Pitch:	0.490	Yaw:	-6.584	Thrust:	0.000
Time:	4.290	Roll Set Point:	-0.039	Pitch Set Point:	-0.025	Yaw Set Point:	0.042	X_WP:	0.000	Y_WP:	0.000	Y_WP:	0.000	X:	0.020	Y:	0.012	Z:	0.057	yaw:	-2.430	yaw rate:	-0.806	Roll:	0.765	Pitch:	0.518	Yaw:	-6.986	Thrust:	0.000
Time:	4.312	Roll Set Point:	-0.039	Pitch Set Point:	-0.025	Yaw Set Point:	0.043	X_WP:	0.000	Y_WP:	0.000	Y_WP:	0.000	X:	0.020	Y:	0.012	Z:	0.057	yaw:	-2.438	yaw rate:	0.739	Roll:	0.775	Pitch:	0.532	Yaw:	-7.510	Thrust:	0.000
Time:	4.330	Roll Set Point:	-0.039	Pitch Set Point:	-0.025	Yaw Set Point:	0.043	X_WP:	0.000	Y_WP:	0.000	Y_WP:	0.000	X:	0.020	Y:	0.012	Z:	0.057	yaw:	-2.440	yaw rate:	0.197	Roll:	0.735	Pitch:	0.499	Yaw:	-6.796	Thrust:	0.000
Time:	4.350	Roll Set Point:	-0.039	Pitch Set Point:	-0.025	Yaw Set Point:	0.043	X_WP:	0.000	Y_WP:	0.000	Y_WP:	0.000	X:	0.020	Y:	0.012	Z:	0.057	yaw:	-2.437	yaw rate:	-0.285	Roll:	0.780	Pitch:	0.521	Yaw:	-6.944	Thrust:	0.000
Time:	4.370	Roll Set Point:	-0.039	Pitch Set Point:	-0.025	Yaw Set Point:	0.043	X_WP:	0.000	Y_WP:	0.000	Y_WP:	0.000	X:	0.020	Y:	0.012	Z:	0.057	yaw:	-2.442	yaw rate:	0.489	Roll:	0.761	Pitch:	0.511	Yaw:	-7.181	Thrust:	0.000
Time:	4.392	Roll Set Point:	-0.039	Pitch Set Point:	-0.025	Yaw Set Point:	0.043	X_WP:	0.000	Y_WP:	0.000	Y_WP:	0.000	X:	0.020	Y:	0.012	Z:	0.057	yaw:	-2.445	yaw rate:	0.297	Roll:	0.772	Pitch:	0.530	Yaw:	-7.464	Thrust:	0.000
Time:	4.410	Roll Set Point:	-0.039	Pitch Set Point:	-0.025	Yaw Set Point:	0.043	X_WP:	0.000	Y_WP:	0.000	Y_WP:	0.000	X:	0.020	Y:	0.012	Z:	0.057	yaw:	-2.438	yaw rate:	-0.684	Roll:	0.752	Pitch:	0.500	Yaw:	-6.664	Thrust:	0.000
Time:	4.430	Roll Set Point:	-0.039	Pitch Set Point:	-0.025	Yaw Set Point:	0.043	X_WP:	0.000	Y_WP:	0.000	Y_WP:	0.000	X:	0.020	Y:	0.012	Z:	0.057	yaw:	-2.448	yaw rate:	1.035	Roll:	0.776	Pitch:	0.529	Yaw:	-7.343	Thrust:	0.000
Time:	4.455	Roll Set Point:	-0.039	Pitch Set Point:	-0.025	Yaw Set Point:	0.043	X_WP:	0.000	Y_WP:	0.000	Y_WP:	0.000	X:	0.020	Y:	0.012	Z:	0.057	yaw:	-2.444	yaw rate:	-0.425	Roll:	0.788	Pitch:	0.531	Yaw:	-7.679	Thrust:	0.000
Time:	4.469	Roll Set Point:	-0.039	Pitch Set Point:	-0.025	Yaw Set Point:	0.042	X_WP:	0.000	Y_WP:	0.000	Y_WP:	0.000	X:	0.020	Y:	0.012	Z:	0.057	yaw:	-2.431	yaw rate:	-1.247	Roll:	0.737	Pitch:	0.500	Yaw:	-6.330	Thrust:	0.000
Time:	4.490	Roll Set Point:	-0.039	Pitch Set Point:	-0.025	Yaw Set Point:	0.043	X_WP:	0.000	Y_WP:	0.000	Y_WP:	0.000	X:	0.020	Y:	0.012	Z:	0.057	yaw:	-2.440	yaw rate:	0.815	Roll:	0.783	Pitch:	0.524	Yaw:	-7.399	Thrust:	0.000
Time:	4.512	Roll Set Point:	-0.039	Pitch Set Point:	-0.025	Yaw Set Point:	0.043	X_WP:	0.000	Y_WP:	0.000	Y_WP:	0.000	X:	0.020	Y:	0.012	Z:	0.057	yaw:	-2.443	yaw rate:	0.393	Roll:	0.775	Pitch:	0.534	Yaw:	-7.669	Thrust:	0.000
Time:	4.530	Roll Set Point:	-0.039	Pitch Set Point:	-0.025	Yaw Set Point:	0.043	X_WP:	0.000	Y_WP:	0.000	Y_WP:	0.000	X:	0.020	Y:	0.012	Z:	0.057	yaw:	-2.438	yaw rate:	-0.508	Roll:	0.772	Pitch:	0.511	Yaw:	-6.789	Thrust:	0.000
Time:	4.549	Roll Set Point:	-0.039	Pitch Set Point:	-0.025	Yaw Set Point:	0.043	X_WP:	0.000	Y_WP:	0.000	Y_WP:	0.000	X:	0.020	Y:	0.012	Z:	0.057	yaw:	-2.440	yaw rate:	0.142	Roll:	0.741	Pitch:	0.520	Yaw:	-7.134	Thrust:	0.000
Time:	4.570	Roll Set Point:	-0.039	Pitch Set Point:	-0.025	Yaw Set Point:	0.043	X_WP:	0.000	Y_WP:	0.000	Y_WP:	0.000	X:	0.020	Y:	0.012	Z:	0.057	yaw:	-2.442	yaw rate:	0.177	Roll:	0.786	Pitch:	0.519	Yaw:	-7.429	Thrust:	0.000
Time:	4.592	Roll Set Point:	-0.039	Pitch Set Point:	-0.025	Yaw Set Point:	0.043	X_WP:	0.000	Y_WP:	0.000	Y_WP:	0.000	X:	0.020	Y:	0.012	Z:	0.057	yaw:	-2.437	yaw rate:	-0.458	Roll:	0.794	Pitch:	0.554	Yaw:	-7.645	Thrust:	0.000
Time:	4.610	Roll Set Point:	-0.039	Pitch Set Point:	-0.025	Yaw Set Point:	0.043	X_WP:	0.000	Y_WP:	0.000	Y_WP:	0.000	X:	0.020	Y:	0.012	Z:	0.057	yaw:	-2.440	yaw rate:	0.323	Roll:	0.764	Pitch:	0.503	Yaw:	-6.849	Thrust:	0.000
Time:	4.629	Roll Set Point:	-0.039	Pitch Set Point:	-0.025	Yaw Set Point:	0.042	X_WP:	0.000	Y_WP:	0.000	Y_WP:	0.000	X:	0.020	Y:	0.012	Z:	0.057	yaw:	-2.434	yaw rate:	-0.656	Roll:	0.774	Pitch:	0.524	Yaw:	-7.197	Thrust:	0.000
Time:	4.654	Roll Set Point:	-0.039	Pitch Set Point:	-0.025	Yaw Set Point:	0.043	X_WP:	0.000	Y_WP:	0.000	Y_WP:	0.000	X:	0.020	Y:	0.012	Z:	0.057	yaw:	-2.435	yaw rate:	0.172	Roll:	0.801	Pitch:	0.551	Yaw:	-8.149	Thrust:	0.000
Time:	4.670	Roll Set Point:	-0.039	Pitch Set Point:	-0.025	Yaw Set Point:	0.043	X_WP:	0.000	Y_WP:	0.000	Y_WP:	0.000	X:	0.020	Y:	0.012	Z:	0.057	yaw:	-2.436	yaw rate:	0.015	Roll:	0.756	Pitch:	0.503	Yaw:	-6.473	Thrust:	0.000
Time:	4.690	Roll Set Point:	-0.039	Pitch Set Point:	-0.025	Yaw Set Point:	0.043	X_WP:	0.000	Y_WP:	0.000	Y_WP:	0.000	X:	0.020	Y:	0.012	Z:	0.057	yaw:	-2.442	yaw rate:	0.606	Roll:	0.791	Pitch:	0.531	Yaw:	-7.601	Thrust:	0.000
Time:	4.713	Roll Set Point:	-0.039	Pitch Set Point:	-0.025	Yaw Set Point:	0.043	X_WP:	0.000	Y_WP:	0.000	Y_WP:	0.000	X:	0.020	Y:	0.012	Z:	0.057	yaw:	-2.444	yaw rate:	0.222	Roll:	0.807	Pitch:	0.550	Yaw:	-7.966	Thrust:	0.000
Time:	4.730	Roll Set Point:	-0.039	Pitch Set Point:	-0.025	Yaw Set Point:	0.043	X_WP:	0.000	Y_WP:	0.000	Y_WP:	0.000	X:	0.020	Y:	0.012	Z:	0.057	yaw:	-2.443	yaw rate:	-0.056	Roll:	0.751	Pitch:	0.507	Yaw:	-6.812	Thrust:	0.000
Time:	4.750	Roll Set Point:	-0.039	Pitch Set Point:	-0.025	Yaw Set Point:	0.043	X_WP:	0.000	Y_WP:	0.000	Y_WP:	0.000	X:	0.020	Y:	0.012	Z:	0.057	yaw:	-2.438	yaw rate:	-0.539	Roll:	0.773	Pitch:	0.529	Yaw:	-7.397	Thrust:	0.000
Time:	4.780	Roll Set Point:	-0.039	Pitch Set Point:	-0.025	Yaw Set Point:	0.043	X_WP:	0.000	Y_WP:	0.000	Y_WP:	0.000	X:	0.020	Y:	0.012	Z:	0.057	yaw:	-2.441	yaw rate:	0.337	Roll:	0.784	Pitch:	0.529	Yaw:	-9.432	Thrust:	0.000
Time:	4.793	Roll Set Point:	-0.039	Pitch Set Point:	-0.025	Yaw Set Point:	0.043	X_WP:	0.000	Y_WP:	0.000	Y_WP:	0.000	X:	0.020	Y:	0.012	Z:	0.057	yaw:	-2.444	yaw rate:	0.286	Roll:	0.809	Pitch:	0.544	Yaw:	-5.791	Thrust:	0.000
Time:	4.811	Roll Set Point:	-0.039	Pitch Set Point:	-0.025	Yaw Set Point:	0.043	X_WP:	0.000	Y_WP:	0.000	Y_WP:	0.000	X:	0.020	Y:	0.012	Z:	0.057	yaw:	-2.442	yaw rate:	-0.208	Roll:	0.768	Pitch:	0.524	Yaw:	-7.095	Thrust:	0.000
Time:	4.830	Roll Set Point:	-0.039	Pitch Set Point:	-0.025	Yaw Set Point:	0.043	X_WP:	0.000	Y_WP:	0.000	Y_WP:	0.000	X:	0.020	Y:	0.012	Z:	0.057	yaw:	-2.438	yaw rate:	-0.443	Roll:	0.774	Pitch:	0.531	Yaw:	-7.263	Thrust:	0.000
Time:	4.853	Roll Set Point:	-0.039	Pitch Set Point:	-0.025	Yaw Set Point:	0.042	X_WP:	0.000	Y_WP:	0.000	Y_WP:	0.000	X:	0.020	Y:	0.012	Z:	0.057	yaw:	-2.434	yaw rate:	-0.384	Roll:	0.812	Pitch:	0.554	Yaw:	-8.013	Thrust:	0.000
Time:	4.870	Roll Set Point:	-0.039	Pitch Set Point:	-0.025	Yaw Set Point:	0.043	X_WP:	0.000	Y_WP:	0.000	Y_WP:	0.000	X:	0.020	Y:	0.012	Z:	0.057	yaw:	-2.439	yaw rate:	0.547	Roll:	0.770	Pitch:	0.502	Yaw:	-6.939	Thrust:	0.000
Time:	4.890	Roll Set Point:	-0.039	Pitch Set Point:	-0.025	Yaw Set Point:	0.043	X_WP:	0.000	Y_WP:	0.000	Y_WP:	0.000	X:	0.020	Y:	0.012	Z:	0.057	yaw:	-2.437	yaw rate:	-0.244	Roll:	0.790	Pitch:	0.545	Yaw:	-7.274	Thrust:	0.000
Time:	4.912	Roll Set Point:	-0.039	Pitch Set Point:	-0.025	Yaw Set Point:	0.043	X_WP:	0.000	Y_WP:	0.000	Y_WP:	0.000	X:	0.020	Y:	0.012	Z:	0.057	yaw:	-2.437	yaw rate:	0.006	Roll:	0.809	Pitch:	0.544	Yaw:	-7.830	Thrust:	0.000
Time:	4.930	Roll Set Point:	-0.039	Pitch Set Point:	-0.025	Yaw Set Point:	0.043	X_WP:	0.000	Y_WP:	0.000	Y_WP:	0.000	X:	0.020	Y:	0.012	Z:	0.057	yaw:	-2.436	yaw rate:	-0.118	Roll:	0.775	Pitch:	0.526	Yaw:	-6.892	Thrust:	0.000
Time:	4.950	Roll Set Point:	-0.039	Pitch Set Point:	-0.025	Yaw Set Point:	0.043	X_WP:	0.000	Y_WP:	0.000	Y_WP:	0.000	X:	0.020	Y:	0.012	Z:	0.057	yaw:	-2.437	yaw rate:	0.139	Roll:	0.789	Pitch:	0.529	Yaw:	-7.450	Thrust:	0.000
Time:	4.970	Roll Set Point:	-0.039	Pitch Set Point:	-0.025	Yaw Set Point:	0.043	X_WP:	0.000	Y_WP:	0.000	Y_WP:	0.000	X:	0.020	Y:	0.012	Z:	0.057	yaw:	-2.435	yaw rate:	-0.171	Roll:	0.787	Pitch:	0.540	Yaw:	-7.308	Thrust:	0.000
Time:	4.992	Roll Set Point:	-0.039	Pitch Set Point:	-0.025	Yaw Set Point:	0.043	X_WP:	0.000	Y_WP:	0.000	Y_WP:	0.000	X:	0.020	Y:	0.012	Z:	0.057	yaw:	-2.435	yaw rate:	0.009	Roll:	0.814	Pitch:	0.540	Yaw:	-7.888	Thrust:	0.000
Time:	5.010	Roll Set Point:	-0.039	Pitch Set Point:	-0.025	Yaw Set Point:	0.043	X_WP:	0.000	Y_WP:	0.000	Y_WP:	0.000	X:	0.020	Y:	0.012	Z:	0.057	yaw:	-2.436	yaw rate:	0.027	Roll:	0.796	Pitch:	0.534	Yaw:	-7.008	Thrust:	0.000
Time:	5.031	Roll Set Point:	-0.039	Pitch Set Point:	-0.025	Yaw Set Point:	0.043	X_WP:	0.000	Y_WP:	0.000	Y_WP:	0.000	X:	0.020	Y:	0.012	Z:	0.057	yaw:	-2.442	yaw rate:	0.669	Roll:	0.797	Pitch:	0.534	Yaw:	-7.430	Thrust:	0.000
Time:	5.054	Roll Set Point:	-0.039	Pitch Set Point:	-0.025	Yaw Set Point:	0.043	X_WP:	0.000	Y_WP:	0.000	Y_WP:	0.000	X:	0.020	Y:	0.012	Z:	0.057	yaw:	-2.437	yaw rate:	-0.572	Roll:	0.826	Pitch:	0.568	Yaw:	-8.014	Thrust:	0.000
Time:	5.070	Roll Set Point:	-0.039	Pitch Set Point:	-0.025	Yaw Set Point:	0.043	X_WP:	0.000	Y_WP:	0.000	Y_WP:	0.000	X:	0.020	Y:	0.012	Z:	0.057	yaw:	-2.437	yaw rate:	0.056	Roll:	0.752	Pitch:	0.510	Yaw:	-6.920	Thrust:	0.000
Time:	5.090	Roll Set Point:	-0.039	Pitch Set Point:	-0.025	Yaw Set Point:	0.043	X_WP:	0.000	Y_WP:	0.000	Y_WP:	0.000	X:	0.020	Y:	0.012	Z:	0.057	yaw:	-2.438	yaw rate:	0.050	Roll:	0.810	Pitch:	0.543	Yaw:	-7.321	Thrust:	0.000
Time:	5.113	Roll Set Point:	-0.039	Pitch Set Point:	-0.025	Yaw Set Point:	0.043	X_WP:	0.000	Y_WP:	0.000	Y_WP:	0.000	X:	0.020	Y:	0.012	Z:	0.057	yaw:	-2.438	yaw rate:	-0.018	Roll:	0.820	Pitch:	0.564	Yaw:	-7.931	Thrust:	0.000
Time:	5.131	Roll Set Point:	-0.039	Pitch Set Point:	-0.025	Yaw Set Point:	0.043	X_WP:	0.000	Y_WP:	0.000	Y_WP:	0.000	X:	0.020	Y:	0.012	Z:	0.057	yaw:	-2.436	yaw rate:	-0.171	Roll:	0.775	Pitch:	0.521	Yaw:	-6.922	Thrust:	0.000
Time:	5.150	Roll Set Point:	-0.039	Pitch Set Point:	-0.025	Yaw Set Point:	0.043	X_WP:	0.000	Y_WP:	0.000	Y_WP:	0.000	X:	0.020	Y:	0.012	Z:	0.057	yaw:	-2.435	yaw rate:	-0.050	Roll:	0.808	Pitch:	0.549	Yaw:	-7.402	Thrust:	0.000
Time:	5.170	Roll Set Point:	-0.039	Pitch Set Point:	-0.025	Yaw Set Point:	0.043	X_WP:	0.000	Y_WP:	0.000	Y_WP:	0.000	X:	0.020	Y:	0.012	Z:	0.057	yaw:	-2.435	yaw rate:	-0.081	Roll:	0.796	Pitch:	0.527	Yaw:	-7.375	Thrust:	0.000
Time:	5.193	Roll Set Point:	-0.039	Pitch Set Point:	-0.025	Yaw Set Point:	0.043	X_WP:	0.000	Y_WP:	0.000	Y_WP:	0.000	X:	0.020	Y:	0.012	Z:	0.057	yaw:	-2.437	yaw rate:	0.274	Roll:	0.837	Pitch:	0.569	Yaw:	-7.904	Thrust:	0.000
Time:	5.210	Roll Set Point:	-0.039	Pitch Set Point:	-0.025	Yaw Set Point:	0.043	X_WP:	0.000	Y_WP:	0.000	Y_WP:	0.000	X:	0.020	Y:	0.012	Z:	0.057	yaw:	-2.439	yaw rate:	0.211	Roll:	0.776	Pitch:	0.526	Yaw:	-6.916	Thrust:	0.000
Time:	5.230	Roll Set Point:	-0.039	Pitch Set Point:	-0.025	Yaw Set Point:	0.043	X_WP:	0.000	Y_WP:	0.000	Y_WP:	0.000	X:	0.020	Y:	0.012	Z:	0.057	yaw:	-2.433	yaw rate:	-0.623	Roll:	0.794	Pitch:	0.549	Yaw:	-7.345	Thrust:	0.000
Time:	5.255	Roll Set Point:	-0.039	Pitch Set Point:	-0.025	Yaw Set Point:	0.043	X_WP:	0.000	Y_WP:	0.000	Y_WP:	0.000	X:	0.020	Y:	0.012	Z:	0.057	yaw:	-2.438	yaw rate:	0.502	Roll:	0.842	Pitch:	0.569	Yaw:	-8.156	Thrust:	0.000
Time:	5.270	Roll Set Point:	-0.039	Pitch Set Point:	-0.025	Yaw Set Point:	0.043	X_WP:	0.000	Y_WP:	0.000	Y_WP:	0.000	X:	0.020	Y:	0.012	Z:	0.057	yaw:	-2.438	yaw rate:	-0.000	Roll:	0.781	Pitch:	0.521	Yaw:	-6.712	Thrust:	0.000
Time:	5.291	Roll Set Point:	-0.039	Pitch Set Point:	-0.025	Yaw Set Point:	0.043	X_WP:	0.000	Y_WP:	0.000	Y_WP:	0.000	X:	0.020	Y:	0.012	Z:	0.057	yaw:	-2.434	yaw rate:	-0.459	Roll:	0.811	Pitch:	0.550	Yaw:	-7.444	Thrust:	0.000
Time:	5.313	Roll Set Point:	-0.039	Pitch Set Point:	-0.025	Yaw Set Point:	0.043	X_WP:	0.000	Y_WP:	0.000	Y_WP:	0.000	X:	0.020	Y:	0.012	Z:	0.057	yaw:	-2.440	yaw rate:	0.633	Roll:	0.823	Pitch:	0.566	Yaw:	-7.815	Thrust:	0.000
Time:	5.330	Roll Set Point:	-0.039	Pitch Set Point:	-0.025	Yaw Set Point:	0.043	X_WP:	0.000	Y_WP:	0.000	Y_WP:	0.000	X:	0.020	Y:	0.012	Z:	0.057	yaw:	-2.435	yaw rate:	-0.492	Roll:	0.799	Pitch:	0.528	Yaw:	-6.887	Thrust:	0.000
Time:	5.350	Roll Set Point:	-0.039	Pitch Set Point:	-0.025	Yaw Set Point:	0.043	X_WP:	0.000	Y_WP:	0.000	Y_WP:	0.000	X:	0.020	Y:	0.012	Z:	0.057	yaw:	-2.434	yaw rate:	-0.066	Roll:	0.802	Pitch:	0.551	Yaw:	-7.370	Thrust:	0.000
Time:	5.371	Roll Set Point:	-0.039	Pitch Set Point:	-0.025	Yaw Set Point:	0.043	X_WP:	0.000	Y_WP:	0.000	Y_WP:	0.000	X:	0.020	Y:	0.012	Z:	0.057	yaw:	-2.444	yaw rate:	0.949	Roll:	0.811	Pitch:	0.541	Yaw:	-7.434	Thrust:	0.000
Time:	5.394	Roll Set Point:	-0.039	Pitch Set Point:	-0.025	Yaw Set Point:	0.043	X_WP:	0.000	Y_WP:	0.000	Y_WP:	0.000	X:	0.020	Y:	0.012	Z:	0.057	yaw:	-2.438	yaw rate:	-0.535	Roll:	0.853	Pitch:	0.584	Yaw:	-7.925	Thrust:	0.000
