Time:	0.038	Roll Set Point:	0.034	Pitch Set Point:	1.826	Yaw Set Point:	-0.072	X_WP:	0.000	Y_WP:	0.000	Y_WP:	0.750	X:	0.016	Y:	-0.914	Z:	0.403	yaw:	4.143	yaw rate:	2.029	Roll:	-1.449	Pitch:	-26.460	Yaw:	5.785	Thrust:	19.065
Time:	0.058	Roll Set Point:	0.034	Pitch Set Point:	1.826	Yaw Set Point:	-0.072	X_WP:	0.000	Y_WP:	0.000	Y_WP:	0.750	X:	0.016	Y:	-0.914	Z:	0.403	yaw:	4.153	yaw rate:	-0.921	Roll:	-1.582	Pitch:	-26.509	Yaw:	5.946	Thrust:	19.908
Time:	0.078	Roll Set Point:	0.034	Pitch Set Point:	1.826	Yaw Set Point:	-0.072	X_WP:	0.000	Y_WP:	0.000	Y_WP:	0.750	X:	0.016	Y:	-0.914	Z:	0.403	yaw:	4.149	yaw rate:	0.380	Roll:	-1.396	Pitch:	-26.551	Yaw:	5.799	Thrust:	20.759
Time:	0.098	Roll Set Point:	0.034	Pitch Set Point:	1.826	Yaw Set Point:	-0.072	X_WP:	0.000	Y_WP:	0.000	Y_WP:	0.750	X:	0.016	Y:	-0.914	Z:	0.403	yaw:	4.144	yaw rate:	0.513	Roll:	-1.400	Pitch:	-26.597	Yaw:	5.807	Thrust:	21.587
Time:	0.118	Roll Set Point:	0.034	Pitch Set Point:	1.826	Yaw Set Point:	-0.072	X_WP:	0.000	Y_WP:	0.000	Y_WP:	0.750	X:	0.016	Y:	-0.914	Z:	0.403	yaw:	4.154	yaw rate:	-0.994	Roll:	-1.591	Pitch:	-26.639	Yaw:	6.046	Thrust:	22.297
Time:	0.138	Roll Set Point:	0.034	Pitch Set Point:	1.826	Yaw Set Point:	-0.072	X_WP:	0.000	Y_WP:	0.000	Y_WP:	0.750	X:	0.016	Y:	-0.914	Z:	0.403	yaw:	4.144	yaw rate:	0.935	Roll:	-1.215	Pitch:	-26.732	Yaw:	5.797	Thrust:	22.718
Time:	0.158	Roll Set Point:	0.034	Pitch Set Point:	1.826	Yaw Set Point:	-0.073	X_WP:	0.000	Y_WP:	0.000	Y_WP:	0.750	X:	0.016	Y:	-0.914	Z:	0.403	yaw:	4.158	yaw rate:	-1.403	Roll:	-1.694	Pitch:	-26.711	Yaw:	6.164	Thrust:	24.386
Time:	0.182	Roll Set Point:	0.034	Pitch Set Point:	1.826	Yaw Set Point:	-0.073	X_WP:	0.000	Y_WP:	0.000	Y_WP:	0.750	X:	0.016	Y:	-0.914	Z:	0.403	yaw:	4.183	yaw rate:	-2.440	Roll:	-1.740	Pitch:	-26.827	Yaw:	6.350	Thrust:	25.875
Time:	0.199	Roll Set Point:	0.034	Pitch Set Point:	1.826	Yaw Set Point:	-0.072	X_WP:	0.000	Y_WP:	0.000	Y_WP:	0.750	X:	0.016	Y:	-0.914	Z:	0.403	yaw:	4.152	yaw rate:	3.072	Roll:	-1.106	Pitch:	-26.767	Yaw:	5.508	Thrust:	25.111
Time:	0.217	Roll Set Point:	0.033	Pitch Set Point:	1.826	Yaw Set Point:	-0.072	X_WP:	0.000	Y_WP:	0.000	Y_WP:	0.750	X:	0.016	Y:	-0.914	Z:	0.403	yaw:	4.118	yaw rate:	3.440	Roll:	-0.953	Pitch:	-26.878	Yaw:	5.504	Thrust:	26.000
Time:	0.237	Roll Set Point:	0.034	Pitch Set Point:	1.826	Yaw Set Point:	-0.073	X_WP:	0.000	Y_WP:	0.000	Y_WP:	0.750	X:	0.016	Y:	-0.914	Z:	0.403	yaw:	4.157	yaw rate:	-3.930	Roll:	-2.031	Pitch:	-26.875	Yaw:	6.611	Thrust:	27.336
Time:	0.258	Roll Set Point:	0.034	Pitch Set Point:	1.826	Yaw Set Point:	-0.072	X_WP:	0.000	Y_WP:	0.000	Y_WP:	0.750	X:	0.016	Y:	-0.914	Z:	0.403	yaw:	4.134	yaw rate:	2.317	Roll:	-1.159	Pitch:	-27.016	Yaw:	5.827	Thrust:	28.779
Time:	0.277	Roll Set Point:	0.034	Pitch Set Point:	1.826	Yaw Set Point:	-0.073	X_WP:	0.000	Y_WP:	0.000	Y_WP:	0.750	X:	0.016	Y:	-0.914	Z:	0.403	yaw:	4.159	yaw rate:	-2.526	Roll:	-1.735	Pitch:	-26.986	Yaw:	6.485	Thrust:	28.430
Time:	0.297	Roll Set Point:	0.034	Pitch Set Point:	1.826	Yaw Set Point:	-0.072	X_WP:	0.000	Y_WP:	0.000	Y_WP:	0.750	X:	0.016	Y:	-0.914	Z:	0.403	yaw:	4.141	yaw rate:	1.756	Roll:	-1.326	Pitch:	-27.054	Yaw:	5.932	Thrust:	30.207
Time:	0.317	Roll Set Point:	0.034	Pitch Set Point:	1.826	Yaw Set Point:	-0.073	X_WP:	0.000	Y_WP:	0.000	Y_WP:	0.750	X:	0.016	Y:	-0.914	Z:	0.403	yaw:	4.156	yaw rate:	-1.411	Roll:	-1.699	Pitch:	-27.064	Yaw:	6.388	Thrust:	30.460
Time:	0.337	Roll Set Point:	0.034	Pitch Set Point:	1.826	Yaw Set Point:	-0.073	X_WP:	0.000	Y_WP:	0.000	Y_WP:	0.750	X:	0.016	Y:	-0.914	Z:	0.403	yaw:	4.164	yaw rate:	-0.845	Roll:	-1.510	Pitch:	-27.157	Yaw:	6.356	Thrust:	31.103
Time:	0.357	Roll Set Point:	0.034	Pitch Set Point:	1.826	Yaw Set Point:	-0.073	X_WP:	0.000	Y_WP:	0.000	Y_WP:	0.750	X:	0.016	Y:	-0.914	Z:	0.403	yaw:	4.162	yaw rate:	0.225	Roll:	-1.463	Pitch:	-27.197	Yaw:	6.245	Thrust:	32.377
Time:	0.378	Roll Set Point:	0.033	Pitch Set Point:	1.826	Yaw Set Point:	-0.072	X_WP:	0.000	Y_WP:	0.000	Y_WP:	0.750	X:	0.016	Y:	-0.914	Z:	0.403	yaw:	4.117	yaw rate:	4.496	Roll:	-0.973	Pitch:	-27.246	Yaw:	5.692	Thrust:	34.000
Time:	0.400	Roll Set Point:	0.034	Pitch Set Point:	1.826	Yaw Set Point:	-0.073	X_WP:	0.000	Y_WP:	0.000	Y_WP:	0.750	X:	0.016	Y:	-0.914	Z:	0.403	yaw:	4.194	yaw rate:	-7.669	Roll:	-2.224	Pitch:	-27.339	Yaw:	7.348	Thrust:	35.010
Time:	0.417	Roll Set Point:	0.034	Pitch Set Point:	1.826	Yaw Set Point:	-0.072	X_WP:	0.000	Y_WP:	0.000	Y_WP:	0.750	X:	0.016	Y:	-0.914	Z:	0.403	yaw:	4.135	yaw rate:	5.814	Roll:	-0.947	Pitch:	-27.024	Yaw:	5.392	Thrust:	33.250
Time:	0.437	Roll Set Point:	0.034	Pitch Set Point:	1.826	Yaw Set Point:	-0.073	X_WP:	0.000	Y_WP:	0.000	Y_WP:	0.750	X:	0.016	Y:	-0.914	Z:	0.403	yaw:	4.157	yaw rate:	-2.171	Roll:	-1.695	Pitch:	-27.243	Yaw:	6.670	Thrust:	35.524
Time:	0.460	Roll Set Point:	0.034	Pitch Set Point:	1.826	Yaw Set Point:	-0.072	X_WP:	0.000	Y_WP:	0.000	Y_WP:	0.750	X:	0.016	Y:	-0.914	Z:	0.403	yaw:	4.136	yaw rate:	2.072	Roll:	-1.326	Pitch:	-27.266	Yaw:	6.242	Thrust:	38.549
Time:	0.479	Roll Set Point:	0.034	Pitch Set Point:	1.826	Yaw Set Point:	-0.072	X_WP:	0.000	Y_WP:	0.000	Y_WP:	0.750	X:	0.016	Y:	-0.914	Z:	0.403	yaw:	4.136	yaw rate:	0.062	Roll:	-1.491	Pitch:	-27.167	Yaw:	6.352	Thrust:	36.848
Time:	0.497	Roll Set Point:	0.034	Pitch Set Point:	1.826	Yaw Set Point:	-0.073	X_WP:	0.000	Y_WP:	0.000	Y_WP:	0.750	X:	0.016	Y:	-0.914	Z:	0.403	yaw:	4.165	yaw rate:	-2.936	Roll:	-1.824	Pitch:	-27.186	Yaw:	6.847	Thrust:	36.422
Time:	0.517	Roll Set Point:	0.034	Pitch Set Point:	1.826	Yaw Set Point:	-0.072	X_WP:	0.000	Y_WP:	0.000	Y_WP:	0.750	X:	0.016	Y:	-0.914	Z:	0.403	yaw:	4.141	yaw rate:	2.370	Roll:	-1.283	Pitch:	-27.204	Yaw:	6.203	Thrust:	39.977
Time:	0.537	Roll Set Point:	0.034	Pitch Set Point:	1.826	Yaw Set Point:	-0.072	X_WP:	0.000	Y_WP:	0.000	Y_WP:	0.750	X:	0.016	Y:	-0.914	Z:	0.403	yaw:	4.150	yaw rate:	-0.820	Roll:	-1.649	Pitch:	-27.169	Yaw:	6.600	Thrust:	39.016
Time:	0.557	Roll Set Point:	0.034	Pitch Set Point:	1.826	Yaw Set Point:	-0.072	X_WP:	0.000	Y_WP:	0.000	Y_WP:	0.750	X:	0.016	Y:	-0.914	Z:	0.403	yaw:	4.149	yaw rate:	0.023	Roll:	-1.491	Pitch:	-27.230	Yaw:	6.552	Thrust:	40.884
Time:	0.579	Roll Set Point:	0.034	Pitch Set Point:	1.826	Yaw Set Point:	-0.072	X_WP:	0.000	Y_WP:	0.000	Y_WP:	0.750	X:	0.016	Y:	-0.914	Z:	0.403	yaw:	4.150	yaw rate:	-0.103	Roll:	-1.527	Pitch:	-27.285	Yaw:	6.670	Thrust:	43.286
Time:	0.601	Roll Set Point:	0.034	Pitch Set Point:	1.826	Yaw Set Point:	-0.072	X_WP:	0.000	Y_WP:	0.000	Y_WP:	0.750	X:	0.016	Y:	-0.914	Z:	0.403	yaw:	4.135	yaw rate:	1.537	Roll:	-1.341	Pitch:	-27.246	Yaw:	6.419	Thrust:	43.783
Time:	0.618	Roll Set Point:	0.034	Pitch Set Point:	1.826	Yaw Set Point:	-0.073	X_WP:	0.000	Y_WP:	0.000	Y_WP:	0.750	X:	0.016	Y:	-0.914	Z:	0.403	yaw:	4.175	yaw rate:	-4.004	Roll:	-1.998	Pitch:	-27.112	Yaw:	7.170	Thrust:	40.728
Time:	0.638	Roll Set Point:	0.034	Pitch Set Point:	1.826	Yaw Set Point:	-0.073	X_WP:	0.000	Y_WP:	0.000	Y_WP:	0.750	X:	0.016	Y:	-0.914	Z:	0.403	yaw:	4.183	yaw rate:	-0.815	Roll:	-1.649	Pitch:	-27.211	Yaw:	6.818	Thrust:	44.032
Time:	0.658	Roll Set Point:	0.034	Pitch Set Point:	1.826	Yaw Set Point:	-0.072	X_WP:	0.000	Y_WP:	0.000	Y_WP:	0.750	X:	0.016	Y:	-0.914	Z:	0.403	yaw:	4.126	yaw rate:	5.762	Roll:	-0.842	Pitch:	-27.232	Yaw:	5.933	Thrust:	44.302
Time:	0.679	Roll Set Point:	0.034	Pitch Set Point:	1.826	Yaw Set Point:	-0.072	X_WP:	0.000	Y_WP:	0.000	Y_WP:	0.750	X:	0.016	Y:	-0.914	Z:	0.403	yaw:	4.129	yaw rate:	-0.309	Roll:	-1.558	Pitch:	-27.249	Yaw:	6.735	Thrust:	47.085
Time:	0.700	Roll Set Point:	0.034	Pitch Set Point:	1.826	Yaw Set Point:	-0.073	X_WP:	0.000	Y_WP:	0.000	Y_WP:	0.750	X:	0.016	Y:	-0.914	Z:	0.403	yaw:	4.181	yaw rate:	-5.275	Roll:	-2.153	Pitch:	-27.230	Yaw:	7.495	Thrust:	47.165
Time:	0.718	Roll Set Point:	0.034	Pitch Set Point:	1.826	Yaw Set Point:	-0.073	X_WP:	0.000	Y_WP:	0.000	Y_WP:	0.750	X:	0.016	Y:	-0.914	Z:	0.403	yaw:	4.177	yaw rate:	0.489	Roll:	-1.462	Pitch:	-27.142	Yaw:	6.675	Thrust:	45.257
Time:	0.738	Roll Set Point:	0.034	Pitch Set Point:	1.826	Yaw Set Point:	-0.072	X_WP:	0.000	Y_WP:	0.000	Y_WP:	0.750	X:	0.016	Y:	-0.914	Z:	0.403	yaw:	4.137	yaw rate:	3.953	Roll:	-1.085	Pitch:	-27.203	Yaw:	6.316	Thrust:	47.795
Time:	0.758	Roll Set Point:	0.034	Pitch Set Point:	1.826	Yaw Set Point:	-0.072	X_WP:	0.000	Y_WP:	0.000	Y_WP:	0.750	X:	0.016	Y:	-0.914	Z:	0.403	yaw:	4.138	yaw rate:	-0.044	Roll:	-1.534	Pitch:	-27.232	Yaw:	6.847	Thrust:	51.136
Time:	0.778	Roll Set Point:	0.034	Pitch Set Point:	1.826	Yaw Set Point:	-0.072	X_WP:	0.000	Y_WP:	0.000	Y_WP:	0.750	X:	0.016	Y:	-0.914	Z:	0.403	yaw:	4.142	yaw rate:	-0.487	Roll:	-1.611	Pitch:	-27.220	Yaw:	6.897	Thrust:	49.161
Time:	0.798	Roll Set Point:	0.034	Pitch Set Point:	1.826	Yaw Set Point:	-0.072	X_WP:	0.000	Y_WP:	0.000	Y_WP:	0.750	X:	0.016	Y:	-0.914	Z:	0.403	yaw:	4.131	yaw rate:	1.090	Roll:	-1.415	Pitch:	-27.228	Yaw:	6.750	Thrust:	51.277
Time:	0.818	Roll Set Point:	0.034	Pitch Set Point:	1.826	Yaw Set Point:	-0.073	X_WP:	0.000	Y_WP:	0.000	Y_WP:	0.750	X:	0.016	Y:	-0.914	Z:	0.403	yaw:	4.155	yaw rate:	-2.306	Roll:	-1.845	Pitch:	-27.180	Yaw:	7.233	Thrust:	51.501
Time:	0.839	Roll Set Point:	0.033	Pitch Set Point:	1.826	Yaw Set Point:	-0.072	X_WP:	0.000	Y_WP:	0.000	Y_WP:	0.750	X:	0.016	Y:	-0.914	Z:	0.403	yaw:	4.118	yaw rate:	3.624	Roll:	-1.035	Pitch:	-27.226	Yaw:	6.389	Thrust:	51.424
Time:	0.857	Roll Set Point:	0.034	Pitch Set Point:	1.826	Yaw Set Point:	-0.073	X_WP:	0.000	Y_WP:	0.000	Y_WP:	0.750	X:	0.016	Y:	-0.914	Z:	0.403	yaw:	4.161	yaw rate:	-4.253	Roll:	-2.146	Pitch:	-27.108	Yaw:	7.533	Thrust:	52.063
Time:	0.878	Roll Set Point:	0.034	Pitch Set Point:	1.826	Yaw Set Point:	-0.073	X_WP:	0.000	Y_WP:	0.000	Y_WP:	0.750	X:	0.016	Y:	-0.914	Z:	0.403	yaw:	4.157	yaw rate:	0.405	Roll:	-1.495	Pitch:	-27.298	Yaw:	7.034	Thrust:	54.858
Time:	0.897	Roll Set Point:	0.034	Pitch Set Point:	1.826	Yaw Set Point:	-0.072	X_WP:	0.000	Y_WP:	0.000	Y_WP:	0.750	X:	0.016	Y:	-0.914	Z:	0.403	yaw:	4.148	yaw rate:	0.926	Roll:	-1.459	Pitch:	-27.183	Yaw:	6.866	Thrust:	54.507
Time:	0.917	Roll Set Point:	0.033	Pitch Set Point:	1.827	Yaw Set Point:	-0.072	X_WP:	0.000	Y_WP:	0.000	Y_WP:	0.750	X:	0.017	Y:	-0.914	Z:	0.404	yaw:	4.141	yaw rate:	0.605	Roll:	-1.057	Pitch:	-27.426	Yaw:	6.939	Thrust:	53.972
Time:	0.937	Roll Set Point:	0.035	Pitch Set Point:	1.826	Yaw Set Point:	-0.074	X_WP:	0.000	Y_WP:	0.000	Y_WP:	0.750	X:	0.016	Y:	-0.914	Z:	0.403	yaw:	4.227	yaw rate:	-8.543	Roll:	-2.858	Pitch:	-27.104	Yaw:	8.325	Thrust:	57.041
Time:	0.957	Roll Set Point:	0.034	Pitch Set Point:	1.826	Yaw Set Point:	-0.072	X_WP:	0.000	Y_WP:	0.000	Y_WP:	0.750	X:	0.016	Y:	-0.914	Z:	0.403	yaw:	4.153	yaw rate:	7.346	Roll:	-0.721	Pitch:	-27.125	Yaw:	6.150	Thrust:	56.995
Time:	0.978	Roll Set Point:	0.033	Pitch Set Point:	1.826	Yaw Set Point:	-0.072	X_WP:	0.000	Y_WP:	0.000	Y_WP:	0.750	X:	0.016	Y:	-0.914	Z:	0.403	yaw:	4.118	yaw rate:	3.518	Roll:	-1.189	Pitch:	-27.261	Yaw:	6.747	Thrust:	60.418
Time:	0.999	Roll Set Point:	0.033	Pitch Set Point:	1.826	Yaw Set Point:	-0.072	X_WP:	0.000	Y_WP:	0.000	Y_WP:	0.750	X:	0.016	Y:	-0.914	Z:	0.403	yaw:	4.115	yaw rate:	0.356	Roll:	-1.524	Pitch:	-27.210	Yaw:	7.109	Thrust:	59.598
Time:	1.018	Roll Set Point:	0.033	Pitch Set Point:	1.826	Yaw Set Point:	-0.072	X_WP:	0.000	Y_WP:	0.000	Y_WP:	0.750	X:	0.016	Y:	-0.914	Z:	0.403	yaw:	4.119	yaw rate:	-0.431	Roll:	-1.607	Pitch:	-27.191	Yaw:	7.232	Thrust:	59.958
Time:	1.039	Roll Set Point:	0.034	Pitch Set Point:	1.826	Yaw Set Point:	-0.072	X_WP:	0.000	Y_WP:	0.000	Y_WP:	0.750	X:	0.016	Y:	-0.914	Z:	0.403	yaw:	4.141	yaw rate:	-2.172	Roll:	-1.879	Pitch:	-27.183	Yaw:	7.520	Thrust:	60.891
Time:	1.058	Roll Set Point:	0.034	Pitch Set Point:	1.826	Yaw Set Point:	-0.072	X_WP:	0.000	Y_WP:	0.000	Y_WP:	0.750	X:	0.016	Y:	-0.914	Z:	0.403	yaw:	4.141	yaw rate:	-0.069	Roll:	-1.567	Pitch:	-27.221	Yaw:	7.262	Thrust:	59.164
Time:	1.080	Roll Set Point:	0.034	Pitch Set Point:	1.826	Yaw Set Point:	-0.073	X_WP:	0.000	Y_WP:	0.000	Y_WP:	0.750	X:	0.016	Y:	-0.914	Z:	0.403	yaw:	4.158	yaw rate:	-1.671	Roll:	-1.836	Pitch:	-27.226	Yaw:	7.603	Thrust:	66.904
Time:	1.103	Roll Set Point:	0.034	Pitch Set Point:	1.826	Yaw Set Point:	-0.073	X_WP:	0.000	Y_WP:	0.000	Y_WP:	0.750	X:	0.016	Y:	-0.914	Z:	0.403	yaw:	4.168	yaw rate:	-0.939	Roll:	-1.701	Pitch:	-27.329	Yaw:	7.690	Thrust:	69.708
Time:	1.117	Roll Set Point:	0.034	Pitch Set Point:	1.826	Yaw Set Point:	-0.072	X_WP:	0.000	Y_WP:	0.000	Y_WP:	0.750	X:	0.016	Y:	-0.914	Z:	0.403	yaw:	4.153	yaw rate:	1.457	Roll:	-1.322	Pitch:	-27.044	Yaw:	6.725	Thrust:	52.943
Time:	1.137	Roll Set Point:	0.034	Pitch Set Point:	1.826	Yaw Set Point:	-0.072	X_WP:	0.000	Y_WP:	0.000	Y_WP:	0.750	X:	0.016	Y:	-0.914	Z:	0.403	yaw:	4.127	yaw rate:	2.591	Roll:	-1.202	Pitch:	-27.213	Yaw:	6.941	Thrust:	62.998
Time:	1.157	Roll Set Point:	0.034	Pitch Set Point:	1.826	Yaw Set Point:	-0.073	X_WP:	0.000	Y_WP:	0.000	Y_WP:	0.750	X:	0.016	Y:	-0.914	Z:	0.403	yaw:	4.157	yaw rate:	-2.987	Roll:	-2.022	Pitch:	-27.174	Yaw:	7.825	Thrust:	65.995
Time:	1.177	Roll Set Point:	0.034	Pitch Set Point:	1.826	Yaw Set Point:	-0.073	X_WP:	0.000	Y_WP:	0.000	Y_WP:	0.750	X:	0.016	Y:	-0.914	Z:	0.403	yaw:	4.156	yaw rate:	0.082	Roll:	-1.573	Pitch:	-27.248	Yaw:	7.490	Thrust:	67.812
Time:	1.198	Roll Set Point:	0.034	Pitch Set Point:	1.826	Yaw Set Point:	-0.072	X_WP:	0.000	Y_WP:	0.000	Y_WP:	0.750	X:	0.016	Y:	-0.914	Z:	0.403	yaw:	4.128	yaw rate:	2.782	Roll:	-1.203	Pitch:	-27.211	Yaw:	7.116	Thrust:	65.700
Time:	1.217	Roll Set Point:	0.033	Pitch Set Point:	1.826	Yaw Set Point:	-0.072	X_WP:	0.000	Y_WP:	0.000	Y_WP:	0.750	X:	0.016	Y:	-0.914	Z:	0.403	yaw:	4.115	yaw rate:	1.327	Roll:	-1.418	Pitch:	-27.219	Yaw:	7.221	Thrust:	69.098
Time:	1.237	Roll Set Point:	0.034	Pitch Set Point:	1.826	Yaw Set Point:	-0.072	X_WP:	0.000	Y_WP:	0.000	Y_WP:	0.750	X:	0.016	Y:	-0.914	Z:	0.403	yaw:	4.141	yaw rate:	-2.554	Roll:	-1.942	Pitch:	-27.205	Yaw:	7.860	Thrust:	69.185
Time:	1.257	Roll Set Point:	0.034	Pitch Set Point:	1.826	Yaw Set Point:	-0.073	X_WP:	0.000	Y_WP:	0.000	Y_WP:	0.750	X:	0.016	Y:	-0.914	Z:	0.403	yaw:	4.162	yaw rate:	-2.151	Roll:	-1.902	Pitch:	-27.186	Yaw:	7.852	Thrust:	69.569
Time:	1.277	Roll Set Point:	0.034	Pitch Set Point:	1.826	Yaw Set Point:	-0.072	X_WP:	0.000	Y_WP:	0.000	Y_WP:	0.750	X:	0.016	Y:	-0.914	Z:	0.403	yaw:	4.136	yaw rate:	2.562	Roll:	-1.253	Pitch:	-27.235	Yaw:	7.298	Thrust:	72.129
Time:	1.298	Roll Set Point:	0.034	Pitch Set Point:	1.826	Yaw Set Point:	-0.072	X_WP:	0.000	Y_WP:	0.000	Y_WP:	0.750	X:	0.016	Y:	-0.914	Z:	0.403	yaw:	4.149	yaw rate:	-1.245	Roll:	-1.783	Pitch:	-27.235	Yaw:	7.835	Thrust:	73.219
Time:	1.318	Roll Set Point:	0.034	Pitch Set Point:	1.826	Yaw Set Point:	-0.072	X_WP:	0.000	Y_WP:	0.000	Y_WP:	0.750	X:	0.016	Y:	-0.914	Z:	0.403	yaw:	4.148	yaw rate:	0.060	Roll:	-1.591	Pitch:	-27.188	Yaw:	7.597	Thrust:	71.125
Time:	1.337	Roll Set Point:	0.035	Pitch Set Point:	1.826	Yaw Set Point:	-0.074	X_WP:	0.000	Y_WP:	0.000	Y_WP:	0.750	X:	0.016	Y:	-0.914	Z:	0.403	yaw:	4.247	yaw rate:	-9.869	Roll:	-2.748	Pitch:	-27.266	Yaw:	9.081	Thrust:	70.492
Time:	1.358	Roll Set Point:	0.033	Pitch Set Point:	1.826	Yaw Set Point:	-0.072	X_WP:	0.000	Y_WP:	0.000	Y_WP:	0.750	X:	0.016	Y:	-0.914	Z:	0.403	yaw:	4.121	yaw rate:	12.612	Roll:	-0.155	Pitch:	-27.166	Yaw:	6.029	Thrust:	74.391
Time:	1.378	Roll Set Point:	0.034	Pitch Set Point:	1.826	Yaw Set Point:	-0.073	X_WP:	0.000	Y_WP:	0.000	Y_WP:	0.750	X:	0.016	Y:	-0.914	Z:	0.403	yaw:	4.176	yaw rate:	-5.523	Roll:	-2.390	Pitch:	-27.180	Yaw:	8.566	Thrust:	78.043
Time:	1.398	Roll Set Point:	0.034	Pitch Set Point:	1.826	Yaw Set Point:	-0.072	X_WP:	0.000	Y_WP:	0.000	Y_WP:	0.750	X:	0.016	Y:	-0.914	Z:	0.403	yaw:	4.136	yaw rate:	3.979	Roll:	-1.034	Pitch:	-27.244	Yaw:	7.242	Thrust:	75.957
Time:	1.417	Roll Set Point:	0.034	Pitch Set Point:	1.826	Yaw Set Point:	-0.072	X_WP:	0.000	Y_WP:	0.000	Y_WP:	0.750	X:	0.016	Y:	-0.914	Z:	0.403	yaw:	4.135	yaw rate:	0.119	Roll:	-1.614	Pitch:	-27.198	Yaw:	7.667	Thrust:	73.926
Time:	1.438	Roll Set Point:	0.034	Pitch Set Point:	1.826	Yaw Set Point:	-0.072	X_WP:	0.000	Y_WP:	0.000	Y_WP:	0.750	X:	0.016	Y:	-0.914	Z:	0.403	yaw:	4.153	yaw rate:	-1.755	Roll:	-1.869	Pitch:	-27.197	Yaw:	7.997	Thrust:	76.316
Time:	1.458	Roll Set Point:	0.034	Pitch Set Point:	1.826	Yaw Set Point:	-0.073	X_WP:	0.000	Y_WP:	0.000	Y_WP:	0.750	X:	0.016	Y:	-0.914	Z:	0.403	yaw:	4.172	yaw rate:	-1.973	Roll:	-1.889	Pitch:	-27.207	Yaw:	8.115	Thrust:	79.124
Time:	1.478	Roll Set Point:	0.034	Pitch Set Point:	1.826	Yaw Set Point:	-0.072	X_WP:	0.000	Y_WP:	0.000	Y_WP:	0.750	X:	0.016	Y:	-0.914	Z:	0.403	yaw:	4.146	yaw rate:	2.590	Roll:	-1.310	Pitch:	-27.226	Yaw:	7.578	Thrust:	80.731
Time:	1.497	Roll Set Point:	0.034	Pitch Set Point:	1.826	Yaw Set Point:	-0.073	X_WP:	0.000	Y_WP:	0.000	Y_WP:	0.750	X:	0.016	Y:	-0.914	Z:	0.403	yaw:	4.165	yaw rate:	-1.902	Roll:	-1.797	Pitch:	-27.227	Yaw:	7.969	Thrust:	77.682
Time:	1.518	Roll Set Point:	0.034	Pitch Set Point:	1.826	Yaw Set Point:	-0.073	X_WP:	0.000	Y_WP:	0.000	Y_WP:	0.750	X:	0.016	Y:	-0.914	Z:	0.403	yaw:	4.177	yaw rate:	-1.109	Roll:	-1.899	Pitch:	-27.158	Yaw:	7.999	Thrust:	81.694
Time:	1.538	Roll Set Point:	0.034	Pitch Set Point:	1.826	Yaw Set Point:	-0.072	X_WP:	0.000	Y_WP:	0.000	Y_WP:	0.750	X:	0.016	Y:	-0.914	Z:	0.403	yaw:	4.131	yaw rate:	4.525	Roll:	-0.991	Pitch:	-27.267	Yaw:	7.193	Thrust:	81.815
Time:	1.558	Roll Set Point:	0.034	Pitch Set Point:	1.826	Yaw Set Point:	-0.073	X_WP:	0.000	Y_WP:	0.000	Y_WP:	0.750	X:	0.016	Y:	-0.914	Z:	0.403	yaw:	4.178	yaw rate:	-4.640	Roll:	-2.194	Pitch:	-27.163	Yaw:	8.456	Thrust:	79.561
Time:	1.579	Roll Set Point:	0.034	Pitch Set Point:	1.826	Yaw Set Point:	-0.073	X_WP:	0.000	Y_WP:	0.000	Y_WP:	0.750	X:	0.016	Y:	-0.914	Z:	0.403	yaw:	4.182	yaw rate:	-0.417	Roll:	-1.713	Pitch:	-27.285	Yaw:	8.011	Thrust:	90.193
Time:	1.599	Roll Set Point:	0.034	Pitch Set Point:	1.826	Yaw Set Point:	-0.072	X_WP:	0.000	Y_WP:	0.000	Y_WP:	0.750	X:	0.016	Y:	-0.914	Z:	0.403	yaw:	4.137	yaw rate:	4.519	Roll:	-1.086	Pitch:	-27.204	Yaw:	7.092	Thrust:	81.897
Time:	1.618	Roll Set Point:	0.034	Pitch Set Point:	1.826	Yaw Set Point:	-0.072	X_WP:	0.000	Y_WP:	0.000	Y_WP:	0.750	X:	0.016	Y:	-0.914	Z:	0.403	yaw:	4.151	yaw rate:	-1.391	Roll:	-1.833	Pitch:	-27.150	Yaw:	7.919	Thrust:	81.050
Time:	1.637	Roll Set Point:	0.034	Pitch Set Point:	1.826	Yaw Set Point:	-0.072	X_WP:	0.000	Y_WP:	0.000	Y_WP:	0.750	X:	0.016	Y:	-0.914	Z:	0.403	yaw:	4.133	yaw rate:	1.768	Roll:	-1.412	Pitch:	-27.218	Yaw:	7.462	Thrust:	84.952
Time:	1.658	Roll Set Point:	0.034	Pitch Set Point:	1.826	Yaw Set Point:	-0.072	X_WP:	0.000	Y_WP:	0.000	Y_WP:	0.750	X:	0.016	Y:	-0.914	Z:	0.403	yaw:	4.133	yaw rate:	0.004	Roll:	-1.637	Pitch:	-27.225	Yaw:	7.883	Thrust:	90.269
Time:	1.680	Roll Set Point:	0.034	Pitch Set Point:	1.826	Yaw Set Point:	-0.073	X_WP:	0.000	Y_WP:	0.000	Y_WP:	0.750	X:	0.016	Y:	-0.914	Z:	0.403	yaw:	4.177	yaw rate:	-4.378	Roll:	-2.143	Pitch:	-27.291	Yaw:	8.520	Thrust:	92.403
Time:	1.697	Roll Set Point:	0.034	Pitch Set Point:	1.826	Yaw Set Point:	-0.072	X_WP:	0.000	Y_WP:	0.000	Y_WP:	0.750	X:	0.016	Y:	-0.914	Z:	0.403	yaw:	4.149	yaw rate:	2.769	Roll:	-1.325	Pitch:	-27.081	Yaw:	7.076	Thrust:	78.289
Time:	1.718	Roll Set Point:	0.034	Pitch Set Point:	1.826	Yaw Set Point:	-0.073	X_WP:	0.000	Y_WP:	0.000	Y_WP:	0.750	X:	0.016	Y:	-0.914	Z:	0.403	yaw:	4.156	yaw rate:	-0.666	Roll:	-1.742	Pitch:	-27.247	Yaw:	7.995	Thrust:	92.771
Time:	1.738	Roll Set Point:	0.034	Pitch Set Point:	1.826	Yaw Set Point:	-0.072	X_WP:	0.000	Y_WP:	0.000	Y_WP:	0.750	X:	0.016	Y:	-0.914	Z:	0.403	yaw:	4.143	yaw rate:	1.279	Roll:	-1.481	Pitch:	-27.203	Yaw:	7.629	Thrust:	90.229
Time:	1.757	Roll Set Point:	0.034	Pitch Set Point:	1.826	Yaw Set Point:	-0.073	X_WP:	0.000	Y_WP:	0.000	Y_WP:	0.750	X:	0.016	Y:	-0.914	Z:	0.403	yaw:	4.163	yaw rate:	-1.977	Roll:	-1.835	Pitch:	-27.228	Yaw:	7.983	Thrust:	86.611
Time:	1.781	Roll Set Point:	0.035	Pitch Set Point:	1.826	Yaw Set Point:	-0.073	X_WP:	0.000	Y_WP:	0.000	Y_WP:	0.750	X:	0.016	Y:	-0.914	Z:	0.403	yaw:	4.202	yaw rate:	-3.974	Roll:	-2.194	Pitch:	-27.316	Yaw:	8.706	Thrust:	100.000
Time:	1.798	Roll Set Point:	0.035	Pitch Set Point:	1.826	Yaw Set Point:	-0.074	X_WP:	0.000	Y_WP:	0.000	Y_WP:	0.750	X:	0.016	Y:	-0.914	Z:	0.403	yaw:	4.235	yaw rate:	-3.309	Roll:	-1.974	Pitch:	-27.228	Yaw:	8.103	Thrust:	76.607
Time:	1.817	Roll Set Point:	0.034	Pitch Set Point:	1.826	Yaw Set Point:	-0.072	X_WP:	0.000	Y_WP:	0.000	Y_WP:	0.750	X:	0.016	Y:	-0.914	Z:	0.403	yaw:	4.149	yaw rate:	8.691	Roll:	-0.677	Pitch:	-27.140	Yaw:	6.509	Thrust:	93.403
Time:	1.837	Roll Set Point:	0.034	Pitch Set Point:	1.826	Yaw Set Point:	-0.073	X_WP:	0.000	Y_WP:	0.000	Y_WP:	0.750	X:	0.016	Y:	-0.914	Z:	0.403	yaw:	4.198	yaw rate:	-4.964	Roll:	-2.357	Pitch:	-27.175	Yaw:	8.544	Thrust:	95.713
Time:	1.858	Roll Set Point:	0.034	Pitch Set Point:	1.826	Yaw Set Point:	-0.072	X_WP:	0.000	Y_WP:	0.000	Y_WP:	0.750	X:	0.016	Y:	-0.914	Z:	0.403	yaw:	4.140	yaw rate:	5.795	Roll:	-0.968	Pitch:	-27.251	Yaw:	7.073	Thrust:	96.461
Time:	1.879	Roll Set Point:	0.034	Pitch Set Point:	1.826	Yaw Set Point:	-0.072	X_WP:	0.000	Y_WP:	0.000	Y_WP:	0.750	X:	0.016	Y:	-0.914	Z:	0.403	yaw:	4.136	yaw rate:	0.383	Roll:	-1.633	Pitch:	-27.251	Yaw:	7.789	Thrust:	98.012
Time:	1.899	Roll Set Point:	0.034	Pitch Set Point:	1.826	Yaw Set Point:	-0.072	X_WP:	0.000	Y_WP:	0.000	Y_WP:	0.750	X:	0.016	Y:	-0.914	Z:	0.403	yaw:	4.153	yaw rate:	-1.609	Roll:	-1.897	Pitch:	-27.171	Yaw:	8.064	Thrust:	94.801
Time:	1.918	Roll Set Point:	0.034	Pitch Set Point:	1.826	Yaw Set Point:	-0.072	X_WP:	0.000	Y_WP:	0.000	Y_WP:	0.750	X:	0.016	Y:	-0.914	Z:	0.403	yaw:	4.149	yaw rate:	0.331	Roll:	-1.648	Pitch:	-27.157	Yaw:	7.604	Thrust:	95.686
Time:	1.937	Roll Set Point:	0.034	Pitch Set Point:	1.826	Yaw Set Point:	-0.073	X_WP:	0.000	Y_WP:	0.000	Y_WP:	0.750	X:	0.016	Y:	-0.914	Z:	0.403	yaw:	4.155	yaw rate:	-0.607	Roll:	-1.768	Pitch:	-27.212	Yaw:	7.835	Thrust:	96.196
Time:	1.958	Roll Set Point:	0.034	Pitch Set Point:	1.826	Yaw Set Point:	-0.073	X_WP:	0.000	Y_WP:	0.000	Y_WP:	0.750	X:	0.016	Y:	-0.914	Z:	0.403	yaw:	4.164	yaw rate:	-0.896	Roll:	-1.724	Pitch:	-27.271	Yaw:	7.992	Thrust:	100.000
Time:	1.979	Roll Set Point:	0.034	Pitch Set Point:	1.826	Yaw Set Point:	-0.073	X_WP:	0.000	Y_WP:	0.000	Y_WP:	0.750	X:	0.016	Y:	-0.914	Z:	0.403	yaw:	4.169	yaw rate:	-0.445	Roll:	-1.771	Pitch:	-27.244	Yaw:	8.037	Thrust:	100.000
Time:	1.997	Roll Set Point:	0.034	Pitch Set Point:	1.826	Yaw Set Point:	-0.072	X_WP:	0.000	Y_WP:	0.000	Y_WP:	0.750	X:	0.016	Y:	-0.914	Z:	0.403	yaw:	4.150	yaw rate:	1.890	Roll:	-1.509	Pitch:	-27.126	Yaw:	7.330	Thrust:	93.084
Time:	2.018	Roll Set Point:	0.034	Pitch Set Point:	1.826	Yaw Set Point:	-0.072	X_WP:	0.000	Y_WP:	0.000	Y_WP:	0.750	X:	0.016	Y:	-0.914	Z:	0.403	yaw:	4.145	yaw rate:	0.431	Roll:	-1.633	Pitch:	-27.236	Yaw:	7.733	Thrust:	100.000
Time:	2.038	Roll Set Point:	0.034	Pitch Set Point:	1.826	Yaw Set Point:	-0.073	X_WP:	0.000	Y_WP:	0.000	Y_WP:	0.750	X:	0.016	Y:	-0.914	Z:	0.403	yaw:	4.160	yaw rate:	-1.473	Roll:	-1.806	Pitch:	-27.214	Yaw:	8.044	Thrust:	100.000
Time:	2.058	Roll Set Point:	0.034	Pitch Set Point:	1.826	Yaw Set Point:	-0.072	X_WP:	0.000	Y_WP:	0.000	Y_WP:	0.750	X:	0.016	Y:	-0.914	Z:	0.403	yaw:	4.145	yaw rate:	1.501	Roll:	-1.599	Pitch:	-27.193	Yaw:	7.564	Thrust:	100.000
Time:	2.078	Roll Set Point:	0.033	Pitch Set Point:	1.826	Yaw Set Point:	-0.072	X_WP:	0.000	Y_WP:	0.000	Y_WP:	0.750	X:	0.016	Y:	-0.914	Z:	0.403	yaw:	4.121	yaw rate:	2.413	Roll:	-1.373	Pitch:	-27.255	Yaw:	7.445	Thrust:	100.000
Time:	2.100	Roll Set Point:	0.033	Pitch Set Point:	1.826	Yaw Set Point:	-0.072	X_WP:	0.000	Y_WP:	0.000	Y_WP:	0.750	X:	0.016	Y:	-0.914	Z:	0.403	yaw:	4.119	yaw rate:	0.244	Roll:	-1.672	Pitch:	-27.242	Yaw:	7.858	Thrust:	100.000
Time:	2.118	Roll Set Point:	0.034	Pitch Set Point:	1.826	Yaw Set Point:	-0.072	X_WP:	0.000	Y_WP:	0.000	Y_WP:	0.750	X:	0.016	Y:	-0.914	Z:	0.403	yaw:	4.128	yaw rate:	-0.947	Roll:	-1.808	Pitch:	-27.148	Yaw:	7.722	Thrust:	100.000
Time:	2.138	Roll Set Point:	0.033	Pitch Set Point:	1.826	Yaw Set Point:	-0.072	X_WP:	0.000	Y_WP:	0.000	Y_WP:	0.750	X:	0.016	Y:	-0.914	Z:	0.403	yaw:	4.128	yaw rate:	0.040	Roll:	-1.619	Pitch:	-27.248	Yaw:	7.857	Thrust:	100.000
Time:	2.158	Roll Set Point:	0.034	Pitch Set Point:	1.826	Yaw Set Point:	-0.072	X_WP:	0.000	Y_WP:	0.000	Y_WP:	0.750	X:	0.016	Y:	-0.914	Z:	0.403	yaw:	4.145	yaw rate:	-1.730	Roll:	-2.064	Pitch:	-27.162	Yaw:	7.995	Thrust:	100.000
Time:	2.178	Roll Set Point:	0.034	Pitch Set Point:	1.826	Yaw Set Point:	-0.073	X_WP:	0.000	Y_WP:	0.000	Y_WP:	0.750	X:	0.016	Y:	-0.914	Z:	0.403	yaw:	4.170	yaw rate:	-2.520	Roll:	-1.957	Pitch:	-27.228	Yaw:	8.136	Thrust:	100.000
Time:	2.197	Roll Set Point:	0.034	Pitch Set Point:	1.826	Yaw Set Point:	-0.072	X_WP:	0.000	Y_WP:	0.000	Y_WP:	0.750	X:	0.016	Y:	-0.914	Z:	0.403	yaw:	4.147	yaw rate:	2.351	Roll:	-1.464	Pitch:	-27.161	Yaw:	7.435	Thrust:	100.000
Time:	2.217	Roll Set Point:	0.034	Pitch Set Point:	1.826	Yaw Set Point:	-0.072	X_WP:	0.000	Y_WP:	0.000	Y_WP:	0.750	X:	0.016	Y:	-0.914	Z:	0.403	yaw:	4.133	yaw rate:	1.407	Roll:	-1.547	Pitch:	-27.209	Yaw:	7.475	Thrust:	100.000
Time:	2.237	Roll Set Point:	0.034	Pitch Set Point:	1.826	Yaw Set Point:	-0.072	X_WP:	0.000	Y_WP:	0.000	Y_WP:	0.750	X:	0.016	Y:	-0.914	Z:	0.403	yaw:	4.128	yaw rate:	0.426	Roll:	-1.629	Pitch:	-27.248	Yaw:	7.722	Thrust:	100.000
Time:	2.257	Roll Set Point:	0.034	Pitch Set Point:	1.826	Yaw Set Point:	-0.073	X_WP:	0.000	Y_WP:	0.000	Y_WP:	0.750	X:	0.016	Y:	-0.914	Z:	0.403	yaw:	4.155	yaw rate:	-2.709	Roll:	-2.047	Pitch:	-27.197	Yaw:	8.167	Thrust:	100.000
Time:	2.277	Roll Set Point:	0.033	Pitch Set Point:	1.826	Yaw Set Point:	-0.072	X_WP:	0.000	Y_WP:	0.000	Y_WP:	0.750	X:	0.017	Y:	-0.914	Z:	0.404	yaw:	4.140	yaw rate:	1.517	Roll:	-1.265	Pitch:	-27.335	Yaw:	7.632	Thrust:	100.000
Time:	2.297	Roll Set Point:	0.034	Pitch Set Point:	1.826	Yaw Set Point:	-0.072	X_WP:	0.000	Y_WP:	0.000	Y_WP:	0.750	X:	0.016	Y:	-0.914	Z:	0.403	yaw:	4.147	yaw rate:	-0.626	Roll:	-2.150	Pitch:	-27.112	Yaw:	7.900	Thrust:	100.000
Time:	2.317	Roll Set Point:	0.034	Pitch Set Point:	1.826	Yaw Set Point:	-0.073	X_WP:	0.000	Y_WP:	0.000	Y_WP:	0.750	X:	0.016	Y:	-0.914	Z:	0.403	yaw:	4.163	yaw rate:	-1.642	Roll:	-1.957	Pitch:	-27.173	Yaw:	7.987	Thrust:	100.000
Time:	2.337	Roll Set Point:	0.034	Pitch Set Point:	1.826	Yaw Set Point:	-0.072	X_WP:	0.000	Y_WP:	0.000	Y_WP:	0.750	X:	0.016	Y:	-0.914	Z:	0.403	yaw:	4.132	yaw rate:	3.145	Roll:	-1.307	Pitch:	-27.221	Yaw:	7.319	Thrust:	100.000
Time:	2.357	Roll Set Point:	0.034	Pitch Set Point:	1.826	Yaw Set Point:	-0.073	X_WP:	0.000	Y_WP:	0.000	Y_WP:	0.750	X:	0.016	Y:	-0.914	Z:	0.403	yaw:	4.168	yaw rate:	-3.649	Roll:	-2.245	Pitch:	-27.179	Yaw:	8.323	Thrust:	100.000
Time:	2.379	Roll Set Point:	0.034	Pitch Set Point:	1.826	Yaw Set Point:	-0.072	X_WP:	0.000	Y_WP:	0.000	Y_WP:	0.750	X:	0.016	Y:	-0.914	Z:	0.403	yaw:	4.153	yaw rate:	1.488	Roll:	-1.543	Pitch:	-27.304	Yaw:	7.777	Thrust:	100.000
Time:	2.397	Roll Set Point:	0.034	Pitch Set Point:	1.826	Yaw Set Point:	-0.073	X_WP:	0.000	Y_WP:	0.000	Y_WP:	0.750	X:	0.016	Y:	-0.914	Z:	0.403	yaw:	4.168	yaw rate:	-1.469	Roll:	-1.894	Pitch:	-27.143	Yaw:	7.870	Thrust:	100.000
Time:	2.417	Roll Set Point:	0.034	Pitch Set Point:	1.826	Yaw Set Point:	-0.072	X_WP:	0.000	Y_WP:	0.000	Y_WP:	0.750	X:	0.016	Y:	-0.914	Z:	0.403	yaw:	4.132	yaw rate:	3.613	Roll:	-1.302	Pitch:	-27.220	Yaw:	7.319	Thrust:	100.000
Time:	2.436	Roll Set Point:	0.034	Pitch Set Point:	1.826	Yaw Set Point:	-0.072	X_WP:	0.000	Y_WP:	0.000	Y_WP:	0.750	X:	0.016	Y:	-0.914	Z:	0.403	yaw:	4.151	yaw rate:	-1.961	Roll:	-2.027	Pitch:	-27.151	Yaw:	7.952	Thrust:	100.000
Time:	2.457	Roll Set Point:	0.034	Pitch Set Point:	1.826	Yaw Set Point:	-0.073	X_WP:	0.000	Y_WP:	0.000	Y_WP:	0.750	X:	0.016	Y:	-0.914	Z:	0.403	yaw:	4.173	yaw rate:	-2.132	Roll:	-1.954	Pitch:	-27.225	Yaw:	8.182	Thrust:	100.000
Time:	2.478	Roll Set Point:	0.035	Pitch Set Point:	1.826	Yaw Set Point:	-0.074	X_WP:	0.000	Y_WP:	0.000	Y_WP:	0.750	X:	0.016	Y:	-0.914	Z:	0.403	yaw:	4.224	yaw rate:	-5.161	Roll:	-2.301	Pitch:	-27.352	Yaw:	8.619	Thrust:	100.000
Time:	2.498	Roll Set Point:	0.034	Pitch Set Point:	1.826	Yaw Set Point:	-0.073	X_WP:	0.000	Y_WP:	0.000	Y_WP:	0.750	X:	0.016	Y:	-0.914	Z:	0.403	yaw:	4.178	yaw rate:	4.640	Roll:	-1.282	Pitch:	-27.095	Yaw:	7.241	Thrust:	100.000
Time:	2.518	Roll Set Point:	0.034	Pitch Set Point:	1.826	Yaw Set Point:	-0.073	X_WP:	0.000	Y_WP:	0.000	Y_WP:	0.750	X:	0.016	Y:	-0.914	Z:	0.403	yaw:	4.157	yaw rate:	2.100	Roll:	-1.529	Pitch:	-27.245	Yaw:	7.545	Thrust:	100.000
Time:	2.537	Roll Set Point:	0.034	Pitch Set Point:	1.826	Yaw Set Point:	-0.072	X_WP:	0.000	Y_WP:	0.000	Y_WP:	0.750	X:	0.016	Y:	-0.914	Z:	0.403	yaw:	4.140	yaw rate:	1.728	Roll:	-1.557	Pitch:	-27.135	Yaw:	7.339	Thrust:	100.000
Time:	2.557	Roll Set Point:	0.034	Pitch Set Point:	1.826	Yaw Set Point:	-0.073	X_WP:	0.000	Y_WP:	0.000	Y_WP:	0.750	X:	0.016	Y:	-0.914	Z:	0.403	yaw:	4.166	yaw rate:	-2.624	Roll:	-2.030	Pitch:	-27.275	Yaw:	8.223	Thrust:	100.000
Time:	2.577	Roll Set Point:	0.034	Pitch Set Point:	1.826	Yaw Set Point:	-0.073	X_WP:	0.000	Y_WP:	0.000	Y_WP:	0.750	X:	0.016	Y:	-0.914	Z:	0.403	yaw:	4.170	yaw rate:	-0.449	Roll:	-1.864	Pitch:	-27.198	Yaw:	7.944	Thrust:	100.000
Time:	2.597	Roll Set Point:	0.034	Pitch Set Point:	1.826	Yaw Set Point:	-0.073	X_WP:	0.000	Y_WP:	0.000	Y_WP:	0.750	X:	0.016	Y:	-0.914	Z:	0.403	yaw:	4.165	yaw rate:	0.564	Roll:	-1.678	Pitch:	-27.194	Yaw:	7.677	Thrust:	100.000
Time:	2.617	Roll Set Point:	0.034	Pitch Set Point:	1.826	Yaw Set Point:	-0.073	X_WP:	0.000	Y_WP:	0.000	Y_WP:	0.750	X:	0.016	Y:	-0.914	Z:	0.403	yaw:	4.179	yaw rate:	-1.394	Roll:	-1.975	Pitch:	-27.232	Yaw:	8.029	Thrust:	100.000
Time:	2.636	Roll Set Point:	0.033	Pitch Set Point:	1.826	Yaw Set Point:	-0.072	X_WP:	0.000	Y_WP:	0.000	Y_WP:	0.750	X:	0.016	Y:	-0.914	Z:	0.403	yaw:	4.115	yaw rate:	6.309	Roll:	-0.960	Pitch:	-27.202	Yaw:	6.839	Thrust:	100.000
Time:	2.657	Roll Set Point:	0.034	Pitch Set Point:	1.826	Yaw Set Point:	-0.073	X_WP:	0.000	Y_WP:	0.000	Y_WP:	0.750	X:	0.016	Y:	-0.914	Z:	0.403	yaw:	4.179	yaw rate:	-6.395	Roll:	-2.595	Pitch:	-27.161	Yaw:	8.728	Thrust:	100.000
Time:	2.678	Roll Set Point:	0.034	Pitch Set Point:	1.826	Yaw Set Point:	-0.073	X_WP:	0.000	Y_WP:	0.000	Y_WP:	0.750	X:	0.016	Y:	-0.914	Z:	0.403	yaw:	4.190	yaw rate:	-1.067	Roll:	-1.775	Pitch:	-27.389	Yaw:	8.019	Thrust:	100.000
Time:	2.698	Roll Set Point:	0.034	Pitch Set Point:	1.826	Yaw Set Point:	-0.073	X_WP:	0.000	Y_WP:	0.000	Y_WP:	0.750	X:	0.016	Y:	-0.914	Z:	0.403	yaw:	4.162	yaw rate:	2.773	Roll:	-1.657	Pitch:	-27.106	Yaw:	7.479	Thrust:	100.000
Time:	2.717	Roll Set Point:	0.034	Pitch Set Point:	1.826	Yaw Set Point:	-0.072	X_WP:	0.000	Y_WP:	0.000	Y_WP:	0.750	X:	0.016	Y:	-0.914	Z:	0.403	yaw:	4.151	yaw rate:	1.170	Roll:	-1.636	Pitch:	-27.166	Yaw:	7.585	Thrust:	100.000
Time:	2.737	Roll Set Point:	0.033	Pitch Set Point:	1.826	Yaw Set Point:	-0.072	X_WP:	0.000	Y_WP:	0.000	Y_WP:	0.750	X:	0.016	Y:	-0.914	Z:	0.403	yaw:	4.120	yaw rate:	3.108	Roll:	-1.330	Pitch:	-27.261	Yaw:	7.364	Thrust:	100.000
Time:	2.758	Roll Set Point:	0.034	Pitch Set Point:	1.826	Yaw Set Point:	-0.073	X_WP:	0.000	Y_WP:	0.000	Y_WP:	0.750	X:	0.016	Y:	-0.914	Z:	0.403	yaw:	4.160	yaw rate:	-4.068	Roll:	-2.344	Pitch:	-27.204	Yaw:	8.365	Thrust:	100.000
Time:	2.779	Roll Set Point:	0.034	Pitch Set Point:	1.826	Yaw Set Point:	-0.072	X_WP:	0.000	Y_WP:	0.000	Y_WP:	0.750	X:	0.016	Y:	-0.914	Z:	0.403	yaw:	4.121	yaw rate:	3.879	Roll:	-1.346	Pitch:	-27.260	Yaw:	7.394	Thrust:	100.000
Time:	2.797	Roll Set Point:	0.034	Pitch Set Point:	1.826	Yaw Set Point:	-0.073	X_WP:	0.000	Y_WP:	0.000	Y_WP:	0.750	X:	0.016	Y:	-0.914	Z:	0.403	yaw:	4.154	yaw rate:	-3.256	Roll:	-2.241	Pitch:	-27.126	Yaw:	8.115	Thrust:	100.000
Time:	2.817	Roll Set Point:	0.034	Pitch Set Point:	1.826	Yaw Set Point:	-0.073	X_WP:	0.000	Y_WP:	0.000	Y_WP:	0.750	X:	0.016	Y:	-0.914	Z:	0.403	yaw:	4.156	yaw rate:	-0.176	Roll:	-1.703	Pitch:	-27.251	Yaw:	7.774	Thrust:	100.000
Time:	2.837	Roll Set Point:	0.034	Pitch Set Point:	1.826	Yaw Set Point:	-0.073	X_WP:	0.000	Y_WP:	0.000	Y_WP:	0.750	X:	0.016	Y:	-0.914	Z:	0.403	yaw:	4.169	yaw rate:	-1.349	Roll:	-2.108	Pitch:	-27.137	Yaw:	7.976	Thrust:	100.000
Time:	2.857	Roll Set Point:	0.034	Pitch Set Point:	1.826	Yaw Set Point:	-0.072	X_WP:	0.000	Y_WP:	0.000	Y_WP:	0.750	X:	0.016	Y:	-0.914	Z:	0.403	yaw:	4.149	yaw rate:	2.021	Roll:	-1.498	Pitch:	-27.205	Yaw:	7.459	Thrust:	100.000
Time:	2.877	Roll Set Point:	0.034	Pitch Set Point:	1.826	Yaw Set Point:	-0.073	X_WP:	0.000	Y_WP:	0.000	Y_WP:	0.750	X:	0.016	Y:	-0.914	Z:	0.403	yaw:	4.181	yaw rate:	-3.234	Roll:	-2.261	Pitch:	-27.215	Yaw:	8.318	Thrust:	100.000
Time:	2.898	Roll Set Point:	0.034	Pitch Set Point:	1.826	Yaw Set Point:	-0.073	X_WP:	0.000	Y_WP:	0.000	Y_WP:	0.750	X:	0.016	Y:	-0.914	Z:	0.403	yaw:	4.164	yaw rate:	1.749	Roll:	-1.575	Pitch:	-27.201	Yaw:	7.674	Thrust:	100.000
Time:	2.917	Roll Set Point:	0.034	Pitch Set Point:	1.826	Yaw Set Point:	-0.073	X_WP:	0.000	Y_WP:	0.000	Y_WP:	0.750	X:	0.016	Y:	-0.914	Z:	0.403	yaw:	4.166	yaw rate:	-0.187	Roll:	-1.840	Pitch:	-27.243	Yaw:	7.817	Thrust:	100.000
Time:	2.937	Roll Set Point:	0.034	Pitch Set Point:	1.826	Yaw Set Point:	-0.072	X_WP:	0.000	Y_WP:	0.000	Y_WP:	0.750	X:	0.016	Y:	-0.914	Z:	0.403	yaw:	4.146	yaw rate:	1.978	Roll:	-1.564	Pitch:	-27.226	Yaw:	7.498	Thrust:	100.000
Time:	2.957	Roll Set Point:	0.034	Pitch Set Point:	1.826	Yaw Set Point:	-0.072	X_WP:	0.000	Y_WP:	0.000	Y_WP:	0.750	X:	0.016	Y:	-0.914	Z:	0.403	yaw:	4.150	yaw rate:	-0.396	Roll:	-1.767	Pitch:	-27.224	Yaw:	7.820	Thrust:	100.000
Time:	2.978	Roll Set Point:	0.035	Pitch Set Point:	1.826	Yaw Set Point:	-0.074	X_WP:	0.000	Y_WP:	0.000	Y_WP:	0.750	X:	0.016	Y:	-0.914	Z:	0.403	yaw:	4.230	yaw rate:	-7.968	Roll:	-2.743	Pitch:	-27.316	Yaw:	9.028	Thrust:	100.000
Time:	3.000	Roll Set Point:	0.034	Pitch Set Point:	1.826	Yaw Set Point:	-0.072	X_WP:	0.000	Y_WP:	0.000	Y_WP:	0.750	X:	0.016	Y:	-0.914	Z:	0.403	yaw:	4.152	yaw rate:	7.718	Roll:	-1.034	Pitch:	-27.145	Yaw:	6.915	Thrust:	100.000
Time:	3.017	Roll Set Point:	0.034	Pitch Set Point:	1.826	Yaw Set Point:	-0.073	X_WP:	0.000	Y_WP:	0.000	Y_WP:	0.750	X:	0.016	Y:	-0.914	Z:	0.403	yaw:	4.159	yaw rate:	-0.637	Roll:	-1.925	Pitch:	-27.152	Yaw:	7.710	Thrust:	100.000
Time:	3.037	Roll Set Point:	0.034	Pitch Set Point:	1.826	Yaw Set Point:	-0.073	X_WP:	0.000	Y_WP:	0.000	Y_WP:	0.750	X:	0.016	Y:	-0.914	Z:	0.403	yaw:	4.175	yaw rate:	-1.649	Roll:	-1.955	Pitch:	-27.230	Yaw:	8.048	Thrust:	100.000
Time:	3.057	Roll Set Point:	0.034	Pitch Set Point:	1.826	Yaw Set Point:	-0.072	X_WP:	0.000	Y_WP:	0.000	Y_WP:	0.750	X:	0.016	Y:	-0.914	Z:	0.403	yaw:	4.148	yaw rate:	2.756	Roll:	-1.540	Pitch:	-27.198	Yaw:	7.409	Thrust:	100.000
Time:	3.077	Roll Set Point:	0.034	Pitch Set Point:	1.826	Yaw Set Point:	-0.072	X_WP:	0.000	Y_WP:	0.000	Y_WP:	0.750	X:	0.016	Y:	-0.914	Z:	0.403	yaw:	4.138	yaw rate:	0.980	Roll:	-1.690	Pitch:	-27.213	Yaw:	7.636	Thrust:	100.000
Time:	3.097	Roll Set Point:	0.034	Pitch Set Point:	1.826	Yaw Set Point:	-0.073	X_WP:	0.000	Y_WP:	0.000	Y_WP:	0.750	X:	0.016	Y:	-0.914	Z:	0.403	yaw:	4.176	yaw rate:	-3.818	Roll:	-2.284	Pitch:	-27.220	Yaw:	8.360	Thrust:	100.000
Time:	3.117	Roll Set Point:	0.034	Pitch Set Point:	1.826	Yaw Set Point:	-0.072	X_WP:	0.000	Y_WP:	0.000	Y_WP:	0.750	X:	0.016	Y:	-0.914	Z:	0.403	yaw:	4.144	yaw rate:	3.198	Roll:	-1.495	Pitch:	-27.183	Yaw:	7.308	Thrust:	100.000
Time:	3.136	Roll Set Point:	0.034	Pitch Set Point:	1.826	Yaw Set Point:	-0.072	X_WP:	0.000	Y_WP:	0.000	Y_WP:	0.750	X:	0.016	Y:	-0.914	Z:	0.403	yaw:	4.145	yaw rate:	-0.100	Roll:	-1.828	Pitch:	-27.169	Yaw:	7.660	Thrust:	100.000
Time:	3.156	Roll Set Point:	0.034	Pitch Set Point:	1.826	Yaw Set Point:	-0.072	X_WP:	0.000	Y_WP:	0.000	Y_WP:	0.750	X:	0.016	Y:	-0.914	Z:	0.403	yaw:	4.139	yaw rate:	0.591	Roll:	-1.764	Pitch:	-27.199	Yaw:	7.799	Thrust:	100.000
Time:	3.176	Roll Set Point:	0.034	Pitch Set Point:	1.826	Yaw Set Point:	-0.072	X_WP:	0.000	Y_WP:	0.000	Y_WP:	0.750	X:	0.016	Y:	-0.914	Z:	0.403	yaw:	4.152	yaw rate:	-1.317	Roll:	-2.030	Pitch:	-27.223	Yaw:	7.975	Thrust:	100.000
Time:	3.199	Roll Set Point:	0.034	Pitch Set Point:	1.826	Yaw Set Point:	-0.072	X_WP:	0.000	Y_WP:	0.000	Y_WP:	0.750	X:	0.016	Y:	-0.914	Z:	0.403	yaw:	4.134	yaw rate:	1.883	Roll:	-1.677	Pitch:	-27.364	Yaw:	7.862	Thrust:	100.000
Time:	3.216	Roll Set Point:	0.034	Pitch Set Point:	1.826	Yaw Set Point:	-0.073	X_WP:	0.000	Y_WP:	0.000	Y_WP:	0.750	X:	0.016	Y:	-0.914	Z:	0.403	yaw:	4.173	yaw rate:	-3.937	Roll:	-2.460	Pitch:	-27.034	Yaw:	8.131	Thrust:	100.000
Time:	3.237	Roll Set Point:	0.034	Pitch Set Point:	1.826	Yaw Set Point:	-0.073	X_WP:	0.000	Y_WP:	0.000	Y_WP:	0.750	X:	0.016	Y:	-0.914	Z:	0.403	yaw:	4.165	yaw rate:	0.776	Roll:	-1.763	Pitch:	-27.234	Yaw:	7.773	Thrust:	100.000
Time:	3.256	Roll Set Point:	0.035	Pitch Set Point:	1.826	Yaw Set Point:	-0.073	X_WP:	0.000	Y_WP:	0.000	Y_WP:	0.750	X:	0.016	Y:	-0.914	Z:	0.403	yaw:	4.188	yaw rate:	-2.291	Roll:	-2.171	Pitch:	-27.160	Yaw:	8.030	Thrust:	100.000
Time:	3.277	Roll Set Point:	0.034	Pitch Set Point:	1.826	Yaw Set Point:	-0.072	X_WP:	0.000	Y_WP:	0.000	Y_WP:	0.750	X:	0.016	Y:	-0.914	Z:	0.403	yaw:	4.132	yaw rate:	5.592	Roll:	-1.126	Pitch:	-27.293	Yaw:	7.218	Thrust:	100.000
Time:	3.297	Roll Set Point:	0.034	Pitch Set Point:	1.826	Yaw Set Point:	-0.073	X_WP:	0.000	Y_WP:	0.000	Y_WP:	0.750	X:	0.016	Y:	-0.914	Z:	0.403	yaw:	4.161	yaw rate:	-2.849	Roll:	-2.276	Pitch:	-27.177	Yaw:	8.196	Thrust:	100.000
Time:	3.317	Roll Set Point:	0.034	Pitch Set Point:	1.826	Yaw Set Point:	-0.073	X_WP:	0.000	Y_WP:	0.000	Y_WP:	0.750	X:	0.016	Y:	-0.914	Z:	0.403	yaw:	4.166	yaw rate:	-0.566	Roll:	-1.827	Pitch:	-27.267	Yaw:	7.889	Thrust:	100.000
Time:	3.336	Roll Set Point:	0.034	Pitch Set Point:	1.826	Yaw Set Point:	-0.073	X_WP:	0.000	Y_WP:	0.000	Y_WP:	0.750	X:	0.016	Y:	-0.914	Z:	0.403	yaw:	4.157	yaw rate:	0.944	Roll:	-1.728	Pitch:	-27.183	Yaw:	7.581	Thrust:	100.000
Time:	3.356	Roll Set Point:	0.034	Pitch Set Point:	1.826	Yaw Set Point:	-0.072	X_WP:	0.000	Y_WP:	0.000	Y_WP:	0.750	X:	0.016	Y:	-0.914	Z:	0.403	yaw:	4.135	yaw rate:	2.240	Roll:	-1.636	Pitch:	-27.169	Yaw:	7.447	Thrust:	100.000
Time:	3.378	Roll Set Point:	0.034	Pitch Set Point:	1.826	Yaw Set Point:	-0.073	X_WP:	0.000	Y_WP:	0.000	Y_WP:	0.750	X:	0.016	Y:	-0.914	Z:	0.403	yaw:	4.170	yaw rate:	-3.542	Roll:	-2.267	Pitch:	-27.301	Yaw:	8.449	Thrust:	100.000
Time:	3.397	Roll Set Point:	0.034	Pitch Set Point:	1.826	Yaw Set Point:	-0.072	X_WP:	0.000	Y_WP:	0.000	Y_WP:	0.750	X:	0.016	Y:	-0.914	Z:	0.403	yaw:	4.151	yaw rate:	1.917	Roll:	-1.676	Pitch:	-27.135	Yaw:	7.382	Thrust:	100.000
Time:	3.417	Roll Set Point:	0.034	Pitch Set Point:	1.826	Yaw Set Point:	-0.072	X_WP:	0.000	Y_WP:	0.000	Y_WP:	0.750	X:	0.016	Y:	-0.914	Z:	0.403	yaw:	4.124	yaw rate:	2.640	Roll:	-1.506	Pitch:	-27.269	Yaw:	7.498	Thrust:	100.000
Time:	3.438	Roll Set Point:	0.034	Pitch Set Point:	1.826	Yaw Set Point:	-0.073	X_WP:	0.000	Y_WP:	0.000	Y_WP:	0.750	X:	0.016	Y:	-0.914	Z:	0.403	yaw:	4.158	yaw rate:	-3.316	Roll:	-2.335	Pitch:	-27.191	Yaw:	8.269	Thrust:	100.000
Time:	3.458	Roll Set Point:	0.034	Pitch Set Point:	1.826	Yaw Set Point:	-0.073	X_WP:	0.000	Y_WP:	0.000	Y_WP:	0.750	X:	0.016	Y:	-0.914	Z:	0.403	yaw:	4.163	yaw rate:	-0.514	Roll:	-1.852	Pitch:	-27.246	Yaw:	7.908	Thrust:	100.000
Time:	3.478	Roll Set Point:	0.034	Pitch Set Point:	1.826	Yaw Set Point:	-0.072	X_WP:	0.000	Y_WP:	0.000	Y_WP:	0.750	X:	0.016	Y:	-0.914	Z:	0.403	yaw:	4.147	yaw rate:	1.570	Roll:	-1.793	Pitch:	-27.174	Yaw:	7.586	Thrust:	100.000
Time:	3.498	Roll Set Point:	0.034	Pitch Set Point:	1.826	Yaw Set Point:	-0.073	X_WP:	0.000	Y_WP:	0.000	Y_WP:	0.750	X:	0.016	Y:	-0.914	Z:	0.403	yaw:	4.165	yaw rate:	-1.812	Roll:	-2.127	Pitch:	-27.181	Yaw:	8.076	Thrust:	100.000
Time:	3.517	Roll Set Point:	0.034	Pitch Set Point:	1.826	Yaw Set Point:	-0.072	X_WP:	0.000	Y_WP:	0.000	Y_WP:	0.750	X:	0.016	Y:	-0.914	Z:	0.403	yaw:	4.149	yaw rate:	1.579	Roll:	-1.645	Pitch:	-27.218	Yaw:	7.442	Thrust:	100.000
Time:	3.536	Roll Set Point:	0.034	Pitch Set Point:	1.826	Yaw Set Point:	-0.073	X_WP:	0.000	Y_WP:	0.000	Y_WP:	0.750	X:	0.016	Y:	-0.914	Z:	0.403	yaw:	4.161	yaw rate:	-1.137	Roll:	-2.039	Pitch:	-27.170	Yaw:	7.876	Thrust:	100.000
Time:	3.557	Roll Set Point:	0.034	Pitch Set Point:	1.826	Yaw Set Point:	-0.072	X_WP:	0.000	Y_WP:	0.000	Y_WP:	0.750	X:	0.016	Y:	-0.914	Z:	0.403	yaw:	4.134	yaw rate:	2.671	Roll:	-1.540	Pitch:	-27.230	Yaw:	7.547	Thrust:	100.000
Time:	3.577	Roll Set Point:	0.034	Pitch Set Point:	1.826	Yaw Set Point:	-0.072	X_WP:	0.000	Y_WP:	0.000	Y_WP:	0.750	X:	0.016	Y:	-0.914	Z:	0.403	yaw:	4.145	yaw rate:	-1.091	Roll:	-2.037	Pitch:	-27.247	Yaw:	7.943	Thrust:	100.000
Time:	3.597	Roll Set Point:	0.034	Pitch Set Point:	1.826	Yaw Set Point:	-0.073	X_WP:	0.000	Y_WP:	0.000	Y_WP:	0.750	X:	0.016	Y:	-0.914	Z:	0.403	yaw:	4.178	yaw rate:	-3.317	Roll:	-2.111	Pitch:	-27.358	Yaw:	8.290	Thrust:	100.000
Time:	3.617	Roll Set Point:	0.034	Pitch Set Point:	1.826	Yaw Set Point:	-0.072	X_WP:	0.000	Y_WP:	0.000	Y_WP:	0.750	X:	0.016	Y:	-0.914	Z:	0.403	yaw:	4.139	yaw rate:	3.939	Roll:	-1.588	Pitch:	-27.059	Yaw:	7.218	Thrust:	100.000
Time:	3.637	Roll Set Point:	0.034	Pitch Set Point:	1.826	Yaw Set Point:	-0.072	X_WP:	0.000	Y_WP:	0.000	Y_WP:	0.750	X:	0.016	Y:	-0.914	Z:	0.403	yaw:	4.144	yaw rate:	-0.556	Roll:	-1.961	Pitch:	-27.199	Yaw:	7.815	Thrust:	100.000
Time:	3.656	Roll Set Point:	0.034	Pitch Set Point:	1.826	Yaw Set Point:	-0.073	X_WP:	0.000	Y_WP:	0.000	Y_WP:	0.750	X:	0.016	Y:	-0.914	Z:	0.403	yaw:	4.171	yaw rate:	-2.629	Roll:	-2.286	Pitch:	-27.167	Yaw:	8.122	Thrust:	100.000
Time:	3.677	Roll Set Point:	0.034	Pitch Set Point:	1.826	Yaw Set Point:	-0.072	X_WP:	0.000	Y_WP:	0.000	Y_WP:	0.750	X:	0.016	Y:	-0.914	Z:	0.403	yaw:	4.148	yaw rate:	2.259	Roll:	-1.517	Pitch:	-27.266	Yaw:	7.615	Thrust:	100.000
Time:	3.698	Roll Set Point:	0.034	Pitch Set Point:	1.826	Yaw Set Point:	-0.072	X_WP:	0.000	Y_WP:	0.000	Y_WP:	0.750	X:	0.016	Y:	-0.914	Z:	0.403	yaw:	4.149	yaw rate:	-0.063	Roll:	-2.006	Pitch:	-27.191	Yaw:	7.849	Thrust:	100.000
Time:	3.717	Roll Set Point:	0.034	Pitch Set Point:	1.826	Yaw Set Point:	-0.073	X_WP:	0.000	Y_WP:	0.000	Y_WP:	0.750	X:	0.016	Y:	-0.914	Z:	0.403	yaw:	4.179	yaw rate:	-3.065	Roll:	-2.328	Pitch:	-27.181	Yaw:	8.188	Thrust:	100.000
Time:	3.736	Roll Set Point:	0.034	Pitch Set Point:	1.826	Yaw Set Point:	-0.072	X_WP:	0.000	Y_WP:	0.000	Y_WP:	0.750	X:	0.016	Y:	-0.914	Z:	0.403	yaw:	4.149	yaw rate:	3.025	Roll:	-1.510	Pitch:	-27.195	Yaw:	7.269	Thrust:	100.000
Time:	3.757	Roll Set Point:	0.034	Pitch Set Point:	1.826	Yaw Set Point:	-0.073	X_WP:	0.000	Y_WP:	0.000	Y_WP:	0.750	X:	0.016	Y:	-0.914	Z:	0.403	yaw:	4.162	yaw rate:	-1.298	Roll:	-2.102	Pitch:	-27.222	Yaw:	8.031	Thrust:	100.000
Time:	3.777	Roll Set Point:	0.034	Pitch Set Point:	1.826	Yaw Set Point:	-0.073	X_WP:	0.000	Y_WP:	0.000	Y_WP:	0.750	X:	0.016	Y:	-0.914	Z:	0.403	yaw:	4.171	yaw rate:	-0.938	Roll:	-1.974	Pitch:	-27.267	Yaw:	8.000	Thrust:	100.000
Time:	3.797	Roll Set Point:	0.034	Pitch Set Point:	1.826	Yaw Set Point:	-0.072	X_WP:	0.000	Y_WP:	0.000	Y_WP:	0.750	X:	0.016	Y:	-0.914	Z:	0.403	yaw:	4.130	yaw rate:	4.084	Roll:	-1.448	Pitch:	-27.232	Yaw:	7.273	Thrust:	100.000
Time:	3.817	Roll Set Point:	0.034	Pitch Set Point:	1.826	Yaw Set Point:	-0.073	X_WP:	0.000	Y_WP:	0.000	Y_WP:	0.750	X:	0.016	Y:	-0.914	Z:	0.403	yaw:	4.183	yaw rate:	-5.208	Roll:	-2.580	Pitch:	-27.143	Yaw:	8.481	Thrust:	100.000
Time:	3.837	Roll Set Point:	0.034	Pitch Set Point:	1.826	Yaw Set Point:	-0.072	X_WP:	0.000	Y_WP:	0.000	Y_WP:	0.750	X:	0.016	Y:	-0.914	Z:	0.403	yaw:	4.140	yaw rate:	4.292	Roll:	-1.299	Pitch:	-27.276	Yaw:	7.195	Thrust:	100.000
Time:	3.857	Roll Set Point:	0.034	Pitch Set Point:	1.826	Yaw Set Point:	-0.073	X_WP:	0.000	Y_WP:	0.000	Y_WP:	0.750	X:	0.016	Y:	-0.914	Z:	0.403	yaw:	4.168	yaw rate:	-2.856	Roll:	-2.356	Pitch:	-27.190	Yaw:	8.220	Thrust:	100.000
Time:	3.878	Roll Set Point:	0.034	Pitch Set Point:	1.826	Yaw Set Point:	-0.073	X_WP:	0.000	Y_WP:	0.000	Y_WP:	0.750	X:	0.016	Y:	-0.914	Z:	0.403	yaw:	4.166	yaw rate:	0.268	Roll:	-2.001	Pitch:	-27.230	Yaw:	7.931	Thrust:	100.000
Time:	3.897	Roll Set Point:	0.034	Pitch Set Point:	1.826	Yaw Set Point:	-0.072	X_WP:	0.000	Y_WP:	0.000	Y_WP:	0.750	X:	0.016	Y:	-0.914	Z:	0.403	yaw:	4.147	yaw rate:	1.897	Roll:	-1.624	Pitch:	-27.166	Yaw:	7.353	Thrust:	100.000
Time:	3.917	Roll Set Point:	0.034	Pitch Set Point:	1.826	Yaw Set Point:	-0.073	X_WP:	0.000	Y_WP:	0.000	Y_WP:	0.750	X:	0.016	Y:	-0.914	Z:	0.403	yaw:	4.182	yaw rate:	-3.520	Roll:	-2.452	Pitch:	-27.182	Yaw:	8.304	Thrust:	100.000
Time:	3.937	Roll Set Point:	0.033	Pitch Set Point:	1.826	Yaw Set Point:	-0.072	X_WP:	0.000	Y_WP:	0.000	Y_WP:	0.750	X:	0.016	Y:	-0.914	Z:	0.403	yaw:	4.116	yaw rate:	6.542	Roll:	-0.944	Pitch:	-27.284	Yaw:	6.899	Thrust:	100.000
Time:	3.957	Roll Set Point:	0.034	Pitch Set Point:	1.826	Yaw Set Point:	-0.072	X_WP:	0.000	Y_WP:	0.000	Y_WP:	0.750	X:	0.016	Y:	-0.914	Z:	0.403	yaw:	4.126	yaw rate:	-1.000	Roll:	-2.083	Pitch:	-27.190	Yaw:	7.902	Thrust:	100.000
Time:	3.977	Roll Set Point:	0.033	Pitch Set Point:	1.827	Yaw Set Point:	-0.072	X_WP:	0.000	Y_WP:	0.000	Y_WP:	0.750	X:	0.017	Y:	-0.914	Z:	0.404	yaw:	4.145	yaw rate:	-1.892	Roll:	-1.818	Pitch:	-27.420	Yaw:	8.041	Thrust:	100.000
Time:	3.998	Roll Set Point:	0.034	Pitch Set Point:	1.826	Yaw Set Point:	-0.073	X_WP:	0.000	Y_WP:	0.000	Y_WP:	0.750	X:	0.016	Y:	-0.914	Z:	0.403	yaw:	4.169	yaw rate:	-2.419	Roll:	-2.660	Pitch:	-26.974	Yaw:	8.196	Thrust:	100.000
Time:	4.017	Roll Set Point:	0.034	Pitch Set Point:	1.826	Yaw Set Point:	-0.073	X_WP:	0.000	Y_WP:	0.000	Y_WP:	0.750	X:	0.016	Y:	-0.914	Z:	0.403	yaw:	4.163	yaw rate:	0.606	Roll:	-1.775	Pitch:	-27.230	Yaw:	7.666	Thrust:	100.000
Time:	4.036	Roll Set Point:	0.034	Pitch Set Point:	1.826	Yaw Set Point:	-0.073	X_WP:	0.000	Y_WP:	0.000	Y_WP:	0.750	X:	0.016	Y:	-0.914	Z:	0.403	yaw:	4.159	yaw rate:	0.467	Roll:	-1.993	Pitch:	-27.163	Yaw:	7.688	Thrust:	100.000
Time:	4.057	Roll Set Point:	0.034	Pitch Set Point:	1.826	Yaw Set Point:	-0.073	X_WP:	0.000	Y_WP:	0.000	Y_WP:	0.750	X:	0.016	Y:	-0.914	Z:	0.403	yaw:	4.183	yaw rate:	-2.409	Roll:	-2.203	Pitch:	-27.252	Yaw:	8.190	Thrust:	100.000
Time:	4.077	Roll Set Point:	0.034	Pitch Set Point:	1.826	Yaw Set Point:	-0.072	X_WP:	0.000	Y_WP:	0.000	Y_WP:	0.750	X:	0.016	Y:	-0.914	Z:	0.403	yaw:	4.154	yaw rate:	2.928	Roll:	-1.645	Pitch:	-27.232	Yaw:	7.466	Thrust:	100.000
Time:	4.097	Roll Set Point:	0.034	Pitch Set Point:	1.826	Yaw Set Point:	-0.072	X_WP:	0.000	Y_WP:	0.000	Y_WP:	0.750	X:	0.016	Y:	-0.914	Z:	0.403	yaw:	4.132	yaw rate:	2.156	Roll:	-1.665	Pitch:	-27.203	Yaw:	7.463	Thrust:	100.000
Time:	4.117	Roll Set Point:	0.035	Pitch Set Point:	1.826	Yaw Set Point:	-0.074	X_WP:	0.000	Y_WP:	0.000	Y_WP:	0.750	X:	0.016	Y:	-0.914	Z:	0.403	yaw:	4.229	yaw rate:	-9.667	Roll:	-3.080	Pitch:	-27.281	Yaw:	9.168	Thrust:	100.000
Time:	4.136	Roll Set Point:	0.034	Pitch Set Point:	1.826	Yaw Set Point:	-0.072	X_WP:	0.000	Y_WP:	0.000	Y_WP:	0.750	X:	0.016	Y:	-0.914	Z:	0.403	yaw:	4.137	yaw rate:	9.188	Roll:	-0.940	Pitch:	-27.130	Yaw:	6.464	Thrust:	100.000
Time:	4.156	Roll Set Point:	0.034	Pitch Set Point:	1.826	Yaw Set Point:	-0.073	X_WP:	0.000	Y_WP:	0.000	Y_WP:	0.750	X:	0.016	Y:	-0.914	Z:	0.403	yaw:	4.166	yaw rate:	-2.887	Roll:	-2.386	Pitch:	-27.145	Yaw:	8.160	Thrust:	100.000
Time:	4.177	Roll Set Point:	0.034	Pitch Set Point:	1.826	Yaw Set Point:	-0.073	X_WP:	0.000	Y_WP:	0.000	Y_WP:	0.750	X:	0.016	Y:	-0.914	Z:	0.403	yaw:	4.161	yaw rate:	0.503	Roll:	-1.938	Pitch:	-27.246	Yaw:	7.853	Thrust:	100.000
Time:	4.197	Roll Set Point:	0.034	Pitch Set Point:	1.826	Yaw Set Point:	-0.072	X_WP:	0.000	Y_WP:	0.000	Y_WP:	0.750	X:	0.016	Y:	-0.914	Z:	0.403	yaw:	4.148	yaw rate:	1.232	Roll:	-1.711	Pitch:	-27.287	Yaw:	7.672	Thrust:	100.000
Time:	4.217	Roll Set Point:	0.034	Pitch Set Point:	1.826	Yaw Set Point:	-0.072	X_WP:	0.000	Y_WP:	0.000	Y_WP:	0.750	X:	0.016	Y:	-0.914	Z:	0.403	yaw:	4.148	yaw rate:	0.021	Roll:	-2.039	Pitch:	-27.147	Yaw:	7.705	Thrust:	100.000
Time:	4.237	Roll Set Point:	0.034	Pitch Set Point:	1.826	Yaw Set Point:	-0.073	X_WP:	0.000	Y_WP:	0.000	Y_WP:	0.750	X:	0.016	Y:	-0.914	Z:	0.403	yaw:	4.161	yaw rate:	-1.305	Roll:	-2.176	Pitch:	-27.154	Yaw:	8.020	Thrust:	100.000
Time:	4.257	Roll Set Point:	0.034	Pitch Set Point:	1.826	Yaw Set Point:	-0.073	X_WP:	0.000	Y_WP:	0.000	Y_WP:	0.750	X:	0.016	Y:	-0.914	Z:	0.403	yaw:	4.154	yaw rate:	0.668	Roll:	-1.894	Pitch:	-27.270	Yaw:	7.711	Thrust:	100.000
Time:	4.278	Roll Set Point:	0.034	Pitch Set Point:	1.826	Yaw Set Point:	-0.072	X_WP:	0.000	Y_WP:	0.000	Y_WP:	0.750	X:	0.016	Y:	-0.914	Z:	0.403	yaw:	4.150	yaw rate:	0.417	Roll:	-1.954	Pitch:	-27.236	Yaw:	7.864	Thrust:	100.000
Time:	4.297	Roll Set Point:	0.034	Pitch Set Point:	1.826	Yaw Set Point:	-0.072	X_WP:	0.000	Y_WP:	0.000	Y_WP:	0.750	X:	0.016	Y:	-0.914	Z:	0.403	yaw:	4.138	yaw rate:	1.214	Roll:	-1.769	Pitch:	-27.217	Yaw:	7.539	Thrust:	100.000
Time:	4.317	Roll Set Point:	0.034	Pitch Set Point:	1.826	Yaw Set Point:	-0.073	X_WP:	0.000	Y_WP:	0.000	Y_WP:	0.750	X:	0.016	Y:	-0.914	Z:	0.403	yaw:	4.156	yaw rate:	-1.809	Roll:	-2.164	Pitch:	-27.200	Yaw:	7.997	Thrust:	100.000
Time:	4.337	Roll Set Point:	0.033	Pitch Set Point:	1.826	Yaw Set Point:	-0.072	X_WP:	0.000	Y_WP:	0.000	Y_WP:	0.750	X:	0.016	Y:	-0.914	Z:	0.403	yaw:	4.118	yaw rate:	3.844	Roll:	-1.490	Pitch:	-27.173	Yaw:	7.250	Thrust:	100.000
Time:	4.357	Roll Set Point:	0.034	Pitch Set Point:	1.826	Yaw Set Point:	-0.072	X_WP:	0.000	Y_WP:	0.000	Y_WP:	0.750	X:	0.016	Y:	-0.914	Z:	0.403	yaw:	4.144	yaw rate:	-2.651	Roll:	-2.361	Pitch:	-27.232	Yaw:	8.137	Thrust:	100.000
Time:	4.377	Roll Set Point:	0.034	Pitch Set Point:	1.826	Yaw Set Point:	-0.072	X_WP:	0.000	Y_WP:	0.000	Y_WP:	0.750	X:	0.016	Y:	-0.914	Z:	0.403	yaw:	4.153	yaw rate:	-0.826	Roll:	-2.099	Pitch:	-27.195	Yaw:	7.864	Thrust:	100.000
Time:	4.396	Roll Set Point:	0.034	Pitch Set Point:	1.826	Yaw Set Point:	-0.073	X_WP:	0.000	Y_WP:	0.000	Y_WP:	0.750	X:	0.016	Y:	-0.914	Z:	0.403	yaw:	4.163	yaw rate:	-1.015	Roll:	-2.120	Pitch:	-27.187	Yaw:	7.911	Thrust:	100.000
Time:	4.417	Roll Set Point:	0.035	Pitch Set Point:	1.826	Yaw Set Point:	-0.073	X_WP:	0.000	Y_WP:	0.000	Y_WP:	0.750	X:	0.016	Y:	-0.914	Z:	0.403	yaw:	4.190	yaw rate:	-2.727	Roll:	-2.413	Pitch:	-27.198	Yaw:	8.262	Thrust:	100.000
Time:	4.437	Roll Set Point:	0.034	Pitch Set Point:	1.826	Yaw Set Point:	-0.072	X_WP:	0.000	Y_WP:	0.000	Y_WP:	0.750	X:	0.016	Y:	-0.914	Z:	0.403	yaw:	4.151	yaw rate:	3.885	Roll:	-1.460	Pitch:	-27.263	Yaw:	7.292	Thrust:	100.000
Time:	4.457	Roll Set Point:	0.034	Pitch Set Point:	1.826	Yaw Set Point:	-0.073	X_WP:	0.000	Y_WP:	0.000	Y_WP:	0.750	X:	0.016	Y:	-0.914	Z:	0.403	yaw:	4.154	yaw rate:	-0.331	Roll:	-1.936	Pitch:	-27.197	Yaw:	7.861	Thrust:	100.000
Time:	4.478	Roll Set Point:	0.034	Pitch Set Point:	1.826	Yaw Set Point:	-0.073	X_WP:	0.000	Y_WP:	0.000	Y_WP:	0.750	X:	0.016	Y:	-0.914	Z:	0.403	yaw:	4.164	yaw rate:	-0.996	Roll:	-2.183	Pitch:	-27.251	Yaw:	8.042	Thrust:	100.000
Time:	4.497	Roll Set Point:	0.034	Pitch Set Point:	1.826	Yaw Set Point:	-0.073	X_WP:	0.000	Y_WP:	0.000	Y_WP:	0.750	X:	0.016	Y:	-0.914	Z:	0.403	yaw:	4.164	yaw rate:	0.014	Roll:	-1.985	Pitch:	-27.202	Yaw:	7.731	Thrust:	100.000
Time:	4.517	Roll Set Point:	0.034	Pitch Set Point:	1.826	Yaw Set Point:	-0.073	X_WP:	0.000	Y_WP:	0.000	Y_WP:	0.750	X:	0.016	Y:	-0.914	Z:	0.403	yaw:	4.189	yaw rate:	-2.431	Roll:	-2.166	Pitch:	-27.335	Yaw:	8.129	Thrust:	100.000
Time:	4.536	Roll Set Point:	0.034	Pitch Set Point:	1.826	Yaw Set Point:	-0.072	X_WP:	0.000	Y_WP:	0.000	Y_WP:	0.750	X:	0.016	Y:	-0.914	Z:	0.403	yaw:	4.151	yaw rate:	3.753	Roll:	-1.761	Pitch:	-27.038	Yaw:	7.229	Thrust:	100.000
Time:	4.557	Roll Set Point:	0.034	Pitch Set Point:	1.826	Yaw Set Point:	-0.072	X_WP:	0.000	Y_WP:	0.000	Y_WP:	0.750	X:	0.016	Y:	-0.914	Z:	0.403	yaw:	4.138	yaw rate:	1.278	Roll:	-1.860	Pitch:	-27.231	Yaw:	7.661	Thrust:	100.000
Time:	4.577	Roll Set Point:	0.034	Pitch Set Point:	1.826	Yaw Set Point:	-0.072	X_WP:	0.000	Y_WP:	0.000	Y_WP:	0.750	X:	0.016	Y:	-0.914	Z:	0.403	yaw:	4.151	yaw rate:	-1.259	Roll:	-2.200	Pitch:	-27.220	Yaw:	8.006	Thrust:	100.000
Time:	4.597	Roll Set Point:	0.034	Pitch Set Point:	1.826	Yaw Set Point:	-0.073	X_WP:	0.000	Y_WP:	0.000	Y_WP:	0.750	X:	0.016	Y:	-0.914	Z:	0.403	yaw:	4.177	yaw rate:	-2.608	Roll:	-2.273	Pitch:	-27.242	Yaw:	8.193	Thrust:	100.000
Time:	4.617	Roll Set Point:	0.034	Pitch Set Point:	1.826	Yaw Set Point:	-0.073	X_WP:	0.000	Y_WP:	0.000	Y_WP:	0.750	X:	0.016	Y:	-0.914	Z:	0.403	yaw:	4.158	yaw rate:	1.869	Roll:	-1.902	Pitch:	-27.148	Yaw:	7.528	Thrust:	100.000
Time:	4.637	Roll Set Point:	0.035	Pitch Set Point:	1.826	Yaw Set Point:	-0.074	X_WP:	0.000	Y_WP:	0.000	Y_WP:	0.750	X:	0.016	Y:	-0.914	Z:	0.403	yaw:	4.241	yaw rate:	-8.248	Roll:	-2.891	Pitch:	-27.346	Yaw:	8.999	Thrust:	100.000
Time:	4.659	Roll Set Point:	0.034	Pitch Set Point:	1.826	Yaw Set Point:	-0.072	X_WP:	0.000	Y_WP:	0.000	Y_WP:	0.750	X:	0.016	Y:	-0.914	Z:	0.403	yaw:	4.132	yaw rate:	10.918	Roll:	-1.007	Pitch:	-27.229	Yaw:	6.729	Thrust:	100.000
Time:	4.678	Roll Set Point:	0.035	Pitch Set Point:	1.826	Yaw Set Point:	-0.073	X_WP:	0.000	Y_WP:	0.000	Y_WP:	0.750	X:	0.016	Y:	-0.914	Z:	0.403	yaw:	4.185	yaw rate:	-5.383	Roll:	-2.803	Pitch:	-27.044	Yaw:	8.431	Thrust:	100.000
Time:	4.697	Roll Set Point:	0.034	Pitch Set Point:	1.826	Yaw Set Point:	-0.073	X_WP:	0.000	Y_WP:	0.000	Y_WP:	0.750	X:	0.016	Y:	-0.914	Z:	0.403	yaw:	4.167	yaw rate:	1.825	Roll:	-1.814	Pitch:	-27.225	Yaw:	7.545	Thrust:	100.000
Time:	4.717	Roll Set Point:	0.034	Pitch Set Point:	1.826	Yaw Set Point:	-0.073	X_WP:	0.000	Y_WP:	0.000	Y_WP:	0.750	X:	0.016	Y:	-0.914	Z:	0.403	yaw:	4.156	yaw rate:	1.098	Roll:	-1.714	Pitch:	-27.248	Yaw:	7.587	Thrust:	100.000
Time:	4.737	Roll Set Point:	0.034	Pitch Set Point:	1.826	Yaw Set Point:	-0.073	X_WP:	0.000	Y_WP:	0.000	Y_WP:	0.750	X:	0.016	Y:	-0.914	Z:	0.403	yaw:	4.186	yaw rate:	-3.017	Roll:	-2.487	Pitch:	-27.180	Yaw:	8.245	Thrust:	100.000
Time:	4.763	Roll Set Point:	0.034	Pitch Set Point:	1.826	Yaw Set Point:	-0.073	X_WP:	0.000	Y_WP:	0.000	Y_WP:	0.750	X:	0.016	Y:	-0.914	Z:	0.403	yaw:	4.181	yaw rate:	0.567	Roll:	-1.966	Pitch:	-27.191	Yaw:	8.342	Thrust:	100.000
Time:	4.777	Roll Set Point:	0.034	Pitch Set Point:	1.826	Yaw Set Point:	-0.073	X_WP:	0.000	Y_WP:	0.000	Y_WP:	0.750	X:	0.016	Y:	-0.914	Z:	0.403	yaw:	4.182	yaw rate:	-0.120	Roll:	-2.082	Pitch:	-27.237	Yaw:	7.312	Thrust:	100.000
Time:	4.797	Roll Set Point:	0.034	Pitch Set Point:	1.826	Yaw Set Point:	-0.072	X_WP:	0.000	Y_WP:	0.000	Y_WP:	0.750	X:	0.016	Y:	-0.914	Z:	0.403	yaw:	4.147	yaw rate:	3.532	Roll:	-1.576	Pitch:	-27.255	Yaw:	7.355	Thrust:	100.000
Time:	4.817	Roll Set Point:	0.034	Pitch Set Point:	1.826	Yaw Set Point:	-0.072	X_WP:	0.000	Y_WP:	0.000	Y_WP:	0.750	X:	0.016	Y:	-0.914	Z:	0.403	yaw:	4.137	yaw rate:	0.920	Roll:	-1.993	Pitch:	-27.173	Yaw:	7.669	Thrust:	100.000
Time:	4.837	Roll Set Point:	0.034	Pitch Set Point:	1.826	Yaw Set Point:	-0.072	X_WP:	0.000	Y_WP:	0.000	Y_WP:	0.750	X:	0.016	Y:	-0.914	Z:	0.403	yaw:	4.138	yaw rate:	-0.111	Roll:	-2.076	Pitch:	-27.205	Yaw:	7.761	Thrust:	100.000
Time:	4.857	Roll Set Point:	0.034	Pitch Set Point:	1.826	Yaw Set Point:	-0.073	X_WP:	0.000	Y_WP:	0.000	Y_WP:	0.750	X:	0.016	Y:	-0.914	Z:	0.403	yaw:	4.174	yaw rate:	-3.566	Roll:	-2.547	Pitch:	-27.168	Yaw:	8.279	Thrust:	100.000
Time:	4.877	Roll Set Point:	0.034	Pitch Set Point:	1.826	Yaw Set Point:	-0.072	X_WP:	0.000	Y_WP:	0.000	Y_WP:	0.750	X:	0.016	Y:	-0.914	Z:	0.403	yaw:	4.154	yaw rate:	2.040	Roll:	-1.697	Pitch:	-27.273	Yaw:	7.602	Thrust:	100.000
Time:	4.898	Roll Set Point:	0.034	Pitch Set Point:	1.826	Yaw Set Point:	-0.073	X_WP:	0.000	Y_WP:	0.000	Y_WP:	0.750	X:	0.016	Y:	-0.914	Z:	0.403	yaw:	4.181	yaw rate:	-2.748	Roll:	-2.443	Pitch:	-27.177	Yaw:	8.159	Thrust:	100.000
Time:	4.917	Roll Set Point:	0.034	Pitch Set Point:	1.826	Yaw Set Point:	-0.073	X_WP:	0.000	Y_WP:	0.000	Y_WP:	0.750	X:	0.016	Y:	-0.914	Z:	0.403	yaw:	4.179	yaw rate:	0.197	Roll:	-2.041	Pitch:	-27.224	Yaw:	7.868	Thrust:	100.000
Time:	4.937	Roll Set Point:	0.035	Pitch Set Point:	1.826	Yaw Set Point:	-0.074	X_WP:	0.000	Y_WP:	0.000	Y_WP:	0.750	X:	0.016	Y:	-0.914	Z:	0.404	yaw:	4.257	yaw rate:	-7.823	Roll:	-3.021	Pitch:	-27.273	Yaw:	8.952	Thrust:	100.000
Time:	4.957	Roll Set Point:	0.034	Pitch Set Point:	1.826	Yaw Set Point:	-0.073	X_WP:	0.000	Y_WP:	0.000	Y_WP:	0.750	X:	0.016	Y:	-0.914	Z:	0.403	yaw:	4.157	yaw rate:	10.062	Roll:	-0.945	Pitch:	-27.134	Yaw:	6.439	Thrust:	100.000
Time:	4.978	Roll Set Point:	0.034	Pitch Set Point:	1.826	Yaw Set Point:	-0.072	X_WP:	0.000	Y_WP:	0.000	Y_WP:	0.750	X:	0.016	Y:	-0.914	Z:	0.403	yaw:	4.141	yaw rate:	1.604	Roll:	-1.929	Pitch:	-27.268	Yaw:	7.740	Thrust:	100.000
Time:	4.997	Roll Set Point:	0.033	Pitch Set Point:	1.827	Yaw Set Point:	-0.072	X_WP:	0.000	Y_WP:	0.000	Y_WP:	0.750	X:	0.017	Y:	-0.914	Z:	0.404	yaw:	4.152	yaw rate:	-1.159	Roll:	-1.819	Pitch:	-27.397	Yaw:	7.825	Thrust:	100.000
Time:	5.017	Roll Set Point:	0.033	Pitch Set Point:	1.827	Yaw Set Point:	-0.072	X_WP:	0.000	Y_WP:	0.000	Y_WP:	0.750	X:	0.017	Y:	-0.914	Z:	0.404	yaw:	4.144	yaw rate:	0.852	Roll:	-1.936	Pitch:	-27.242	Yaw:	7.716	Thrust:	100.000
Time:	5.037	Roll Set Point:	0.034	Pitch Set Point:	1.826	Yaw Set Point:	-0.073	X_WP:	0.000	Y_WP:	0.000	Y_WP:	0.750	X:	0.017	Y:	-0.914	Z:	0.404	yaw:	4.180	yaw rate:	-3.660	Roll:	-2.562	Pitch:	-27.125	Yaw:	8.277	Thrust:	100.000
Time:	5.058	Roll Set Point:	0.034	Pitch Set Point:	1.826	Yaw Set Point:	-0.072	X_WP:	0.000	Y_WP:	0.000	Y_WP:	0.750	X:	0.016	Y:	-0.914	Z:	0.403	yaw:	4.137	yaw rate:	4.341	Roll:	-1.908	Pitch:	-27.077	Yaw:	7.335	Thrust:	100.000
Time:	5.079	Roll Set Point:	0.034	Pitch Set Point:	1.826	Yaw Set Point:	-0.073	X_WP:	0.000	Y_WP:	0.000	Y_WP:	0.750	X:	0.016	Y:	-0.914	Z:	0.403	yaw:	4.168	yaw rate:	-3.094	Roll:	-2.526	Pitch:	-27.215	Yaw:	8.270	Thrust:	100.000
Time:	5.097	Roll Set Point:	0.034	Pitch Set Point:	1.826	Yaw Set Point:	-0.072	X_WP:	0.000	Y_WP:	0.000	Y_WP:	0.750	X:	0.016	Y:	-0.914	Z:	0.403	yaw:	4.154	yaw rate:	1.436	Roll:	-1.840	Pitch:	-27.221	Yaw:	7.514	Thrust:	100.000
Time:	5.118	Roll Set Point:	0.034	Pitch Set Point:	1.826	Yaw Set Point:	-0.072	X_WP:	0.000	Y_WP:	0.000	Y_WP:	0.750	X:	0.016	Y:	-0.914	Z:	0.403	yaw:	4.133	yaw rate:	2.020	Roll:	-1.829	Pitch:	-27.219	Yaw:	7.574	Thrust:	100.000
Time:	5.137	Roll Set Point:	0.034	Pitch Set Point:	1.826	Yaw Set Point:	-0.072	X_WP:	0.000	Y_WP:	0.000	Y_WP:	0.750	X:	0.016	Y:	-0.914	Z:	0.403	yaw:	4.142	yaw rate:	-0.898	Roll:	-2.203	Pitch:	-27.201	Yaw:	7.845	Thrust:	100.000
Time:	5.157	Roll Set Point:	0.034	Pitch Set Point:	1.826	Yaw Set Point:	-0.072	X_WP:	0.000	Y_WP:	0.000	Y_WP:	0.750	X:	0.016	Y:	-0.914	Z:	0.403	yaw:	4.146	yaw rate:	-0.385	Roll:	-2.129	Pitch:	-27.200	Yaw:	7.810	Thrust:	100.000
Time:	5.179	Roll Set Point:	0.034	Pitch Set Point:	1.826	Yaw Set Point:	-0.073	X_WP:	0.000	Y_WP:	0.000	Y_WP:	0.750	X:	0.016	Y:	-0.914	Z:	0.403	yaw:	4.173	yaw rate:	-2.660	Roll:	-2.392	Pitch:	-27.246	Yaw:	8.303	Thrust:	100.000
Time:	5.199	Roll Set Point:	0.034	Pitch Set Point:	1.826	Yaw Set Point:	-0.073	X_WP:	0.000	Y_WP:	0.000	Y_WP:	0.750	X:	0.016	Y:	-0.914	Z:	0.403	yaw:	4.174	yaw rate:	-0.071	Roll:	-2.216	Pitch:	-27.185	Yaw:	7.874	Thrust:	100.000
Time:	5.218	Roll Set Point:	0.033	Pitch Set Point:	1.826	Yaw Set Point:	-0.072	X_WP:	0.000	Y_WP:	0.000	Y_WP:	0.750	X:	0.016	Y:	-0.914	Z:	0.403	yaw:	4.122	yaw rate:	5.179	Roll:	-1.344	Pitch:	-27.212	Yaw:	6.882	Thrust:	100.000
Time:	5.238	Roll Set Point:	0.034	Pitch Set Point:	1.826	Yaw Set Point:	-0.072	X_WP:	0.000	Y_WP:	0.000	Y_WP:	0.750	X:	0.016	Y:	-0.914	Z:	0.403	yaw:	4.149	yaw rate:	-2.699	Roll:	-2.379	Pitch:	-27.216	Yaw:	8.160	Thrust:	100.000
Time:	5.257	Roll Set Point:	0.034	Pitch Set Point:	1.826	Yaw Set Point:	-0.073	X_WP:	0.000	Y_WP:	0.000	Y_WP:	0.750	X:	0.016	Y:	-0.914	Z:	0.403	yaw:	4.163	yaw rate:	-1.455	Roll:	-2.412	Pitch:	-27.182	Yaw:	7.918	Thrust:	100.000
Time:	5.279	Roll Set Point:	0.034	Pitch Set Point:	1.826	Yaw Set Point:	-0.073	X_WP:	0.000	Y_WP:	0.000	Y_WP:	0.750	X:	0.016	Y:	-0.914	Z:	0.403	yaw:	4.163	yaw rate:	0.003	Roll:	-2.016	Pitch:	-27.250	Yaw:	7.998	Thrust:	100.000
Time:	5.297	Roll Set Point:	0.034	Pitch Set Point:	1.826	Yaw Set Point:	-0.072	X_WP:	0.000	Y_WP:	0.000	Y_WP:	0.750	X:	0.016	Y:	-0.914	Z:	0.403	yaw:	4.153	yaw rate:	1.061	Roll:	-2.040	Pitch:	-27.191	Yaw:	7.528	Thrust:	100.000
Time:	5.318	Roll Set Point:	0.034	Pitch Set Point:	1.826	Yaw Set Point:	-0.073	X_WP:	0.000	Y_WP:	0.000	Y_WP:	0.750	X:	0.016	Y:	-0.914	Z:	0.403	yaw:	4.175	yaw rate:	-2.267	Roll:	-2.347	Pitch:	-27.206	Yaw:	8.145	Thrust:	100.000
Time:	5.337	Roll Set Point:	0.034	Pitch Set Point:	1.826	Yaw Set Point:	-0.072	X_WP:	0.000	Y_WP:	0.000	Y_WP:	0.750	X:	0.016	Y:	-0.914	Z:	0.403	yaw:	4.139	yaw rate:	3.586	Roll:	-1.592	Pitch:	-27.252	Yaw:	7.266	Thrust:	100.000
