Time:	0.042	Roll Set Point:	-0.094	Pitch Set Point:	-0.016	Yaw Set Point:	-0.090	X_WP:	0.000	Y_WP:	0.000	Z_WP:	0.500	X:	0.047	Y:	0.010	Z:	0.049	yaw:	5.171	yaw rate:	-0.104	Roll:	0.238	Pitch:	0.030	Yaw:	7.220	Thrust:	24.785
Time:	0.061	Roll Set Point:	-0.094	Pitch Set Point:	-0.016	Yaw Set Point:	-0.090	X_WP:	0.000	Y_WP:	0.000	Z_WP:	0.500	X:	0.047	Y:	0.010	Z:	0.049	yaw:	5.176	yaw rate:	-0.461	Roll:	0.248	Pitch:	0.049	Yaw:	7.324	Thrust:	25.822
Time:	0.082	Roll Set Point:	-0.094	Pitch Set Point:	-0.017	Yaw Set Point:	-0.083	X_WP:	0.000	Y_WP:	0.000	Z_WP:	0.500	X:	0.047	Y:	0.010	Z:	0.049	yaw:	4.757	yaw rate:	41.810	Roll:	0.121	Pitch:	0.440	Yaw:	1.427	Thrust:	27.609
Time:	0.103	Roll Set Point:	-0.094	Pitch Set Point:	-0.016	Yaw Set Point:	-0.076	X_WP:	0.000	Y_WP:	0.000	Z_WP:	0.500	X:	0.047	Y:	0.010	Z:	0.050	yaw:	4.348	yaw rate:	40.934	Roll:	0.234	Pitch:	-0.062	Yaw:	1.192	Thrust:	27.267
Time:	0.121	Roll Set Point:	-0.093	Pitch Set Point:	-0.017	Yaw Set Point:	-0.093	X_WP:	0.000	Y_WP:	0.000	Z_WP:	0.500	X:	0.046	Y:	0.010	Z:	0.049	yaw:	5.324	yaw rate:	-97.618	Roll:	-0.102	Pitch:	-0.209	Yaw:	21.696	Thrust:	30.152
Time:	0.141	Roll Set Point:	-0.094	Pitch Set Point:	-0.017	Yaw Set Point:	-0.090	X_WP:	0.000	Y_WP:	0.000	Z_WP:	0.500	X:	0.046	Y:	0.010	Z:	0.049	yaw:	5.173	yaw rate:	15.112	Roll:	0.392	Pitch:	0.108	Yaw:	5.405	Thrust:	30.258
Time:	0.160	Roll Set Point:	-0.094	Pitch Set Point:	-0.016	Yaw Set Point:	-0.090	X_WP:	0.000	Y_WP:	0.000	Z_WP:	0.500	X:	0.046	Y:	0.010	Z:	0.049	yaw:	5.143	yaw rate:	3.043	Roll:	0.248	Pitch:	-0.009	Yaw:	6.974	Thrust:	31.472
Time:	0.184	Roll Set Point:	-0.094	Pitch Set Point:	-0.016	Yaw Set Point:	-0.087	X_WP:	0.000	Y_WP:	0.000	Z_WP:	0.500	X:	0.047	Y:	0.010	Z:	0.049	yaw:	4.975	yaw rate:	16.788	Roll:	0.475	Pitch:	0.069	Yaw:	5.363	Thrust:	32.579
Time:	0.201	Roll Set Point:	-0.094	Pitch Set Point:	-0.017	Yaw Set Point:	-0.085	X_WP:	0.000	Y_WP:	0.000	Z_WP:	0.500	X:	0.047	Y:	0.010	Z:	0.049	yaw:	4.884	yaw rate:	9.067	Roll:	0.286	Pitch:	0.120	Yaw:	5.662	Thrust:	32.298
Time:	0.222	Roll Set Point:	-0.094	Pitch Set Point:	-0.016	Yaw Set Point:	-0.085	X_WP:	0.000	Y_WP:	0.000	Z_WP:	0.500	X:	0.047	Y:	0.010	Z:	0.049	yaw:	4.888	yaw rate:	-0.370	Roll:	0.233	Pitch:	-0.117	Yaw:	7.197	Thrust:	35.053
Time:	0.242	Roll Set Point:	-0.094	Pitch Set Point:	-0.016	Yaw Set Point:	-0.081	X_WP:	0.000	Y_WP:	0.000	Z_WP:	0.500	X:	0.047	Y:	0.010	Z:	0.049	yaw:	4.651	yaw rate:	23.686	Roll:	0.256	Pitch:	0.214	Yaw:	3.767	Thrust:	35.780
Time:	0.261	Roll Set Point:	-0.094	Pitch Set Point:	-0.016	Yaw Set Point:	-0.088	X_WP:	0.000	Y_WP:	0.000	Z_WP:	0.500	X:	0.047	Y:	0.010	Z:	0.049	yaw:	5.028	yaw rate:	-37.698	Roll:	0.324	Pitch:	-0.179	Yaw:	12.693	Thrust:	35.714
Time:	0.281	Roll Set Point:	-0.094	Pitch Set Point:	-0.017	Yaw Set Point:	-0.085	X_WP:	0.000	Y_WP:	0.000	Z_WP:	0.500	X:	0.047	Y:	0.010	Z:	0.049	yaw:	4.869	yaw rate:	15.919	Roll:	0.168	Pitch:	0.277	Yaw:	5.225	Thrust:	38.493
Time:	0.303	Roll Set Point:	-0.094	Pitch Set Point:	-0.017	Yaw Set Point:	-0.084	X_WP:	0.000	Y_WP:	0.000	Z_WP:	0.500	X:	0.047	Y:	0.010	Z:	0.049	yaw:	4.801	yaw rate:	6.778	Roll:	0.243	Pitch:	0.051	Yaw:	6.371	Thrust:	39.418
Time:	0.321	Roll Set Point:	-0.094	Pitch Set Point:	-0.016	Yaw Set Point:	-0.086	X_WP:	0.000	Y_WP:	0.000	Z_WP:	0.500	X:	0.047	Y:	0.010	Z:	0.049	yaw:	4.913	yaw rate:	-11.179	Roll:	0.382	Pitch:	-0.185	Yaw:	8.889	Thrust:	39.705
Time:	0.341	Roll Set Point:	-0.094	Pitch Set Point:	-0.016	Yaw Set Point:	-0.082	X_WP:	0.000	Y_WP:	0.000	Z_WP:	0.500	X:	0.047	Y:	0.010	Z:	0.049	yaw:	4.715	yaw rate:	19.770	Roll:	0.204	Pitch:	0.143	Yaw:	4.526	Thrust:	40.886
Time:	0.360	Roll Set Point:	-0.094	Pitch Set Point:	-0.017	Yaw Set Point:	-0.088	X_WP:	0.000	Y_WP:	0.000	Z_WP:	0.500	X:	0.046	Y:	0.010	Z:	0.049	yaw:	5.027	yaw rate:	-31.184	Roll:	0.050	Pitch:	0.103	Yaw:	11.805	Thrust:	42.220
Time:	0.383	Roll Set Point:	-0.095	Pitch Set Point:	-0.016	Yaw Set Point:	-0.090	X_WP:	0.000	Y_WP:	0.000	Z_WP:	0.500	X:	0.047	Y:	0.010	Z:	0.049	yaw:	5.170	yaw rate:	-14.308	Roll:	0.731	Pitch:	-0.366	Yaw:	9.551	Thrust:	44.571
Time:	0.402	Roll Set Point:	-0.094	Pitch Set Point:	-0.016	Yaw Set Point:	-0.089	X_WP:	0.000	Y_WP:	0.000	Z_WP:	0.500	X:	0.047	Y:	0.010	Z:	0.049	yaw:	5.121	yaw rate:	4.862	Roll:	0.055	Pitch:	0.299	Yaw:	7.064	Thrust:	42.188
Time:	0.421	Roll Set Point:	-0.095	Pitch Set Point:	-0.016	Yaw Set Point:	-0.089	X_WP:	0.000	Y_WP:	0.000	Z_WP:	0.500	X:	0.047	Y:	0.010	Z:	0.049	yaw:	5.094	yaw rate:	2.743	Roll:	0.433	Pitch:	-0.162	Yaw:	7.381	Thrust:	45.594
Time:	0.442	Roll Set Point:	-0.095	Pitch Set Point:	-0.016	Yaw Set Point:	-0.087	X_WP:	0.000	Y_WP:	0.000	Z_WP:	0.500	X:	0.047	Y:	0.010	Z:	0.049	yaw:	4.998	yaw rate:	9.626	Roll:	0.322	Pitch:	0.133	Yaw:	6.466	Thrust:	46.734
Time:	0.462	Roll Set Point:	-0.094	Pitch Set Point:	-0.016	Yaw Set Point:	-0.092	X_WP:	0.000	Y_WP:	0.000	Z_WP:	0.500	X:	0.047	Y:	0.010	Z:	0.049	yaw:	5.249	yaw rate:	-25.080	Roll:	0.205	Pitch:	-0.059	Yaw:	11.487	Thrust:	46.723
Time:	0.481	Roll Set Point:	-0.093	Pitch Set Point:	-0.016	Yaw Set Point:	-0.102	X_WP:	0.000	Y_WP:	0.000	Z_WP:	0.500	X:	0.046	Y:	0.010	Z:	0.049	yaw:	5.856	yaw rate:	-60.750	Roll:	-0.296	Pitch:	-0.116	Yaw:	16.590	Thrust:	50.496
Time:	0.503	Roll Set Point:	-0.094	Pitch Set Point:	-0.016	Yaw Set Point:	-0.089	X_WP:	0.000	Y_WP:	0.000	Z_WP:	0.500	X:	0.047	Y:	0.010	Z:	0.049	yaw:	5.116	yaw rate:	74.000	Roll:	0.622	Pitch:	0.337	Yaw:	-1.119	Thrust:	51.208
Time:	0.521	Roll Set Point:	-0.094	Pitch Set Point:	-0.016	Yaw Set Point:	-0.092	X_WP:	0.000	Y_WP:	0.000	Z_WP:	0.500	X:	0.047	Y:	0.010	Z:	0.049	yaw:	5.267	yaw rate:	-15.053	Roll:	0.498	Pitch:	-0.133	Yaw:	10.266	Thrust:	47.287
Time:	0.543	Roll Set Point:	-0.094	Pitch Set Point:	-0.016	Yaw Set Point:	-0.093	X_WP:	0.000	Y_WP:	0.000	Z_WP:	0.500	X:	0.047	Y:	0.010	Z:	0.049	yaw:	5.324	yaw rate:	-5.745	Roll:	0.178	Pitch:	0.094	Yaw:	9.072	Thrust:	53.613
Time:	0.562	Roll Set Point:	-0.095	Pitch Set Point:	-0.016	Yaw Set Point:	-0.090	X_WP:	0.000	Y_WP:	0.000	Z_WP:	0.500	X:	0.047	Y:	0.010	Z:	0.049	yaw:	5.168	yaw rate:	15.564	Roll:	0.724	Pitch:	-0.167	Yaw:	5.961	Thrust:	51.372
Time:	0.583	Roll Set Point:	-0.095	Pitch Set Point:	-0.016	Yaw Set Point:	-0.084	X_WP:	0.000	Y_WP:	0.000	Z_WP:	0.500	X:	0.047	Y:	0.010	Z:	0.049	yaw:	4.823	yaw rate:	34.577	Roll:	0.253	Pitch:	0.237	Yaw:	3.686	Thrust:	56.995
Time:	0.601	Roll Set Point:	-0.095	Pitch Set Point:	-0.016	Yaw Set Point:	-0.084	X_WP:	0.000	Y_WP:	0.000	Z_WP:	0.500	X:	0.047	Y:	0.010	Z:	0.049	yaw:	4.805	yaw rate:	1.769	Roll:	0.268	Pitch:	0.102	Yaw:	7.296	Thrust:	51.287
Time:	0.621	Roll Set Point:	-0.095	Pitch Set Point:	-0.016	Yaw Set Point:	-0.082	X_WP:	0.000	Y_WP:	0.000	Z_WP:	0.500	X:	0.047	Y:	0.010	Z:	0.050	yaw:	4.679	yaw rate:	12.589	Roll:	0.469	Pitch:	0.074	Yaw:	5.951	Thrust:	56.324
Time:	0.641	Roll Set Point:	-0.095	Pitch Set Point:	-0.016	Yaw Set Point:	-0.082	X_WP:	0.000	Y_WP:	0.000	Z_WP:	0.500	X:	0.047	Y:	0.010	Z:	0.049	yaw:	4.677	yaw rate:	0.185	Roll:	0.389	Pitch:	-0.167	Yaw:	7.564	Thrust:	58.023
Time:	0.660	Roll Set Point:	-0.096	Pitch Set Point:	-0.015	Yaw Set Point:	-0.072	X_WP:	0.000	Y_WP:	0.000	Z_WP:	0.500	X:	0.048	Y:	0.009	Z:	0.049	yaw:	4.116	yaw rate:	56.122	Roll:	0.587	Pitch:	0.127	Yaw:	-0.961	Thrust:	56.602
Time:	0.681	Roll Set Point:	-0.096	Pitch Set Point:	-0.015	Yaw Set Point:	-0.073	X_WP:	0.000	Y_WP:	0.000	Z_WP:	0.500	X:	0.048	Y:	0.009	Z:	0.049	yaw:	4.161	yaw rate:	-4.521	Roll:	0.328	Pitch:	-0.042	Yaw:	7.538	Thrust:	61.420
Time:	0.703	Roll Set Point:	-0.097	Pitch Set Point:	-0.015	Yaw Set Point:	-0.067	X_WP:	0.000	Y_WP:	0.000	Z_WP:	0.500	X:	0.048	Y:	0.009	Z:	0.049	yaw:	3.833	yaw rate:	32.795	Roll:	0.494	Pitch:	0.227	Yaw:	2.609	Thrust:	61.418
Time:	0.722	Roll Set Point:	-0.098	Pitch Set Point:	-0.014	Yaw Set Point:	-0.069	X_WP:	0.000	Y_WP:	0.000	Z_WP:	0.500	X:	0.049	Y:	0.009	Z:	0.050	yaw:	3.941	yaw rate:	-10.740	Roll:	0.708	Pitch:	-0.414	Yaw:	8.094	Thrust:	59.875
Time:	0.741	Roll Set Point:	-0.099	Pitch Set Point:	-0.014	Yaw Set Point:	-0.061	X_WP:	0.000	Y_WP:	0.000	Z_WP:	0.500	X:	0.049	Y:	0.008	Z:	0.051	yaw:	3.505	yaw rate:	43.540	Roll:	0.880	Pitch:	-0.184	Yaw:	0.253	Thrust:	58.709
Time:	0.760	Roll Set Point:	-0.100	Pitch Set Point:	-0.014	Yaw Set Point:	-0.058	X_WP:	0.000	Y_WP:	0.000	Z_WP:	0.500	X:	0.050	Y:	0.008	Z:	0.052	yaw:	3.295	yaw rate:	21.019	Roll:	0.758	Pitch:	0.075	Yaw:	2.826	Thrust:	58.687
Time:	0.784	Roll Set Point:	-0.102	Pitch Set Point:	-0.011	Yaw Set Point:	-0.074	X_WP:	0.000	Y_WP:	0.000	Z_WP:	0.500	X:	0.051	Y:	0.007	Z:	0.054	yaw:	4.245	yaw rate:	-95.015	Roll:	1.198	Pitch:	-1.364	Yaw:	17.882	Thrust:	69.362
Time:	0.801	Roll Set Point:	-0.102	Pitch Set Point:	-0.011	Yaw Set Point:	-0.062	X_WP:	0.000	Y_WP:	0.000	Z_WP:	0.500	X:	0.051	Y:	0.007	Z:	0.056	yaw:	3.532	yaw rate:	71.359	Roll:	0.340	Pitch:	0.563	Yaw:	-5.103	Thrust:	51.647
Time:	0.821	Roll Set Point:	-0.104	Pitch Set Point:	-0.010	Yaw Set Point:	-0.060	X_WP:	0.000	Y_WP:	0.000	Z_WP:	0.500	X:	0.052	Y:	0.007	Z:	0.059	yaw:	3.453	yaw rate:	7.813	Roll:	0.943	Pitch:	-0.347	Yaw:	5.125	Thrust:	60.281
Time:	0.842	Roll Set Point:	-0.105	Pitch Set Point:	-0.009	Yaw Set Point:	-0.056	X_WP:	0.000	Y_WP:	0.000	Z_WP:	0.500	X:	0.052	Y:	0.006	Z:	0.063	yaw:	3.220	yaw rate:	23.383	Roll:	0.991	Pitch:	-0.464	Yaw:	2.934	Thrust:	59.934
Time:	0.861	Roll Set Point:	-0.107	Pitch Set Point:	-0.008	Yaw Set Point:	-0.056	X_WP:	0.000	Y_WP:	0.000	Z_WP:	0.500	X:	0.053	Y:	0.006	Z:	0.067	yaw:	3.230	yaw rate:	-1.027	Roll:	0.994	Pitch:	-0.310	Yaw:	5.898	Thrust:	56.920
Time:	0.881	Roll Set Point:	-0.108	Pitch Set Point:	-0.007	Yaw Set Point:	-0.052	X_WP:	0.000	Y_WP:	0.000	Z_WP:	0.500	X:	0.054	Y:	0.005	Z:	0.071	yaw:	2.995	yaw rate:	23.530	Roll:	0.908	Pitch:	-0.325	Yaw:	2.735	Thrust:	62.813
Time:	0.903	Roll Set Point:	-0.109	Pitch Set Point:	-0.006	Yaw Set Point:	-0.059	X_WP:	0.000	Y_WP:	0.000	Z_WP:	0.500	X:	0.054	Y:	0.004	Z:	0.076	yaw:	3.399	yaw rate:	-40.466	Roll:	0.831	Pitch:	-0.703	Yaw:	11.311	Thrust:	60.562
Time:	0.921	Roll Set Point:	-0.110	Pitch Set Point:	-0.004	Yaw Set Point:	-0.063	X_WP:	0.000	Y_WP:	0.000	Z_WP:	0.500	X:	0.055	Y:	0.004	Z:	0.080	yaw:	3.628	yaw rate:	-22.908	Roll:	0.663	Pitch:	-0.706	Yaw:	9.560	Thrust:	57.289
Time:	0.941	Roll Set Point:	-0.114	Pitch Set Point:	-0.001	Yaw Set Point:	-0.062	X_WP:	0.000	Y_WP:	0.000	Z_WP:	0.500	X:	0.057	Y:	0.002	Z:	0.086	yaw:	3.541	yaw rate:	8.743	Roll:	2.103	Pitch:	-1.565	Yaw:	5.212	Thrust:	57.194
Time:	0.961	Roll Set Point:	-0.114	Pitch Set Point:	-0.001	Yaw Set Point:	-0.055	X_WP:	0.000	Y_WP:	0.000	Z_WP:	0.500	X:	0.057	Y:	0.002	Z:	0.092	yaw:	3.153	yaw rate:	38.775	Roll:	0.314	Pitch:	0.368	Yaw:	0.837	Thrust:	59.904
Time:	0.983	Roll Set Point:	-0.115	Pitch Set Point:	0.001	Yaw Set Point:	-0.057	X_WP:	0.000	Y_WP:	0.000	Z_WP:	0.500	X:	0.058	Y:	0.001	Z:	0.098	yaw:	3.252	yaw rate:	-9.925	Roll:	0.991	Pitch:	-0.831	Yaw:	7.359	Thrust:	66.441
Time:	1.000	Roll Set Point:	-0.117	Pitch Set Point:	0.002	Yaw Set Point:	-0.049	X_WP:	0.000	Y_WP:	0.000	Z_WP:	0.500	X:	0.059	Y:	0.000	Z:	0.104	yaw:	2.804	yaw rate:	44.819	Roll:	1.263	Pitch:	-0.523	Yaw:	-1.650	Thrust:	50.073
Time:	1.021	Roll Set Point:	-0.118	Pitch Set Point:	0.005	Yaw Set Point:	-0.056	X_WP:	0.000	Y_WP:	0.000	Z_WP:	0.500	X:	0.059	Y:	-0.001	Z:	0.110	yaw:	3.182	yaw rate:	-37.798	Roll:	0.942	Pitch:	-1.341	Yaw:	10.868	Thrust:	60.867
Time:	1.041	Roll Set Point:	-0.120	Pitch Set Point:	0.007	Yaw Set Point:	-0.052	X_WP:	0.000	Y_WP:	0.000	Z_WP:	0.500	X:	0.060	Y:	-0.002	Z:	0.116	yaw:	2.969	yaw rate:	21.330	Roll:	1.060	Pitch:	-0.721	Yaw:	2.927	Thrust:	60.190
Time:	1.061	Roll Set Point:	-0.121	Pitch Set Point:	0.009	Yaw Set Point:	-0.053	X_WP:	0.000	Y_WP:	0.000	Z_WP:	0.500	X:	0.061	Y:	-0.003	Z:	0.122	yaw:	3.024	yaw rate:	-5.534	Roll:	1.006	Pitch:	-1.009	Yaw:	6.523	Thrust:	61.488
Time:	1.081	Roll Set Point:	-0.123	Pitch Set Point:	0.012	Yaw Set Point:	-0.052	X_WP:	0.000	Y_WP:	0.000	Z_WP:	0.500	X:	0.062	Y:	-0.004	Z:	0.129	yaw:	3.005	yaw rate:	1.893	Roll:	1.078	Pitch:	-1.089	Yaw:	5.539	Thrust:	60.966
Time:	1.103	Roll Set Point:	-0.125	Pitch Set Point:	0.013	Yaw Set Point:	-0.048	X_WP:	0.000	Y_WP:	0.000	Z_WP:	0.500	X:	0.062	Y:	-0.005	Z:	0.135	yaw:	2.776	yaw rate:	22.885	Roll:	1.098	Pitch:	-0.631	Yaw:	2.886	Thrust:	67.434
Time:	1.121	Roll Set Point:	-0.127	Pitch Set Point:	0.017	Yaw Set Point:	-0.057	X_WP:	0.000	Y_WP:	0.000	Z_WP:	0.500	X:	0.064	Y:	-0.007	Z:	0.142	yaw:	3.258	yaw rate:	-48.195	Roll:	1.395	Pitch:	-2.032	Yaw:	12.935	Thrust:	55.988
Time:	1.141	Roll Set Point:	-0.127	Pitch Set Point:	0.019	Yaw Set Point:	-0.055	X_WP:	0.000	Y_WP:	0.000	Z_WP:	0.500	X:	0.064	Y:	-0.008	Z:	0.149	yaw:	3.172	yaw rate:	8.690	Roll:	0.596	Pitch:	-0.626	Yaw:	4.921	Thrust:	60.429
Time:	1.160	Roll Set Point:	-0.129	Pitch Set Point:	0.021	Yaw Set Point:	-0.048	X_WP:	0.000	Y_WP:	0.000	Z_WP:	0.500	X:	0.065	Y:	-0.009	Z:	0.156	yaw:	2.756	yaw rate:	41.521	Roll:	1.374	Pitch:	-0.828	Yaw:	-0.213	Thrust:	58.723
Time:	1.184	Roll Set Point:	-0.129	Pitch Set Point:	0.023	Yaw Set Point:	-0.056	X_WP:	0.000	Y_WP:	0.000	Z_WP:	0.500	X:	0.065	Y:	-0.010	Z:	0.162	yaw:	3.204	yaw rate:	-44.752	Roll:	0.521	Pitch:	-0.963	Yaw:	11.496	Thrust:	74.165
Time:	1.201	Roll Set Point:	-0.133	Pitch Set Point:	0.026	Yaw Set Point:	-0.052	X_WP:	0.000	Y_WP:	0.000	Z_WP:	0.500	X:	0.067	Y:	-0.011	Z:	0.170	yaw:	2.966	yaw rate:	23.751	Roll:	2.414	Pitch:	-1.719	Yaw:	2.027	Thrust:	50.539
Time:	1.221	Roll Set Point:	-0.134	Pitch Set Point:	0.028	Yaw Set Point:	-0.053	X_WP:	0.000	Y_WP:	0.000	Z_WP:	0.500	X:	0.067	Y:	-0.012	Z:	0.178	yaw:	3.064	yaw rate:	-9.771	Roll:	0.641	Pitch:	-0.824	Yaw:	7.299	Thrust:	62.089
Time:	1.241	Roll Set Point:	-0.136	Pitch Set Point:	0.030	Yaw Set Point:	-0.045	X_WP:	0.000	Y_WP:	0.000	Z_WP:	0.500	X:	0.068	Y:	-0.013	Z:	0.185	yaw:	2.591	yaw rate:	47.280	Roll:	1.374	Pitch:	-0.603	Yaw:	-0.739	Thrust:	62.592
Time:	1.260	Roll Set Point:	-0.138	Pitch Set Point:	0.032	Yaw Set Point:	-0.040	X_WP:	0.000	Y_WP:	0.000	Z_WP:	0.500	X:	0.069	Y:	-0.015	Z:	0.193	yaw:	2.299	yaw rate:	29.231	Roll:	1.345	Pitch:	-0.890	Yaw:	0.928	Thrust:	59.051
Time:	1.282	Roll Set Point:	-0.140	Pitch Set Point:	0.036	Yaw Set Point:	-0.048	X_WP:	0.000	Y_WP:	0.000	Z_WP:	0.500	X:	0.071	Y:	-0.016	Z:	0.201	yaw:	2.757	yaw rate:	-45.775	Roll:	1.428	Pitch:	-1.866	Yaw:	11.390	Thrust:	67.535
Time:	1.303	Roll Set Point:	-0.141	Pitch Set Point:	0.036	Yaw Set Point:	-0.038	X_WP:	0.000	Y_WP:	0.000	Z_WP:	0.500	X:	0.071	Y:	-0.017	Z:	0.208	yaw:	2.183	yaw rate:	57.369	Roll:	1.080	Pitch:	-0.030	Yaw:	-2.018	Thrust:	67.825
Time:	1.321	Roll Set Point:	-0.143	Pitch Set Point:	0.038	Yaw Set Point:	-0.035	X_WP:	0.000	Y_WP:	0.000	Z_WP:	0.500	X:	0.072	Y:	-0.018	Z:	0.216	yaw:	1.997	yaw rate:	18.610	Roll:	1.373	Pitch:	-1.025	Yaw:	1.789	Thrust:	55.386
Time:	1.341	Roll Set Point:	-0.145	Pitch Set Point:	0.040	Yaw Set Point:	-0.030	X_WP:	0.000	Y_WP:	0.000	Z_WP:	0.500	X:	0.073	Y:	-0.019	Z:	0.224	yaw:	1.701	yaw rate:	29.612	Roll:	1.336	Pitch:	-0.816	Yaw:	0.244	Thrust:	61.038
Time:	1.361	Roll Set Point:	-0.147	Pitch Set Point:	0.043	Yaw Set Point:	-0.032	X_WP:	0.000	Y_WP:	0.000	Z_WP:	0.500	X:	0.074	Y:	-0.020	Z:	0.232	yaw:	1.817	yaw rate:	-11.583	Roll:	1.191	Pitch:	-1.166	Yaw:	5.910	Thrust:	63.352
Time:	1.384	Roll Set Point:	-0.148	Pitch Set Point:	0.044	Yaw Set Point:	-0.034	X_WP:	0.000	Y_WP:	0.000	Z_WP:	0.500	X:	0.074	Y:	-0.021	Z:	0.241	yaw:	1.922	yaw rate:	-10.572	Roll:	0.856	Pitch:	-0.780	Yaw:	6.038	Thrust:	73.109
Time:	1.401	Roll Set Point:	-0.151	Pitch Set Point:	0.047	Yaw Set Point:	-0.023	X_WP:	0.000	Y_WP:	0.000	Z_WP:	0.500	X:	0.076	Y:	-0.022	Z:	0.250	yaw:	1.305	yaw rate:	61.761	Roll:	2.208	Pitch:	-0.910	Yaw:	-6.317	Thrust:	47.302
Time:	1.421	Roll Set Point:	-0.152	Pitch Set Point:	0.049	Yaw Set Point:	-0.032	X_WP:	0.000	Y_WP:	0.000	Z_WP:	0.500	X:	0.076	Y:	-0.023	Z:	0.259	yaw:	1.846	yaw rate:	-54.138	Roll:	0.807	Pitch:	-1.429	Yaw:	11.523	Thrust:	62.122
Time:	1.441	Roll Set Point:	-0.154	Pitch Set Point:	0.051	Yaw Set Point:	-0.028	X_WP:	0.000	Y_WP:	0.000	Z_WP:	0.500	X:	0.077	Y:	-0.024	Z:	0.268	yaw:	1.626	yaw rate:	21.961	Roll:	1.482	Pitch:	-0.878	Yaw:	1.241	Thrust:	57.039
Time:	1.460	Roll Set Point:	-0.155	Pitch Set Point:	0.054	Yaw Set Point:	-0.035	X_WP:	0.000	Y_WP:	0.000	Z_WP:	0.500	X:	0.078	Y:	-0.026	Z:	0.277	yaw:	2.034	yaw rate:	-40.723	Roll:	1.292	Pitch:	-1.700	Yaw:	10.156	Thrust:	60.965
Time:	1.481	Roll Set Point:	-0.157	Pitch Set Point:	0.056	Yaw Set Point:	-0.032	X_WP:	0.000	Y_WP:	0.000	Z_WP:	0.500	X:	0.079	Y:	-0.027	Z:	0.286	yaw:	1.828	yaw rate:	20.548	Roll:	1.075	Pitch:	-0.728	Yaw:	1.878	Thrust:	62.037
Time:	1.503	Roll Set Point:	-0.159	Pitch Set Point:	0.058	Yaw Set Point:	-0.025	X_WP:	0.000	Y_WP:	0.000	Z_WP:	0.500	X:	0.080	Y:	-0.028	Z:	0.296	yaw:	1.450	yaw rate:	37.816	Roll:	1.664	Pitch:	-0.787	Yaw:	-0.419	Thrust:	67.902
Time:	1.521	Roll Set Point:	-0.161	Pitch Set Point:	0.060	Yaw Set Point:	-0.023	X_WP:	0.000	Y_WP:	0.000	Z_WP:	0.500	X:	0.081	Y:	-0.029	Z:	0.305	yaw:	1.344	yaw rate:	10.557	Roll:	1.374	Pitch:	-1.004	Yaw:	2.125	Thrust:	51.571
Time:	1.541	Roll Set Point:	-0.162	Pitch Set Point:	0.062	Yaw Set Point:	-0.025	X_WP:	0.000	Y_WP:	0.000	Z_WP:	0.500	X:	0.082	Y:	-0.030	Z:	0.314	yaw:	1.438	yaw rate:	-9.384	Roll:	1.326	Pitch:	-1.400	Yaw:	5.183	Thrust:	58.972
Time:	1.560	Roll Set Point:	-0.163	Pitch Set Point:	0.066	Yaw Set Point:	-0.036	X_WP:	0.000	Y_WP:	0.000	Z_WP:	0.500	X:	0.082	Y:	-0.031	Z:	0.323	yaw:	2.091	yaw rate:	-65.223	Roll:	0.775	Pitch:	-1.933	Yaw:	13.421	Thrust:	60.667
Time:	1.584	Roll Set Point:	-0.166	Pitch Set Point:	0.067	Yaw Set Point:	-0.024	X_WP:	0.000	Y_WP:	0.000	Z_WP:	0.500	X:	0.083	Y:	-0.032	Z:	0.333	yaw:	1.389	yaw rate:	70.188	Roll:	1.805	Pitch:	-0.302	Yaw:	-3.541	Thrust:	75.164
Time:	1.600	Roll Set Point:	-0.168	Pitch Set Point:	0.069	Yaw Set Point:	-0.019	X_WP:	0.000	Y_WP:	0.000	Z_WP:	0.500	X:	0.084	Y:	-0.034	Z:	0.342	yaw:	1.101	yaw rate:	28.773	Roll:	1.650	Pitch:	-1.208	Yaw:	-1.345	Thrust:	43.116
Time:	1.621	Roll Set Point:	-0.170	Pitch Set Point:	0.072	Yaw Set Point:	-0.030	X_WP:	0.000	Y_WP:	0.000	Z_WP:	0.500	X:	0.085	Y:	-0.035	Z:	0.352	yaw:	1.694	yaw rate:	-59.327	Roll:	1.276	Pitch:	-1.900	Yaw:	11.904	Thrust:	63.946
Time:	1.641	Roll Set Point:	-0.170	Pitch Set Point:	0.075	Yaw Set Point:	-0.032	X_WP:	0.000	Y_WP:	0.000	Z_WP:	0.500	X:	0.086	Y:	-0.036	Z:	0.361	yaw:	1.846	yaw rate:	-15.166	Roll:	0.626	Pitch:	-1.334	Yaw:	6.563	Thrust:	57.972
Time:	1.662	Roll Set Point:	-0.173	Pitch Set Point:	0.077	Yaw Set Point:	-0.024	X_WP:	0.000	Y_WP:	0.000	Z_WP:	0.500	X:	0.087	Y:	-0.037	Z:	0.371	yaw:	1.383	yaw rate:	46.300	Roll:	2.021	Pitch:	-0.790	Yaw:	-1.815	Thrust:	55.566
Time:	1.682	Roll Set Point:	-0.174	Pitch Set Point:	0.079	Yaw Set Point:	-0.023	X_WP:	0.000	Y_WP:	0.000	Z_WP:	0.500	X:	0.087	Y:	-0.039	Z:	0.380	yaw:	1.304	yaw rate:	7.840	Roll:	1.169	Pitch:	-1.072	Yaw:	2.797	Thrust:	65.153
Time:	1.706	Roll Set Point:	-0.176	Pitch Set Point:	0.081	Yaw Set Point:	-0.018	X_WP:	0.000	Y_WP:	0.000	Z_WP:	0.500	X:	0.088	Y:	-0.040	Z:	0.390	yaw:	1.017	yaw rate:	28.779	Roll:	1.455	Pitch:	-0.837	Yaw:	0.700	Thrust:	77.132
Time:	1.721	Roll Set Point:	-0.177	Pitch Set Point:	0.085	Yaw Set Point:	-0.028	X_WP:	0.000	Y_WP:	0.000	Z_WP:	0.500	X:	0.089	Y:	-0.041	Z:	0.400	yaw:	1.593	yaw rate:	-57.612	Roll:	1.156	Pitch:	-2.771	Yaw:	13.730	Thrust:	31.659
Time:	1.741	Roll Set Point:	-0.179	Pitch Set Point:	0.087	Yaw Set Point:	-0.028	X_WP:	0.000	Y_WP:	0.000	Z_WP:	0.500	X:	0.090	Y:	-0.042	Z:	0.410	yaw:	1.591	yaw rate:	0.212	Roll:	1.493	Pitch:	-1.270	Yaw:	4.197	Thrust:	57.624
Time:	1.762	Roll Set Point:	-0.181	Pitch Set Point:	0.089	Yaw Set Point:	-0.025	X_WP:	0.000	Y_WP:	0.000	Z_WP:	0.500	X:	0.091	Y:	-0.044	Z:	0.420	yaw:	1.442	yaw rate:	14.837	Roll:	1.405	Pitch:	-1.169	Yaw:	2.185	Thrust:	58.855
Time:	1.783	Roll Set Point:	-0.182	Pitch Set Point:	0.091	Yaw Set Point:	-0.011	X_WP:	0.000	Y_WP:	0.000	Z_WP:	0.500	X:	0.091	Y:	-0.045	Z:	0.430	yaw:	0.607	yaw rate:	83.523	Roll:	1.667	Pitch:	-0.281	Yaw:	-6.998	Thrust:	63.543
Time:	1.801	Roll Set Point:	-0.183	Pitch Set Point:	0.093	Yaw Set Point:	-0.012	X_WP:	0.000	Y_WP:	0.000	Z_WP:	0.500	X:	0.092	Y:	-0.046	Z:	0.440	yaw:	0.672	yaw rate:	-6.505	Roll:	1.203	Pitch:	-1.510	Yaw:	3.657	Thrust:	42.752
Time:	1.821	Roll Set Point:	-0.186	Pitch Set Point:	0.095	Yaw Set Point:	-0.006	X_WP:	0.000	Y_WP:	0.000	Z_WP:	0.500	X:	0.093	Y:	-0.047	Z:	0.450	yaw:	0.358	yaw rate:	31.407	Roll:	1.724	Pitch:	-1.003	Yaw:	-1.559	Thrust:	56.233
Time:	1.841	Roll Set Point:	-0.187	Pitch Set Point:	0.098	Yaw Set Point:	-0.008	X_WP:	0.000	Y_WP:	0.000	Z_WP:	0.500	X:	0.093	Y:	-0.049	Z:	0.460	yaw:	0.441	yaw rate:	-8.248	Roll:	1.158	Pitch:	-1.340	Yaw:	3.708	Thrust:	57.698
Time:	1.861	Roll Set Point:	-0.189	Pitch Set Point:	0.100	Yaw Set Point:	-0.005	X_WP:	0.000	Y_WP:	0.000	Z_WP:	0.500	X:	0.094	Y:	-0.050	Z:	0.468	yaw:	0.277	yaw rate:	16.310	Roll:	1.698	Pitch:	-1.288	Yaw:	0.274	Thrust:	57.881
Time:	1.882	Roll Set Point:	-0.190	Pitch Set Point:	0.104	Yaw Set Point:	-0.015	X_WP:	0.000	Y_WP:	0.000	Z_WP:	0.500	X:	0.095	Y:	-0.051	Z:	0.477	yaw:	0.857	yaw rate:	-58.002	Roll:	1.119	Pitch:	-2.169	Yaw:	10.772	Thrust:	58.160
Time:	1.902	Roll Set Point:	-0.191	Pitch Set Point:	0.105	Yaw Set Point:	-0.002	X_WP:	0.000	Y_WP:	0.000	Z_WP:	0.500	X:	0.096	Y:	-0.052	Z:	0.485	yaw:	0.089	yaw rate:	76.885	Roll:	1.619	Pitch:	-0.104	Yaw:	-7.703	Thrust:	58.337
Time:	1.921	Roll Set Point:	-0.191	Pitch Set Point:	0.108	Yaw Set Point:	-0.009	X_WP:	0.000	Y_WP:	0.000	Z_WP:	0.500	X:	0.096	Y:	-0.053	Z:	0.493	yaw:	0.501	yaw rate:	-41.213	Roll:	0.595	Pitch:	-1.844	Yaw:	8.196	Thrust:	56.739
Time:	1.941	Roll Set Point:	-0.194	Pitch Set Point:	0.110	Yaw Set Point:	-0.006	X_WP:	0.000	Y_WP:	0.000	Z_WP:	0.500	X:	0.097	Y:	-0.055	Z:	0.500	yaw:	0.317	yaw rate:	18.380	Roll:	1.770	Pitch:	-1.288	Yaw:	-0.090	Thrust:	56.348
Time:	1.961	Roll Set Point:	-0.195	Pitch Set Point:	0.112	Yaw Set Point:	0.006	X_WP:	0.000	Y_WP:	0.000	Z_WP:	0.500	X:	0.097	Y:	-0.056	Z:	0.507	yaw:	-0.322	yaw rate:	63.898	Roll:	1.775	Pitch:	-0.648	Yaw:	-6.491	Thrust:	61.715
Time:	1.984	Roll Set Point:	-0.197	Pitch Set Point:	0.114	Yaw Set Point:	0.014	X_WP:	0.000	Y_WP:	0.000	Z_WP:	0.500	X:	0.098	Y:	-0.058	Z:	0.514	yaw:	-0.780	yaw rate:	45.767	Roll:	1.654	Pitch:	-0.851	Yaw:	-4.160	Thrust:	70.956
Time:	2.000	Roll Set Point:	-0.197	Pitch Set Point:	0.116	Yaw Set Point:	0.012	X_WP:	0.000	Y_WP:	0.000	Z_WP:	0.500	X:	0.098	Y:	-0.059	Z:	0.521	yaw:	-0.682	yaw rate:	-9.792	Roll:	0.927	Pitch:	-1.445	Yaw:	2.246	Thrust:	43.010
Time:	2.021	Roll Set Point:	-0.198	Pitch Set Point:	0.118	Yaw Set Point:	0.016	X_WP:	0.000	Y_WP:	0.000	Z_WP:	0.500	X:	0.099	Y:	-0.060	Z:	0.528	yaw:	-0.893	yaw rate:	21.119	Roll:	1.344	Pitch:	-0.952	Yaw:	-1.822	Thrust:	62.515
Time:	2.041	Roll Set Point:	-0.200	Pitch Set Point:	0.121	Yaw Set Point:	0.014	X_WP:	0.000	Y_WP:	0.000	Z_WP:	0.500	X:	0.099	Y:	-0.061	Z:	0.533	yaw:	-0.815	yaw rate:	-7.766	Roll:	1.424	Pitch:	-1.895	Yaw:	1.854	Thrust:	59.884
Time:	2.060	Roll Set Point:	-0.201	Pitch Set Point:	0.123	Yaw Set Point:	0.019	X_WP:	0.000	Y_WP:	0.000	Z_WP:	0.500	X:	0.100	Y:	-0.063	Z:	0.540	yaw:	-1.081	yaw rate:	26.537	Roll:	1.480	Pitch:	-1.015	Yaw:	-3.240	Thrust:	54.636
Time:	2.081	Roll Set Point:	-0.201	Pitch Set Point:	0.126	Yaw Set Point:	0.017	X_WP:	0.000	Y_WP:	0.000	Z_WP:	0.500	X:	0.100	Y:	-0.064	Z:	0.546	yaw:	-0.970	yaw rate:	-11.052	Roll:	0.970	Pitch:	-1.457	Yaw:	2.085	Thrust:	63.700
Time:	2.104	Roll Set Point:	-0.203	Pitch Set Point:	0.129	Yaw Set Point:	0.016	X_WP:	0.000	Y_WP:	0.000	Z_WP:	0.500	X:	0.101	Y:	-0.065	Z:	0.551	yaw:	-0.945	yaw rate:	-2.480	Roll:	1.344	Pitch:	-1.668	Yaw:	1.232	Thrust:	68.938
Time:	2.121	Roll Set Point:	-0.203	Pitch Set Point:	0.130	Yaw Set Point:	0.023	X_WP:	0.000	Y_WP:	0.000	Z_WP:	0.500	X:	0.101	Y:	-0.066	Z:	0.557	yaw:	-1.289	yaw rate:	34.380	Roll:	1.358	Pitch:	-0.805	Yaw:	-5.680	Thrust:	47.009
Time:	2.141	Roll Set Point:	-0.205	Pitch Set Point:	0.134	Yaw Set Point:	0.023	X_WP:	0.000	Y_WP:	0.000	Z_WP:	0.500	X:	0.102	Y:	-0.068	Z:	0.563	yaw:	-1.301	yaw rate:	1.152	Roll:	1.513	Pitch:	-1.799	Yaw:	0.054	Thrust:	59.508
Time:	2.161	Roll Set Point:	-0.204	Pitch Set Point:	0.138	Yaw Set Point:	0.003	X_WP:	0.000	Y_WP:	0.000	Z_WP:	0.500	X:	0.102	Y:	-0.069	Z:	0.568	yaw:	-0.181	yaw rate:	-111.957	Roll:	0.073	Pitch:	-3.282	Yaw:	16.737	Thrust:	57.946
Time:	2.184	Roll Set Point:	-0.205	Pitch Set Point:	0.139	Yaw Set Point:	0.013	X_WP:	0.000	Y_WP:	0.000	Z_WP:	0.500	X:	0.102	Y:	-0.070	Z:	0.574	yaw:	-0.767	yaw rate:	58.597	Roll:	1.653	Pitch:	-0.444	Yaw:	-5.700	Thrust:	67.684
Time:	2.201	Roll Set Point:	-0.206	Pitch Set Point:	0.141	Yaw Set Point:	0.026	X_WP:	0.000	Y_WP:	0.000	Z_WP:	0.500	X:	0.102	Y:	-0.072	Z:	0.580	yaw:	-1.469	yaw rate:	70.191	Roll:	1.712	Pitch:	-0.547	Yaw:	-10.777	Thrust:	45.368
Time:	2.221	Roll Set Point:	-0.207	Pitch Set Point:	0.144	Yaw Set Point:	0.024	X_WP:	0.000	Y_WP:	0.000	Z_WP:	0.500	X:	0.103	Y:	-0.073	Z:	0.586	yaw:	-1.368	yaw rate:	-10.148	Roll:	1.289	Pitch:	-1.875	Yaw:	1.330	Thrust:	55.033
Time:	2.241	Roll Set Point:	-0.208	Pitch Set Point:	0.147	Yaw Set Point:	0.016	X_WP:	0.000	Y_WP:	0.000	Z_WP:	0.500	X:	0.103	Y:	-0.074	Z:	0.593	yaw:	-0.942	yaw rate:	-42.554	Roll:	0.854	Pitch:	-2.085	Yaw:	6.059	Thrust:	57.279
Time:	2.262	Roll Set Point:	-0.209	Pitch Set Point:	0.149	Yaw Set Point:	0.029	X_WP:	0.000	Y_WP:	0.000	Z_WP:	0.500	X:	0.103	Y:	-0.076	Z:	0.599	yaw:	-1.673	yaw rate:	73.089	Roll:	1.894	Pitch:	-0.598	Yaw:	-9.806	Thrust:	56.186
Time:	2.281	Roll Set Point:	-0.209	Pitch Set Point:	0.151	Yaw Set Point:	0.028	X_WP:	0.000	Y_WP:	0.000	Z_WP:	0.500	X:	0.104	Y:	-0.077	Z:	0.605	yaw:	-1.576	yaw rate:	-9.680	Roll:	1.004	Pitch:	-1.568	Yaw:	0.949	Thrust:	49.876
Time:	2.303	Roll Set Point:	-0.211	Pitch Set Point:	0.155	Yaw Set Point:	0.018	X_WP:	0.000	Y_WP:	0.000	Z_WP:	0.500	X:	0.105	Y:	-0.079	Z:	0.611	yaw:	-1.045	yaw rate:	-53.074	Roll:	1.187	Pitch:	-2.537	Yaw:	7.006	Thrust:	58.583
Time:	2.321	Roll Set Point:	-0.212	Pitch Set Point:	0.155	Yaw Set Point:	0.038	X_WP:	0.000	Y_WP:	0.000	Z_WP:	0.500	X:	0.104	Y:	-0.080	Z:	0.616	yaw:	-2.184	yaw rate:	113.911	Roll:	2.209	Pitch:	0.419	Yaw:	-17.703	Thrust:	51.801
Time:	2.341	Roll Set Point:	-0.222	Pitch Set Point:	0.149	Yaw Set Point:	0.116	X_WP:	0.000	Y_WP:	0.000	Z_WP:	0.500	X:	0.107	Y:	-0.081	Z:	0.620	yaw:	-6.640	yaw rate:	445.528	Roll:	7.566	Pitch:	6.052	Yaw:	-66.591	Thrust:	55.814
Time:	2.361	Roll Set Point:	-0.219	Pitch Set Point:	0.156	Yaw Set Point:	0.076	X_WP:	0.000	Y_WP:	0.000	Z_WP:	0.500	X:	0.106	Y:	-0.082	Z:	0.624	yaw:	-4.383	yaw rate:	-225.681	Roll:	-1.456	Pitch:	-5.425	Yaw:	25.021	Thrust:	55.865
Time:	2.384	Roll Set Point:	-0.219	Pitch Set Point:	0.159	Yaw Set Point:	0.074	X_WP:	0.000	Y_WP:	0.000	Z_WP:	0.500	X:	0.107	Y:	-0.083	Z:	0.629	yaw:	-4.264	yaw rate:	-11.905	Roll:	1.198	Pitch:	-1.578	Yaw:	-2.556	Thrust:	63.994
Time:	2.401	Roll Set Point:	-0.220	Pitch Set Point:	0.161	Yaw Set Point:	0.074	X_WP:	0.000	Y_WP:	0.000	Z_WP:	0.500	X:	0.107	Y:	-0.085	Z:	0.633	yaw:	-4.214	yaw rate:	-4.946	Roll:	1.240	Pitch:	-1.802	Yaw:	-3.636	Thrust:	44.157
Time:	2.421	Roll Set Point:	-0.221	Pitch Set Point:	0.164	Yaw Set Point:	0.073	X_WP:	0.000	Y_WP:	0.000	Z_WP:	0.500	X:	0.107	Y:	-0.086	Z:	0.637	yaw:	-4.203	yaw rate:	-1.142	Roll:	1.386	Pitch:	-1.677	Yaw:	-4.001	Thrust:	54.258
Time:	2.441	Roll Set Point:	-0.221	Pitch Set Point:	0.167	Yaw Set Point:	0.071	X_WP:	0.000	Y_WP:	0.000	Z_WP:	0.500	X:	0.107	Y:	-0.088	Z:	0.641	yaw:	-4.090	yaw rate:	-11.324	Roll:	1.030	Pitch:	-1.965	Yaw:	-2.534	Thrust:	55.802
Time:	2.462	Roll Set Point:	-0.223	Pitch Set Point:	0.169	Yaw Set Point:	0.085	X_WP:	0.000	Y_WP:	0.000	Z_WP:	0.500	X:	0.108	Y:	-0.089	Z:	0.644	yaw:	-4.847	yaw rate:	75.774	Roll:	2.367	Pitch:	-0.567	Yaw:	-14.589	Thrust:	58.740
Time:	2.481	Roll Set Point:	-0.225	Pitch Set Point:	0.170	Yaw Set Point:	0.092	X_WP:	0.000	Y_WP:	0.000	Z_WP:	0.500	X:	0.108	Y:	-0.090	Z:	0.647	yaw:	-5.297	yaw rate:	44.997	Roll:	2.070	Pitch:	-0.466	Yaw:	-11.828	Thrust:	55.054
Time:	2.503	Roll Set Point:	-0.223	Pitch Set Point:	0.174	Yaw Set Point:	0.073	X_WP:	0.000	Y_WP:	0.000	Z_WP:	0.500	X:	0.108	Y:	-0.091	Z:	0.649	yaw:	-4.166	yaw rate:	-113.167	Roll:	-0.139	Pitch:	-3.304	Yaw:	9.584	Thrust:	62.461
Time:	2.521	Roll Set Point:	-0.225	Pitch Set Point:	0.175	Yaw Set Point:	0.083	X_WP:	0.000	Y_WP:	0.000	Z_WP:	0.500	X:	0.109	Y:	-0.092	Z:	0.652	yaw:	-4.766	yaw rate:	59.996	Roll:	2.326	Pitch:	-0.250	Yaw:	-13.913	Thrust:	49.011
Time:	2.541	Roll Set Point:	-0.225	Pitch Set Point:	0.178	Yaw Set Point:	0.078	X_WP:	0.000	Y_WP:	0.000	Z_WP:	0.500	X:	0.109	Y:	-0.093	Z:	0.653	yaw:	-4.459	yaw rate:	-30.625	Roll:	0.732	Pitch:	-2.237	Yaw:	-0.662	Thrust:	56.106
Time:	2.560	Roll Set Point:	-0.227	Pitch Set Point:	0.181	Yaw Set Point:	0.076	X_WP:	0.000	Y_WP:	0.000	Z_WP:	0.500	X:	0.110	Y:	-0.095	Z:	0.655	yaw:	-4.366	yaw rate:	-9.342	Roll:	1.880	Pitch:	-1.968	Yaw:	-3.378	Thrust:	56.088
Time:	2.584	Roll Set Point:	-0.226	Pitch Set Point:	0.184	Yaw Set Point:	0.063	X_WP:	0.000	Y_WP:	0.000	Z_WP:	0.500	X:	0.110	Y:	-0.096	Z:	0.656	yaw:	-3.622	yaw rate:	-74.399	Roll:	0.251	Pitch:	-2.261	Yaw:	4.951	Thrust:	69.705
Time:	2.601	Roll Set Point:	-0.226	Pitch Set Point:	0.185	Yaw Set Point:	0.077	X_WP:	0.000	Y_WP:	0.000	Z_WP:	0.500	X:	0.110	Y:	-0.097	Z:	0.657	yaw:	-4.418	yaw rate:	79.601	Roll:	2.040	Pitch:	-0.129	Yaw:	-17.367	Thrust:	45.006
Time:	2.621	Roll Set Point:	-0.227	Pitch Set Point:	0.187	Yaw Set Point:	0.076	X_WP:	0.000	Y_WP:	0.000	Z_WP:	0.500	X:	0.110	Y:	-0.098	Z:	0.658	yaw:	-4.340	yaw rate:	-7.801	Roll:	1.342	Pitch:	-1.556	Yaw:	-3.619	Thrust:	59.038
Time:	2.640	Roll Set Point:	-0.227	Pitch Set Point:	0.188	Yaw Set Point:	0.074	X_WP:	0.000	Y_WP:	0.000	Z_WP:	0.500	X:	0.110	Y:	-0.098	Z:	0.658	yaw:	-4.252	yaw rate:	-8.826	Roll:	1.221	Pitch:	-1.401	Yaw:	-3.405	Thrust:	54.893
Time:	2.662	Roll Set Point:	-0.228	Pitch Set Point:	0.192	Yaw Set Point:	0.062	X_WP:	0.000	Y_WP:	0.000	Z_WP:	0.500	X:	0.111	Y:	-0.099	Z:	0.659	yaw:	-3.548	yaw rate:	-70.371	Roll:	0.694	Pitch:	-2.712	Yaw:	5.137	Thrust:	58.216
Time:	2.681	Roll Set Point:	-0.230	Pitch Set Point:	0.191	Yaw Set Point:	0.081	X_WP:	0.000	Y_WP:	0.000	Z_WP:	0.500	X:	0.111	Y:	-0.100	Z:	0.659	yaw:	-4.639	yaw rate:	109.049	Roll:	2.739	Pitch:	0.479	Yaw:	-20.195	Thrust:	58.478
Time:	2.703	Roll Set Point:	-0.229	Pitch Set Point:	0.194	Yaw Set Point:	0.071	X_WP:	0.000	Y_WP:	0.000	Z_WP:	0.500	X:	0.111	Y:	-0.101	Z:	0.659	yaw:	-4.090	yaw rate:	-54.891	Roll:	0.571	Pitch:	-2.203	Yaw:	2.223	Thrust:	64.536
Time:	2.721	Roll Set Point:	-0.230	Pitch Set Point:	0.196	Yaw Set Point:	0.076	X_WP:	0.000	Y_WP:	0.000	Z_WP:	0.500	X:	0.111	Y:	-0.102	Z:	0.659	yaw:	-4.360	yaw rate:	27.069	Roll:	1.830	Pitch:	-1.104	Yaw:	-8.734	Thrust:	53.062
Time:	2.741	Roll Set Point:	-0.229	Pitch Set Point:	0.199	Yaw Set Point:	0.064	X_WP:	0.000	Y_WP:	0.000	Z_WP:	0.500	X:	0.111	Y:	-0.103	Z:	0.658	yaw:	-3.647	yaw rate:	-71.375	Roll:	0.187	Pitch:	-2.819	Yaw:	5.568	Thrust:	56.621
Time:	2.760	Roll Set Point:	-0.233	Pitch Set Point:	0.200	Yaw Set Point:	0.083	X_WP:	0.000	Y_WP:	0.000	Z_WP:	0.500	X:	0.112	Y:	-0.105	Z:	0.658	yaw:	-4.741	yaw rate:	109.410	Roll:	3.386	Pitch:	0.103	Yaw:	-20.477	Thrust:	54.329
Time:	2.784	Roll Set Point:	-0.228	Pitch Set Point:	0.201	Yaw Set Point:	0.061	X_WP:	0.000	Y_WP:	0.000	Z_WP:	0.500	X:	0.111	Y:	-0.104	Z:	0.659	yaw:	-3.517	yaw rate:	-122.389	Roll:	-1.388	Pitch:	-2.305	Yaw:	10.301	Thrust:	63.528
Time:	2.800	Roll Set Point:	-0.229	Pitch Set Point:	0.204	Yaw Set Point:	0.059	X_WP:	0.000	Y_WP:	0.000	Z_WP:	0.500	X:	0.111	Y:	-0.105	Z:	0.659	yaw:	-3.375	yaw rate:	-14.219	Roll:	1.218	Pitch:	-1.867	Yaw:	-1.546	Thrust:	47.720
Time:	2.821	Roll Set Point:	-0.229	Pitch Set Point:	0.205	Yaw Set Point:	0.060	X_WP:	0.000	Y_WP:	0.000	Z_WP:	0.500	X:	0.112	Y:	-0.106	Z:	0.658	yaw:	-3.422	yaw rate:	4.775	Roll:	1.481	Pitch:	-1.443	Yaw:	-4.253	Thrust:	56.912
Time:	2.841	Roll Set Point:	-0.228	Pitch Set Point:	0.211	Yaw Set Point:	0.029	X_WP:	0.000	Y_WP:	0.000	Z_WP:	0.500	X:	0.113	Y:	-0.107	Z:	0.657	yaw:	-1.663	yaw rate:	-175.922	Roll:	-0.683	Pitch:	-4.693	Yaw:	21.398	Thrust:	60.424
Time:	2.861	Roll Set Point:	-0.227	Pitch Set Point:	0.215	Yaw Set Point:	0.027	X_WP:	0.000	Y_WP:	0.000	Z_WP:	0.500	X:	0.112	Y:	-0.109	Z:	0.656	yaw:	-1.531	yaw rate:	-13.212	Roll:	0.541	Pitch:	-2.252	Yaw:	0.685	Thrust:	55.511
Time:	2.881	Roll Set Point:	-0.225	Pitch Set Point:	0.218	Yaw Set Point:	0.010	X_WP:	0.000	Y_WP:	0.000	Z_WP:	0.500	X:	0.112	Y:	-0.109	Z:	0.654	yaw:	-0.556	yaw rate:	-97.483	Roll:	-0.330	Pitch:	-2.984	Yaw:	13.029	Thrust:	58.942
Time:	2.903	Roll Set Point:	-0.229	Pitch Set Point:	0.234	Yaw Set Point:	-0.184	X_WP:	0.000	Y_WP:	0.000	Z_WP:	0.500	X:	0.125	Y:	-0.106	Z:	0.656	yaw:	10.547	yaw rate:	-1110.372	Roll:	-6.595	Pitch:	-16.190	Yaw:	150.365	Thrust:	55.075
Time:	2.921	Roll Set Point:	-0.233	Pitch Set Point:	0.233	Yaw Set Point:	-0.166	X_WP:	0.000	Y_WP:	0.000	Z_WP:	0.500	X:	0.126	Y:	-0.107	Z:	0.655	yaw:	9.489	yaw rate:	105.896	Roll:	3.706	Pitch:	0.308	Yaw:	-1.040	Thrust:	52.283
Time:	2.941	Roll Set Point:	-0.228	Pitch Set Point:	0.239	Yaw Set Point:	-0.203	X_WP:	0.000	Y_WP:	0.000	Z_WP:	0.500	X:	0.126	Y:	-0.108	Z:	0.653	yaw:	11.627	yaw rate:	-213.824	Roll:	-3.270	Pitch:	-5.290	Yaw:	45.279	Thrust:	57.673
Time:	2.961	Roll Set Point:	-0.229	Pitch Set Point:	0.241	Yaw Set Point:	-0.200	X_WP:	0.000	Y_WP:	0.000	Z_WP:	0.500	X:	0.126	Y:	-0.109	Z:	0.651	yaw:	11.481	yaw rate:	14.596	Roll:	1.591	Pitch:	-1.616	Yaw:	15.489	Thrust:	59.119
Time:	2.984	Roll Set Point:	-0.234	Pitch Set Point:	0.239	Yaw Set Point:	-0.175	X_WP:	0.000	Y_WP:	0.000	Z_WP:	0.500	X:	0.127	Y:	-0.109	Z:	0.648	yaw:	10.016	yaw rate:	146.475	Roll:	4.452	Pitch:	0.649	Yaw:	-1.990	Thrust:	61.534
Time:	3.002	Roll Set Point:	-0.234	Pitch Set Point:	0.241	Yaw Set Point:	-0.178	X_WP:	0.000	Y_WP:	0.000	Z_WP:	0.500	X:	0.128	Y:	-0.110	Z:	0.646	yaw:	10.171	yaw rate:	-15.504	Roll:	0.858	Pitch:	-1.994	Yaw:	17.750	Thrust:	55.374
Time:	3.021	Roll Set Point:	-0.236	Pitch Set Point:	0.242	Yaw Set Point:	-0.175	X_WP:	0.000	Y_WP:	0.000	Z_WP:	0.500	X:	0.129	Y:	-0.110	Z:	0.643	yaw:	10.026	yaw rate:	14.532	Roll:	2.192	Pitch:	-0.942	Yaw:	13.502	Thrust:	56.836
Time:	3.042	Roll Set Point:	-0.234	Pitch Set Point:	0.246	Yaw Set Point:	-0.203	X_WP:	0.000	Y_WP:	0.000	Z_WP:	0.500	X:	0.129	Y:	-0.111	Z:	0.641	yaw:	11.623	yaw rate:	-159.730	Roll:	-1.373	Pitch:	-4.236	Yaw:	38.530	Thrust:	58.221
Time:	3.061	Roll Set Point:	-0.249	Pitch Set Point:	0.218	Yaw Set Point:	0.103	X_WP:	0.000	Y_WP:	0.000	Z_WP:	0.500	X:	0.119	Y:	-0.116	Z:	0.634	yaw:	-5.926	yaw rate:	1754.866	Roll:	23.464	Pitch:	27.311	Yaw:	-241.218	Thrust:	66.375
Time:	3.081	Roll Set Point:	-0.250	Pitch Set Point:	0.218	Yaw Set Point:	0.101	X_WP:	0.000	Y_WP:	0.000	Z_WP:	0.500	X:	0.120	Y:	-0.116	Z:	0.631	yaw:	-5.799	yaw rate:	-12.683	Roll:	1.832	Pitch:	-1.024	Yaw:	-4.803	Thrust:	58.798
Time:	3.103	Roll Set Point:	-0.254	Pitch Set Point:	0.217	Yaw Set Point:	0.114	X_WP:	0.000	Y_WP:	0.000	Z_WP:	0.500	X:	0.121	Y:	-0.116	Z:	0.628	yaw:	-6.524	yaw rate:	72.552	Roll:	3.299	Pitch:	0.463	Yaw:	-16.270	Thrust:	64.157
Time:	3.121	Roll Set Point:	-0.255	Pitch Set Point:	0.218	Yaw Set Point:	0.105	X_WP:	0.000	Y_WP:	0.000	Z_WP:	0.500	X:	0.122	Y:	-0.116	Z:	0.625	yaw:	-5.993	yaw rate:	-53.086	Roll:	1.237	Pitch:	-1.789	Yaw:	0.523	Thrust:	54.963
Time:	3.141	Roll Set Point:	-0.256	Pitch Set Point:	0.218	Yaw Set Point:	0.102	X_WP:	0.000	Y_WP:	0.000	Z_WP:	0.500	X:	0.123	Y:	-0.115	Z:	0.622	yaw:	-5.859	yaw rate:	-13.467	Roll:	2.006	Pitch:	-0.862	Yaw:	-4.915	Thrust:	58.484
Time:	3.161	Roll Set Point:	-0.258	Pitch Set Point:	0.219	Yaw Set Point:	0.096	X_WP:	0.000	Y_WP:	0.000	Z_WP:	0.500	X:	0.124	Y:	-0.116	Z:	0.620	yaw:	-5.510	yaw rate:	-34.919	Roll:	1.668	Pitch:	-1.749	Yaw:	-1.500	Thrust:	54.507
Time:	3.184	Roll Set Point:	-0.260	Pitch Set Point:	0.218	Yaw Set Point:	0.097	X_WP:	0.000	Y_WP:	0.000	Z_WP:	0.500	X:	0.124	Y:	-0.115	Z:	0.617	yaw:	-5.575	yaw rate:	6.557	Roll:	2.027	Pitch:	-0.511	Yaw:	-6.870	Thrust:	65.705
Time:	3.201	Roll Set Point:	-0.256	Pitch Set Point:	0.230	Yaw Set Point:	0.042	X_WP:	0.000	Y_WP:	0.000	Z_WP:	0.500	X:	0.126	Y:	-0.118	Z:	0.617	yaw:	-2.429	yaw rate:	-314.571	Roll:	-3.314	Pitch:	-10.484	Yaw:	46.372	Thrust:	44.162
Time:	3.221	Roll Set Point:	-0.256	Pitch Set Point:	0.232	Yaw Set Point:	0.025	X_WP:	0.000	Y_WP:	0.000	Z_WP:	0.500	X:	0.127	Y:	-0.118	Z:	0.613	yaw:	-1.447	yaw rate:	-98.229	Roll:	0.658	Pitch:	-2.653	Yaw:	12.088	Thrust:	59.805
Time:	3.241	Roll Set Point:	-0.268	Pitch Set Point:	0.213	Yaw Set Point:	0.126	X_WP:	0.000	Y_WP:	0.000	Z_WP:	0.500	X:	0.127	Y:	-0.115	Z:	0.609	yaw:	-7.246	yaw rate:	579.928	Roll:	10.945	Pitch:	13.482	Yaw:	-85.457	Thrust:	58.515
Time:	3.260	Roll Set Point:	-0.265	Pitch Set Point:	0.219	Yaw Set Point:	0.088	X_WP:	0.000	Y_WP:	0.000	Z_WP:	0.500	X:	0.128	Y:	-0.115	Z:	0.607	yaw:	-5.066	yaw rate:	-218.036	Roll:	-1.716	Pitch:	-5.949	Yaw:	23.215	Thrust:	56.437
Time:	3.281	Roll Set Point:	-0.265	Pitch Set Point:	0.220	Yaw Set Point:	0.082	X_WP:	0.000	Y_WP:	0.000	Z_WP:	0.500	X:	0.128	Y:	-0.116	Z:	0.604	yaw:	-4.709	yaw rate:	-35.689	Roll:	1.380	Pitch:	-1.694	Yaw:	-0.728	Thrust:	57.342
Time:	3.302	Roll Set Point:	-0.266	Pitch Set Point:	0.223	Yaw Set Point:	0.067	X_WP:	0.000	Y_WP:	0.000	Z_WP:	0.500	X:	0.129	Y:	-0.116	Z:	0.601	yaw:	-3.860	yaw rate:	-84.929	Roll:	0.947	Pitch:	-2.628	Yaw:	6.658	Thrust:	58.921
Time:	3.321	Roll Set Point:	-0.268	Pitch Set Point:	0.221	Yaw Set Point:	0.080	X_WP:	0.000	Y_WP:	0.000	Z_WP:	0.500	X:	0.130	Y:	-0.116	Z:	0.598	yaw:	-4.591	yaw rate:	73.147	Roll:	3.053	Pitch:	0.567	Yaw:	-15.057	Thrust:	56.609
Time:	3.341	Roll Set Point:	-0.270	Pitch Set Point:	0.220	Yaw Set Point:	0.087	X_WP:	0.000	Y_WP:	0.000	Z_WP:	0.500	X:	0.130	Y:	-0.116	Z:	0.595	yaw:	-4.958	yaw rate:	36.641	Roll:	2.444	Pitch:	-0.004	Yaw:	-10.612	Thrust:	57.206
Time:	3.361	Roll Set Point:	-0.271	Pitch Set Point:	0.221	Yaw Set Point:	0.078	X_WP:	0.000	Y_WP:	0.000	Z_WP:	0.500	X:	0.131	Y:	-0.116	Z:	0.592	yaw:	-4.465	yaw rate:	-49.227	Roll:	1.372	Pitch:	-1.904	Yaw:	1.286	Thrust:	58.444
Time:	3.384	Roll Set Point:	-0.272	Pitch Set Point:	0.220	Yaw Set Point:	0.083	X_WP:	0.000	Y_WP:	0.000	Z_WP:	0.500	X:	0.131	Y:	-0.116	Z:	0.589	yaw:	-4.729	yaw rate:	26.321	Roll:	2.061	Pitch:	-0.365	Yaw:	-8.480	Thrust:	62.923
Time:	3.401	Roll Set Point:	-0.273	Pitch Set Point:	0.222	Yaw Set Point:	0.070	X_WP:	0.000	Y_WP:	0.000	Z_WP:	0.500	X:	0.133	Y:	-0.116	Z:	0.585	yaw:	-4.019	yaw rate:	-71.012	Roll:	1.258	Pitch:	-2.530	Yaw:	6.041	Thrust:	53.105
Time:	3.422	Roll Set Point:	-0.274	Pitch Set Point:	0.221	Yaw Set Point:	0.082	X_WP:	0.000	Y_WP:	0.000	Z_WP:	0.500	X:	0.133	Y:	-0.116	Z:	0.581	yaw:	-4.694	yaw rate:	67.552	Roll:	2.465	Pitch:	0.119	Yaw:	-14.070	Thrust:	60.383
Time:	3.442	Roll Set Point:	-0.268	Pitch Set Point:	0.225	Yaw Set Point:	0.044	X_WP:	0.000	Y_WP:	0.000	Z_WP:	0.500	X:	0.132	Y:	-0.115	Z:	0.579	yaw:	-2.500	yaw rate:	-219.439	Roll:	-2.860	Pitch:	-4.756	Yaw:	25.489	Thrust:	54.790
Time:	3.462	Roll Set Point:	-0.271	Pitch Set Point:	0.223	Yaw Set Point:	0.057	X_WP:	0.000	Y_WP:	0.000	Z_WP:	0.500	X:	0.133	Y:	-0.116	Z:	0.575	yaw:	-3.272	yaw rate:	77.207	Roll:	3.460	Pitch:	0.575	Yaw:	-13.639	Thrust:	58.195
Time:	3.481	Roll Set Point:	-0.273	Pitch Set Point:	0.222	Yaw Set Point:	0.066	X_WP:	0.000	Y_WP:	0.000	Z_WP:	0.500	X:	0.133	Y:	-0.115	Z:	0.571	yaw:	-3.788	yaw rate:	51.578	Roll:	2.648	Pitch:	0.213	Yaw:	-11.429	Thrust:	59.069
Time:	3.503	Roll Set Point:	-0.272	Pitch Set Point:	0.227	Yaw Set Point:	0.041	X_WP:	0.000	Y_WP:	0.000	Z_WP:	0.500	X:	0.134	Y:	-0.116	Z:	0.567	yaw:	-2.370	yaw rate:	-141.802	Roll:	-0.072	Pitch:	-4.521	Yaw:	14.548	Thrust:	64.922
Time:	3.521	Roll Set Point:	-0.277	Pitch Set Point:	0.222	Yaw Set Point:	0.074	X_WP:	0.000	Y_WP:	0.000	Z_WP:	0.500	X:	0.134	Y:	-0.116	Z:	0.563	yaw:	-4.264	yaw rate:	189.413	Roll:	5.307	Pitch:	3.327	Yaw:	-32.517	Thrust:	55.979
Time:	3.542	Roll Set Point:	-0.273	Pitch Set Point:	0.229	Yaw Set Point:	0.033	X_WP:	0.000	Y_WP:	0.000	Z_WP:	0.500	X:	0.134	Y:	-0.117	Z:	0.559	yaw:	-1.915	yaw rate:	-234.836	Roll:	-2.394	Pitch:	-6.143	Yaw:	28.885	Thrust:	60.040
Time:	3.561	Roll Set Point:	-0.273	Pitch Set Point:	0.230	Yaw Set Point:	0.028	X_WP:	0.000	Y_WP:	0.000	Z_WP:	0.500	X:	0.135	Y:	-0.117	Z:	0.554	yaw:	-1.602	yaw rate:	-31.355	Roll:	1.272	Pitch:	-2.013	Yaw:	2.739	Thrust:	60.979
Time:	3.584	Roll Set Point:	-0.274	Pitch Set Point:	0.230	Yaw Set Point:	0.038	X_WP:	0.000	Y_WP:	0.000	Z_WP:	0.500	X:	0.135	Y:	-0.118	Z:	0.550	yaw:	-2.160	yaw rate:	55.824	Roll:	2.336	Pitch:	-0.326	Yaw:	-8.526	Thrust:	66.047
Time:	3.601	Roll Set Point:	-0.273	Pitch Set Point:	0.233	Yaw Set Point:	0.023	X_WP:	0.000	Y_WP:	0.000	Z_WP:	0.500	X:	0.135	Y:	-0.118	Z:	0.545	yaw:	-1.344	yaw rate:	-81.627	Roll:	0.150	Pitch:	-3.403	Yaw:	11.157	Thrust:	55.987
Time:	3.621	Roll Set Point:	-0.274	Pitch Set Point:	0.232	Yaw Set Point:	0.037	X_WP:	0.000	Y_WP:	0.000	Z_WP:	0.500	X:	0.135	Y:	-0.119	Z:	0.541	yaw:	-2.147	yaw rate:	80.279	Roll:	2.636	Pitch:	0.191	Yaw:	-12.672	Thrust:	61.305
Time:	3.641	Roll Set Point:	-0.274	Pitch Set Point:	0.236	Yaw Set Point:	0.023	X_WP:	0.000	Y_WP:	0.000	Z_WP:	0.500	X:	0.135	Y:	-0.119	Z:	0.536	yaw:	-1.312	yaw rate:	-83.490	Roll:	0.396	Pitch:	-3.380	Yaw:	10.035	Thrust:	61.611
Time:	3.661	Roll Set Point:	-0.274	Pitch Set Point:	0.235	Yaw Set Point:	0.034	X_WP:	0.000	Y_WP:	0.000	Z_WP:	0.500	X:	0.135	Y:	-0.120	Z:	0.531	yaw:	-1.948	yaw rate:	63.652	Roll:	2.388	Pitch:	-0.261	Yaw:	-9.962	Thrust:	63.438
Time:	3.681	Roll Set Point:	-0.273	Pitch Set Point:	0.238	Yaw Set Point:	0.025	X_WP:	0.000	Y_WP:	0.000	Z_WP:	0.500	X:	0.135	Y:	-0.121	Z:	0.527	yaw:	-1.413	yaw rate:	-53.476	Roll:	0.159	Pitch:	-2.998	Yaw:	5.978	Thrust:	60.975
Time:	3.702	Roll Set Point:	-0.272	Pitch Set Point:	0.241	Yaw Set Point:	0.018	X_WP:	0.000	Y_WP:	0.000	Z_WP:	0.500	X:	0.135	Y:	-0.122	Z:	0.523	yaw:	-1.012	yaw rate:	-40.161	Roll:	1.188	Pitch:	-2.601	Yaw:	4.380	Thrust:	64.135
Time:	3.721	Roll Set Point:	-0.272	Pitch Set Point:	0.243	Yaw Set Point:	0.015	X_WP:	0.000	Y_WP:	0.000	Z_WP:	0.500	X:	0.135	Y:	-0.123	Z:	0.518	yaw:	-0.879	yaw rate:	-13.292	Roll:	1.007	Pitch:	-2.086	Yaw:	1.399	Thrust:	58.375
Time:	3.741	Roll Set Point:	-0.272	Pitch Set Point:	0.244	Yaw Set Point:	0.018	X_WP:	0.000	Y_WP:	0.000	Z_WP:	0.500	X:	0.135	Y:	-0.123	Z:	0.514	yaw:	-1.060	yaw rate:	18.089	Roll:	1.544	Pitch:	-1.394	Yaw:	-3.080	Thrust:	61.211
Time:	3.761	Roll Set Point:	-0.272	Pitch Set Point:	0.245	Yaw Set Point:	0.026	X_WP:	0.000	Y_WP:	0.000	Z_WP:	0.500	X:	0.134	Y:	-0.124	Z:	0.510	yaw:	-1.499	yaw rate:	43.950	Roll:	1.846	Pitch:	-1.076	Yaw:	-6.828	Thrust:	62.093
Time:	3.784	Roll Set Point:	-0.270	Pitch Set Point:	0.248	Yaw Set Point:	0.020	X_WP:	0.000	Y_WP:	0.000	Z_WP:	0.500	X:	0.134	Y:	-0.125	Z:	0.506	yaw:	-1.163	yaw rate:	-33.635	Roll:	0.578	Pitch:	-2.540	Yaw:	3.266	Thrust:	65.564
Time:	3.801	Roll Set Point:	-0.270	Pitch Set Point:	0.251	Yaw Set Point:	0.013	X_WP:	0.000	Y_WP:	0.000	Z_WP:	0.500	X:	0.134	Y:	-0.126	Z:	0.503	yaw:	-0.721	yaw rate:	-44.149	Roll:	0.776	Pitch:	-3.022	Yaw:	6.314	Thrust:	54.645
Time:	3.821	Roll Set Point:	-0.269	Pitch Set Point:	0.253	Yaw Set Point:	0.013	X_WP:	0.000	Y_WP:	0.000	Z_WP:	0.500	X:	0.134	Y:	-0.127	Z:	0.500	yaw:	-0.765	yaw rate:	4.369	Roll:	1.329	Pitch:	-1.924	Yaw:	-0.849	Thrust:	61.493
Time:	3.841	Roll Set Point:	-0.268	Pitch Set Point:	0.255	Yaw Set Point:	0.016	X_WP:	0.000	Y_WP:	0.000	Z_WP:	0.500	X:	0.133	Y:	-0.128	Z:	0.496	yaw:	-0.922	yaw rate:	15.717	Roll:	0.977	Pitch:	-1.559	Yaw:	-2.562	Thrust:	60.937
Time:	3.860	Roll Set Point:	-0.268	Pitch Set Point:	0.257	Yaw Set Point:	0.015	X_WP:	0.000	Y_WP:	0.000	Z_WP:	0.500	X:	0.133	Y:	-0.129	Z:	0.493	yaw:	-0.866	yaw rate:	-5.592	Roll:	1.124	Pitch:	-2.087	Yaw:	0.279	Thrust:	58.459
Time:	3.881	Roll Set Point:	-0.268	Pitch Set Point:	0.259	Yaw Set Point:	0.011	X_WP:	0.000	Y_WP:	0.000	Z_WP:	0.500	X:	0.133	Y:	-0.130	Z:	0.490	yaw:	-0.625	yaw rate:	-24.126	Roll:	1.216	Pitch:	-2.615	Yaw:	2.935	Thrust:	62.499
Time:	3.903	Roll Set Point:	-0.269	Pitch Set Point:	0.260	Yaw Set Point:	0.025	X_WP:	0.000	Y_WP:	0.000	Z_WP:	0.500	X:	0.133	Y:	-0.131	Z:	0.487	yaw:	-1.437	yaw rate:	81.221	Roll:	2.626	Pitch:	-0.548	Yaw:	-11.106	Thrust:	63.454
Time:	3.922	Roll Set Point:	-0.267	Pitch Set Point:	0.264	Yaw Set Point:	0.009	X_WP:	0.000	Y_WP:	0.000	Z_WP:	0.500	X:	0.133	Y:	-0.133	Z:	0.483	yaw:	-0.489	yaw rate:	-94.831	Roll:	-0.522	Pitch:	-4.309	Yaw:	13.346	Thrust:	58.737
Time:	3.941	Roll Set Point:	-0.264	Pitch Set Point:	0.267	Yaw Set Point:	0.000	X_WP:	0.000	Y_WP:	0.000	Z_WP:	0.500	X:	0.132	Y:	-0.133	Z:	0.481	yaw:	-0.000	yaw rate:	-48.889	Roll:	-0.220	Pitch:	-2.784	Yaw:	7.212	Thrust:	59.944
Time:	3.960	Roll Set Point:	-0.266	Pitch Set Point:	0.266	Yaw Set Point:	0.020	X_WP:	0.000	Y_WP:	0.000	Z_WP:	0.500	X:	0.132	Y:	-0.134	Z:	0.478	yaw:	-1.168	yaw rate:	116.821	Roll:	3.394	Pitch:	0.436	Yaw:	-16.513	Thrust:	59.271
Time:	3.984	Roll Set Point:	-0.266	Pitch Set Point:	0.268	Yaw Set Point:	0.021	X_WP:	0.000	Y_WP:	0.000	Z_WP:	0.500	X:	0.132	Y:	-0.135	Z:	0.475	yaw:	-1.226	yaw rate:	5.806	Roll:	1.518	Pitch:	-1.977	Yaw:	-1.531	Thrust:	68.229
Time:	4.001	Roll Set Point:	-0.263	Pitch Set Point:	0.272	Yaw Set Point:	0.003	X_WP:	0.000	Y_WP:	0.000	Z_WP:	0.500	X:	0.131	Y:	-0.136	Z:	0.472	yaw:	-0.177	yaw rate:	-104.980	Roll:	-1.147	Pitch:	-4.300	Yaw:	16.216	Thrust:	54.927
Time:	4.021	Roll Set Point:	-0.265	Pitch Set Point:	0.271	Yaw Set Point:	0.020	X_WP:	0.000	Y_WP:	0.000	Z_WP:	0.500	X:	0.131	Y:	-0.137	Z:	0.470	yaw:	-1.159	yaw rate:	98.251	Roll:	3.119	Pitch:	-0.030	Yaw:	-13.684	Thrust:	60.681
Time:	4.041	Roll Set Point:	-0.265	Pitch Set Point:	0.273	Yaw Set Point:	0.024	X_WP:	0.000	Y_WP:	0.000	Z_WP:	0.500	X:	0.131	Y:	-0.138	Z:	0.468	yaw:	-1.347	yaw rate:	18.788	Roll:	1.743	Pitch:	-1.714	Yaw:	-3.684	Thrust:	59.403
Time:	4.061	Roll Set Point:	-0.266	Pitch Set Point:	0.277	Yaw Set Point:	0.017	X_WP:	0.000	Y_WP:	0.000	Z_WP:	0.500	X:	0.132	Y:	-0.140	Z:	0.465	yaw:	-0.991	yaw rate:	-35.599	Roll:	1.450	Pitch:	-3.396	Yaw:	3.872	Thrust:	61.797
Time:	4.082	Roll Set Point:	-0.262	Pitch Set Point:	0.279	Yaw Set Point:	0.005	X_WP:	0.000	Y_WP:	0.000	Z_WP:	0.500	X:	0.131	Y:	-0.140	Z:	0.463	yaw:	-0.259	yaw rate:	-73.169	Roll:	-0.776	Pitch:	-2.646	Yaw:	9.709	Thrust:	62.053
Time:	4.103	Roll Set Point:	-0.264	Pitch Set Point:	0.278	Yaw Set Point:	0.021	X_WP:	0.000	Y_WP:	0.000	Z_WP:	0.500	X:	0.130	Y:	-0.140	Z:	0.461	yaw:	-1.184	yaw rate:	92.494	Roll:	2.955	Pitch:	-0.016	Yaw:	-12.362	Thrust:	60.744
Time:	4.121	Roll Set Point:	-0.263	Pitch Set Point:	0.281	Yaw Set Point:	0.010	X_WP:	0.000	Y_WP:	0.000	Z_WP:	0.500	X:	0.131	Y:	-0.141	Z:	0.459	yaw:	-0.573	yaw rate:	-61.110	Roll:	0.275	Pitch:	-3.161	Yaw:	8.748	Thrust:	58.159
Time:	4.141	Roll Set Point:	-0.265	Pitch Set Point:	0.281	Yaw Set Point:	0.027	X_WP:	0.000	Y_WP:	0.000	Z_WP:	0.500	X:	0.131	Y:	-0.142	Z:	0.457	yaw:	-1.530	yaw rate:	95.661	Roll:	3.562	Pitch:	-0.480	Yaw:	-13.905	Thrust:	59.243
Time:	4.160	Roll Set Point:	-0.262	Pitch Set Point:	0.282	Yaw Set Point:	0.013	X_WP:	0.000	Y_WP:	0.000	Z_WP:	0.500	X:	0.130	Y:	-0.142	Z:	0.454	yaw:	-0.752	yaw rate:	-77.777	Roll:	-0.999	Pitch:	-2.813	Yaw:	10.017	Thrust:	61.448
Time:	4.183	Roll Set Point:	-0.263	Pitch Set Point:	0.283	Yaw Set Point:	0.016	X_WP:	0.000	Y_WP:	0.000	Z_WP:	0.500	X:	0.130	Y:	-0.143	Z:	0.453	yaw:	-0.907	yaw rate:	15.508	Roll:	2.061	Pitch:	-1.518	Yaw:	-2.307	Thrust:	66.846
Time:	4.201	Roll Set Point:	-0.264	Pitch Set Point:	0.284	Yaw Set Point:	0.022	X_WP:	0.000	Y_WP:	0.000	Z_WP:	0.500	X:	0.131	Y:	-0.143	Z:	0.451	yaw:	-1.249	yaw rate:	34.151	Roll:	2.324	Pitch:	-1.283	Yaw:	-6.260	Thrust:	54.865
Time:	4.221	Roll Set Point:	-0.262	Pitch Set Point:	0.287	Yaw Set Point:	0.010	X_WP:	0.000	Y_WP:	0.000	Z_WP:	0.500	X:	0.130	Y:	-0.144	Z:	0.449	yaw:	-0.599	yaw rate:	-64.981	Roll:	-0.015	Pitch:	-3.075	Yaw:	8.223	Thrust:	61.728
Time:	4.241	Roll Set Point:	-0.263	Pitch Set Point:	0.288	Yaw Set Point:	0.008	X_WP:	0.000	Y_WP:	0.000	Z_WP:	0.500	X:	0.131	Y:	-0.144	Z:	0.447	yaw:	-0.430	yaw rate:	-16.894	Roll:	1.388	Pitch:	-1.983	Yaw:	2.233	Thrust:	62.367
Time:	4.261	Roll Set Point:	-0.262	Pitch Set Point:	0.288	Yaw Set Point:	0.010	X_WP:	0.000	Y_WP:	0.000	Z_WP:	0.500	X:	0.130	Y:	-0.145	Z:	0.446	yaw:	-0.587	yaw rate:	15.762	Roll:	1.315	Pitch:	-1.413	Yaw:	-2.347	Thrust:	59.399
Time:	4.281	Roll Set Point:	-0.264	Pitch Set Point:	0.288	Yaw Set Point:	0.017	X_WP:	0.000	Y_WP:	0.000	Z_WP:	0.500	X:	0.131	Y:	-0.145	Z:	0.444	yaw:	-0.982	yaw rate:	39.412	Roll:	2.631	Pitch:	-1.075	Yaw:	-5.790	Thrust:	61.685
Time:	4.304	Roll Set Point:	-0.264	Pitch Set Point:	0.290	Yaw Set Point:	0.010	X_WP:	0.000	Y_WP:	0.000	Z_WP:	0.500	X:	0.131	Y:	-0.146	Z:	0.443	yaw:	-0.546	yaw rate:	-43.511	Roll:	0.944	Pitch:	-2.516	Yaw:	5.136	Thrust:	66.118
Time:	4.321	Roll Set Point:	-0.264	Pitch Set Point:	0.290	Yaw Set Point:	0.014	X_WP:	0.000	Y_WP:	0.000	Z_WP:	0.500	X:	0.131	Y:	-0.146	Z:	0.441	yaw:	-0.782	yaw rate:	23.566	Roll:	1.551	Pitch:	-0.993	Yaw:	-4.004	Thrust:	55.136
Time:	4.341	Roll Set Point:	-0.264	Pitch Set Point:	0.291	Yaw Set Point:	0.014	X_WP:	0.000	Y_WP:	0.000	Z_WP:	0.500	X:	0.131	Y:	-0.146	Z:	0.440	yaw:	-0.810	yaw rate:	2.822	Roll:	1.691	Pitch:	-1.814	Yaw:	-0.846	Thrust:	63.149
Time:	4.361	Roll Set Point:	-0.266	Pitch Set Point:	0.292	Yaw Set Point:	0.013	X_WP:	0.000	Y_WP:	0.000	Z_WP:	0.500	X:	0.132	Y:	-0.147	Z:	0.439	yaw:	-0.773	yaw rate:	-3.752	Roll:	2.120	Pitch:	-1.940	Yaw:	0.025	Thrust:	56.919
Time:	4.383	Roll Set Point:	-0.266	Pitch Set Point:	0.291	Yaw Set Point:	0.019	X_WP:	0.000	Y_WP:	0.000	Z_WP:	0.500	X:	0.132	Y:	-0.147	Z:	0.438	yaw:	-1.111	yaw rate:	33.847	Roll:	2.026	Pitch:	-0.984	Yaw:	-4.967	Thrust:	69.373
Time:	4.400	Roll Set Point:	-0.267	Pitch Set Point:	0.293	Yaw Set Point:	0.016	X_WP:	0.000	Y_WP:	0.000	Z_WP:	0.500	X:	0.132	Y:	-0.148	Z:	0.437	yaw:	-0.934	yaw rate:	-17.764	Roll:	1.471	Pitch:	-2.358	Yaw:	1.939	Thrust:	54.144
Time:	4.421	Roll Set Point:	-0.267	Pitch Set Point:	0.294	Yaw Set Point:	0.010	X_WP:	0.000	Y_WP:	0.000	Z_WP:	0.500	X:	0.133	Y:	-0.148	Z:	0.436	yaw:	-0.596	yaw rate:	-33.789	Roll:	1.022	Pitch:	-2.215	Yaw:	4.011	Thrust:	63.818
Time:	4.442	Roll Set Point:	-0.267	Pitch Set Point:	0.294	Yaw Set Point:	0.016	X_WP:	0.000	Y_WP:	0.000	Z_WP:	0.500	X:	0.132	Y:	-0.148	Z:	0.435	yaw:	-0.909	yaw rate:	31.300	Roll:	1.878	Pitch:	-1.042	Yaw:	-4.764	Thrust:	62.191
Time:	4.461	Roll Set Point:	-0.267	Pitch Set Point:	0.296	Yaw Set Point:	0.006	X_WP:	0.000	Y_WP:	0.000	Z_WP:	0.500	X:	0.133	Y:	-0.148	Z:	0.434	yaw:	-0.315	yaw rate:	-59.340	Roll:	0.321	Pitch:	-2.891	Yaw:	8.361	Thrust:	57.995
Time:	4.481	Roll Set Point:	-0.269	Pitch Set Point:	0.296	Yaw Set Point:	0.009	X_WP:	0.000	Y_WP:	0.000	Z_WP:	0.500	X:	0.134	Y:	-0.149	Z:	0.433	yaw:	-0.541	yaw rate:	22.546	Roll:	2.577	Pitch:	-1.408	Yaw:	-3.002	Thrust:	64.145
Time:	4.503	Roll Set Point:	-0.269	Pitch Set Point:	0.296	Yaw Set Point:	0.015	X_WP:	0.000	Y_WP:	0.000	Z_WP:	0.500	X:	0.134	Y:	-0.149	Z:	0.432	yaw:	-0.845	yaw rate:	30.435	Roll:	2.070	Pitch:	-1.307	Yaw:	-4.240	Thrust:	65.830
Time:	4.521	Roll Set Point:	-0.272	Pitch Set Point:	0.295	Yaw Set Point:	0.024	X_WP:	0.000	Y_WP:	0.000	Z_WP:	0.500	X:	0.134	Y:	-0.149	Z:	0.432	yaw:	-1.402	yaw rate:	55.641	Roll:	3.077	Pitch:	-0.460	Yaw:	-9.339	Thrust:	56.945
Time:	4.541	Roll Set Point:	-0.272	Pitch Set Point:	0.296	Yaw Set Point:	0.023	X_WP:	0.000	Y_WP:	0.000	Z_WP:	0.500	X:	0.134	Y:	-0.150	Z:	0.431	yaw:	-1.299	yaw rate:	-10.229	Roll:	1.430	Pitch:	-1.892	Yaw:	0.073	Thrust:	60.815
Time:	4.561	Roll Set Point:	-0.273	Pitch Set Point:	0.297	Yaw Set Point:	0.021	X_WP:	0.000	Y_WP:	0.000	Z_WP:	0.500	X:	0.135	Y:	-0.150	Z:	0.431	yaw:	-1.186	yaw rate:	-11.335	Roll:	1.676	Pitch:	-2.161	Yaw:	0.425	Thrust:	60.087
Time:	4.584	Roll Set Point:	-0.274	Pitch Set Point:	0.300	Yaw Set Point:	0.018	X_WP:	0.000	Y_WP:	0.000	Z_WP:	0.500	X:	0.136	Y:	-0.151	Z:	0.431	yaw:	-1.054	yaw rate:	-13.156	Roll:	2.114	Pitch:	-2.550	Yaw:	0.633	Thrust:	69.400
Time:	4.601	Roll Set Point:	-0.272	Pitch Set Point:	0.299	Yaw Set Point:	0.014	X_WP:	0.000	Y_WP:	0.000	Z_WP:	0.500	X:	0.135	Y:	-0.150	Z:	0.431	yaw:	-0.775	yaw rate:	-27.946	Roll:	-0.463	Pitch:	-1.340	Yaw:	3.569	Thrust:	54.881
Time:	4.622	Roll Set Point:	-0.274	Pitch Set Point:	0.298	Yaw Set Point:	0.023	X_WP:	0.000	Y_WP:	0.000	Z_WP:	0.500	X:	0.135	Y:	-0.151	Z:	0.431	yaw:	-1.333	yaw rate:	55.808	Roll:	3.000	Pitch:	-0.714	Yaw:	-8.483	Thrust:	60.025
Time:	4.641	Roll Set Point:	-0.273	Pitch Set Point:	0.300	Yaw Set Point:	0.014	X_WP:	0.000	Y_WP:	0.000	Z_WP:	0.500	X:	0.136	Y:	-0.151	Z:	0.431	yaw:	-0.821	yaw rate:	-51.215	Roll:	0.655	Pitch:	-2.838	Yaw:	6.178	Thrust:	61.122
Time:	4.661	Roll Set Point:	-0.274	Pitch Set Point:	0.301	Yaw Set Point:	0.016	X_WP:	0.000	Y_WP:	0.000	Z_WP:	0.500	X:	0.136	Y:	-0.151	Z:	0.432	yaw:	-0.912	yaw rate:	9.098	Roll:	1.620	Pitch:	-1.606	Yaw:	-1.988	Thrust:	59.118
Time:	4.681	Roll Set Point:	-0.273	Pitch Set Point:	0.302	Yaw Set Point:	0.012	X_WP:	0.000	Y_WP:	0.000	Z_WP:	0.500	X:	0.136	Y:	-0.152	Z:	0.432	yaw:	-0.667	yaw rate:	-24.437	Roll:	0.815	Pitch:	-2.282	Yaw:	2.766	Thrust:	61.452
Time:	4.702	Roll Set Point:	-0.272	Pitch Set Point:	0.305	Yaw Set Point:	-0.002	X_WP:	0.000	Y_WP:	0.000	Z_WP:	0.500	X:	0.136	Y:	-0.152	Z:	0.432	yaw:	0.142	yaw rate:	-80.990	Roll:	0.059	Pitch:	-3.438	Yaw:	10.829	Thrust:	63.765
Time:	4.721	Roll Set Point:	-0.275	Pitch Set Point:	0.302	Yaw Set Point:	0.019	X_WP:	0.000	Y_WP:	0.000	Z_WP:	0.500	X:	0.136	Y:	-0.152	Z:	0.433	yaw:	-1.095	yaw rate:	123.710	Roll:	4.222	Pitch:	1.010	Yaw:	-18.336	Thrust:	57.154
Time:	4.741	Roll Set Point:	-0.274	Pitch Set Point:	0.305	Yaw Set Point:	0.005	X_WP:	0.000	Y_WP:	0.000	Z_WP:	0.500	X:	0.136	Y:	-0.153	Z:	0.433	yaw:	-0.273	yaw rate:	-82.190	Roll:	0.051	Pitch:	-3.558	Yaw:	10.476	Thrust:	63.365
Time:	4.761	Roll Set Point:	-0.275	Pitch Set Point:	0.304	Yaw Set Point:	0.017	X_WP:	0.000	Y_WP:	0.000	Z_WP:	0.500	X:	0.136	Y:	-0.153	Z:	0.433	yaw:	-0.986	yaw rate:	71.360	Roll:	2.870	Pitch:	-0.214	Yaw:	-10.188	Thrust:	58.255
Time:	4.784	Roll Set Point:	-0.275	Pitch Set Point:	0.307	Yaw Set Point:	0.006	X_WP:	0.000	Y_WP:	0.000	Z_WP:	0.500	X:	0.137	Y:	-0.154	Z:	0.433	yaw:	-0.331	yaw rate:	-65.491	Roll:	0.715	Pitch:	-3.243	Yaw:	7.796	Thrust:	70.314
Time:	4.801	Roll Set Point:	-0.274	Pitch Set Point:	0.306	Yaw Set Point:	0.009	X_WP:	0.000	Y_WP:	0.000	Z_WP:	0.500	X:	0.136	Y:	-0.154	Z:	0.434	yaw:	-0.538	yaw rate:	20.697	Roll:	1.179	Pitch:	-0.859	Yaw:	-3.597	Thrust:	52.419
Time:	4.821	Roll Set Point:	-0.274	Pitch Set Point:	0.307	Yaw Set Point:	0.012	X_WP:	0.000	Y_WP:	0.000	Z_WP:	0.500	X:	0.136	Y:	-0.154	Z:	0.434	yaw:	-0.660	yaw rate:	12.167	Roll:	1.866	Pitch:	-1.562	Yaw:	-1.972	Thrust:	63.215
Time:	4.841	Roll Set Point:	-0.279	Pitch Set Point:	0.307	Yaw Set Point:	0.028	X_WP:	0.000	Y_WP:	0.000	Z_WP:	0.500	X:	0.137	Y:	-0.155	Z:	0.435	yaw:	-1.631	yaw rate:	97.084	Roll:	4.510	Pitch:	-0.560	Yaw:	-14.633	Thrust:	59.297
Time:	4.863	Roll Set Point:	-0.277	Pitch Set Point:	0.309	Yaw Set Point:	0.011	X_WP:	0.000	Y_WP:	0.000	Z_WP:	0.500	X:	0.138	Y:	-0.155	Z:	0.436	yaw:	-0.653	yaw rate:	-97.801	Roll:	-0.391	Pitch:	-3.584	Yaw:	11.748	Thrust:	64.494
Time:	4.881	Roll Set Point:	-0.279	Pitch Set Point:	0.307	Yaw Set Point:	0.028	X_WP:	0.000	Y_WP:	0.000	Z_WP:	0.500	X:	0.137	Y:	-0.155	Z:	0.438	yaw:	-1.577	yaw rate:	92.375	Roll:	3.432	Pitch:	0.597	Yaw:	-14.049	Thrust:	58.175
Time:	4.903	Roll Set Point:	-0.278	Pitch Set Point:	0.308	Yaw Set Point:	0.019	X_WP:	0.000	Y_WP:	0.000	Z_WP:	0.500	X:	0.137	Y:	-0.155	Z:	0.438	yaw:	-1.115	yaw rate:	-46.130	Roll:	0.375	Pitch:	-2.646	Yaw:	4.636	Thrust:	64.356
Time:	4.921	Roll Set Point:	-0.280	Pitch Set Point:	0.308	Yaw Set Point:	0.027	X_WP:	0.000	Y_WP:	0.000	Z_WP:	0.500	X:	0.138	Y:	-0.156	Z:	0.440	yaw:	-1.567	yaw rate:	45.120	Roll:	2.877	Pitch:	-0.547	Yaw:	-8.210	Thrust:	54.755
Time:	4.941	Roll Set Point:	-0.276	Pitch Set Point:	0.310	Yaw Set Point:	0.008	X_WP:	0.000	Y_WP:	0.000	Z_WP:	0.500	X:	0.138	Y:	-0.155	Z:	0.441	yaw:	-0.470	yaw rate:	-109.664	Roll:	-1.200	Pitch:	-3.560	Yaw:	14.375	Thrust:	59.947
Time:	4.962	Roll Set Point:	-0.275	Pitch Set Point:	0.311	Yaw Set Point:	-0.002	X_WP:	0.000	Y_WP:	0.000	Z_WP:	0.500	X:	0.137	Y:	-0.156	Z:	0.442	yaw:	0.132	yaw rate:	-60.222	Roll:	-0.033	Pitch:	-2.876	Yaw:	8.147	Thrust:	59.540
Time:	4.983	Roll Set Point:	-0.278	Pitch Set Point:	0.309	Yaw Set Point:	0.017	X_WP:	0.000	Y_WP:	0.000	Z_WP:	0.500	X:	0.138	Y:	-0.156	Z:	0.444	yaw:	-0.948	yaw rate:	108.079	Roll:	3.806	Pitch:	0.193	Yaw:	-14.019	Thrust:	65.731
Time:	5.001	Roll Set Point:	-0.277	Pitch Set Point:	0.310	Yaw Set Point:	0.013	X_WP:	0.000	Y_WP:	0.000	Z_WP:	0.500	X:	0.137	Y:	-0.156	Z:	0.445	yaw:	-0.728	yaw rate:	-21.998	Roll:	0.666	Pitch:	-1.913	Yaw:	2.634	Thrust:	53.938
Time:	5.021	Roll Set Point:	-0.277	Pitch Set Point:	0.310	Yaw Set Point:	0.015	X_WP:	0.000	Y_WP:	0.000	Z_WP:	0.500	X:	0.137	Y:	-0.156	Z:	0.446	yaw:	-0.874	yaw rate:	14.505	Roll:	1.785	Pitch:	-1.515	Yaw:	-2.658	Thrust:	61.337
Time:	5.043	Roll Set Point:	-0.276	Pitch Set Point:	0.312	Yaw Set Point:	0.004	X_WP:	0.000	Y_WP:	0.000	Z_WP:	0.500	X:	0.138	Y:	-0.156	Z:	0.448	yaw:	-0.235	yaw rate:	-63.886	Roll:	0.267	Pitch:	-2.963	Yaw:	8.091	Thrust:	62.078
Time:	5.062	Roll Set Point:	-0.277	Pitch Set Point:	0.312	Yaw Set Point:	0.011	X_WP:	0.000	Y_WP:	0.000	Z_WP:	0.500	X:	0.138	Y:	-0.157	Z:	0.449	yaw:	-0.617	yaw rate:	38.232	Roll:	2.395	Pitch:	-1.073	Yaw:	-5.560	Thrust:	59.696
Time:	5.082	Roll Set Point:	-0.276	Pitch Set Point:	0.311	Yaw Set Point:	0.012	X_WP:	0.000	Y_WP:	0.000	Z_WP:	0.500	X:	0.137	Y:	-0.157	Z:	0.450	yaw:	-0.713	yaw rate:	9.606	Roll:	1.199	Pitch:	-1.186	Yaw:	-1.838	Thrust:	60.366
Time:	5.104	Roll Set Point:	-0.276	Pitch Set Point:	0.312	Yaw Set Point:	0.014	X_WP:	0.000	Y_WP:	0.000	Z_WP:	0.500	X:	0.137	Y:	-0.157	Z:	0.451	yaw:	-0.774	yaw rate:	6.139	Roll:	1.645	Pitch:	-1.719	Yaw:	-1.344	Thrust:	70.440
Time:	5.122	Roll Set Point:	-0.276	Pitch Set Point:	0.312	Yaw Set Point:	0.013	X_WP:	0.000	Y_WP:	0.000	Z_WP:	0.500	X:	0.137	Y:	-0.157	Z:	0.452	yaw:	-0.746	yaw rate:	-2.837	Roll:	1.146	Pitch:	-1.555	Yaw:	-0.267	Thrust:	50.646
Time:	5.142	Roll Set Point:	-0.277	Pitch Set Point:	0.312	Yaw Set Point:	0.015	X_WP:	0.000	Y_WP:	0.000	Z_WP:	0.500	X:	0.137	Y:	-0.157	Z:	0.454	yaw:	-0.848	yaw rate:	10.171	Roll:	1.816	Pitch:	-1.622	Yaw:	-2.066	Thrust:	63.139
Time:	5.162	Roll Set Point:	-0.273	Pitch Set Point:	0.315	Yaw Set Point:	-0.007	X_WP:	0.000	Y_WP:	0.000	Z_WP:	0.500	X:	0.137	Y:	-0.157	Z:	0.454	yaw:	0.400	yaw rate:	-124.736	Roll:	-1.716	Pitch:	-4.175	Yaw:	17.224	Thrust:	62.112
Time:	5.185	Roll Set Point:	-0.275	Pitch Set Point:	0.314	Yaw Set Point:	0.008	X_WP:	0.000	Y_WP:	0.000	Z_WP:	0.500	X:	0.137	Y:	-0.158	Z:	0.456	yaw:	-0.448	yaw rate:	84.733	Roll:	3.296	Pitch:	-0.353	Yaw:	-10.105	Thrust:	68.412
Time:	5.202	Roll Set Point:	-0.275	Pitch Set Point:	0.313	Yaw Set Point:	0.014	X_WP:	0.000	Y_WP:	0.000	Z_WP:	0.500	X:	0.136	Y:	-0.158	Z:	0.456	yaw:	-0.800	yaw rate:	35.239	Roll:	1.980	Pitch:	-0.648	Yaw:	-6.423	Thrust:	50.551
Time:	5.222	Roll Set Point:	-0.275	Pitch Set Point:	0.314	Yaw Set Point:	0.012	X_WP:	0.000	Y_WP:	0.000	Z_WP:	0.500	X:	0.136	Y:	-0.158	Z:	0.457	yaw:	-0.713	yaw rate:	-8.683	Roll:	1.125	Pitch:	-1.813	Yaw:	0.495	Thrust:	64.404
Time:	5.242	Roll Set Point:	-0.274	Pitch Set Point:	0.315	Yaw Set Point:	0.007	X_WP:	0.000	Y_WP:	0.000	Z_WP:	0.500	X:	0.136	Y:	-0.158	Z:	0.457	yaw:	-0.405	yaw rate:	-30.808	Roll:	0.797	Pitch:	-2.457	Yaw:	3.750	Thrust:	62.731
Time:	5.262	Roll Set Point:	-0.274	Pitch Set Point:	0.315	Yaw Set Point:	0.013	X_WP:	0.000	Y_WP:	0.000	Z_WP:	0.500	X:	0.136	Y:	-0.158	Z:	0.458	yaw:	-0.732	yaw rate:	32.692	Roll:	1.888	Pitch:	-0.900	Yaw:	-5.329	Thrust:	59.576
Time:	5.281	Roll Set Point:	-0.274	Pitch Set Point:	0.315	Yaw Set Point:	0.012	X_WP:	0.000	Y_WP:	0.000	Z_WP:	0.500	X:	0.136	Y:	-0.158	Z:	0.458	yaw:	-0.669	yaw rate:	-6.333	Roll:	1.214	Pitch:	-1.776	Yaw:	0.234	Thrust:	67.250
Time:	5.305	Roll Set Point:	-0.273	Pitch Set Point:	0.316	Yaw Set Point:	0.008	X_WP:	0.000	Y_WP:	0.000	Z_WP:	0.500	X:	0.136	Y:	-0.158	Z:	0.458	yaw:	-0.485	yaw rate:	-18.382	Roll:	1.078	Pitch:	-2.055	Yaw:	1.815	Thrust:	70.667
Time:	5.321	Roll Set Point:	-0.274	Pitch Set Point:	0.315	Yaw Set Point:	0.013	X_WP:	0.000	Y_WP:	0.000	Z_WP:	0.500	X:	0.136	Y:	-0.159	Z:	0.458	yaw:	-0.768	yaw rate:	28.346	Roll:	1.874	Pitch:	-1.030	Yaw:	-5.203	Thrust:	55.620
Time:	5.342	Roll Set Point:	-0.273	Pitch Set Point:	0.316	Yaw Set Point:	0.010	X_WP:	0.000	Y_WP:	0.000	Z_WP:	0.500	X:	0.136	Y:	-0.159	Z:	0.458	yaw:	-0.584	yaw rate:	-18.450	Roll:	0.963	Pitch:	-2.148	Yaw:	1.898	Thrust:	65.884
