Time:	0.046	Roll Set Point:	0.001	Pitch Set Point:	-0.027	Yaw Set Point:	0.045	X_WP:	0.000	Y_WP:	0.000	Y_WP:	0.500	X:	0.000	Y:	0.013	Z:	0.058	yaw:	-2.574	yaw rate:	0.257	Roll:	-0.023	Pitch:	0.533	Yaw:	-3.593	Thrust:	24.330
Time:	0.057	Roll Set Point:	0.001	Pitch Set Point:	-0.027	Yaw Set Point:	0.045	X_WP:	0.000	Y_WP:	0.000	Y_WP:	0.500	X:	0.000	Y:	0.013	Z:	0.058	yaw:	-2.570	yaw rate:	-0.346	Roll:	-0.014	Pitch:	0.560	Yaw:	-3.526	Thrust:	25.145
Time:	0.069	Roll Set Point:	0.001	Pitch Set Point:	-0.027	Yaw Set Point:	0.045	X_WP:	0.000	Y_WP:	0.000	Y_WP:	0.500	X:	0.000	Y:	0.013	Z:	0.058	yaw:	-2.568	yaw rate:	-0.215	Roll:	-0.023	Pitch:	0.514	Yaw:	-3.547	Thrust:	25.300
Time:	0.080	Roll Set Point:	0.001	Pitch Set Point:	-0.027	Yaw Set Point:	0.045	X_WP:	0.000	Y_WP:	0.000	Y_WP:	0.500	X:	0.000	Y:	0.013	Z:	0.058	yaw:	-2.571	yaw rate:	0.331	Roll:	-0.011	Pitch:	0.550	Yaw:	-3.694	Thrust:	26.155
Time:	0.093	Roll Set Point:	0.001	Pitch Set Point:	-0.027	Yaw Set Point:	0.045	X_WP:	0.000	Y_WP:	0.000	Y_WP:	0.500	X:	-0.000	Y:	0.013	Z:	0.058	yaw:	-2.583	yaw rate:	4.207	Roll:	-0.198	Pitch:	0.586	Yaw:	-3.881	Thrust:	27.050
Time:	0.114	Roll Set Point:	0.001	Pitch Set Point:	-0.027	Yaw Set Point:	0.044	X_WP:	0.000	Y_WP:	0.000	Y_WP:	0.500	X:	-0.000	Y:	0.013	Z:	0.058	yaw:	-2.499	yaw rate:	-8.400	Roll:	-0.014	Pitch:	0.435	Yaw:	-2.567	Thrust:	29.985
Time:	0.126	Roll Set Point:	0.001	Pitch Set Point:	-0.027	Yaw Set Point:	0.044	X_WP:	0.000	Y_WP:	0.000	Y_WP:	0.500	X:	-0.000	Y:	0.013	Z:	0.058	yaw:	-2.514	yaw rate:	1.569	Roll:	-0.054	Pitch:	0.528	Yaw:	-3.920	Thrust:	27.862
Time:	0.137	Roll Set Point:	0.001	Pitch Set Point:	-0.026	Yaw Set Point:	0.043	X_WP:	0.000	Y_WP:	0.000	Y_WP:	0.500	X:	-0.000	Y:	0.013	Z:	0.058	yaw:	-2.468	yaw rate:	-4.585	Roll:	-0.122	Pitch:	0.497	Yaw:	-2.372	Thrust:	28.645
Time:	0.148	Roll Set Point:	0.001	Pitch Set Point:	-0.027	Yaw Set Point:	0.045	X_WP:	0.000	Y_WP:	0.000	Y_WP:	0.500	X:	-0.000	Y:	0.013	Z:	0.058	yaw:	-2.568	yaw rate:	9.951	Roll:	0.142	Pitch:	0.654	Yaw:	-6.133	Thrust:	28.960
Time:	0.159	Roll Set Point:	0.001	Pitch Set Point:	-0.027	Yaw Set Point:	0.044	X_WP:	0.000	Y_WP:	0.000	Y_WP:	0.500	X:	-0.000	Y:	0.013	Z:	0.058	yaw:	-2.508	yaw rate:	-5.951	Roll:	0.037	Pitch:	0.554	Yaw:	-2.183	Thrust:	29.332
Time:	0.173	Roll Set Point:	0.001	Pitch Set Point:	-0.027	Yaw Set Point:	0.045	X_WP:	0.000	Y_WP:	0.000	Y_WP:	0.500	X:	0.000	Y:	0.013	Z:	0.058	yaw:	-2.595	yaw rate:	8.692	Roll:	-0.019	Pitch:	0.671	Yaw:	-5.312	Thrust:	31.565
Time:	0.184	Roll Set Point:	0.001	Pitch Set Point:	-0.027	Yaw Set Point:	0.044	X_WP:	0.000	Y_WP:	0.000	Y_WP:	0.500	X:	-0.000	Y:	0.013	Z:	0.058	yaw:	-2.498	yaw rate:	-9.732	Roll:	-0.163	Pitch:	0.471	Yaw:	-1.279	Thrust:	31.309
Time:	0.195	Roll Set Point:	0.001	Pitch Set Point:	-0.027	Yaw Set Point:	0.044	X_WP:	0.000	Y_WP:	0.000	Y_WP:	0.500	X:	-0.000	Y:	0.013	Z:	0.058	yaw:	-2.505	yaw rate:	0.750	Roll:	0.027	Pitch:	0.623	Yaw:	-3.794	Thrust:	31.614
Time:	0.205	Roll Set Point:	0.001	Pitch Set Point:	-0.027	Yaw Set Point:	0.045	X_WP:	0.000	Y_WP:	0.000	Y_WP:	0.500	X:	0.000	Y:	0.013	Z:	0.058	yaw:	-2.565	yaw rate:	5.974	Roll:	0.167	Pitch:	0.615	Yaw:	-5.188	Thrust:	31.835
Time:	0.216	Roll Set Point:	0.001	Pitch Set Point:	-0.027	Yaw Set Point:	0.044	X_WP:	0.000	Y_WP:	0.000	Y_WP:	0.500	X:	-0.000	Y:	0.013	Z:	0.058	yaw:	-2.547	yaw rate:	-1.779	Roll:	-0.226	Pitch:	0.430	Yaw:	-3.217	Thrust:	31.164
Time:	0.227	Roll Set Point:	0.001	Pitch Set Point:	-0.027	Yaw Set Point:	0.045	X_WP:	0.000	Y_WP:	0.000	Y_WP:	0.500	X:	0.000	Y:	0.013	Z:	0.058	yaw:	-2.569	yaw rate:	2.124	Roll:	0.114	Pitch:	0.659	Yaw:	-4.254	Thrust:	32.937
Time:	0.246	Roll Set Point:	0.001	Pitch Set Point:	-0.026	Yaw Set Point:	0.043	X_WP:	0.000	Y_WP:	0.000	Y_WP:	0.500	X:	-0.000	Y:	0.013	Z:	0.058	yaw:	-2.483	yaw rate:	-8.549	Roll:	-0.108	Pitch:	0.507	Yaw:	-2.601	Thrust:	40.865
Time:	0.256	Roll Set Point:	0.001	Pitch Set Point:	-0.026	Yaw Set Point:	0.043	X_WP:	0.000	Y_WP:	0.000	Y_WP:	0.500	X:	-0.000	Y:	0.013	Z:	0.058	yaw:	-2.461	yaw rate:	-2.229	Roll:	0.067	Pitch:	0.610	Yaw:	-3.045	Thrust:	33.683
Time:	0.266	Roll Set Point:	0.001	Pitch Set Point:	-0.026	Yaw Set Point:	0.044	X_WP:	0.000	Y_WP:	0.000	Y_WP:	0.500	X:	-0.000	Y:	0.013	Z:	0.058	yaw:	-2.517	yaw rate:	5.605	Roll:	-0.030	Pitch:	0.562	Yaw:	-5.137	Thrust:	34.048
Time:	0.277	Roll Set Point:	0.001	Pitch Set Point:	-0.026	Yaw Set Point:	0.043	X_WP:	0.000	Y_WP:	0.000	Y_WP:	0.500	X:	-0.000	Y:	0.013	Z:	0.058	yaw:	-2.492	yaw rate:	-2.513	Roll:	-0.186	Pitch:	0.456	Yaw:	-3.071	Thrust:	35.327
Time:	0.288	Roll Set Point:	0.001	Pitch Set Point:	-0.026	Yaw Set Point:	0.043	X_WP:	0.000	Y_WP:	0.000	Y_WP:	0.500	X:	-0.000	Y:	0.013	Z:	0.058	yaw:	-2.491	yaw rate:	-6.220	Roll:	0.108	Pitch:	0.731	Yaw:	-3.646	Thrust:	35.687
Time:	0.307	Roll Set Point:	0.000	Pitch Set Point:	-0.027	Yaw Set Point:	0.044	X_WP:	0.000	Y_WP:	0.000	Y_WP:	0.500	X:	0.000	Y:	0.013	Z:	0.058	yaw:	-2.523	yaw rate:	3.222	Roll:	0.099	Pitch:	0.700	Yaw:	-4.322	Thrust:	44.930
Time:	0.318	Roll Set Point:	0.001	Pitch Set Point:	-0.026	Yaw Set Point:	0.044	X_WP:	0.000	Y_WP:	0.000	Y_WP:	0.500	X:	0.000	Y:	0.013	Z:	0.058	yaw:	-2.539	yaw rate:	1.532	Roll:	-0.138	Pitch:	0.474	Yaw:	-4.123	Thrust:	37.784
Time:	0.329	Roll Set Point:	0.000	Pitch Set Point:	-0.026	Yaw Set Point:	0.044	X_WP:	0.000	Y_WP:	0.000	Y_WP:	0.500	X:	0.000	Y:	0.013	Z:	0.058	yaw:	-2.508	yaw rate:	-3.023	Roll:	0.148	Pitch:	0.644	Yaw:	-3.027	Thrust:	37.960
Time:	0.340	Roll Set Point:	0.000	Pitch Set Point:	-0.026	Yaw Set Point:	0.042	X_WP:	0.000	Y_WP:	0.000	Y_WP:	0.500	X:	0.000	Y:	0.013	Z:	0.058	yaw:	-2.415	yaw rate:	-9.286	Roll:	0.013	Pitch:	0.488	Yaw:	-1.293	Thrust:	37.798
Time:	0.350	Roll Set Point:	0.000	Pitch Set Point:	-0.026	Yaw Set Point:	0.041	X_WP:	0.000	Y_WP:	0.000	Y_WP:	0.500	X:	0.000	Y:	0.013	Z:	0.058	yaw:	-2.375	yaw rate:	-4.006	Roll:	0.067	Pitch:	0.390	Yaw:	-2.552	Thrust:	38.537
Time:	0.361	Roll Set Point:	0.000	Pitch Set Point:	-0.026	Yaw Set Point:	0.042	X_WP:	0.000	Y_WP:	0.000	Y_WP:	0.500	X:	0.000	Y:	0.013	Z:	0.058	yaw:	-2.414	yaw rate:	3.847	Roll:	0.226	Pitch:	0.679	Yaw:	-4.526	Thrust:	38.241
Time:	0.381	Roll Set Point:	0.000	Pitch Set Point:	-0.026	Yaw Set Point:	0.042	X_WP:	0.000	Y_WP:	0.000	Y_WP:	0.500	X:	0.000	Y:	0.013	Z:	0.058	yaw:	-2.413	yaw rate:	-0.060	Roll:	-0.070	Pitch:	0.676	Yaw:	-3.814	Thrust:	52.378
Time:	0.392	Roll Set Point:	0.000	Pitch Set Point:	-0.026	Yaw Set Point:	0.042	X_WP:	0.000	Y_WP:	0.000	Y_WP:	0.500	X:	0.000	Y:	0.013	Z:	0.058	yaw:	-2.392	yaw rate:	3.466	Roll:	0.065	Pitch:	0.598	Yaw:	-3.141	Thrust:	40.488
Time:	0.402	Roll Set Point:	0.000	Pitch Set Point:	-0.026	Yaw Set Point:	0.041	X_WP:	0.000	Y_WP:	0.000	Y_WP:	0.500	X:	0.000	Y:	0.013	Z:	0.058	yaw:	-2.358	yaw rate:	-3.408	Roll:	-0.118	Pitch:	0.528	Yaw:	-2.658	Thrust:	41.476
Time:	0.413	Roll Set Point:	0.000	Pitch Set Point:	-0.026	Yaw Set Point:	0.042	X_WP:	0.000	Y_WP:	0.000	Y_WP:	0.500	X:	0.000	Y:	0.013	Z:	0.058	yaw:	-2.400	yaw rate:	4.233	Roll:	-0.069	Pitch:	0.581	Yaw:	-4.681	Thrust:	41.278
Time:	0.424	Roll Set Point:	0.000	Pitch Set Point:	-0.026	Yaw Set Point:	0.042	X_WP:	0.000	Y_WP:	0.000	Y_WP:	0.500	X:	0.000	Y:	0.013	Z:	0.058	yaw:	-2.392	yaw rate:	-0.837	Roll:	-0.051	Pitch:	0.618	Yaw:	-3.463	Thrust:	42.988
Time:	0.444	Roll Set Point:	0.000	Pitch Set Point:	-0.026	Yaw Set Point:	0.041	X_WP:	0.000	Y_WP:	0.000	Y_WP:	0.500	X:	0.000	Y:	0.013	Z:	0.058	yaw:	-2.359	yaw rate:	-3.305	Roll:	0.045	Pitch:	0.711	Yaw:	-3.371	Thrust:	56.808
Time:	0.455	Roll Set Point:	0.000	Pitch Set Point:	-0.026	Yaw Set Point:	0.041	X_WP:	0.000	Y_WP:	0.000	Y_WP:	0.500	X:	0.000	Y:	0.013	Z:	0.058	yaw:	-2.358	yaw rate:	-1.781	Roll:	-0.041	Pitch:	0.565	Yaw:	-3.599	Thrust:	44.396
Time:	0.465	Roll Set Point:	0.000	Pitch Set Point:	-0.026	Yaw Set Point:	0.041	X_WP:	0.000	Y_WP:	0.000	Y_WP:	0.500	X:	0.000	Y:	0.013	Z:	0.058	yaw:	-2.368	yaw rate:	1.035	Roll:	-0.083	Pitch:	0.528	Yaw:	-3.873	Thrust:	42.529
Time:	0.475	Roll Set Point:	0.000	Pitch Set Point:	-0.026	Yaw Set Point:	0.041	X_WP:	0.000	Y_WP:	0.000	Y_WP:	0.500	X:	0.000	Y:	0.013	Z:	0.058	yaw:	-2.377	yaw rate:	0.873	Roll:	0.032	Pitch:	0.701	Yaw:	-3.858	Thrust:	43.179
Time:	0.486	Roll Set Point:	0.000	Pitch Set Point:	-0.026	Yaw Set Point:	0.041	X_WP:	0.000	Y_WP:	0.000	Y_WP:	0.500	X:	0.000	Y:	0.013	Z:	0.058	yaw:	-2.330	yaw rate:	-4.694	Roll:	-0.058	Pitch:	0.581	Yaw:	-2.350	Thrust:	44.702
Time:	0.497	Roll Set Point:	0.000	Pitch Set Point:	-0.026	Yaw Set Point:	0.042	X_WP:	0.000	Y_WP:	0.000	Y_WP:	0.500	X:	0.000	Y:	0.013	Z:	0.058	yaw:	-2.405	yaw rate:	7.500	Roll:	0.073	Pitch:	0.651	Yaw:	-5.454	Thrust:	46.283
Time:	0.511	Roll Set Point:	0.000	Pitch Set Point:	-0.026	Yaw Set Point:	0.042	X_WP:	0.000	Y_WP:	0.000	Y_WP:	0.500	X:	0.000	Y:	0.013	Z:	0.058	yaw:	-2.382	yaw rate:	-2.296	Roll:	-0.102	Pitch:	0.611	Yaw:	-3.327	Thrust:	51.734
Time:	0.521	Roll Set Point:	0.000	Pitch Set Point:	-0.026	Yaw Set Point:	0.042	X_WP:	0.000	Y_WP:	0.000	Y_WP:	0.500	X:	0.000	Y:	0.013	Z:	0.058	yaw:	-2.393	yaw rate:	1.076	Roll:	0.084	Pitch:	0.642	Yaw:	-3.963	Thrust:	46.305
Time:	0.533	Roll Set Point:	0.000	Pitch Set Point:	-0.026	Yaw Set Point:	0.041	X_WP:	0.000	Y_WP:	0.000	Y_WP:	0.500	X:	0.000	Y:	0.013	Z:	0.058	yaw:	-2.345	yaw rate:	-4.787	Roll:	-0.018	Pitch:	0.561	Yaw:	-2.519	Thrust:	47.646
Time:	0.544	Roll Set Point:	0.000	Pitch Set Point:	-0.026	Yaw Set Point:	0.042	X_WP:	0.000	Y_WP:	0.000	Y_WP:	0.500	X:	0.000	Y:	0.013	Z:	0.058	yaw:	-2.427	yaw rate:	8.234	Roll:	-0.011	Pitch:	0.735	Yaw:	-5.606	Thrust:	49.303
Time:	0.557	Roll Set Point:	0.000	Pitch Set Point:	-0.026	Yaw Set Point:	0.042	X_WP:	0.000	Y_WP:	0.000	Y_WP:	0.500	X:	0.000	Y:	0.013	Z:	0.058	yaw:	-2.411	yaw rate:	-1.640	Roll:	-0.082	Pitch:	0.531	Yaw:	-3.474	Thrust:	53.169
Time:	0.579	Roll Set Point:	0.000	Pitch Set Point:	-0.026	Yaw Set Point:	0.042	X_WP:	0.000	Y_WP:	0.000	Y_WP:	0.500	X:	0.000	Y:	0.013	Z:	0.058	yaw:	-2.405	yaw rate:	-0.581	Roll:	0.034	Pitch:	0.761	Yaw:	-4.108	Thrust:	74.762
Time:	0.590	Roll Set Point:	0.000	Pitch Set Point:	-0.026	Yaw Set Point:	0.041	X_WP:	0.000	Y_WP:	0.000	Y_WP:	0.500	X:	0.000	Y:	0.013	Z:	0.058	yaw:	-2.359	yaw rate:	-2.596	Roll:	-0.041	Pitch:	0.604	Yaw:	-2.623	Thrust:	50.252
Time:	0.600	Roll Set Point:	0.000	Pitch Set Point:	-0.026	Yaw Set Point:	0.042	X_WP:	0.000	Y_WP:	0.000	Y_WP:	0.500	X:	0.000	Y:	0.013	Z:	0.058	yaw:	-2.379	yaw rate:	1.966	Roll:	0.129	Pitch:	0.721	Yaw:	-4.222	Thrust:	48.281
Time:	0.611	Roll Set Point:	0.000	Pitch Set Point:	-0.026	Yaw Set Point:	0.043	X_WP:	0.000	Y_WP:	0.000	Y_WP:	0.500	X:	0.000	Y:	0.013	Z:	0.058	yaw:	-2.453	yaw rate:	7.401	Roll:	-0.103	Pitch:	0.574	Yaw:	-5.688	Thrust:	49.722
Time:	0.622	Roll Set Point:	0.000	Pitch Set Point:	-0.026	Yaw Set Point:	0.043	X_WP:	0.000	Y_WP:	0.000	Y_WP:	0.500	X:	0.000	Y:	0.013	Z:	0.058	yaw:	-2.445	yaw rate:	-0.800	Roll:	0.152	Pitch:	0.690	Yaw:	-3.656	Thrust:	51.135
Time:	0.634	Roll Set Point:	-0.000	Pitch Set Point:	-0.026	Yaw Set Point:	0.042	X_WP:	0.000	Y_WP:	0.000	Y_WP:	0.500	X:	0.000	Y:	0.013	Z:	0.058	yaw:	-2.428	yaw rate:	-1.620	Roll:	0.104	Pitch:	0.630	Yaw:	-3.569	Thrust:	55.960
Time:	0.648	Roll Set Point:	-0.000	Pitch Set Point:	-0.026	Yaw Set Point:	0.042	X_WP:	0.000	Y_WP:	0.000	Y_WP:	0.500	X:	0.000	Y:	0.013	Z:	0.058	yaw:	-2.428	yaw rate:	-0.056	Roll:	0.192	Pitch:	0.695	Yaw:	-3.948	Thrust:	59.080
Time:	0.659	Roll Set Point:	-0.001	Pitch Set Point:	-0.026	Yaw Set Point:	0.042	X_WP:	0.000	Y_WP:	0.000	Y_WP:	0.500	X:	0.001	Y:	0.013	Z:	0.059	yaw:	-2.395	yaw rate:	-3.313	Roll:	0.732	Pitch:	0.648	Yaw:	-3.134	Thrust:	54.969
Time:	0.669	Roll Set Point:	-0.001	Pitch Set Point:	-0.026	Yaw Set Point:	0.043	X_WP:	0.000	Y_WP:	0.000	Y_WP:	0.500	X:	0.001	Y:	0.013	Z:	0.059	yaw:	-2.459	yaw rate:	6.378	Roll:	0.265	Pitch:	0.638	Yaw:	-5.536	Thrust:	50.875
Time:	0.682	Roll Set Point:	-0.001	Pitch Set Point:	-0.026	Yaw Set Point:	0.043	X_WP:	0.000	Y_WP:	0.000	Y_WP:	0.500	X:	0.001	Y:	0.013	Z:	0.059	yaw:	-2.470	yaw rate:	1.188	Roll:	0.346	Pitch:	0.702	Yaw:	-4.254	Thrust:	57.832
Time:	0.695	Roll Set Point:	-0.002	Pitch Set Point:	-0.026	Yaw Set Point:	0.043	X_WP:	0.000	Y_WP:	0.000	Y_WP:	0.500	X:	0.001	Y:	0.013	Z:	0.059	yaw:	-2.459	yaw rate:	-1.174	Roll:	0.417	Pitch:	0.631	Yaw:	-3.757	Thrust:	58.742
Time:	0.710	Roll Set Point:	-0.002	Pitch Set Point:	-0.026	Yaw Set Point:	0.042	X_WP:	0.000	Y_WP:	0.000	Y_WP:	0.500	X:	0.001	Y:	0.013	Z:	0.059	yaw:	-2.422	yaw rate:	-3.657	Roll:	0.487	Pitch:	0.748	Yaw:	-3.445	Thrust:	65.480
Time:	0.722	Roll Set Point:	-0.003	Pitch Set Point:	-0.026	Yaw Set Point:	0.042	X_WP:	0.000	Y_WP:	0.000	Y_WP:	0.500	X:	0.002	Y:	0.013	Z:	0.060	yaw:	-2.385	yaw rate:	-6.248	Roll:	0.813	Pitch:	0.743	Yaw:	-3.166	Thrust:	61.681
Time:	0.732	Roll Set Point:	-0.003	Pitch Set Point:	-0.026	Yaw Set Point:	0.043	X_WP:	0.000	Y_WP:	0.000	Y_WP:	0.500	X:	0.002	Y:	0.013	Z:	0.060	yaw:	-2.436	yaw rate:	5.151	Roll:	0.519	Pitch:	0.692	Yaw:	-5.228	Thrust:	53.318
Time:	0.743	Roll Set Point:	-0.004	Pitch Set Point:	-0.026	Yaw Set Point:	0.044	X_WP:	0.000	Y_WP:	0.000	Y_WP:	0.500	X:	0.002	Y:	0.013	Z:	0.060	yaw:	-2.508	yaw rate:	7.219	Roll:	0.633	Pitch:	0.694	Yaw:	-5.790	Thrust:	54.582
Time:	0.753	Roll Set Point:	-0.004	Pitch Set Point:	-0.026	Yaw Set Point:	0.045	X_WP:	0.000	Y_WP:	0.000	Y_WP:	0.500	X:	0.002	Y:	0.013	Z:	0.060	yaw:	-2.558	yaw rate:	4.940	Roll:	0.709	Pitch:	0.778	Yaw:	-5.359	Thrust:	56.269
Time:	0.766	Roll Set Point:	-0.004	Pitch Set Point:	-0.026	Yaw Set Point:	0.045	X_WP:	0.000	Y_WP:	0.000	Y_WP:	0.500	X:	0.003	Y:	0.013	Z:	0.060	yaw:	-2.601	yaw rate:	4.329	Roll:	0.650	Pitch:	0.670	Yaw:	-5.161	Thrust:	64.768
Time:	0.780	Roll Set Point:	-0.005	Pitch Set Point:	-0.026	Yaw Set Point:	0.046	X_WP:	0.000	Y_WP:	0.000	Y_WP:	0.500	X:	0.003	Y:	0.013	Z:	0.060	yaw:	-2.659	yaw rate:	5.843	Roll:	0.542	Pitch:	0.791	Yaw:	-5.514	Thrust:	70.196
Time:	0.791	Roll Set Point:	-0.006	Pitch Set Point:	-0.026	Yaw Set Point:	0.046	X_WP:	0.000	Y_WP:	0.000	Y_WP:	0.500	X:	0.003	Y:	0.013	Z:	0.060	yaw:	-2.640	yaw rate:	-1.918	Roll:	1.141	Pitch:	0.703	Yaw:	-3.805	Thrust:	59.660
Time:	0.802	Roll Set Point:	-0.008	Pitch Set Point:	-0.026	Yaw Set Point:	0.047	X_WP:	0.000	Y_WP:	0.000	Y_WP:	0.500	X:	0.004	Y:	0.013	Z:	0.060	yaw:	-2.686	yaw rate:	4.569	Roll:	2.909	Pitch:	0.765	Yaw:	-5.478	Thrust:	56.895
Time:	0.813	Roll Set Point:	-0.009	Pitch Set Point:	-0.026	Yaw Set Point:	0.046	X_WP:	0.000	Y_WP:	0.000	Y_WP:	0.500	X:	0.005	Y:	0.013	Z:	0.060	yaw:	-2.661	yaw rate:	-2.516	Roll:	1.797	Pitch:	0.706	Yaw:	-3.770	Thrust:	62.818
Time:	0.827	Roll Set Point:	-0.010	Pitch Set Point:	-0.026	Yaw Set Point:	0.044	X_WP:	0.000	Y_WP:	0.000	Y_WP:	0.500	X:	0.005	Y:	0.013	Z:	0.060	yaw:	-2.507	yaw rate:	-15.412	Roll:	1.596	Pitch:	0.798	Yaw:	-1.427	Thrust:	72.207
Time:	0.847	Roll Set Point:	-0.011	Pitch Set Point:	-0.026	Yaw Set Point:	0.041	X_WP:	0.000	Y_WP:	0.000	Y_WP:	0.500	X:	0.006	Y:	0.013	Z:	0.060	yaw:	-2.371	yaw rate:	-13.608	Roll:	1.408	Pitch:	0.846	Yaw:	-2.510	Thrust:	89.759
Time:	0.857	Roll Set Point:	-0.016	Pitch Set Point:	-0.026	Yaw Set Point:	0.037	X_WP:	0.000	Y_WP:	0.000	Y_WP:	0.500	X:	0.008	Y:	0.013	Z:	0.061	yaw:	-2.143	yaw rate:	-22.329	Roll:	5.818	Pitch:	0.251	Yaw:	2.047	Thrust:	58.829
Time:	0.867	Roll Set Point:	-0.018	Pitch Set Point:	-0.025	Yaw Set Point:	0.037	X_WP:	0.000	Y_WP:	0.000	Y_WP:	0.500	X:	0.009	Y:	0.013	Z:	0.061	yaw:	-2.107	yaw rate:	-3.617	Roll:	3.043	Pitch:	0.517	Yaw:	-2.575	Thrust:	58.577
Time:	0.878	Roll Set Point:	-0.020	Pitch Set Point:	-0.025	Yaw Set Point:	0.035	X_WP:	0.000	Y_WP:	0.000	Y_WP:	0.500	X:	0.010	Y:	0.012	Z:	0.062	yaw:	-2.026	yaw rate:	-8.122	Roll:	3.190	Pitch:	0.580	Yaw:	-1.661	Thrust:	62.656
Time:	0.891	Roll Set Point:	-0.022	Pitch Set Point:	-0.025	Yaw Set Point:	0.036	X_WP:	0.000	Y_WP:	0.000	Y_WP:	0.500	X:	0.011	Y:	0.012	Z:	0.062	yaw:	-2.074	yaw rate:	4.785	Roll:	3.122	Pitch:	0.654	Yaw:	-4.661	Thrust:	67.580
Time:	0.910	Roll Set Point:	-0.024	Pitch Set Point:	-0.025	Yaw Set Point:	0.032	X_WP:	0.000	Y_WP:	0.000	Y_WP:	0.500	X:	0.012	Y:	0.012	Z:	0.062	yaw:	-1.860	yaw rate:	-21.407	Roll:	2.282	Pitch:	0.621	Yaw:	-1.014	Thrust:	97.856
Time:	0.921	Roll Set Point:	-0.030	Pitch Set Point:	-0.024	Yaw Set Point:	0.030	X_WP:	0.000	Y_WP:	0.000	Y_WP:	0.500	X:	0.015	Y:	0.012	Z:	0.063	yaw:	-1.714	yaw rate:	-4.590	Roll:	7.497	Pitch:	-0.010	Yaw:	0.251	Thrust:	63.753
Time:	0.931	Roll Set Point:	-0.032	Pitch Set Point:	-0.024	Yaw Set Point:	0.029	X_WP:	0.000	Y_WP:	0.000	Y_WP:	0.500	X:	0.016	Y:	0.012	Z:	0.064	yaw:	-1.636	yaw rate:	-7.853	Roll:	4.865	Pitch:	-0.058	Yaw:	-0.846	Thrust:	60.378
Time:	0.942	Roll Set Point:	-0.036	Pitch Set Point:	-0.023	Yaw Set Point:	0.027	X_WP:	0.000	Y_WP:	0.000	Y_WP:	0.500	X:	0.018	Y:	0.011	Z:	0.064	yaw:	-1.551	yaw rate:	-8.525	Roll:	5.465	Pitch:	0.190	Yaw:	-0.823	Thrust:	62.432
Time:	0.952	Roll Set Point:	-0.039	Pitch Set Point:	-0.023	Yaw Set Point:	0.025	X_WP:	0.000	Y_WP:	0.000	Y_WP:	0.500	X:	0.020	Y:	0.011	Z:	0.065	yaw:	-1.421	yaw rate:	-13.000	Roll:	5.420	Pitch:	-0.055	Yaw:	0.783	Thrust:	62.681
Time:	0.970	Roll Set Point:	-0.042	Pitch Set Point:	-0.022	Yaw Set Point:	0.023	X_WP:	0.000	Y_WP:	0.000	Y_WP:	0.500	X:	0.021	Y:	0.011	Z:	0.066	yaw:	-1.314	yaw rate:	-10.681	Roll:	4.157	Pitch:	0.250	Yaw:	-1.278	Thrust:	86.233
Time:	0.983	Roll Set Point:	-0.049	Pitch Set Point:	-0.021	Yaw Set Point:	0.019	X_WP:	0.000	Y_WP:	0.000	Y_WP:	0.500	X:	0.025	Y:	0.010	Z:	0.067	yaw:	-1.091	yaw rate:	-22.245	Roll:	8.197	Pitch:	-0.543	Yaw:	1.917	Thrust:	77.322
Time:	0.994	Roll Set Point:	-0.053	Pitch Set Point:	-0.020	Yaw Set Point:	0.015	X_WP:	0.000	Y_WP:	0.000	Y_WP:	0.500	X:	0.027	Y:	0.010	Z:	0.068	yaw:	-0.850	yaw rate:	-24.175	Roll:	6.110	Pitch:	-0.461	Yaw:	4.140	Thrust:	62.731
Time:	1.004	Roll Set Point:	-0.057	Pitch Set Point:	-0.020	Yaw Set Point:	0.012	X_WP:	0.000	Y_WP:	0.000	Y_WP:	0.500	X:	0.028	Y:	0.010	Z:	0.069	yaw:	-0.714	yaw rate:	-13.600	Roll:	6.752	Pitch:	-0.440	Yaw:	1.714	Thrust:	62.742
Time:	1.015	Roll Set Point:	-0.060	Pitch Set Point:	-0.019	Yaw Set Point:	0.009	X_WP:	0.000	Y_WP:	0.000	Y_WP:	0.500	X:	0.030	Y:	0.009	Z:	0.071	yaw:	-0.491	yaw rate:	-22.278	Roll:	6.401	Pitch:	-0.640	Yaw:	3.911	Thrust:	65.028
Time:	1.027	Roll Set Point:	-0.064	Pitch Set Point:	-0.018	Yaw Set Point:	0.007	X_WP:	0.000	Y_WP:	0.000	Y_WP:	0.500	X:	0.032	Y:	0.009	Z:	0.072	yaw:	-0.397	yaw rate:	-9.398	Roll:	6.651	Pitch:	-0.526	Yaw:	0.834	Thrust:	67.416
Time:	1.047	Roll Set Point:	-0.068	Pitch Set Point:	-0.017	Yaw Set Point:	0.004	X_WP:	0.000	Y_WP:	0.000	Y_WP:	0.500	X:	0.034	Y:	0.009	Z:	0.073	yaw:	-0.203	yaw rate:	-19.428	Roll:	4.418	Pitch:	0.069	Yaw:	0.961	Thrust:	100.000
Time:	1.057	Roll Set Point:	-0.076	Pitch Set Point:	-0.016	Yaw Set Point:	-0.000	X_WP:	0.000	Y_WP:	0.000	Y_WP:	0.500	X:	0.038	Y:	0.008	Z:	0.077	yaw:	0.025	yaw rate:	-12.284	Roll:	13.108	Pitch:	-1.839	Yaw:	5.334	Thrust:	56.057
Time:	1.067	Roll Set Point:	-0.085	Pitch Set Point:	-0.014	Yaw Set Point:	-0.004	X_WP:	0.000	Y_WP:	0.000	Y_WP:	0.500	X:	0.042	Y:	0.007	Z:	0.080	yaw:	0.241	yaw rate:	-21.621	Roll:	14.497	Pitch:	-2.275	Yaw:	5.342	Thrust:	52.281
Time:	1.078	Roll Set Point:	-0.089	Pitch Set Point:	-0.013	Yaw Set Point:	-0.006	X_WP:	0.000	Y_WP:	0.000	Y_WP:	0.500	X:	0.045	Y:	0.007	Z:	0.082	yaw:	0.320	yaw rate:	-7.944	Roll:	7.878	Pitch:	-0.684	Yaw:	1.714	Thrust:	62.329
Time:	1.090	Roll Set Point:	-0.094	Pitch Set Point:	-0.012	Yaw Set Point:	-0.007	X_WP:	0.000	Y_WP:	0.000	Y_WP:	0.500	X:	0.047	Y:	0.006	Z:	0.085	yaw:	0.424	yaw rate:	-10.377	Roll:	7.555	Pitch:	-0.844	Yaw:	2.048	Thrust:	70.044
Time:	1.111	Roll Set Point:	-0.098	Pitch Set Point:	-0.011	Yaw Set Point:	-0.009	X_WP:	0.000	Y_WP:	0.000	Y_WP:	0.500	X:	0.049	Y:	0.006	Z:	0.087	yaw:	0.497	yaw rate:	-7.322	Roll:	5.387	Pitch:	-0.090	Yaw:	0.194	Thrust:	100.000
Time:	1.123	Roll Set Point:	-0.107	Pitch Set Point:	-0.009	Yaw Set Point:	-0.011	X_WP:	0.000	Y_WP:	0.000	Y_WP:	0.500	X:	0.054	Y:	0.005	Z:	0.092	yaw:	0.607	yaw rate:	-7.518	Roll:	14.700	Pitch:	-2.575	Yaw:	2.588	Thrust:	58.727
Time:	1.133	Roll Set Point:	-0.112	Pitch Set Point:	-0.008	Yaw Set Point:	-0.010	X_WP:	0.000	Y_WP:	0.000	Y_WP:	0.500	X:	0.056	Y:	0.004	Z:	0.094	yaw:	0.582	yaw rate:	2.557	Roll:	8.463	Pitch:	-1.333	Yaw:	-0.495	Thrust:	61.627
Time:	1.144	Roll Set Point:	-0.116	Pitch Set Point:	-0.007	Yaw Set Point:	-0.010	X_WP:	0.000	Y_WP:	0.000	Y_WP:	0.500	X:	0.058	Y:	0.004	Z:	0.097	yaw:	0.575	yaw rate:	0.635	Roll:	8.825	Pitch:	-1.044	Yaw:	-0.046	Thrust:	61.044
Time:	1.157	Roll Set Point:	-0.121	Pitch Set Point:	-0.006	Yaw Set Point:	-0.010	X_WP:	0.000	Y_WP:	0.000	Y_WP:	0.500	X:	0.060	Y:	0.003	Z:	0.099	yaw:	0.578	yaw rate:	-0.289	Roll:	7.964	Pitch:	-1.252	Yaw:	0.068	Thrust:	75.889
Time:	1.180	Roll Set Point:	-0.125	Pitch Set Point:	-0.005	Yaw Set Point:	-0.007	X_WP:	0.000	Y_WP:	0.000	Y_WP:	0.500	X:	0.063	Y:	0.003	Z:	0.102	yaw:	0.406	yaw rate:	17.251	Roll:	6.029	Pitch:	-0.056	Yaw:	-2.888	Thrust:	100.000
Time:	1.191	Roll Set Point:	-0.138	Pitch Set Point:	-0.001	Yaw Set Point:	-0.001	X_WP:	0.000	Y_WP:	0.000	Y_WP:	0.500	X:	0.069	Y:	0.001	Z:	0.111	yaw:	0.052	yaw rate:	26.035	Roll:	16.274	Pitch:	-3.192	Yaw:	-8.322	Thrust:	54.452
Time:	1.201	Roll Set Point:	-0.142	Pitch Set Point:	0.000	Yaw Set Point:	0.002	X_WP:	0.000	Y_WP:	0.000	Y_WP:	0.500	X:	0.071	Y:	-0.000	Z:	0.114	yaw:	-0.109	yaw rate:	16.013	Roll:	8.949	Pitch:	-1.356	Yaw:	-4.964	Thrust:	57.972
Time:	1.211	Roll Set Point:	-0.146	Pitch Set Point:	0.001	Yaw Set Point:	0.004	X_WP:	0.000	Y_WP:	0.000	Y_WP:	0.500	X:	0.073	Y:	-0.001	Z:	0.117	yaw:	-0.221	yaw rate:	11.274	Roll:	8.831	Pitch:	-1.448	Yaw:	-3.775	Thrust:	58.074
Time:	1.224	Roll Set Point:	-0.149	Pitch Set Point:	0.003	Yaw Set Point:	0.007	X_WP:	0.000	Y_WP:	0.000	Y_WP:	0.500	X:	0.075	Y:	-0.002	Z:	0.120	yaw:	-0.426	yaw rate:	20.502	Roll:	8.139	Pitch:	-0.916	Yaw:	-5.967	Thrust:	70.494
Time:	1.247	Roll Set Point:	-0.153	Pitch Set Point:	0.004	Yaw Set Point:	0.009	X_WP:	0.000	Y_WP:	0.000	Y_WP:	0.500	X:	0.077	Y:	-0.002	Z:	0.123	yaw:	-0.538	yaw rate:	11.182	Roll:	7.702	Pitch:	-0.497	Yaw:	-3.474	Thrust:	100.000
Time:	1.259	Roll Set Point:	-0.161	Pitch Set Point:	0.007	Yaw Set Point:	0.015	X_WP:	0.000	Y_WP:	0.000	Y_WP:	0.500	X:	0.080	Y:	-0.004	Z:	0.129	yaw:	-0.869	yaw rate:	33.047	Roll:	9.021	Pitch:	-2.183	Yaw:	-8.465	Thrust:	66.379
Time:	1.269	Roll Set Point:	-0.168	Pitch Set Point:	0.009	Yaw Set Point:	0.022	X_WP:	0.000	Y_WP:	0.000	Y_WP:	0.500	X:	0.084	Y:	-0.006	Z:	0.136	yaw:	-1.259	yaw rate:	14.387	Roll:	13.594	Pitch:	-2.556	Yaw:	-12.610	Thrust:	52.343
Time:	1.280	Roll Set Point:	-0.172	Pitch Set Point:	0.010	Yaw Set Point:	0.027	X_WP:	0.000	Y_WP:	0.000	Y_WP:	0.500	X:	0.086	Y:	-0.006	Z:	0.139	yaw:	-1.550	yaw rate:	29.036	Roll:	8.774	Pitch:	-0.850	Yaw:	-9.742	Thrust:	64.541
Time:	1.293	Roll Set Point:	-0.175	Pitch Set Point:	0.012	Yaw Set Point:	0.029	X_WP:	0.000	Y_WP:	0.000	Y_WP:	0.500	X:	0.088	Y:	-0.007	Z:	0.142	yaw:	-1.669	yaw rate:	11.945	Roll:	8.267	Pitch:	-1.545	Yaw:	-5.573	Thrust:	76.528
Time:	1.312	Roll Set Point:	-0.179	Pitch Set Point:	0.013	Yaw Set Point:	0.034	X_WP:	0.000	Y_WP:	0.000	Y_WP:	0.500	X:	0.089	Y:	-0.008	Z:	0.146	yaw:	-1.951	yaw rate:	28.221	Roll:	6.850	Pitch:	-0.367	Yaw:	-7.844	Thrust:	100.000
Time:	1.323	Roll Set Point:	-0.185	Pitch Set Point:	0.017	Yaw Set Point:	0.038	X_WP:	0.000	Y_WP:	0.000	Y_WP:	0.500	X:	0.093	Y:	-0.010	Z:	0.153	yaw:	-2.198	yaw rate:	24.721	Roll:	12.770	Pitch:	-3.809	Yaw:	-9.518	Thrust:	53.105
Time:	1.334	Roll Set Point:	-0.188	Pitch Set Point:	0.018	Yaw Set Point:	0.043	X_WP:	0.000	Y_WP:	0.000	Y_WP:	0.500	X:	0.094	Y:	-0.011	Z:	0.157	yaw:	-2.436	yaw rate:	23.724	Roll:	8.687	Pitch:	-1.297	Yaw:	-10.001	Thrust:	60.051
Time:	1.344	Roll Set Point:	-0.194	Pitch Set Point:	0.021	Yaw Set Point:	0.047	X_WP:	0.000	Y_WP:	0.000	Y_WP:	0.500	X:	0.097	Y:	-0.013	Z:	0.164	yaw:	-2.685	yaw rate:	15.124	Roll:	12.922	Pitch:	-4.067	Yaw:	-10.647	Thrust:	40.521
Time:	1.355	Roll Set Point:	-0.197	Pitch Set Point:	0.023	Yaw Set Point:	0.049	X_WP:	0.000	Y_WP:	0.000	Y_WP:	0.500	X:	0.098	Y:	-0.014	Z:	0.168	yaw:	-2.826	yaw rate:	14.083	Roll:	8.378	Pitch:	-1.938	Yaw:	-8.040	Thrust:	66.586
Time:	1.378	Roll Set Point:	-0.200	Pitch Set Point:	0.025	Yaw Set Point:	0.048	X_WP:	0.000	Y_WP:	0.000	Y_WP:	0.500	X:	0.100	Y:	-0.015	Z:	0.172	yaw:	-2.774	yaw rate:	-5.211	Roll:	7.037	Pitch:	-1.499	Yaw:	-4.743	Thrust:	100.000
Time:	1.389	Roll Set Point:	-0.205	Pitch Set Point:	0.028	Yaw Set Point:	0.052	X_WP:	0.000	Y_WP:	0.000	Y_WP:	0.500	X:	0.102	Y:	-0.017	Z:	0.181	yaw:	-2.986	yaw rate:	4.445	Roll:	9.032	Pitch:	-2.979	Yaw:	-9.471	Thrust:	67.350
Time:	1.399	Roll Set Point:	-0.207	Pitch Set Point:	0.030	Yaw Set Point:	0.054	X_WP:	0.000	Y_WP:	0.000	Y_WP:	0.500	X:	0.103	Y:	-0.018	Z:	0.185	yaw:	-3.070	yaw rate:	8.365	Roll:	8.190	Pitch:	-2.466	Yaw:	-7.187	Thrust:	56.121
Time:	1.410	Roll Set Point:	-0.209	Pitch Set Point:	0.032	Yaw Set Point:	0.053	X_WP:	0.000	Y_WP:	0.000	Y_WP:	0.500	X:	0.104	Y:	-0.019	Z:	0.189	yaw:	-3.035	yaw rate:	-3.466	Roll:	7.700	Pitch:	-3.034	Yaw:	-4.186	Thrust:	61.876
Time:	1.422	Roll Set Point:	-0.211	Pitch Set Point:	0.033	Yaw Set Point:	0.055	X_WP:	0.000	Y_WP:	0.000	Y_WP:	0.500	X:	0.105	Y:	-0.019	Z:	0.193	yaw:	-3.153	yaw rate:	11.770	Roll:	7.543	Pitch:	-1.789	Yaw:	-8.032	Thrust:	61.962
Time:	1.434	Roll Set Point:	-0.213	Pitch Set Point:	0.035	Yaw Set Point:	0.056	X_WP:	0.000	Y_WP:	0.000	Y_WP:	0.500	X:	0.106	Y:	-0.020	Z:	0.197	yaw:	-3.215	yaw rate:	6.249	Roll:	7.266	Pitch:	-1.924	Yaw:	-6.731	Thrust:	73.367
Time:	1.447	Roll Set Point:	-0.215	Pitch Set Point:	0.036	Yaw Set Point:	0.059	X_WP:	0.000	Y_WP:	0.000	Y_WP:	0.500	X:	0.107	Y:	-0.021	Z:	0.201	yaw:	-3.362	yaw rate:	14.642	Roll:	7.127	Pitch:	-1.425	Yaw:	-8.553	Thrust:	80.187
Time:	1.458	Roll Set Point:	-0.218	Pitch Set Point:	0.039	Yaw Set Point:	0.057	X_WP:	0.000	Y_WP:	0.000	Y_WP:	0.500	X:	0.108	Y:	-0.023	Z:	0.210	yaw:	-3.239	yaw rate:	-12.267	Roll:	8.969	Pitch:	-5.369	Yaw:	-2.498	Thrust:	47.926
Time:	1.468	Roll Set Point:	-0.219	Pitch Set Point:	0.041	Yaw Set Point:	0.057	X_WP:	0.000	Y_WP:	0.000	Y_WP:	0.500	X:	0.109	Y:	-0.023	Z:	0.214	yaw:	-3.287	yaw rate:	4.848	Roll:	6.982	Pitch:	-2.261	Yaw:	-6.640	Thrust:	55.363
Time:	1.479	Roll Set Point:	-0.220	Pitch Set Point:	0.042	Yaw Set Point:	0.057	X_WP:	0.000	Y_WP:	0.000	Y_WP:	0.500	X:	0.109	Y:	-0.024	Z:	0.219	yaw:	-3.288	yaw rate:	0.098	Roll:	6.878	Pitch:	-2.725	Yaw:	-5.417	Thrust:	56.114
Time:	1.491	Roll Set Point:	-0.221	Pitch Set Point:	0.044	Yaw Set Point:	0.055	X_WP:	0.000	Y_WP:	0.000	Y_WP:	0.500	X:	0.110	Y:	-0.025	Z:	0.223	yaw:	-3.175	yaw rate:	-11.326	Roll:	6.576	Pitch:	-3.153	Yaw:	-2.680	Thrust:	63.926
Time:	1.510	Roll Set Point:	-0.222	Pitch Set Point:	0.045	Yaw Set Point:	0.056	X_WP:	0.000	Y_WP:	0.000	Y_WP:	0.500	X:	0.110	Y:	-0.026	Z:	0.227	yaw:	-3.194	yaw rate:	1.927	Roll:	6.406	Pitch:	-1.325	Yaw:	-6.349	Thrust:	100.000
Time:	1.521	Roll Set Point:	-0.224	Pitch Set Point:	0.048	Yaw Set Point:	0.055	X_WP:	0.000	Y_WP:	0.000	Y_WP:	0.500	X:	0.111	Y:	-0.027	Z:	0.236	yaw:	-3.165	yaw rate:	-4.773	Roll:	7.194	Pitch:	-3.985	Yaw:	-4.641	Thrust:	51.761
Time:	1.532	Roll Set Point:	-0.224	Pitch Set Point:	0.049	Yaw Set Point:	0.054	X_WP:	0.000	Y_WP:	0.000	Y_WP:	0.500	X:	0.111	Y:	-0.028	Z:	0.240	yaw:	-3.101	yaw rate:	-6.415	Roll:	6.094	Pitch:	-2.965	Yaw:	-3.738	Thrust:	56.003
Time:	1.543	Roll Set Point:	-0.225	Pitch Set Point:	0.050	Yaw Set Point:	0.053	X_WP:	0.000	Y_WP:	0.000	Y_WP:	0.500	X:	0.112	Y:	-0.028	Z:	0.245	yaw:	-3.050	yaw rate:	-5.090	Roll:	6.034	Pitch:	-2.363	Yaw:	-4.026	Thrust:	72.535
Time:	1.553	Roll Set Point:	-0.225	Pitch Set Point:	0.051	Yaw Set Point:	0.053	X_WP:	0.000	Y_WP:	0.000	Y_WP:	0.500	X:	0.112	Y:	-0.029	Z:	0.249	yaw:	-3.018	yaw rate:	-3.174	Roll:	5.774	Pitch:	-2.274	Yaw:	-4.279	Thrust:	57.439
Time:	1.565	Roll Set Point:	-0.225	Pitch Set Point:	0.053	Yaw Set Point:	0.051	X_WP:	0.000	Y_WP:	0.000	Y_WP:	0.500	X:	0.112	Y:	-0.029	Z:	0.253	yaw:	-2.921	yaw rate:	-9.715	Roll:	5.902	Pitch:	-2.678	Yaw:	-3.002	Thrust:	71.064
Time:	1.580	Roll Set Point:	-0.225	Pitch Set Point:	0.055	Yaw Set Point:	0.051	X_WP:	0.000	Y_WP:	0.000	Y_WP:	0.500	X:	0.112	Y:	-0.030	Z:	0.262	yaw:	-2.914	yaw rate:	-0.687	Roll:	5.758	Pitch:	-2.540	Yaw:	-5.182	Thrust:	73.146
Time:	1.591	Roll Set Point:	-0.226	Pitch Set Point:	0.055	Yaw Set Point:	0.050	X_WP:	0.000	Y_WP:	0.000	Y_WP:	0.500	X:	0.112	Y:	-0.031	Z:	0.266	yaw:	-2.877	yaw rate:	-3.739	Roll:	5.627	Pitch:	-2.070	Yaw:	-4.170	Thrust:	66.585
Time:	1.602	Roll Set Point:	-0.225	Pitch Set Point:	0.056	Yaw Set Point:	0.048	X_WP:	0.000	Y_WP:	0.000	Y_WP:	0.500	X:	0.112	Y:	-0.031	Z:	0.270	yaw:	-2.730	yaw rate:	-14.611	Roll:	5.088	Pitch:	-2.658	Yaw:	-1.325	Thrust:	63.458
Time:	1.612	Roll Set Point:	-0.225	Pitch Set Point:	0.057	Yaw Set Point:	0.047	X_WP:	0.000	Y_WP:	0.000	Y_WP:	0.500	X:	0.112	Y:	-0.031	Z:	0.274	yaw:	-2.672	yaw rate:	-5.810	Roll:	5.389	Pitch:	-2.164	Yaw:	-3.243	Thrust:	60.240
Time:	1.625	Roll Set Point:	-0.225	Pitch Set Point:	0.058	Yaw Set Point:	0.045	X_WP:	0.000	Y_WP:	0.000	Y_WP:	0.500	X:	0.112	Y:	-0.032	Z:	0.279	yaw:	-2.588	yaw rate:	-8.454	Roll:	5.024	Pitch:	-1.994	Yaw:	-3.024	Thrust:	75.803
Time:	1.646	Roll Set Point:	-0.225	Pitch Set Point:	0.058	Yaw Set Point:	0.045	X_WP:	0.000	Y_WP:	0.000	Y_WP:	0.500	X:	0.112	Y:	-0.032	Z:	0.283	yaw:	-2.594	yaw rate:	0.628	Roll:	6.046	Pitch:	-1.058	Yaw:	-5.611	Thrust:	100.000
Time:	1.657	Roll Set Point:	-0.223	Pitch Set Point:	0.060	Yaw Set Point:	0.040	X_WP:	0.000	Y_WP:	0.000	Y_WP:	0.500	X:	0.111	Y:	-0.032	Z:	0.296	yaw:	-2.303	yaw rate:	-19.050	Roll:	3.703	Pitch:	-3.763	Yaw:	2.643	Thrust:	30.822
Time:	1.667	Roll Set Point:	-0.223	Pitch Set Point:	0.060	Yaw Set Point:	0.041	X_WP:	0.000	Y_WP:	0.000	Y_WP:	0.500	X:	0.111	Y:	-0.032	Z:	0.301	yaw:	-2.332	yaw rate:	2.875	Roll:	4.664	Pitch:	-0.964	Yaw:	-4.954	Thrust:	54.852
Time:	1.677	Roll Set Point:	-0.222	Pitch Set Point:	0.060	Yaw Set Point:	0.038	X_WP:	0.000	Y_WP:	0.000	Y_WP:	0.500	X:	0.110	Y:	-0.032	Z:	0.305	yaw:	-2.186	yaw rate:	-14.589	Roll:	3.965	Pitch:	-1.957	Yaw:	-0.187	Thrust:	54.191
Time:	1.689	Roll Set Point:	-0.221	Pitch Set Point:	0.060	Yaw Set Point:	0.037	X_WP:	0.000	Y_WP:	0.000	Y_WP:	0.500	X:	0.110	Y:	-0.032	Z:	0.310	yaw:	-2.133	yaw rate:	-5.292	Roll:	4.410	Pitch:	-1.379	Yaw:	-2.800	Thrust:	62.859
Time:	1.704	Roll Set Point:	-0.220	Pitch Set Point:	0.060	Yaw Set Point:	0.036	X_WP:	0.000	Y_WP:	0.000	Y_WP:	0.500	X:	0.110	Y:	-0.032	Z:	0.314	yaw:	-2.074	yaw rate:	-5.844	Roll:	4.755	Pitch:	-1.231	Yaw:	-3.167	Thrust:	77.724
Time:	1.720	Roll Set Point:	-0.219	Pitch Set Point:	0.060	Yaw Set Point:	0.034	X_WP:	0.000	Y_WP:	0.000	Y_WP:	0.500	X:	0.109	Y:	-0.032	Z:	0.319	yaw:	-1.976	yaw rate:	-9.781	Roll:	5.789	Pitch:	-1.077	Yaw:	-3.151	Thrust:	100.000
Time:	1.730	Roll Set Point:	-0.219	Pitch Set Point:	0.061	Yaw Set Point:	0.032	X_WP:	0.000	Y_WP:	0.000	Y_WP:	0.500	X:	0.109	Y:	-0.032	Z:	0.324	yaw:	-1.812	yaw rate:	-16.426	Roll:	3.963	Pitch:	-1.950	Yaw:	0.773	Thrust:	54.657
Time:	1.741	Roll Set Point:	-0.218	Pitch Set Point:	0.060	Yaw Set Point:	0.031	X_WP:	0.000	Y_WP:	0.000	Y_WP:	0.500	X:	0.108	Y:	-0.032	Z:	0.328	yaw:	-1.761	yaw rate:	-5.082	Roll:	3.882	Pitch:	-0.768	Yaw:	-2.271	Thrust:	59.743
Time:	1.752	Roll Set Point:	-0.217	Pitch Set Point:	0.060	Yaw Set Point:	0.030	X_WP:	0.000	Y_WP:	0.000	Y_WP:	0.500	X:	0.108	Y:	-0.032	Z:	0.333	yaw:	-1.707	yaw rate:	-5.477	Roll:	4.157	Pitch:	-0.857	Yaw:	-2.132	Thrust:	61.147
Time:	1.764	Roll Set Point:	-0.215	Pitch Set Point:	0.060	Yaw Set Point:	0.026	X_WP:	0.000	Y_WP:	0.000	Y_WP:	0.500	X:	0.107	Y:	-0.031	Z:	0.342	yaw:	-1.491	yaw rate:	-21.611	Roll:	2.552	Pitch:	-0.966	Yaw:	1.167	Thrust:	59.451
Time:	1.780	Roll Set Point:	-0.214	Pitch Set Point:	0.059	Yaw Set Point:	0.025	X_WP:	0.000	Y_WP:	0.000	Y_WP:	0.500	X:	0.106	Y:	-0.031	Z:	0.346	yaw:	-1.440	yaw rate:	-5.024	Roll:	5.116	Pitch:	-0.835	Yaw:	-2.730	Thrust:	96.128
Time:	1.791	Roll Set Point:	-0.212	Pitch Set Point:	0.058	Yaw Set Point:	0.023	X_WP:	0.000	Y_WP:	0.000	Y_WP:	0.500	X:	0.105	Y:	-0.030	Z:	0.356	yaw:	-1.316	yaw rate:	-26.092	Roll:	2.510	Pitch:	0.115	Yaw:	-0.021	Thrust:	44.049
Time:	1.801	Roll Set Point:	-0.211	Pitch Set Point:	0.057	Yaw Set Point:	0.023	X_WP:	0.000	Y_WP:	0.000	Y_WP:	0.500	X:	0.105	Y:	-0.030	Z:	0.360	yaw:	-1.291	yaw rate:	-2.437	Roll:	3.641	Pitch:	-0.229	Yaw:	-2.185	Thrust:	52.468
Time:	1.812	Roll Set Point:	-0.209	Pitch Set Point:	0.057	Yaw Set Point:	0.021	X_WP:	0.000	Y_WP:	0.000	Y_WP:	0.500	X:	0.104	Y:	-0.030	Z:	0.365	yaw:	-1.199	yaw rate:	-9.269	Roll:	3.652	Pitch:	-0.492	Yaw:	-0.562	Thrust:	55.123
Time:	1.824	Roll Set Point:	-0.208	Pitch Set Point:	0.057	Yaw Set Point:	0.019	X_WP:	0.000	Y_WP:	0.000	Y_WP:	0.500	X:	0.104	Y:	-0.029	Z:	0.370	yaw:	-1.082	yaw rate:	-11.679	Roll:	3.807	Pitch:	-0.858	Yaw:	-0.242	Thrust:	73.120
Time:	1.846	Roll Set Point:	-0.207	Pitch Set Point:	0.056	Yaw Set Point:	0.018	X_WP:	0.000	Y_WP:	0.000	Y_WP:	0.500	X:	0.103	Y:	-0.029	Z:	0.375	yaw:	-1.028	yaw rate:	-5.418	Roll:	5.303	Pitch:	-0.573	Yaw:	-2.997	Thrust:	100.000
Time:	1.857	Roll Set Point:	-0.204	Pitch Set Point:	0.054	Yaw Set Point:	0.013	X_WP:	0.000	Y_WP:	0.000	Y_WP:	0.500	X:	0.102	Y:	-0.027	Z:	0.391	yaw:	-0.749	yaw rate:	-13.628	Roll:	1.670	Pitch:	0.989	Yaw:	4.085	Thrust:	37.729
Time:	1.867	Roll Set Point:	-0.203	Pitch Set Point:	0.053	Yaw Set Point:	0.012	X_WP:	0.000	Y_WP:	0.000	Y_WP:	0.500	X:	0.101	Y:	-0.027	Z:	0.396	yaw:	-0.660	yaw rate:	-8.852	Roll:	3.323	Pitch:	-0.013	Yaw:	0.352	Thrust:	50.243
Time:	1.879	Roll Set Point:	-0.202	Pitch Set Point:	0.052	Yaw Set Point:	0.009	X_WP:	0.000	Y_WP:	0.000	Y_WP:	0.500	X:	0.101	Y:	-0.026	Z:	0.401	yaw:	-0.540	yaw rate:	-12.041	Roll:	3.507	Pitch:	-0.317	Yaw:	0.751	Thrust:	59.065
Time:	1.890	Roll Set Point:	-0.201	Pitch Set Point:	0.051	Yaw Set Point:	0.008	X_WP:	0.000	Y_WP:	0.000	Y_WP:	0.500	X:	0.100	Y:	-0.026	Z:	0.406	yaw:	-0.450	yaw rate:	-9.022	Roll:	3.773	Pitch:	-0.169	Yaw:	0.171	Thrust:	60.877
Time:	1.904	Roll Set Point:	-0.199	Pitch Set Point:	0.050	Yaw Set Point:	0.006	X_WP:	0.000	Y_WP:	0.000	Y_WP:	0.500	X:	0.100	Y:	-0.025	Z:	0.411	yaw:	-0.366	yaw rate:	-8.347	Roll:	3.812	Pitch:	0.071	Yaw:	-0.193	Thrust:	74.136
Time:	1.918	Roll Set Point:	-0.198	Pitch Set Point:	0.049	Yaw Set Point:	0.004	X_WP:	0.000	Y_WP:	0.000	Y_WP:	0.500	X:	0.099	Y:	-0.025	Z:	0.416	yaw:	-0.244	yaw rate:	-12.207	Roll:	4.471	Pitch:	-0.335	Yaw:	0.434	Thrust:	90.852
Time:	1.928	Roll Set Point:	-0.198	Pitch Set Point:	0.048	Yaw Set Point:	0.005	X_WP:	0.000	Y_WP:	0.000	Y_WP:	0.500	X:	0.099	Y:	-0.024	Z:	0.421	yaw:	-0.274	yaw rate:	2.976	Roll:	3.969	Pitch:	0.976	Yaw:	-2.206	Thrust:	50.359
Time:	1.939	Roll Set Point:	-0.196	Pitch Set Point:	0.048	Yaw Set Point:	0.001	X_WP:	0.000	Y_WP:	0.000	Y_WP:	0.500	X:	0.098	Y:	-0.024	Z:	0.426	yaw:	-0.047	yaw rate:	-22.672	Roll:	3.270	Pitch:	-0.765	Yaw:	3.761	Thrust:	64.655
Time:	1.950	Roll Set Point:	-0.195	Pitch Set Point:	0.046	Yaw Set Point:	0.000	X_WP:	0.000	Y_WP:	0.000	Y_WP:	0.500	X:	0.098	Y:	-0.023	Z:	0.430	yaw:	-0.003	yaw rate:	-4.438	Roll:	3.620	Pitch:	0.578	Yaw:	-0.076	Thrust:	57.883
Time:	1.962	Roll Set Point:	-0.194	Pitch Set Point:	0.044	Yaw Set Point:	-0.003	X_WP:	0.000	Y_WP:	0.000	Y_WP:	0.500	X:	0.097	Y:	-0.022	Z:	0.440	yaw:	0.170	yaw rate:	-11.934	Roll:	2.740	Pitch:	1.256	Yaw:	2.714	Thrust:	51.593
Time:	1.976	Roll Set Point:	-0.193	Pitch Set Point:	0.043	Yaw Set Point:	-0.006	X_WP:	0.000	Y_WP:	0.000	Y_WP:	0.500	X:	0.096	Y:	-0.021	Z:	0.444	yaw:	0.349	yaw rate:	-17.864	Roll:	4.198	Pitch:	-0.258	Yaw:	2.524	Thrust:	78.523
Time:	1.987	Roll Set Point:	-0.191	Pitch Set Point:	0.041	Yaw Set Point:	-0.009	X_WP:	0.000	Y_WP:	0.000	Y_WP:	0.500	X:	0.096	Y:	-0.020	Z:	0.453	yaw:	0.498	yaw rate:	-14.987	Roll:	2.731	Pitch:	1.542	Yaw:	3.283	Thrust:	37.736
Time:	1.998	Roll Set Point:	-0.190	Pitch Set Point:	0.040	Yaw Set Point:	-0.009	X_WP:	0.000	Y_WP:	0.000	Y_WP:	0.500	X:	0.095	Y:	-0.020	Z:	0.458	yaw:	0.499	yaw rate:	-0.055	Roll:	3.867	Pitch:	0.799	Yaw:	-0.444	Thrust:	58.752
Time:	2.008	Roll Set Point:	-0.190	Pitch Set Point:	0.039	Yaw Set Point:	-0.010	X_WP:	0.000	Y_WP:	0.000	Y_WP:	0.500	X:	0.095	Y:	-0.019	Z:	0.462	yaw:	0.572	yaw rate:	-7.264	Roll:	3.699	Pitch:	0.719	Yaw:	1.485	Thrust:	55.271
Time:	2.019	Roll Set Point:	-0.189	Pitch Set Point:	0.038	Yaw Set Point:	-0.011	X_WP:	0.000	Y_WP:	0.000	Y_WP:	0.500	X:	0.095	Y:	-0.018	Z:	0.467	yaw:	0.616	yaw rate:	-4.451	Roll:	3.802	Pitch:	0.794	Yaw:	0.864	Thrust:	54.830
Time:	2.046	Roll Set Point:	-0.188	Pitch Set Point:	0.037	Yaw Set Point:	-0.012	X_WP:	0.000	Y_WP:	0.000	Y_WP:	0.500	X:	0.094	Y:	-0.018	Z:	0.471	yaw:	0.704	yaw rate:	-8.810	Roll:	5.874	Pitch:	-0.345	Yaw:	-0.906	Thrust:	100.000
Time:	2.056	Roll Set Point:	-0.186	Pitch Set Point:	0.033	Yaw Set Point:	-0.016	X_WP:	0.000	Y_WP:	0.000	Y_WP:	0.500	X:	0.093	Y:	-0.016	Z:	0.483	yaw:	0.923	yaw rate:	-17.668	Roll:	2.540	Pitch:	3.168	Yaw:	5.534	Thrust:	24.200
Time:	2.068	Roll Set Point:	-0.186	Pitch Set Point:	0.032	Yaw Set Point:	-0.017	X_WP:	0.000	Y_WP:	0.000	Y_WP:	0.500	X:	0.093	Y:	-0.015	Z:	0.487	yaw:	0.972	yaw rate:	-4.903	Roll:	4.169	Pitch:	0.780	Yaw:	1.186	Thrust:	67.409
Time:	2.079	Roll Set Point:	-0.185	Pitch Set Point:	0.031	Yaw Set Point:	-0.020	X_WP:	0.000	Y_WP:	0.000	Y_WP:	0.500	X:	0.093	Y:	-0.015	Z:	0.491	yaw:	1.121	yaw rate:	-14.898	Roll:	4.117	Pitch:	0.135	Yaw:	4.154	Thrust:	56.565
Time:	2.090	Roll Set Point:	-0.185	Pitch Set Point:	0.030	Yaw Set Point:	-0.019	X_WP:	0.000	Y_WP:	0.000	Y_WP:	0.500	X:	0.093	Y:	-0.014	Z:	0.495	yaw:	1.086	yaw rate:	3.489	Roll:	4.179	Pitch:	1.181	Yaw:	-0.454	Thrust:	55.464
Time:	2.111	Roll Set Point:	-0.185	Pitch Set Point:	0.029	Yaw Set Point:	-0.020	X_WP:	0.000	Y_WP:	0.000	Y_WP:	0.500	X:	0.092	Y:	-0.014	Z:	0.498	yaw:	1.136	yaw rate:	-4.996	Roll:	5.260	Pitch:	-0.049	Yaw:	0.261	Thrust:	100.000
Time:	2.121	Roll Set Point:	-0.184	Pitch Set Point:	0.027	Yaw Set Point:	-0.019	X_WP:	0.000	Y_WP:	0.000	Y_WP:	0.500	X:	0.092	Y:	-0.012	Z:	0.505	yaw:	1.094	yaw rate:	-3.269	Roll:	4.014	Pitch:	2.546	Yaw:	-0.590	Thrust:	52.114
Time:	2.131	Roll Set Point:	-0.183	Pitch Set Point:	0.026	Yaw Set Point:	-0.021	X_WP:	0.000	Y_WP:	0.000	Y_WP:	0.500	X:	0.092	Y:	-0.012	Z:	0.508	yaw:	1.177	yaw rate:	-8.348	Roll:	4.253	Pitch:	0.515	Yaw:	2.782	Thrust:	54.387
Time:	2.142	Roll Set Point:	-0.183	Pitch Set Point:	0.025	Yaw Set Point:	-0.020	X_WP:	0.000	Y_WP:	0.000	Y_WP:	0.500	X:	0.092	Y:	-0.011	Z:	0.511	yaw:	1.150	yaw rate:	2.667	Roll:	4.063	Pitch:	1.288	Yaw:	-0.116	Thrust:	57.047
Time:	2.152	Roll Set Point:	-0.183	Pitch Set Point:	0.023	Yaw Set Point:	-0.020	X_WP:	0.000	Y_WP:	0.000	Y_WP:	0.500	X:	0.092	Y:	-0.011	Z:	0.514	yaw:	1.162	yaw rate:	-1.174	Roll:	4.413	Pitch:	0.836	Yaw:	0.857	Thrust:	53.856
Time:	2.163	Roll Set Point:	-0.183	Pitch Set Point:	0.023	Yaw Set Point:	-0.021	X_WP:	0.000	Y_WP:	0.000	Y_WP:	0.500	X:	0.091	Y:	-0.010	Z:	0.517	yaw:	1.213	yaw rate:	-5.121	Roll:	4.671	Pitch:	0.343	Yaw:	1.763	Thrust:	67.085
Time:	2.178	Roll Set Point:	-0.183	Pitch Set Point:	0.021	Yaw Set Point:	-0.020	X_WP:	0.000	Y_WP:	0.000	Y_WP:	0.500	X:	0.091	Y:	-0.010	Z:	0.520	yaw:	1.169	yaw rate:	4.426	Roll:	4.797	Pitch:	0.846	Yaw:	-0.591	Thrust:	80.534
Time:	2.188	Roll Set Point:	-0.182	Pitch Set Point:	0.019	Yaw Set Point:	-0.019	X_WP:	0.000	Y_WP:	0.000	Y_WP:	0.500	X:	0.091	Y:	-0.009	Z:	0.525	yaw:	1.094	yaw rate:	7.473	Roll:	4.389	Pitch:	2.595	Yaw:	-1.371	Thrust:	51.577
Time:	2.199	Roll Set Point:	-0.182	Pitch Set Point:	0.018	Yaw Set Point:	-0.020	X_WP:	0.000	Y_WP:	0.000	Y_WP:	0.500	X:	0.091	Y:	-0.008	Z:	0.528	yaw:	1.133	yaw rate:	-3.887	Roll:	4.541	Pitch:	0.571	Yaw:	1.418	Thrust:	61.920
Time:	2.210	Roll Set Point:	-0.182	Pitch Set Point:	0.018	Yaw Set Point:	-0.020	X_WP:	0.000	Y_WP:	0.000	Y_WP:	0.500	X:	0.091	Y:	-0.008	Z:	0.530	yaw:	1.145	yaw rate:	-1.212	Roll:	4.475	Pitch:	0.679	Yaw:	0.865	Thrust:	58.443
Time:	2.221	Roll Set Point:	-0.182	Pitch Set Point:	0.017	Yaw Set Point:	-0.020	X_WP:	0.000	Y_WP:	0.000	Y_WP:	0.500	X:	0.091	Y:	-0.007	Z:	0.533	yaw:	1.162	yaw rate:	-1.718	Roll:	4.868	Pitch:	0.676	Yaw:	0.988	Thrust:	59.725
Time:	2.235	Roll Set Point:	-0.182	Pitch Set Point:	0.016	Yaw Set Point:	-0.021	X_WP:	0.000	Y_WP:	0.000	Y_WP:	0.500	X:	0.091	Y:	-0.007	Z:	0.536	yaw:	1.177	yaw rate:	-1.440	Roll:	4.942	Pitch:	0.332	Yaw:	0.493	Thrust:	86.935
Time:	2.247	Roll Set Point:	-0.182	Pitch Set Point:	0.015	Yaw Set Point:	-0.019	X_WP:	0.000	Y_WP:	0.000	Y_WP:	0.500	X:	0.091	Y:	-0.007	Z:	0.538	yaw:	1.111	yaw rate:	6.572	Roll:	4.925	Pitch:	0.700	Yaw:	-1.045	Thrust:	69.056
Time:	2.258	Roll Set Point:	-0.182	Pitch Set Point:	0.014	Yaw Set Point:	-0.019	X_WP:	0.000	Y_WP:	0.000	Y_WP:	0.500	X:	0.091	Y:	-0.006	Z:	0.543	yaw:	1.069	yaw rate:	4.243	Roll:	4.798	Pitch:	1.599	Yaw:	-0.581	Thrust:	54.244
Time:	2.268	Roll Set Point:	-0.182	Pitch Set Point:	0.013	Yaw Set Point:	-0.018	X_WP:	0.000	Y_WP:	0.000	Y_WP:	0.500	X:	0.091	Y:	-0.006	Z:	0.545	yaw:	1.037	yaw rate:	3.152	Roll:	4.741	Pitch:	0.910	Yaw:	-0.339	Thrust:	54.147
Time:	2.279	Roll Set Point:	-0.182	Pitch Set Point:	0.012	Yaw Set Point:	-0.018	X_WP:	0.000	Y_WP:	0.000	Y_WP:	0.500	X:	0.091	Y:	-0.005	Z:	0.547	yaw:	1.004	yaw rate:	3.342	Roll:	4.761	Pitch:	0.707	Yaw:	-0.448	Thrust:	61.306
Time:	2.292	Roll Set Point:	-0.182	Pitch Set Point:	0.012	Yaw Set Point:	-0.017	X_WP:	0.000	Y_WP:	0.000	Y_WP:	0.500	X:	0.091	Y:	-0.005	Z:	0.550	yaw:	0.967	yaw rate:	3.724	Roll:	4.903	Pitch:	0.547	Yaw:	-0.597	Thrust:	64.864
Time:	2.310	Roll Set Point:	-0.182	Pitch Set Point:	0.011	Yaw Set Point:	-0.018	X_WP:	0.000	Y_WP:	0.000	Y_WP:	0.500	X:	0.091	Y:	-0.005	Z:	0.552	yaw:	1.007	yaw rate:	-4.087	Roll:	5.529	Pitch:	-0.118	Yaw:	0.153	Thrust:	100.000
Time:	2.321	Roll Set Point:	-0.182	Pitch Set Point:	0.010	Yaw Set Point:	-0.014	X_WP:	0.000	Y_WP:	0.000	Y_WP:	0.500	X:	0.091	Y:	-0.004	Z:	0.557	yaw:	0.821	yaw rate:	16.759	Roll:	5.003	Pitch:	1.844	Yaw:	-4.184	Thrust:	58.840
Time:	2.331	Roll Set Point:	-0.182	Pitch Set Point:	0.009	Yaw Set Point:	-0.015	X_WP:	0.000	Y_WP:	0.000	Y_WP:	0.500	X:	0.091	Y:	-0.004	Z:	0.559	yaw:	0.884	yaw rate:	-6.279	Roll:	4.897	Pitch:	-0.096	Yaw:	1.910	Thrust:	53.358
Time:	2.342	Roll Set Point:	-0.183	Pitch Set Point:	0.009	Yaw Set Point:	-0.015	X_WP:	0.000	Y_WP:	0.000	Y_WP:	0.500	X:	0.091	Y:	-0.004	Z:	0.562	yaw:	0.833	yaw rate:	5.076	Roll:	4.864	Pitch:	0.653	Yaw:	-1.088	Thrust:	53.374
Time:	2.353	Roll Set Point:	-0.183	Pitch Set Point:	0.008	Yaw Set Point:	-0.014	X_WP:	0.000	Y_WP:	0.000	Y_WP:	0.500	X:	0.091	Y:	-0.004	Z:	0.564	yaw:	0.792	yaw rate:	4.175	Roll:	4.907	Pitch:	0.348	Yaw:	-0.923	Thrust:	64.576
Time:	2.365	Roll Set Point:	-0.183	Pitch Set Point:	0.008	Yaw Set Point:	-0.014	X_WP:	0.000	Y_WP:	0.000	Y_WP:	0.500	X:	0.091	Y:	-0.003	Z:	0.567	yaw:	0.792	yaw rate:	-0.054	Roll:	4.915	Pitch:	0.071	Yaw:	-0.003	Thrust:	58.631
Time:	2.379	Roll Set Point:	-0.183	Pitch Set Point:	0.008	Yaw Set Point:	-0.015	X_WP:	0.000	Y_WP:	0.000	Y_WP:	0.500	X:	0.091	Y:	-0.003	Z:	0.569	yaw:	0.850	yaw rate:	-5.839	Roll:	5.311	Pitch:	-0.372	Yaw:	0.962	Thrust:	87.987
Time:	2.389	Roll Set Point:	-0.183	Pitch Set Point:	0.007	Yaw Set Point:	-0.012	X_WP:	0.000	Y_WP:	0.000	Y_WP:	0.500	X:	0.092	Y:	-0.003	Z:	0.575	yaw:	0.715	yaw rate:	13.590	Roll:	4.923	Pitch:	1.274	Yaw:	-3.468	Thrust:	41.002
Time:	2.400	Roll Set Point:	-0.183	Pitch Set Point:	0.007	Yaw Set Point:	-0.010	X_WP:	0.000	Y_WP:	0.000	Y_WP:	0.500	X:	0.092	Y:	-0.003	Z:	0.577	yaw:	0.584	yaw rate:	13.046	Roll:	4.801	Pitch:	0.621	Yaw:	-3.304	Thrust:	57.815
Time:	2.412	Roll Set Point:	-0.183	Pitch Set Point:	0.007	Yaw Set Point:	-0.012	X_WP:	0.000	Y_WP:	0.000	Y_WP:	0.500	X:	0.092	Y:	-0.003	Z:	0.580	yaw:	0.664	yaw rate:	-8.009	Roll:	5.003	Pitch:	-0.635	Yaw:	1.555	Thrust:	65.671
Time:	2.424	Roll Set Point:	-0.183	Pitch Set Point:	0.007	Yaw Set Point:	-0.011	X_WP:	0.000	Y_WP:	0.000	Y_WP:	0.500	X:	0.092	Y:	-0.003	Z:	0.582	yaw:	0.615	yaw rate:	4.886	Roll:	5.034	Pitch:	0.221	Yaw:	-1.315	Thrust:	61.871
Time:	2.446	Roll Set Point:	-0.183	Pitch Set Point:	0.007	Yaw Set Point:	-0.010	X_WP:	0.000	Y_WP:	0.000	Y_WP:	0.500	X:	0.092	Y:	-0.003	Z:	0.585	yaw:	0.568	yaw rate:	4.736	Roll:	5.624	Pitch:	-0.318	Yaw:	-1.770	Thrust:	100.000
Time:	2.456	Roll Set Point:	-0.184	Pitch Set Point:	0.006	Yaw Set Point:	-0.006	X_WP:	0.000	Y_WP:	0.000	Y_WP:	0.500	X:	0.092	Y:	-0.003	Z:	0.590	yaw:	0.363	yaw rate:	21.363	Roll:	5.471	Pitch:	0.720	Yaw:	-5.520	Thrust:	45.308
Time:	2.466	Roll Set Point:	-0.184	Pitch Set Point:	0.007	Yaw Set Point:	-0.011	X_WP:	0.000	Y_WP:	0.000	Y_WP:	0.500	X:	0.092	Y:	-0.003	Z:	0.592	yaw:	0.603	yaw rate:	-23.990	Roll:	4.505	Pitch:	-1.752	Yaw:	6.140	Thrust:	51.172
Time:	2.478	Roll Set Point:	-0.184	Pitch Set Point:	0.007	Yaw Set Point:	-0.009	X_WP:	0.000	Y_WP:	0.000	Y_WP:	0.500	X:	0.092	Y:	-0.003	Z:	0.594	yaw:	0.514	yaw rate:	8.874	Roll:	4.988	Pitch:	0.221	Yaw:	-2.331	Thrust:	63.164
Time:	2.491	Roll Set Point:	-0.184	Pitch Set Point:	0.007	Yaw Set Point:	-0.008	X_WP:	0.000	Y_WP:	0.000	Y_WP:	0.500	X:	0.092	Y:	-0.003	Z:	0.599	yaw:	0.467	yaw rate:	4.723	Roll:	4.969	Pitch:	-0.245	Yaw:	-1.474	Thrust:	52.283
Time:	2.503	Roll Set Point:	-0.184	Pitch Set Point:	0.007	Yaw Set Point:	-0.010	X_WP:	0.000	Y_WP:	0.000	Y_WP:	0.500	X:	0.092	Y:	-0.003	Z:	0.601	yaw:	0.556	yaw rate:	-8.917	Roll:	4.943	Pitch:	-0.943	Yaw:	1.376	Thrust:	71.487
Time:	2.518	Roll Set Point:	-0.184	Pitch Set Point:	0.007	Yaw Set Point:	-0.009	X_WP:	0.000	Y_WP:	0.000	Y_WP:	0.500	X:	0.092	Y:	-0.003	Z:	0.603	yaw:	0.522	yaw rate:	3.478	Roll:	5.359	Pitch:	-0.409	Yaw:	-1.274	Thrust:	88.434
Time:	2.529	Roll Set Point:	-0.184	Pitch Set Point:	0.007	Yaw Set Point:	-0.008	X_WP:	0.000	Y_WP:	0.000	Y_WP:	0.500	X:	0.092	Y:	-0.003	Z:	0.605	yaw:	0.432	yaw rate:	8.957	Roll:	4.708	Pitch:	0.063	Yaw:	-2.529	Thrust:	56.090
Time:	2.541	Roll Set Point:	-0.184	Pitch Set Point:	0.008	Yaw Set Point:	-0.011	X_WP:	0.000	Y_WP:	0.000	Y_WP:	0.500	X:	0.092	Y:	-0.003	Z:	0.608	yaw:	0.633	yaw rate:	-20.051	Roll:	5.063	Pitch:	-1.841	Yaw:	4.419	Thrust:	60.102
Time:	2.551	Roll Set Point:	-0.184	Pitch Set Point:	0.008	Yaw Set Point:	-0.010	X_WP:	0.000	Y_WP:	0.000	Y_WP:	0.500	X:	0.092	Y:	-0.004	Z:	0.612	yaw:	0.546	yaw rate:	8.739	Roll:	4.571	Pitch:	-0.337	Yaw:	-2.354	Thrust:	42.641
Time:	2.563	Roll Set Point:	-0.184	Pitch Set Point:	0.008	Yaw Set Point:	-0.009	X_WP:	0.000	Y_WP:	0.000	Y_WP:	0.500	X:	0.092	Y:	-0.004	Z:	0.614	yaw:	0.494	yaw rate:	5.245	Roll:	4.869	Pitch:	-0.471	Yaw:	-1.538	Thrust:	63.887
Time:	2.577	Roll Set Point:	-0.184	Pitch Set Point:	0.008	Yaw Set Point:	-0.009	X_WP:	0.000	Y_WP:	0.000	Y_WP:	0.500	X:	0.092	Y:	-0.004	Z:	0.616	yaw:	0.518	yaw rate:	-2.394	Roll:	4.986	Pitch:	-0.554	Yaw:	0.022	Thrust:	70.476
Time:	2.587	Roll Set Point:	-0.184	Pitch Set Point:	0.009	Yaw Set Point:	-0.010	X_WP:	0.000	Y_WP:	0.000	Y_WP:	0.500	X:	0.092	Y:	-0.004	Z:	0.620	yaw:	0.579	yaw rate:	-6.154	Roll:	4.637	Pitch:	-1.598	Yaw:	1.370	Thrust:	44.837
Time:	2.599	Roll Set Point:	-0.184	Pitch Set Point:	0.009	Yaw Set Point:	-0.010	X_WP:	0.000	Y_WP:	0.000	Y_WP:	0.500	X:	0.092	Y:	-0.004	Z:	0.622	yaw:	0.574	yaw rate:	0.574	Roll:	4.599	Pitch:	-0.584	Yaw:	-0.325	Thrust:	55.308
Time:	2.609	Roll Set Point:	-0.184	Pitch Set Point:	0.010	Yaw Set Point:	-0.011	X_WP:	0.000	Y_WP:	0.000	Y_WP:	0.500	X:	0.092	Y:	-0.004	Z:	0.624	yaw:	0.612	yaw rate:	-3.853	Roll:	4.724	Pitch:	-1.113	Yaw:	0.713	Thrust:	58.708
Time:	2.620	Roll Set Point:	-0.184	Pitch Set Point:	0.011	Yaw Set Point:	-0.013	X_WP:	0.000	Y_WP:	0.000	Y_WP:	0.500	X:	0.092	Y:	-0.005	Z:	0.626	yaw:	0.720	yaw rate:	-10.801	Roll:	4.708	Pitch:	-1.489	Yaw:	2.744	Thrust:	52.482
Time:	2.632	Roll Set Point:	-0.184	Pitch Set Point:	0.011	Yaw Set Point:	-0.011	X_WP:	0.000	Y_WP:	0.000	Y_WP:	0.500	X:	0.092	Y:	-0.005	Z:	0.628	yaw:	0.640	yaw rate:	7.996	Roll:	4.586	Pitch:	-0.228	Yaw:	-1.918	Thrust:	62.215
Time:	2.647	Roll Set Point:	-0.184	Pitch Set Point:	0.011	Yaw Set Point:	-0.013	X_WP:	0.000	Y_WP:	0.000	Y_WP:	0.500	X:	0.092	Y:	-0.005	Z:	0.629	yaw:	0.725	yaw rate:	-8.516	Roll:	5.124	Pitch:	-0.941	Yaw:	1.155	Thrust:	83.222
Time:	2.658	Roll Set Point:	-0.183	Pitch Set Point:	0.012	Yaw Set Point:	-0.015	X_WP:	0.000	Y_WP:	0.000	Y_WP:	0.500	X:	0.092	Y:	-0.005	Z:	0.633	yaw:	0.850	yaw rate:	-12.492	Roll:	4.625	Pitch:	-2.127	Yaw:	3.150	Thrust:	50.916
Time:	2.668	Roll Set Point:	-0.183	Pitch Set Point:	0.012	Yaw Set Point:	-0.013	X_WP:	0.000	Y_WP:	0.000	Y_WP:	0.500	X:	0.092	Y:	-0.005	Z:	0.634	yaw:	0.767	yaw rate:	8.361	Roll:	4.362	Pitch:	-0.034	Yaw:	-1.998	Thrust:	49.178
Time:	2.680	Roll Set Point:	-0.183	Pitch Set Point:	0.013	Yaw Set Point:	-0.016	X_WP:	0.000	Y_WP:	0.000	Y_WP:	0.500	X:	0.092	Y:	-0.006	Z:	0.635	yaw:	0.914	yaw rate:	-14.721	Roll:	4.702	Pitch:	-1.864	Yaw:	3.783	Thrust:	57.020
Time:	2.693	Roll Set Point:	-0.183	Pitch Set Point:	0.013	Yaw Set Point:	-0.014	X_WP:	0.000	Y_WP:	0.000	Y_WP:	0.500	X:	0.092	Y:	-0.006	Z:	0.637	yaw:	0.817	yaw rate:	9.723	Roll:	4.675	Pitch:	-0.027	Yaw:	-1.988	Thrust:	66.381
Time:	2.713	Roll Set Point:	-0.183	Pitch Set Point:	0.013	Yaw Set Point:	-0.017	X_WP:	0.000	Y_WP:	0.000	Y_WP:	0.500	X:	0.091	Y:	-0.006	Z:	0.638	yaw:	0.972	yaw rate:	-15.512	Roll:	5.550	Pitch:	-1.301	Yaw:	1.349	Thrust:	100.000
Time:	2.725	Roll Set Point:	-0.182	Pitch Set Point:	0.014	Yaw Set Point:	-0.018	X_WP:	0.000	Y_WP:	0.000	Y_WP:	0.500	X:	0.091	Y:	-0.006	Z:	0.640	yaw:	1.030	yaw rate:	-12.620	Roll:	4.286	Pitch:	-1.578	Yaw:	1.763	Thrust:	53.401
Time:	2.735	Roll Set Point:	-0.182	Pitch Set Point:	0.014	Yaw Set Point:	-0.017	X_WP:	0.000	Y_WP:	0.000	Y_WP:	0.500	X:	0.091	Y:	-0.006	Z:	0.641	yaw:	0.977	yaw rate:	5.283	Roll:	4.289	Pitch:	-0.308	Yaw:	-0.863	Thrust:	50.845
Time:	2.746	Roll Set Point:	-0.182	Pitch Set Point:	0.014	Yaw Set Point:	-0.017	X_WP:	0.000	Y_WP:	0.000	Y_WP:	0.500	X:	0.091	Y:	-0.006	Z:	0.642	yaw:	0.959	yaw rate:	1.803	Roll:	4.448	Pitch:	-0.633	Yaw:	-0.042	Thrust:	57.286
Time:	2.765	Roll Set Point:	-0.182	Pitch Set Point:	0.015	Yaw Set Point:	-0.017	X_WP:	0.000	Y_WP:	0.000	Y_WP:	0.500	X:	0.091	Y:	-0.007	Z:	0.642	yaw:	0.989	yaw rate:	-2.969	Roll:	5.162	Pitch:	-0.779	Yaw:	0.165	Thrust:	100.000
Time:	2.778	Roll Set Point:	-0.181	Pitch Set Point:	0.015	Yaw Set Point:	-0.020	X_WP:	0.000	Y_WP:	0.000	Y_WP:	0.500	X:	0.091	Y:	-0.007	Z:	0.644	yaw:	1.121	yaw rate:	5.660	Roll:	4.606	Pitch:	-1.457	Yaw:	3.253	Thrust:	71.223
Time:	2.788	Roll Set Point:	-0.181	Pitch Set Point:	0.015	Yaw Set Point:	-0.019	X_WP:	0.000	Y_WP:	0.000	Y_WP:	0.500	X:	0.091	Y:	-0.007	Z:	0.644	yaw:	1.103	yaw rate:	1.813	Roll:	4.289	Pitch:	-0.438	Yaw:	0.207	Thrust:	51.812
Time:	2.798	Roll Set Point:	-0.181	Pitch Set Point:	0.015	Yaw Set Point:	-0.019	X_WP:	0.000	Y_WP:	0.000	Y_WP:	0.500	X:	0.090	Y:	-0.007	Z:	0.644	yaw:	1.091	yaw rate:	1.199	Roll:	4.237	Pitch:	-0.452	Yaw:	0.358	Thrust:	51.370
Time:	2.809	Roll Set Point:	-0.180	Pitch Set Point:	0.015	Yaw Set Point:	-0.018	X_WP:	0.000	Y_WP:	0.000	Y_WP:	0.500	X:	0.090	Y:	-0.007	Z:	0.645	yaw:	1.012	yaw rate:	7.859	Roll:	4.179	Pitch:	-0.119	Yaw:	-1.428	Thrust:	51.086
Time:	2.819	Roll Set Point:	-0.180	Pitch Set Point:	0.016	Yaw Set Point:	-0.021	X_WP:	0.000	Y_WP:	0.000	Y_WP:	0.500	X:	0.090	Y:	-0.007	Z:	0.645	yaw:	1.180	yaw rate:	-16.751	Roll:	4.435	Pitch:	-1.754	Yaw:	5.108	Thrust:	55.390
Time:	2.837	Roll Set Point:	-0.180	Pitch Set Point:	0.016	Yaw Set Point:	-0.022	X_WP:	0.000	Y_WP:	0.000	Y_WP:	0.500	X:	0.090	Y:	-0.007	Z:	0.646	yaw:	1.239	yaw rate:	-5.902	Roll:	4.952	Pitch:	-0.779	Yaw:	1.125	Thrust:	94.305
Time:	2.850	Roll Set Point:	-0.180	Pitch Set Point:	0.016	Yaw Set Point:	-0.020	X_WP:	0.000	Y_WP:	0.000	Y_WP:	0.500	X:	0.090	Y:	-0.007	Z:	0.646	yaw:	1.119	yaw rate:	11.936	Roll:	4.677	Pitch:	-0.146	Yaw:	-1.875	Thrust:	74.679
Time:	2.861	Roll Set Point:	-0.179	Pitch Set Point:	0.016	Yaw Set Point:	-0.020	X_WP:	0.000	Y_WP:	0.000	Y_WP:	0.500	X:	0.090	Y:	-0.007	Z:	0.647	yaw:	1.132	yaw rate:	-1.291	Roll:	4.160	Pitch:	-0.543	Yaw:	1.007	Thrust:	54.734
Time:	2.871	Roll Set Point:	-0.179	Pitch Set Point:	0.015	Yaw Set Point:	-0.019	X_WP:	0.000	Y_WP:	0.000	Y_WP:	0.500	X:	0.089	Y:	-0.007	Z:	0.647	yaw:	1.072	yaw rate:	6.028	Roll:	4.087	Pitch:	-0.003	Yaw:	-0.873	Thrust:	53.527
Time:	2.882	Roll Set Point:	-0.179	Pitch Set Point:	0.015	Yaw Set Point:	-0.019	X_WP:	0.000	Y_WP:	0.000	Y_WP:	0.500	X:	0.089	Y:	-0.007	Z:	0.647	yaw:	1.096	yaw rate:	-2.397	Roll:	4.231	Pitch:	-0.613	Yaw:	1.261	Thrust:	53.563
Time:	2.895	Roll Set Point:	-0.178	Pitch Set Point:	0.016	Yaw Set Point:	-0.021	X_WP:	0.000	Y_WP:	0.000	Y_WP:	0.500	X:	0.089	Y:	-0.007	Z:	0.647	yaw:	1.177	yaw rate:	-8.062	Roll:	4.552	Pitch:	-0.927	Yaw:	2.165	Thrust:	69.745
Time:	2.914	Roll Set Point:	-0.178	Pitch Set Point:	0.016	Yaw Set Point:	-0.022	X_WP:	0.000	Y_WP:	0.000	Y_WP:	0.500	X:	0.089	Y:	-0.007	Z:	0.648	yaw:	1.233	yaw rate:	-5.648	Roll:	4.962	Pitch:	-0.852	Yaw:	0.943	Thrust:	100.000
Time:	2.924	Roll Set Point:	-0.177	Pitch Set Point:	0.016	Yaw Set Point:	-0.021	X_WP:	0.000	Y_WP:	0.000	Y_WP:	0.500	X:	0.089	Y:	-0.007	Z:	0.648	yaw:	1.231	yaw rate:	5.864	Roll:	3.792	Pitch:	-0.195	Yaw:	0.828	Thrust:	50.680
Time:	2.935	Roll Set Point:	-0.177	Pitch Set Point:	0.016	Yaw Set Point:	-0.022	X_WP:	0.000	Y_WP:	0.000	Y_WP:	0.500	X:	0.088	Y:	-0.007	Z:	0.649	yaw:	1.248	yaw rate:	-1.714	Roll:	4.138	Pitch:	-0.432	Yaw:	1.317	Thrust:	50.140
Time:	2.945	Roll Set Point:	-0.176	Pitch Set Point:	0.015	Yaw Set Point:	-0.021	X_WP:	0.000	Y_WP:	0.000	Y_WP:	0.500	X:	0.088	Y:	-0.007	Z:	0.649	yaw:	1.207	yaw rate:	4.113	Roll:	4.029	Pitch:	-0.088	Yaw:	-0.180	Thrust:	53.010
Time:	2.957	Roll Set Point:	-0.176	Pitch Set Point:	0.015	Yaw Set Point:	-0.022	X_WP:	0.000	Y_WP:	0.000	Y_WP:	0.500	X:	0.088	Y:	-0.007	Z:	0.649	yaw:	1.251	yaw rate:	-4.378	Roll:	3.829	Pitch:	-0.340	Yaw:	1.741	Thrust:	60.917
Time:	2.977	Roll Set Point:	-0.175	Pitch Set Point:	0.015	Yaw Set Point:	-0.022	X_WP:	0.000	Y_WP:	0.000	Y_WP:	0.500	X:	0.088	Y:	-0.007	Z:	0.649	yaw:	1.281	yaw rate:	-2.997	Roll:	5.031	Pitch:	-0.592	Yaw:	0.679	Thrust:	100.000
Time:	2.991	Roll Set Point:	-0.175	Pitch Set Point:	0.015	Yaw Set Point:	-0.023	X_WP:	0.000	Y_WP:	0.000	Y_WP:	0.500	X:	0.087	Y:	-0.006	Z:	0.649	yaw:	1.335	yaw rate:	1.842	Roll:	3.997	Pitch:	-0.452	Yaw:	1.664	Thrust:	56.340
Time:	3.001	Roll Set Point:	-0.174	Pitch Set Point:	0.015	Yaw Set Point:	-0.024	X_WP:	0.000	Y_WP:	0.000	Y_WP:	0.500	X:	0.087	Y:	-0.006	Z:	0.649	yaw:	1.387	yaw rate:	-5.181	Roll:	4.540	Pitch:	-0.515	Yaw:	2.502	Thrust:	73.228
Time:	3.012	Roll Set Point:	-0.174	Pitch Set Point:	0.015	Yaw Set Point:	-0.024	X_WP:	0.000	Y_WP:	0.000	Y_WP:	0.500	X:	0.087	Y:	-0.006	Z:	0.649	yaw:	1.391	yaw rate:	-0.443	Roll:	4.024	Pitch:	-0.295	Yaw:	1.212	Thrust:	54.148
Time:	3.023	Roll Set Point:	-0.174	Pitch Set Point:	0.015	Yaw Set Point:	-0.025	X_WP:	0.000	Y_WP:	0.000	Y_WP:	0.500	X:	0.087	Y:	-0.006	Z:	0.649	yaw:	1.438	yaw rate:	-4.727	Roll:	4.046	Pitch:	-0.568	Yaw:	2.266	Thrust:	50.451
Time:	3.036	Roll Set Point:	-0.174	Pitch Set Point:	0.015	Yaw Set Point:	-0.026	X_WP:	0.000	Y_WP:	0.000	Y_WP:	0.500	X:	0.087	Y:	-0.006	Z:	0.649	yaw:	1.498	yaw rate:	-5.982	Roll:	4.448	Pitch:	-0.678	Yaw:	2.449	Thrust:	67.660
Time:	3.048	Roll Set Point:	-0.173	Pitch Set Point:	0.014	Yaw Set Point:	-0.026	X_WP:	0.000	Y_WP:	0.000	Y_WP:	0.500	X:	0.087	Y:	-0.006	Z:	0.649	yaw:	1.484	yaw rate:	1.369	Roll:	4.286	Pitch:	-0.133	Yaw:	0.829	Thrust:	64.129
Time:	3.058	Roll Set Point:	-0.173	Pitch Set Point:	0.014	Yaw Set Point:	-0.024	X_WP:	0.000	Y_WP:	0.000	Y_WP:	0.500	X:	0.087	Y:	-0.006	Z:	0.649	yaw:	1.367	yaw rate:	11.706	Roll:	4.144	Pitch:	0.286	Yaw:	-1.795	Thrust:	52.425
Time:	3.069	Roll Set Point:	-0.173	Pitch Set Point:	0.014	Yaw Set Point:	-0.025	X_WP:	0.000	Y_WP:	0.000	Y_WP:	0.500	X:	0.086	Y:	-0.006	Z:	0.649	yaw:	1.407	yaw rate:	-3.942	Roll:	4.210	Pitch:	-0.458	Yaw:	2.069	Thrust:	55.216
Time:	3.081	Roll Set Point:	-0.172	Pitch Set Point:	0.014	Yaw Set Point:	-0.024	X_WP:	0.000	Y_WP:	0.000	Y_WP:	0.500	X:	0.086	Y:	-0.006	Z:	0.648	yaw:	1.401	yaw rate:	0.536	Roll:	4.263	Pitch:	-0.282	Yaw:	0.944	Thrust:	60.132
Time:	3.093	Roll Set Point:	-0.172	Pitch Set Point:	0.013	Yaw Set Point:	-0.025	X_WP:	0.000	Y_WP:	0.000	Y_WP:	0.500	X:	0.086	Y:	-0.006	Z:	0.648	yaw:	1.441	yaw rate:	-3.928	Roll:	4.183	Pitch:	-0.391	Yaw:	2.093	Thrust:	56.046
Time:	3.111	Roll Set Point:	-0.172	Pitch Set Point:	0.013	Yaw Set Point:	-0.023	X_WP:	0.000	Y_WP:	0.000	Y_WP:	0.500	X:	0.086	Y:	-0.005	Z:	0.648	yaw:	1.332	yaw rate:	10.888	Roll:	4.757	Pitch:	0.024	Yaw:	-1.048	Thrust:	97.459
Time:	3.121	Roll Set Point:	-0.171	Pitch Set Point:	0.013	Yaw Set Point:	-0.023	X_WP:	0.000	Y_WP:	0.000	Y_WP:	0.500	X:	0.086	Y:	-0.005	Z:	0.647	yaw:	1.323	yaw rate:	0.881	Roll:	4.242	Pitch:	-0.218	Yaw:	0.881	Thrust:	49.396
Time:	3.131	Roll Set Point:	-0.171	Pitch Set Point:	0.013	Yaw Set Point:	-0.025	X_WP:	0.000	Y_WP:	0.000	Y_WP:	0.500	X:	0.086	Y:	-0.005	Z:	0.647	yaw:	1.456	yaw rate:	-13.312	Roll:	4.153	Pitch:	-0.942	Yaw:	4.765	Thrust:	49.828
Time:	3.143	Roll Set Point:	-0.171	Pitch Set Point:	0.012	Yaw Set Point:	-0.025	X_WP:	0.000	Y_WP:	0.000	Y_WP:	0.500	X:	0.085	Y:	-0.005	Z:	0.646	yaw:	1.433	yaw rate:	-3.385	Roll:	3.947	Pitch:	0.376	Yaw:	0.618	Thrust:	59.826
Time:	3.156	Roll Set Point:	-0.170	Pitch Set Point:	0.012	Yaw Set Point:	-0.026	X_WP:	0.000	Y_WP:	0.000	Y_WP:	0.500	X:	0.085	Y:	-0.005	Z:	0.646	yaw:	1.464	yaw rate:	-3.159	Roll:	4.266	Pitch:	-0.569	Yaw:	1.932	Thrust:	60.865
Time:	3.173	Roll Set Point:	-0.170	Pitch Set Point:	0.012	Yaw Set Point:	-0.025	X_WP:	0.000	Y_WP:	0.000	Y_WP:	0.500	X:	0.085	Y:	-0.005	Z:	0.645	yaw:	1.456	yaw rate:	0.793	Roll:	4.387	Pitch:	-0.238	Yaw:	0.755	Thrust:	71.549
Time:	3.184	Roll Set Point:	-0.170	Pitch Set Point:	0.011	Yaw Set Point:	-0.025	X_WP:	0.000	Y_WP:	0.000	Y_WP:	0.500	X:	0.085	Y:	-0.005	Z:	0.644	yaw:	1.423	yaw rate:	3.360	Roll:	4.738	Pitch:	0.061	Yaw:	0.387	Thrust:	78.249
Time:	3.196	Roll Set Point:	-0.170	Pitch Set Point:	0.011	Yaw Set Point:	-0.025	X_WP:	0.000	Y_WP:	0.000	Y_WP:	0.500	X:	0.085	Y:	-0.005	Z:	0.643	yaw:	1.411	yaw rate:	1.220	Roll:	4.282	Pitch:	-0.261	Yaw:	0.923	Thrust:	52.620
Time:	3.207	Roll Set Point:	-0.170	Pitch Set Point:	0.011	Yaw Set Point:	-0.026	X_WP:	0.000	Y_WP:	0.000	Y_WP:	0.500	X:	0.085	Y:	-0.005	Z:	0.643	yaw:	1.508	yaw rate:	-9.751	Roll:	4.454	Pitch:	-0.759	Yaw:	3.298	Thrust:	60.169
Time:	3.219	Roll Set Point:	-0.169	Pitch Set Point:	0.011	Yaw Set Point:	-0.025	X_WP:	0.000	Y_WP:	0.000	Y_WP:	0.500	X:	0.085	Y:	-0.004	Z:	0.642	yaw:	1.443	yaw rate:	6.460	Roll:	4.229	Pitch:	0.143	Yaw:	-0.252	Thrust:	57.846
Time:	3.232	Roll Set Point:	-0.169	Pitch Set Point:	0.011	Yaw Set Point:	-0.025	X_WP:	0.000	Y_WP:	0.000	Y_WP:	0.500	X:	0.085	Y:	-0.004	Z:	0.641	yaw:	1.452	yaw rate:	-0.871	Roll:	4.491	Pitch:	-0.386	Yaw:	1.259	Thrust:	65.984
Time:	3.247	Roll Set Point:	-0.169	Pitch Set Point:	0.011	Yaw Set Point:	-0.026	X_WP:	0.000	Y_WP:	0.000	Y_WP:	0.500	X:	0.085	Y:	-0.004	Z:	0.641	yaw:	1.480	yaw rate:	-2.788	Roll:	4.705	Pitch:	-0.392	Yaw:	1.570	Thrust:	76.007
Time:	3.258	Roll Set Point:	-0.169	Pitch Set Point:	0.010	Yaw Set Point:	-0.025	X_WP:	0.000	Y_WP:	0.000	Y_WP:	0.500	X:	0.084	Y:	-0.004	Z:	0.638	yaw:	1.454	yaw rate:	3.296	Roll:	4.248	Pitch:	0.304	Yaw:	0.668	Thrust:	58.965
Time:	3.268	Roll Set Point:	-0.169	Pitch Set Point:	0.010	Yaw Set Point:	-0.025	X_WP:	0.000	Y_WP:	0.000	Y_WP:	0.500	X:	0.084	Y:	-0.004	Z:	0.638	yaw:	1.421	yaw rate:	3.294	Roll:	4.254	Pitch:	0.120	Yaw:	0.459	Thrust:	54.711
Time:	3.280	Roll Set Point:	-0.169	Pitch Set Point:	0.010	Yaw Set Point:	-0.025	X_WP:	0.000	Y_WP:	0.000	Y_WP:	0.500	X:	0.084	Y:	-0.004	Z:	0.637	yaw:	1.425	yaw rate:	-0.412	Roll:	4.446	Pitch:	-0.261	Yaw:	1.308	Thrust:	57.719
Time:	3.292	Roll Set Point:	-0.169	Pitch Set Point:	0.010	Yaw Set Point:	-0.026	X_WP:	0.000	Y_WP:	0.000	Y_WP:	0.500	X:	0.084	Y:	-0.004	Z:	0.636	yaw:	1.469	yaw rate:	-4.364	Roll:	4.448	Pitch:	-0.600	Yaw:	2.123	Thrust:	58.037
Time:	3.313	Roll Set Point:	-0.169	Pitch Set Point:	0.009	Yaw Set Point:	-0.024	X_WP:	0.000	Y_WP:	0.000	Y_WP:	0.500	X:	0.084	Y:	-0.004	Z:	0.635	yaw:	1.379	yaw rate:	8.990	Roll:	4.624	Pitch:	-0.084	Yaw:	-0.580	Thrust:	100.000
Time:	3.326	Roll Set Point:	-0.169	Pitch Set Point:	0.009	Yaw Set Point:	-0.027	X_WP:	0.000	Y_WP:	0.000	Y_WP:	0.500	X:	0.084	Y:	-0.003	Z:	0.633	yaw:	1.524	yaw rate:	-13.624	Roll:	5.490	Pitch:	-0.859	Yaw:	4.426	Thrust:	66.278
Time:	3.337	Roll Set Point:	-0.168	Pitch Set Point:	0.009	Yaw Set Point:	-0.024	X_WP:	0.000	Y_WP:	0.000	Y_WP:	0.500	X:	0.084	Y:	-0.003	Z:	0.633	yaw:	1.397	yaw rate:	12.676	Roll:	4.456	Pitch:	0.562	Yaw:	-1.587	Thrust:	56.906
Time:	3.348	Roll Set Point:	-0.168	Pitch Set Point:	0.008	Yaw Set Point:	-0.025	X_WP:	0.000	Y_WP:	0.000	Y_WP:	0.500	X:	0.084	Y:	-0.003	Z:	0.632	yaw:	1.423	yaw rate:	-2.644	Roll:	4.447	Pitch:	-0.361	Yaw:	1.969	Thrust:	54.581
