Time:	0.036	Roll Set Point:	-0.075	Pitch Set Point:	0.182	Yaw Set Point:	-0.169	X_WP:	0.000	Y_WP:	0.000	Y_WP:	0.500	X:	0.045	Y:	-0.088	Z:	0.051	yaw:	9.658	yaw rate:	2.105	Roll:	0.864	Pitch:	-2.728	Yaw:	13.485	Thrust:	24.697
Time:	0.064	Roll Set Point:	-0.075	Pitch Set Point:	0.182	Yaw Set Point:	-0.169	X_WP:	0.000	Y_WP:	0.000	Y_WP:	0.500	X:	0.045	Y:	-0.088	Z:	0.051	yaw:	9.665	yaw rate:	-0.721	Roll:	0.852	Pitch:	-2.740	Yaw:	13.656	Thrust:	26.169
Time:	0.076	Roll Set Point:	-0.075	Pitch Set Point:	0.182	Yaw Set Point:	-0.169	X_WP:	0.000	Y_WP:	0.000	Y_WP:	0.500	X:	0.045	Y:	-0.088	Z:	0.051	yaw:	9.682	yaw rate:	-1.763	Roll:	0.820	Pitch:	-2.738	Yaw:	13.972	Thrust:	26.098
Time:	0.097	Roll Set Point:	-0.075	Pitch Set Point:	0.182	Yaw Set Point:	-0.169	X_WP:	0.000	Y_WP:	0.000	Y_WP:	0.500	X:	0.045	Y:	-0.088	Z:	0.051	yaw:	9.692	yaw rate:	-0.934	Roll:	0.863	Pitch:	-2.734	Yaw:	13.864	Thrust:	28.150
Time:	0.111	Roll Set Point:	-0.074	Pitch Set Point:	0.182	Yaw Set Point:	-0.179	X_WP:	0.000	Y_WP:	0.000	Y_WP:	0.500	X:	0.045	Y:	-0.088	Z:	0.051	yaw:	10.257	yaw rate:	-56.564	Roll:	-0.402	Pitch:	-3.043	Yaw:	25.463	Thrust:	26.430
Time:	0.134	Roll Set Point:	-0.075	Pitch Set Point:	0.182	Yaw Set Point:	-0.170	X_WP:	0.000	Y_WP:	0.000	Y_WP:	0.500	X:	0.045	Y:	-0.088	Z:	0.051	yaw:	9.758	yaw rate:	49.930	Roll:	1.444	Pitch:	-2.542	Yaw:	8.155	Thrust:	31.195
Time:	0.152	Roll Set Point:	-0.075	Pitch Set Point:	0.182	Yaw Set Point:	-0.171	X_WP:	0.000	Y_WP:	0.000	Y_WP:	0.500	X:	0.045	Y:	-0.088	Z:	0.051	yaw:	9.774	yaw rate:	-1.599	Roll:	0.877	Pitch:	-2.720	Yaw:	14.252	Thrust:	30.061
Time:	0.172	Roll Set Point:	-0.074	Pitch Set Point:	0.182	Yaw Set Point:	-0.178	X_WP:	0.000	Y_WP:	0.000	Y_WP:	0.500	X:	0.045	Y:	-0.088	Z:	0.051	yaw:	10.211	yaw rate:	-43.652	Roll:	0.237	Pitch:	-2.997	Yaw:	20.431	Thrust:	32.385
Time:	0.194	Roll Set Point:	-0.074	Pitch Set Point:	0.182	Yaw Set Point:	-0.181	X_WP:	0.000	Y_WP:	0.000	Y_WP:	0.500	X:	0.045	Y:	-0.088	Z:	0.051	yaw:	10.391	yaw rate:	-18.031	Roll:	0.620	Pitch:	-2.874	Yaw:	17.248	Thrust:	33.960
Time:	0.211	Roll Set Point:	-0.075	Pitch Set Point:	0.182	Yaw Set Point:	-0.170	X_WP:	0.000	Y_WP:	0.000	Y_WP:	0.500	X:	0.045	Y:	-0.088	Z:	0.051	yaw:	9.728	yaw rate:	66.261	Roll:	1.925	Pitch:	-2.354	Yaw:	3.654	Thrust:	33.337
Time:	0.233	Roll Set Point:	-0.074	Pitch Set Point:	0.182	Yaw Set Point:	-0.178	X_WP:	0.000	Y_WP:	0.000	Y_WP:	0.500	X:	0.045	Y:	-0.088	Z:	0.051	yaw:	10.209	yaw rate:	-48.056	Roll:	0.270	Pitch:	-2.996	Yaw:	20.674	Thrust:	36.420
Time:	0.255	Roll Set Point:	-0.075	Pitch Set Point:	0.182	Yaw Set Point:	-0.171	X_WP:	0.000	Y_WP:	0.000	Y_WP:	0.500	X:	0.045	Y:	-0.088	Z:	0.051	yaw:	9.787	yaw rate:	42.160	Roll:	1.436	Pitch:	-2.561	Yaw:	9.209	Thrust:	37.001
Time:	0.274	Roll Set Point:	-0.074	Pitch Set Point:	0.182	Yaw Set Point:	-0.178	X_WP:	0.000	Y_WP:	0.000	Y_WP:	0.500	X:	0.045	Y:	-0.088	Z:	0.051	yaw:	10.173	yaw rate:	-38.552	Roll:	0.316	Pitch:	-3.055	Yaw:	20.175	Thrust:	37.464
Time:	0.297	Roll Set Point:	-0.073	Pitch Set Point:	0.181	Yaw Set Point:	-0.186	X_WP:	0.000	Y_WP:	0.000	Y_WP:	0.500	X:	0.045	Y:	-0.087	Z:	0.051	yaw:	10.640	yaw rate:	-46.749	Roll:	0.060	Pitch:	-2.602	Yaw:	21.067	Thrust:	40.960
Time:	0.311	Roll Set Point:	-0.073	Pitch Set Point:	0.181	Yaw Set Point:	-0.185	X_WP:	0.000	Y_WP:	0.000	Y_WP:	0.500	X:	0.045	Y:	-0.087	Z:	0.051	yaw:	10.608	yaw rate:	3.194	Roll:	1.154	Pitch:	-2.732	Yaw:	14.914	Thrust:	35.880
Time:	0.334	Roll Set Point:	-0.072	Pitch Set Point:	0.181	Yaw Set Point:	-0.195	X_WP:	0.000	Y_WP:	0.000	Y_WP:	0.500	X:	0.045	Y:	-0.087	Z:	0.051	yaw:	11.198	yaw rate:	-58.983	Roll:	0.164	Pitch:	-3.017	Yaw:	23.603	Thrust:	43.113
Time:	0.352	Roll Set Point:	-0.072	Pitch Set Point:	0.181	Yaw Set Point:	-0.200	X_WP:	0.000	Y_WP:	0.000	Y_WP:	0.500	X:	0.045	Y:	-0.087	Z:	0.051	yaw:	11.449	yaw rate:	-25.025	Roll:	0.415	Pitch:	-2.840	Yaw:	20.693	Thrust:	38.803
Time:	0.373	Roll Set Point:	-0.072	Pitch Set Point:	0.181	Yaw Set Point:	-0.197	X_WP:	0.000	Y_WP:	0.000	Y_WP:	0.500	X:	0.045	Y:	-0.087	Z:	0.051	yaw:	11.277	yaw rate:	17.125	Roll:	1.021	Pitch:	-2.739	Yaw:	14.955	Thrust:	45.353
Time:	0.395	Roll Set Point:	-0.073	Pitch Set Point:	0.181	Yaw Set Point:	-0.187	X_WP:	0.000	Y_WP:	0.000	Y_WP:	0.500	X:	0.045	Y:	-0.087	Z:	0.051	yaw:	10.730	yaw rate:	54.740	Roll:	1.586	Pitch:	-2.560	Yaw:	9.845	Thrust:	46.228
Time:	0.412	Roll Set Point:	-0.073	Pitch Set Point:	0.181	Yaw Set Point:	-0.190	X_WP:	0.000	Y_WP:	0.000	Y_WP:	0.500	X:	0.045	Y:	-0.087	Z:	0.052	yaw:	10.897	yaw rate:	-16.743	Roll:	0.459	Pitch:	-2.773	Yaw:	18.990	Thrust:	39.830
Time:	0.433	Roll Set Point:	-0.075	Pitch Set Point:	0.181	Yaw Set Point:	-0.174	X_WP:	0.000	Y_WP:	0.000	Y_WP:	0.500	X:	0.045	Y:	-0.087	Z:	0.051	yaw:	9.970	yaw rate:	92.694	Roll:	2.441	Pitch:	-2.750	Yaw:	3.230	Thrust:	48.024
Time:	0.451	Roll Set Point:	-0.073	Pitch Set Point:	0.180	Yaw Set Point:	-0.190	X_WP:	0.000	Y_WP:	0.000	Y_WP:	0.500	X:	0.045	Y:	-0.087	Z:	0.052	yaw:	10.902	yaw rate:	-93.163	Roll:	-0.671	Pitch:	-2.734	Yaw:	29.167	Thrust:	45.672
Time:	0.476	Roll Set Point:	-0.073	Pitch Set Point:	0.180	Yaw Set Point:	-0.193	X_WP:	0.000	Y_WP:	0.000	Y_WP:	0.500	X:	0.045	Y:	-0.087	Z:	0.052	yaw:	11.040	yaw rate:	-13.830	Roll:	0.778	Pitch:	-2.823	Yaw:	18.833	Thrust:	53.010
Time:	0.491	Roll Set Point:	-0.073	Pitch Set Point:	0.179	Yaw Set Point:	-0.189	X_WP:	0.000	Y_WP:	0.000	Y_WP:	0.500	X:	0.045	Y:	-0.086	Z:	0.052	yaw:	10.835	yaw rate:	20.568	Roll:	1.280	Pitch:	-2.328	Yaw:	12.902	Thrust:	44.714
Time:	0.515	Roll Set Point:	-0.073	Pitch Set Point:	0.179	Yaw Set Point:	-0.189	X_WP:	0.000	Y_WP:	0.000	Y_WP:	0.500	X:	0.045	Y:	-0.086	Z:	0.052	yaw:	10.852	yaw rate:	-1.765	Roll:	0.888	Pitch:	-2.636	Yaw:	17.393	Thrust:	54.745
Time:	0.533	Roll Set Point:	-0.073	Pitch Set Point:	0.179	Yaw Set Point:	-0.191	X_WP:	0.000	Y_WP:	0.000	Y_WP:	0.500	X:	0.045	Y:	-0.086	Z:	0.051	yaw:	10.956	yaw rate:	-10.372	Roll:	0.600	Pitch:	-2.609	Yaw:	18.442	Thrust:	49.122
Time:	0.558	Roll Set Point:	-0.073	Pitch Set Point:	0.178	Yaw Set Point:	-0.191	X_WP:	0.000	Y_WP:	0.000	Y_WP:	0.500	X:	0.045	Y:	-0.085	Z:	0.052	yaw:	10.949	yaw rate:	0.672	Roll:	0.961	Pitch:	-2.664	Yaw:	17.531	Thrust:	59.297
Time:	0.574	Roll Set Point:	-0.075	Pitch Set Point:	0.178	Yaw Set Point:	-0.182	X_WP:	0.000	Y_WP:	0.000	Y_WP:	0.500	X:	0.045	Y:	-0.086	Z:	0.052	yaw:	10.427	yaw rate:	52.187	Roll:	2.051	Pitch:	-2.669	Yaw:	7.627	Thrust:	46.824
Time:	0.593	Roll Set Point:	-0.074	Pitch Set Point:	0.177	Yaw Set Point:	-0.179	X_WP:	0.000	Y_WP:	0.000	Y_WP:	0.500	X:	0.045	Y:	-0.085	Z:	0.053	yaw:	10.246	yaw rate:	18.154	Roll:	0.777	Pitch:	-2.227	Yaw:	13.831	Thrust:	53.694
Time:	0.611	Roll Set Point:	-0.074	Pitch Set Point:	0.175	Yaw Set Point:	-0.169	X_WP:	0.000	Y_WP:	0.000	Y_WP:	0.500	X:	0.044	Y:	-0.085	Z:	0.053	yaw:	9.666	yaw rate:	57.976	Roll:	1.398	Pitch:	-1.853	Yaw:	6.449	Thrust:	50.038
Time:	0.636	Roll Set Point:	-0.074	Pitch Set Point:	0.174	Yaw Set Point:	-0.160	X_WP:	0.000	Y_WP:	0.000	Y_WP:	0.500	X:	0.044	Y:	-0.084	Z:	0.054	yaw:	9.157	yaw rate:	50.924	Roll:	1.153	Pitch:	-2.163	Yaw:	9.822	Thrust:	63.368
Time:	0.650	Roll Set Point:	-0.072	Pitch Set Point:	0.173	Yaw Set Point:	-0.156	X_WP:	0.000	Y_WP:	0.000	Y_WP:	0.500	X:	0.043	Y:	-0.084	Z:	0.055	yaw:	8.916	yaw rate:	24.081	Roll:	0.403	Pitch:	-1.938	Yaw:	9.760	Thrust:	45.367
Time:	0.674	Roll Set Point:	-0.072	Pitch Set Point:	0.171	Yaw Set Point:	-0.159	X_WP:	0.000	Y_WP:	0.000	Y_WP:	0.500	X:	0.043	Y:	-0.083	Z:	0.057	yaw:	9.137	yaw rate:	-22.122	Roll:	0.535	Pitch:	-2.080	Yaw:	17.572	Thrust:	61.280
Time:	0.704	Roll Set Point:	-0.072	Pitch Set Point:	0.168	Yaw Set Point:	-0.143	X_WP:	0.000	Y_WP:	0.000	Y_WP:	0.500	X:	0.042	Y:	-0.081	Z:	0.058	yaw:	8.165	yaw rate:	97.175	Roll:	1.437	Pitch:	-1.592	Yaw:	5.775	Thrust:	76.137
Time:	0.715	Roll Set Point:	-0.069	Pitch Set Point:	0.165	Yaw Set Point:	-0.140	X_WP:	0.000	Y_WP:	0.000	Y_WP:	0.500	X:	0.040	Y:	-0.080	Z:	0.057	yaw:	8.032	yaw rate:	13.359	Roll:	-0.771	Pitch:	-0.607	Yaw:	9.494	Thrust:	48.360
Time:	0.732	Roll Set Point:	-0.069	Pitch Set Point:	0.159	Yaw Set Point:	-0.108	X_WP:	0.000	Y_WP:	0.000	Y_WP:	0.500	X:	0.039	Y:	-0.078	Z:	0.058	yaw:	6.213	yaw rate:	181.918	Roll:	2.656	Pitch:	1.104	Yaw:	-19.111	Thrust:	53.407
Time:	0.751	Roll Set Point:	-0.067	Pitch Set Point:	0.155	Yaw Set Point:	-0.100	X_WP:	0.000	Y_WP:	0.000	Y_WP:	0.500	X:	0.037	Y:	-0.076	Z:	0.058	yaw:	5.741	yaw rate:	47.135	Roll:	0.330	Pitch:	-0.523	Yaw:	3.706	Thrust:	60.570
Time:	0.775	Roll Set Point:	-0.062	Pitch Set Point:	0.151	Yaw Set Point:	-0.126	X_WP:	0.000	Y_WP:	0.000	Y_WP:	0.500	X:	0.036	Y:	-0.074	Z:	0.059	yaw:	7.222	yaw rate:	-148.037	Roll:	-1.488	Pitch:	-1.257	Yaw:	28.850	Thrust:	69.676
Time:	0.790	Roll Set Point:	-0.061	Pitch Set Point:	0.145	Yaw Set Point:	-0.102	X_WP:	0.000	Y_WP:	0.000	Y_WP:	0.500	X:	0.034	Y:	-0.071	Z:	0.060	yaw:	5.858	yaw rate:	136.368	Roll:	1.351	Pitch:	1.683	Yaw:	-13.303	Thrust:	51.879
Time:	0.811	Roll Set Point:	-0.059	Pitch Set Point:	0.138	Yaw Set Point:	-0.070	X_WP:	0.000	Y_WP:	0.000	Y_WP:	0.500	X:	0.032	Y:	-0.068	Z:	0.063	yaw:	4.029	yaw rate:	182.878	Roll:	1.198	Pitch:	0.922	Yaw:	-15.400	Thrust:	62.139
Time:	0.835	Roll Set Point:	-0.056	Pitch Set Point:	0.132	Yaw Set Point:	-0.065	X_WP:	0.000	Y_WP:	0.000	Y_WP:	0.500	X:	0.030	Y:	-0.065	Z:	0.065	yaw:	3.753	yaw rate:	27.657	Roll:	-0.289	Pitch:	0.227	Yaw:	4.676	Thrust:	71.041
Time:	0.851	Roll Set Point:	-0.052	Pitch Set Point:	0.124	Yaw Set Point:	-0.056	X_WP:	0.000	Y_WP:	0.000	Y_WP:	0.500	X:	0.028	Y:	-0.061	Z:	0.069	yaw:	3.190	yaw rate:	56.246	Roll:	-0.882	Pitch:	2.681	Yaw:	-3.735	Thrust:	47.158
Time:	0.874	Roll Set Point:	-0.048	Pitch Set Point:	0.116	Yaw Set Point:	-0.049	X_WP:	0.000	Y_WP:	0.000	Y_WP:	0.500	X:	0.025	Y:	-0.057	Z:	0.073	yaw:	2.821	yaw rate:	36.954	Roll:	-0.575	Pitch:	1.095	Yaw:	2.015	Thrust:	67.582
Time:	0.896	Roll Set Point:	-0.043	Pitch Set Point:	0.108	Yaw Set Point:	-0.048	X_WP:	0.000	Y_WP:	0.000	Y_WP:	0.500	X:	0.023	Y:	-0.053	Z:	0.077	yaw:	2.759	yaw rate:	6.173	Roll:	-1.269	Pitch:	1.725	Yaw:	5.206	Thrust:	62.416
Time:	0.911	Roll Set Point:	-0.038	Pitch Set Point:	0.099	Yaw Set Point:	-0.045	X_WP:	0.000	Y_WP:	0.000	Y_WP:	0.500	X:	0.020	Y:	-0.049	Z:	0.082	yaw:	2.603	yaw rate:	15.642	Roll:	-1.832	Pitch:	2.883	Yaw:	2.689	Thrust:	47.198
Time:	0.933	Roll Set Point:	-0.033	Pitch Set Point:	0.090	Yaw Set Point:	-0.037	X_WP:	0.000	Y_WP:	0.000	Y_WP:	0.500	X:	0.017	Y:	-0.045	Z:	0.087	yaw:	2.135	yaw rate:	46.709	Roll:	-1.198	Pitch:	2.101	Yaw:	-0.571	Thrust:	63.935
Time:	0.952	Roll Set Point:	-0.027	Pitch Set Point:	0.081	Yaw Set Point:	-0.043	X_WP:	0.000	Y_WP:	0.000	Y_WP:	0.500	X:	0.014	Y:	-0.040	Z:	0.092	yaw:	2.436	yaw rate:	-30.098	Roll:	-2.315	Pitch:	2.781	Yaw:	9.330	Thrust:	59.595
Time:	0.972	Roll Set Point:	-0.021	Pitch Set Point:	0.071	Yaw Set Point:	-0.038	X_WP:	0.000	Y_WP:	0.000	Y_WP:	0.500	X:	0.011	Y:	-0.035	Z:	0.098	yaw:	2.183	yaw rate:	25.344	Roll:	-1.755	Pitch:	2.765	Yaw:	1.592	Thrust:	57.784
Time:	0.999	Roll Set Point:	-0.016	Pitch Set Point:	0.062	Yaw Set Point:	-0.029	X_WP:	0.000	Y_WP:	0.000	Y_WP:	0.500	X:	0.008	Y:	-0.031	Z:	0.104	yaw:	1.668	yaw rate:	51.516	Roll:	-1.254	Pitch:	1.813	Yaw:	0.135	Thrust:	82.105
Time:	1.012	Roll Set Point:	-0.010	Pitch Set Point:	0.052	Yaw Set Point:	-0.031	X_WP:	0.000	Y_WP:	0.000	Y_WP:	0.500	X:	0.005	Y:	-0.026	Z:	0.110	yaw:	1.751	yaw rate:	-8.346	Roll:	-4.060	Pitch:	6.355	Yaw:	5.450	Thrust:	28.323
Time:	1.033	Roll Set Point:	-0.004	Pitch Set Point:	0.042	Yaw Set Point:	-0.024	X_WP:	0.000	Y_WP:	0.000	Y_WP:	0.500	X:	0.002	Y:	-0.021	Z:	0.116	yaw:	1.377	yaw rate:	37.413	Roll:	-2.067	Pitch:	3.109	Yaw:	-0.497	Thrust:	65.662
Time:	1.052	Roll Set Point:	0.002	Pitch Set Point:	0.032	Yaw Set Point:	-0.025	X_WP:	0.000	Y_WP:	0.000	Y_WP:	0.500	X:	-0.001	Y:	-0.016	Z:	0.123	yaw:	1.407	yaw rate:	-2.994	Roll:	-2.726	Pitch:	3.678	Yaw:	4.285	Thrust:	56.228
Time:	1.073	Roll Set Point:	0.009	Pitch Set Point:	0.021	Yaw Set Point:	-0.032	X_WP:	0.000	Y_WP:	0.000	Y_WP:	0.500	X:	-0.004	Y:	-0.011	Z:	0.130	yaw:	1.843	yaw rate:	-43.626	Roll:	-2.726	Pitch:	4.273	Yaw:	10.183	Thrust:	58.962
Time:	1.096	Roll Set Point:	0.014	Pitch Set Point:	0.012	Yaw Set Point:	-0.017	X_WP:	0.000	Y_WP:	0.000	Y_WP:	0.500	X:	-0.007	Y:	-0.006	Z:	0.137	yaw:	0.946	yaw rate:	89.783	Roll:	-2.061	Pitch:	3.005	Yaw:	-6.522	Thrust:	72.425
Time:	1.111	Roll Set Point:	0.020	Pitch Set Point:	0.002	Yaw Set Point:	-0.012	X_WP:	0.000	Y_WP:	0.000	Y_WP:	0.500	X:	-0.010	Y:	-0.001	Z:	0.145	yaw:	0.716	yaw rate:	22.943	Roll:	-3.252	Pitch:	4.784	Yaw:	-1.295	Thrust:	42.142
Time:	1.137	Roll Set Point:	0.025	Pitch Set Point:	-0.007	Yaw Set Point:	-0.022	X_WP:	0.000	Y_WP:	0.000	Y_WP:	0.500	X:	-0.013	Y:	0.003	Z:	0.152	yaw:	1.246	yaw rate:	-53.013	Roll:	-2.105	Pitch:	3.013	Yaw:	9.732	Thrust:	79.440
Time:	1.150	Roll Set Point:	0.031	Pitch Set Point:	-0.017	Yaw Set Point:	-0.017	X_WP:	0.000	Y_WP:	0.000	Y_WP:	0.500	X:	-0.016	Y:	0.008	Z:	0.160	yaw:	0.954	yaw rate:	29.265	Roll:	-3.781	Pitch:	5.999	Yaw:	-2.977	Thrust:	31.841
Time:	1.173	Roll Set Point:	0.037	Pitch Set Point:	-0.026	Yaw Set Point:	-0.004	X_WP:	0.000	Y_WP:	0.000	Y_WP:	0.500	X:	-0.018	Y:	0.013	Z:	0.168	yaw:	0.211	yaw rate:	74.309	Roll:	-2.638	Pitch:	3.407	Yaw:	-5.913	Thrust:	70.269
Time:	1.203	Roll Set Point:	0.042	Pitch Set Point:	-0.035	Yaw Set Point:	-0.008	X_WP:	0.000	Y_WP:	0.000	Y_WP:	0.500	X:	-0.021	Y:	0.017	Z:	0.176	yaw:	0.470	yaw rate:	-25.953	Roll:	-2.024	Pitch:	2.907	Yaw:	5.903	Thrust:	93.037
Time:	1.215	Roll Set Point:	0.046	Pitch Set Point:	-0.043	Yaw Set Point:	-0.016	X_WP:	0.000	Y_WP:	0.000	Y_WP:	0.500	X:	-0.023	Y:	0.021	Z:	0.183	yaw:	0.922	yaw rate:	-45.180	Roll:	-3.222	Pitch:	6.094	Yaw:	12.021	Thrust:	28.562
Time:	1.236	Roll Set Point:	0.051	Pitch Set Point:	-0.051	Yaw Set Point:	-0.010	X_WP:	0.000	Y_WP:	0.000	Y_WP:	0.500	X:	-0.026	Y:	0.026	Z:	0.190	yaw:	0.549	yaw rate:	37.301	Roll:	-2.739	Pitch:	3.965	Yaw:	-1.853	Thrust:	62.974
Time:	1.250	Roll Set Point:	0.056	Pitch Set Point:	-0.059	Yaw Set Point:	-0.009	X_WP:	0.000	Y_WP:	0.000	Y_WP:	0.500	X:	-0.028	Y:	0.030	Z:	0.197	yaw:	0.512	yaw rate:	3.665	Roll:	-3.348	Pitch:	5.152	Yaw:	1.537	Thrust:	43.402
Time:	1.274	Roll Set Point:	0.060	Pitch Set Point:	-0.067	Yaw Set Point:	-0.010	X_WP:	0.000	Y_WP:	0.000	Y_WP:	0.500	X:	-0.030	Y:	0.033	Z:	0.204	yaw:	0.556	yaw rate:	-4.411	Roll:	-2.280	Pitch:	3.632	Yaw:	3.642	Thrust:	76.468
Time:	1.296	Roll Set Point:	0.064	Pitch Set Point:	-0.074	Yaw Set Point:	-0.006	X_WP:	0.000	Y_WP:	0.000	Y_WP:	0.500	X:	-0.032	Y:	0.037	Z:	0.210	yaw:	0.319	yaw rate:	23.695	Roll:	-2.681	Pitch:	3.595	Yaw:	-0.254	Thrust:	74.209
Time:	1.311	Roll Set Point:	0.068	Pitch Set Point:	-0.080	Yaw Set Point:	0.005	X_WP:	0.000	Y_WP:	0.000	Y_WP:	0.500	X:	-0.034	Y:	0.040	Z:	0.215	yaw:	-0.292	yaw rate:	61.098	Roll:	-2.930	Pitch:	4.029	Yaw:	-9.515	Thrust:	47.311
Time:	1.331	Roll Set Point:	0.070	Pitch Set Point:	-0.087	Yaw Set Point:	-0.015	X_WP:	0.000	Y_WP:	0.000	Y_WP:	0.500	X:	-0.035	Y:	0.043	Z:	0.220	yaw:	0.847	yaw rate:	-113.894	Roll:	-1.392	Pitch:	4.284	Yaw:	17.912	Thrust:	72.195
Time:	1.353	Roll Set Point:	0.073	Pitch Set Point:	-0.094	Yaw Set Point:	-0.017	X_WP:	0.000	Y_WP:	0.000	Y_WP:	0.500	X:	-0.037	Y:	0.047	Z:	0.224	yaw:	0.946	yaw rate:	-9.892	Roll:	-2.373	Pitch:	3.804	Yaw:	4.707	Thrust:	74.335
Time:	1.373	Roll Set Point:	0.077	Pitch Set Point:	-0.099	Yaw Set Point:	-0.009	X_WP:	0.000	Y_WP:	0.000	Y_WP:	0.500	X:	-0.038	Y:	0.049	Z:	0.229	yaw:	0.510	yaw rate:	43.590	Roll:	-2.627	Pitch:	3.383	Yaw:	-3.200	Thrust:	71.858
Time:	1.398	Roll Set Point:	0.079	Pitch Set Point:	-0.104	Yaw Set Point:	-0.015	X_WP:	0.000	Y_WP:	0.000	Y_WP:	0.500	X:	-0.040	Y:	0.052	Z:	0.234	yaw:	0.834	yaw rate:	-32.397	Roll:	-1.674	Pitch:	3.166	Yaw:	7.093	Thrust:	87.061
Time:	1.411	Roll Set Point:	0.082	Pitch Set Point:	-0.109	Yaw Set Point:	-0.008	X_WP:	0.000	Y_WP:	0.000	Y_WP:	0.500	X:	-0.041	Y:	0.054	Z:	0.239	yaw:	0.445	yaw rate:	38.898	Roll:	-3.180	Pitch:	4.373	Yaw:	-5.223	Thrust:	44.410
Time:	1.435	Roll Set Point:	0.083	Pitch Set Point:	-0.112	Yaw Set Point:	0.000	X_WP:	0.000	Y_WP:	0.000	Y_WP:	0.500	X:	-0.042	Y:	0.056	Z:	0.244	yaw:	-0.015	yaw rate:	46.075	Roll:	-2.051	Pitch:	2.270	Yaw:	-2.727	Thrust:	84.839
Time:	1.452	Roll Set Point:	0.086	Pitch Set Point:	-0.114	Yaw Set Point:	0.010	X_WP:	0.000	Y_WP:	0.000	Y_WP:	0.500	X:	-0.043	Y:	0.057	Z:	0.250	yaw:	-0.561	yaw rate:	54.542	Roll:	-2.735	Pitch:	2.610	Yaw:	-8.077	Thrust:	52.234
Time:	1.472	Roll Set Point:	0.086	Pitch Set Point:	-0.118	Yaw Set Point:	-0.003	X_WP:	0.000	Y_WP:	0.000	Y_WP:	0.500	X:	-0.043	Y:	0.059	Z:	0.258	yaw:	0.149	yaw rate:	-71.005	Roll:	-0.892	Pitch:	3.146	Yaw:	11.136	Thrust:	70.198
Time:	1.494	Roll Set Point:	0.086	Pitch Set Point:	-0.120	Yaw Set Point:	-0.007	X_WP:	0.000	Y_WP:	0.000	Y_WP:	0.500	X:	-0.043	Y:	0.060	Z:	0.266	yaw:	0.427	yaw rate:	-27.786	Roll:	-1.190	Pitch:	2.522	Yaw:	6.152	Thrust:	69.722
Time:	1.512	Roll Set Point:	0.087	Pitch Set Point:	-0.122	Yaw Set Point:	-0.002	X_WP:	0.000	Y_WP:	0.000	Y_WP:	0.500	X:	-0.044	Y:	0.061	Z:	0.273	yaw:	0.140	yaw rate:	28.699	Roll:	-1.945	Pitch:	2.251	Yaw:	-1.733	Thrust:	62.702
Time:	1.536	Roll Set Point:	0.088	Pitch Set Point:	-0.123	Yaw Set Point:	-0.004	X_WP:	0.000	Y_WP:	0.000	Y_WP:	0.500	X:	-0.044	Y:	0.061	Z:	0.282	yaw:	0.226	yaw rate:	-8.593	Roll:	-1.270	Pitch:	2.053	Yaw:	3.569	Thrust:	74.560
Time:	1.552	Roll Set Point:	0.089	Pitch Set Point:	-0.123	Yaw Set Point:	0.011	X_WP:	0.000	Y_WP:	0.000	Y_WP:	0.500	X:	-0.044	Y:	0.062	Z:	0.292	yaw:	-0.646	yaw rate:	87.192	Roll:	-2.436	Pitch:	1.009	Yaw:	-12.953	Thrust:	45.794
Time:	1.577	Roll Set Point:	0.089	Pitch Set Point:	-0.122	Yaw Set Point:	0.015	X_WP:	0.000	Y_WP:	0.000	Y_WP:	0.500	X:	-0.044	Y:	0.062	Z:	0.302	yaw:	-0.855	yaw rate:	20.938	Roll:	-1.419	Pitch:	1.488	Yaw:	-0.953	Thrust:	81.236
Time:	1.603	Roll Set Point:	0.087	Pitch Set Point:	-0.123	Yaw Set Point:	-0.001	X_WP:	0.000	Y_WP:	0.000	Y_WP:	0.500	X:	-0.044	Y:	0.061	Z:	0.313	yaw:	0.062	yaw rate:	-91.696	Roll:	-0.282	Pitch:	1.904	Yaw:	11.762	Thrust:	85.415
Time:	1.615	Roll Set Point:	0.087	Pitch Set Point:	-0.122	Yaw Set Point:	0.002	X_WP:	0.000	Y_WP:	0.000	Y_WP:	0.500	X:	-0.043	Y:	0.061	Z:	0.324	yaw:	-0.108	yaw rate:	16.946	Roll:	-0.917	Pitch:	0.953	Yaw:	-2.640	Thrust:	14.424
Time:	1.634	Roll Set Point:	0.086	Pitch Set Point:	-0.121	Yaw Set Point:	0.006	X_WP:	0.000	Y_WP:	0.000	Y_WP:	0.500	X:	-0.043	Y:	0.060	Z:	0.337	yaw:	-0.330	yaw rate:	22.233	Roll:	-1.114	Pitch:	0.936	Yaw:	-1.749	Thrust:	47.169
Time:	1.651	Roll Set Point:	0.085	Pitch Set Point:	-0.119	Yaw Set Point:	0.002	X_WP:	0.000	Y_WP:	0.000	Y_WP:	0.500	X:	-0.042	Y:	0.060	Z:	0.350	yaw:	-0.133	yaw rate:	-19.684	Roll:	-0.332	Pitch:	0.980	Yaw:	4.493	Thrust:	36.428
Time:	1.674	Roll Set Point:	0.084	Pitch Set Point:	-0.116	Yaw Set Point:	0.015	X_WP:	0.000	Y_WP:	0.000	Y_WP:	0.500	X:	-0.042	Y:	0.058	Z:	0.363	yaw:	-0.849	yaw rate:	71.585	Roll:	-1.322	Pitch:	0.239	Yaw:	-7.238	Thrust:	67.592
Time:	1.697	Roll Set Point:	0.083	Pitch Set Point:	-0.114	Yaw Set Point:	0.014	X_WP:	0.000	Y_WP:	0.000	Y_WP:	0.500	X:	-0.041	Y:	0.057	Z:	0.376	yaw:	-0.813	yaw rate:	-3.612	Roll:	-0.663	Pitch:	0.648	Yaw:	1.601	Thrust:	64.569
Time:	1.713	Roll Set Point:	0.083	Pitch Set Point:	-0.112	Yaw Set Point:	0.033	X_WP:	0.000	Y_WP:	0.000	Y_WP:	0.500	X:	-0.040	Y:	0.057	Z:	0.388	yaw:	-1.904	yaw rate:	109.093	Roll:	-1.669	Pitch:	-0.088	Yaw:	-18.882	Thrust:	39.220
Time:	1.736	Roll Set Point:	0.078	Pitch Set Point:	-0.110	Yaw Set Point:	0.003	X_WP:	0.000	Y_WP:	0.000	Y_WP:	0.500	X:	-0.039	Y:	0.055	Z:	0.398	yaw:	-0.190	yaw rate:	-171.346	Roll:	1.174	Pitch:	1.199	Yaw:	21.757	Thrust:	69.885
Time:	1.752	Roll Set Point:	0.077	Pitch Set Point:	-0.108	Yaw Set Point:	0.004	X_WP:	0.000	Y_WP:	0.000	Y_WP:	0.500	X:	-0.038	Y:	0.054	Z:	0.409	yaw:	-0.249	yaw rate:	5.898	Roll:	-0.418	Pitch:	0.398	Yaw:	0.262	Thrust:	36.104
Time:	1.775	Roll Set Point:	0.075	Pitch Set Point:	-0.105	Yaw Set Point:	0.004	X_WP:	0.000	Y_WP:	0.000	Y_WP:	0.500	X:	-0.038	Y:	0.053	Z:	0.417	yaw:	-0.223	yaw rate:	-2.614	Roll:	-0.431	Pitch:	0.466	Yaw:	2.215	Thrust:	72.785
Time:	1.792	Roll Set Point:	0.073	Pitch Set Point:	-0.103	Yaw Set Point:	0.004	X_WP:	0.000	Y_WP:	0.000	Y_WP:	0.500	X:	-0.037	Y:	0.052	Z:	0.426	yaw:	-0.204	yaw rate:	-1.977	Roll:	-0.233	Pitch:	0.221	Yaw:	1.728	Thrust:	49.661
Time:	1.814	Roll Set Point:	0.071	Pitch Set Point:	-0.100	Yaw Set Point:	-0.007	X_WP:	0.000	Y_WP:	0.000	Y_WP:	0.500	X:	-0.036	Y:	0.050	Z:	0.433	yaw:	0.385	yaw rate:	-58.816	Roll:	0.149	Pitch:	0.454	Yaw:	9.908	Thrust:	67.401
Time:	1.832	Roll Set Point:	0.069	Pitch Set Point:	-0.097	Yaw Set Point:	-0.007	X_WP:	0.000	Y_WP:	0.000	Y_WP:	0.500	X:	-0.035	Y:	0.049	Z:	0.441	yaw:	0.408	yaw rate:	-2.349	Roll:	-0.217	Pitch:	-0.099	Yaw:	2.759	Thrust:	53.079
Time:	1.854	Roll Set Point:	0.069	Pitch Set Point:	-0.095	Yaw Set Point:	0.015	X_WP:	0.000	Y_WP:	0.000	Y_WP:	0.500	X:	-0.034	Y:	0.048	Z:	0.448	yaw:	-0.855	yaw rate:	126.307	Roll:	-1.399	Pitch:	-0.169	Yaw:	-14.403	Thrust:	70.393
Time:	1.874	Roll Set Point:	0.066	Pitch Set Point:	-0.091	Yaw Set Point:	0.010	X_WP:	0.000	Y_WP:	0.000	Y_WP:	0.500	X:	-0.033	Y:	0.046	Z:	0.454	yaw:	-0.597	yaw rate:	-25.783	Roll:	0.533	Pitch:	-0.180	Yaw:	4.537	Thrust:	63.486
Time:	1.897	Roll Set Point:	0.066	Pitch Set Point:	-0.089	Yaw Set Point:	0.016	X_WP:	0.000	Y_WP:	0.000	Y_WP:	0.500	X:	-0.033	Y:	0.045	Z:	0.462	yaw:	-0.905	yaw rate:	30.754	Roll:	-0.944	Pitch:	0.227	Yaw:	-2.505	Thrust:	77.546
Time:	1.911	Roll Set Point:	0.063	Pitch Set Point:	-0.087	Yaw Set Point:	-0.003	X_WP:	0.000	Y_WP:	0.000	Y_WP:	0.500	X:	-0.031	Y:	0.043	Z:	0.469	yaw:	0.189	yaw rate:	-109.321	Roll:	1.374	Pitch:	0.211	Yaw:	21.810	Thrust:	32.357
Time:	1.934	Roll Set Point:	0.062	Pitch Set Point:	-0.084	Yaw Set Point:	0.016	X_WP:	0.000	Y_WP:	0.000	Y_WP:	0.500	X:	-0.031	Y:	0.042	Z:	0.477	yaw:	-0.916	yaw rate:	110.467	Roll:	-1.082	Pitch:	-0.191	Yaw:	-11.405	Thrust:	75.635
Time:	1.950	Roll Set Point:	0.060	Pitch Set Point:	-0.081	Yaw Set Point:	0.010	X_WP:	0.000	Y_WP:	0.000	Y_WP:	0.500	X:	-0.030	Y:	0.040	Z:	0.485	yaw:	-0.557	yaw rate:	-35.934	Roll:	0.326	Pitch:	-0.482	Yaw:	6.589	Thrust:	40.665
Time:	1.971	Roll Set Point:	0.058	Pitch Set Point:	-0.078	Yaw Set Point:	0.005	X_WP:	0.000	Y_WP:	0.000	Y_WP:	0.500	X:	-0.029	Y:	0.039	Z:	0.493	yaw:	-0.308	yaw rate:	-24.874	Roll:	0.083	Pitch:	0.037	Yaw:	4.694	Thrust:	64.078
Time:	1.995	Roll Set Point:	0.057	Pitch Set Point:	-0.075	Yaw Set Point:	0.017	X_WP:	0.000	Y_WP:	0.000	Y_WP:	0.500	X:	-0.028	Y:	0.038	Z:	0.502	yaw:	-0.979	yaw rate:	67.045	Roll:	-0.649	Pitch:	-0.218	Yaw:	-6.521	Thrust:	74.683
Time:	2.014	Roll Set Point:	0.055	Pitch Set Point:	-0.073	Yaw Set Point:	0.014	X_WP:	0.000	Y_WP:	0.000	Y_WP:	0.500	X:	-0.027	Y:	0.036	Z:	0.509	yaw:	-0.791	yaw rate:	-18.733	Roll:	0.032	Pitch:	-0.212	Yaw:	3.304	Thrust:	52.106
Time:	2.031	Roll Set Point:	0.053	Pitch Set Point:	-0.071	Yaw Set Point:	-0.001	X_WP:	0.000	Y_WP:	0.000	Y_WP:	0.500	X:	-0.026	Y:	0.035	Z:	0.517	yaw:	0.080	yaw rate:	-87.087	Roll:	0.832	Pitch:	0.211	Yaw:	14.957	Thrust:	47.382
Time:	2.053	Roll Set Point:	0.051	Pitch Set Point:	-0.068	Yaw Set Point:	-0.000	X_WP:	0.000	Y_WP:	0.000	Y_WP:	0.500	X:	-0.026	Y:	0.034	Z:	0.525	yaw:	0.021	yaw rate:	5.818	Roll:	-0.159	Pitch:	-0.161	Yaw:	1.345	Thrust:	63.644
Time:	2.072	Roll Set Point:	0.051	Pitch Set Point:	-0.065	Yaw Set Point:	0.016	X_WP:	0.000	Y_WP:	0.000	Y_WP:	0.500	X:	-0.025	Y:	0.033	Z:	0.532	yaw:	-0.912	yaw rate:	93.326	Roll:	-0.770	Pitch:	-0.632	Yaw:	-12.263	Thrust:	53.417
Time:	2.093	Roll Set Point:	0.049	Pitch Set Point:	-0.063	Yaw Set Point:	0.014	X_WP:	0.000	Y_WP:	0.000	Y_WP:	0.500	X:	-0.024	Y:	0.032	Z:	0.540	yaw:	-0.777	yaw rate:	-13.524	Roll:	-0.086	Pitch:	-0.120	Yaw:	2.623	Thrust:	64.016
Time:	2.111	Roll Set Point:	0.048	Pitch Set Point:	-0.060	Yaw Set Point:	0.017	X_WP:	0.000	Y_WP:	0.000	Y_WP:	0.500	X:	-0.024	Y:	0.030	Z:	0.548	yaw:	-0.987	yaw rate:	21.040	Roll:	-0.123	Pitch:	-0.551	Yaw:	-2.711	Thrust:	47.487
Time:	2.132	Roll Set Point:	0.046	Pitch Set Point:	-0.057	Yaw Set Point:	0.023	X_WP:	0.000	Y_WP:	0.000	Y_WP:	0.500	X:	-0.023	Y:	0.029	Z:	0.555	yaw:	-1.295	yaw rate:	30.838	Roll:	-0.254	Pitch:	-0.429	Yaw:	-3.771	Thrust:	58.281
Time:	2.153	Roll Set Point:	0.045	Pitch Set Point:	-0.055	Yaw Set Point:	0.018	X_WP:	0.000	Y_WP:	0.000	Y_WP:	0.500	X:	-0.022	Y:	0.028	Z:	0.563	yaw:	-1.014	yaw rate:	-28.145	Roll:	-0.070	Pitch:	-0.120	Yaw:	4.185	Thrust:	54.750
Time:	2.172	Roll Set Point:	0.046	Pitch Set Point:	-0.053	Yaw Set Point:	0.039	X_WP:	0.000	Y_WP:	0.000	Y_WP:	0.500	X:	-0.022	Y:	0.027	Z:	0.570	yaw:	-2.218	yaw rate:	120.446	Roll:	-1.098	Pitch:	-0.330	Yaw:	-16.557	Thrust:	55.478
Time:	2.196	Roll Set Point:	0.043	Pitch Set Point:	-0.052	Yaw Set Point:	0.015	X_WP:	0.000	Y_WP:	0.000	Y_WP:	0.500	X:	-0.021	Y:	0.026	Z:	0.577	yaw:	-0.850	yaw rate:	-136.800	Roll:	0.418	Pitch:	0.203	Yaw:	15.859	Thrust:	76.691
Time:	2.212	Roll Set Point:	0.042	Pitch Set Point:	-0.050	Yaw Set Point:	0.009	X_WP:	0.000	Y_WP:	0.000	Y_WP:	0.500	X:	-0.021	Y:	0.025	Z:	0.584	yaw:	-0.509	yaw rate:	-34.144	Roll:	0.025	Pitch:	-0.297	Yaw:	6.353	Thrust:	37.256
Time:	2.233	Roll Set Point:	0.041	Pitch Set Point:	-0.048	Yaw Set Point:	0.010	X_WP:	0.000	Y_WP:	0.000	Y_WP:	0.500	X:	-0.020	Y:	0.024	Z:	0.590	yaw:	-0.588	yaw rate:	7.916	Roll:	-0.321	Pitch:	-0.118	Yaw:	0.154	Thrust:	60.356
Time:	2.250	Roll Set Point:	0.041	Pitch Set Point:	-0.046	Yaw Set Point:	0.015	X_WP:	0.000	Y_WP:	0.000	Y_WP:	0.500	X:	-0.020	Y:	0.023	Z:	0.597	yaw:	-0.857	yaw rate:	26.938	Roll:	-0.332	Pitch:	-0.310	Yaw:	-3.740	Thrust:	41.082
Time:	2.273	Roll Set Point:	0.039	Pitch Set Point:	-0.044	Yaw Set Point:	0.008	X_WP:	0.000	Y_WP:	0.000	Y_WP:	0.500	X:	-0.020	Y:	0.022	Z:	0.603	yaw:	-0.472	yaw rate:	-38.591	Roll:	-0.117	Pitch:	-0.110	Yaw:	5.935	Thrust:	65.815
Time:	2.291	Roll Set Point:	0.039	Pitch Set Point:	-0.043	Yaw Set Point:	0.009	X_WP:	0.000	Y_WP:	0.000	Y_WP:	0.500	X:	-0.019	Y:	0.022	Z:	0.609	yaw:	-0.518	yaw rate:	4.698	Roll:	-0.335	Pitch:	-0.074	Yaw:	0.306	Thrust:	48.496
Time:	2.313	Roll Set Point:	0.038	Pitch Set Point:	-0.042	Yaw Set Point:	0.008	X_WP:	0.000	Y_WP:	0.000	Y_WP:	0.500	X:	-0.019	Y:	0.021	Z:	0.614	yaw:	-0.456	yaw rate:	-6.201	Roll:	-0.387	Pitch:	-0.040	Yaw:	2.100	Thrust:	60.897
Time:	2.331	Roll Set Point:	0.038	Pitch Set Point:	-0.040	Yaw Set Point:	0.011	X_WP:	0.000	Y_WP:	0.000	Y_WP:	0.500	X:	-0.019	Y:	0.020	Z:	0.618	yaw:	-0.602	yaw rate:	14.597	Roll:	-0.350	Pitch:	-0.143	Yaw:	-1.189	Thrust:	53.947
Time:	2.353	Roll Set Point:	0.037	Pitch Set Point:	-0.040	Yaw Set Point:	0.004	X_WP:	0.000	Y_WP:	0.000	Y_WP:	0.500	X:	-0.019	Y:	0.020	Z:	0.622	yaw:	-0.218	yaw rate:	-38.473	Roll:	-0.299	Pitch:	0.263	Yaw:	6.350	Thrust:	61.047
Time:	2.370	Roll Set Point:	0.037	Pitch Set Point:	-0.038	Yaw Set Point:	0.011	X_WP:	0.000	Y_WP:	0.000	Y_WP:	0.500	X:	-0.019	Y:	0.019	Z:	0.625	yaw:	-0.616	yaw rate:	39.855	Roll:	-0.656	Pitch:	-0.089	Yaw:	-5.188	Thrust:	54.017
Time:	2.396	Roll Set Point:	0.037	Pitch Set Point:	-0.037	Yaw Set Point:	0.006	X_WP:	0.000	Y_WP:	0.000	Y_WP:	0.500	X:	-0.018	Y:	0.019	Z:	0.628	yaw:	-0.369	yaw rate:	-24.772	Roll:	-0.280	Pitch:	-0.022	Yaw:	4.363	Thrust:	82.136
Time:	2.412	Roll Set Point:	0.036	Pitch Set Point:	-0.036	Yaw Set Point:	0.006	X_WP:	0.000	Y_WP:	0.000	Y_WP:	0.500	X:	-0.018	Y:	0.018	Z:	0.630	yaw:	-0.340	yaw rate:	-2.814	Roll:	-0.453	Pitch:	0.099	Yaw:	1.451	Thrust:	44.455
Time:	2.433	Roll Set Point:	0.036	Pitch Set Point:	-0.035	Yaw Set Point:	0.007	X_WP:	0.000	Y_WP:	0.000	Y_WP:	0.500	X:	-0.018	Y:	0.018	Z:	0.632	yaw:	-0.373	yaw rate:	3.250	Roll:	-0.392	Pitch:	-0.049	Yaw:	0.893	Thrust:	61.557
Time:	2.455	Roll Set Point:	0.036	Pitch Set Point:	-0.035	Yaw Set Point:	0.007	X_WP:	0.000	Y_WP:	0.000	Y_WP:	0.500	X:	-0.018	Y:	0.017	Z:	0.634	yaw:	-0.415	yaw rate:	4.242	Roll:	-0.554	Pitch:	0.160	Yaw:	0.903	Thrust:	67.246
Time:	2.474	Roll Set Point:	0.036	Pitch Set Point:	-0.034	Yaw Set Point:	0.009	X_WP:	0.000	Y_WP:	0.000	Y_WP:	0.500	X:	-0.018	Y:	0.017	Z:	0.637	yaw:	-0.505	yaw rate:	8.970	Roll:	-0.502	Pitch:	0.139	Yaw:	-0.203	Thrust:	53.293
Time:	2.497	Roll Set Point:	0.035	Pitch Set Point:	-0.033	Yaw Set Point:	0.009	X_WP:	0.000	Y_WP:	0.000	Y_WP:	0.500	X:	-0.018	Y:	0.017	Z:	0.639	yaw:	-0.510	yaw rate:	0.450	Roll:	-0.428	Pitch:	0.163	Yaw:	1.305	Thrust:	71.042
Time:	2.512	Roll Set Point:	0.036	Pitch Set Point:	-0.033	Yaw Set Point:	0.030	X_WP:	0.000	Y_WP:	0.000	Y_WP:	0.500	X:	-0.018	Y:	0.017	Z:	0.642	yaw:	-1.709	yaw rate:	119.945	Roll:	-1.232	Pitch:	0.042	Yaw:	-19.834	Thrust:	45.113
Time:	2.530	Roll Set Point:	0.035	Pitch Set Point:	-0.032	Yaw Set Point:	0.007	X_WP:	0.000	Y_WP:	0.000	Y_WP:	0.500	X:	-0.017	Y:	0.016	Z:	0.644	yaw:	-0.399	yaw rate:	-131.023	Roll:	0.291	Pitch:	0.147	Yaw:	20.397	Thrust:	48.293
Time:	2.552	Roll Set Point:	0.035	Pitch Set Point:	-0.032	Yaw Set Point:	0.009	X_WP:	0.000	Y_WP:	0.000	Y_WP:	0.500	X:	-0.017	Y:	0.016	Z:	0.647	yaw:	-0.493	yaw rate:	9.440	Roll:	-0.590	Pitch:	0.315	Yaw:	0.190	Thrust:	63.583
Time:	2.574	Roll Set Point:	0.035	Pitch Set Point:	-0.031	Yaw Set Point:	0.007	X_WP:	0.000	Y_WP:	0.000	Y_WP:	0.500	X:	-0.017	Y:	0.016	Z:	0.651	yaw:	-0.417	yaw rate:	-7.660	Roll:	-0.432	Pitch:	0.199	Yaw:	2.269	Thrust:	59.705
Time:	2.594	Roll Set Point:	0.035	Pitch Set Point:	-0.031	Yaw Set Point:	0.002	X_WP:	0.000	Y_WP:	0.000	Y_WP:	0.500	X:	-0.017	Y:	0.016	Z:	0.654	yaw:	-0.121	yaw rate:	-29.548	Roll:	-0.404	Pitch:	0.344	Yaw:	5.424	Thrust:	56.076
Time:	2.611	Roll Set Point:	0.035	Pitch Set Point:	-0.031	Yaw Set Point:	0.009	X_WP:	0.000	Y_WP:	0.000	Y_WP:	0.500	X:	-0.017	Y:	0.016	Z:	0.658	yaw:	-0.517	yaw rate:	39.610	Roll:	-0.674	Pitch:	0.154	Yaw:	-5.483	Thrust:	38.841
Time:	2.635	Roll Set Point:	0.035	Pitch Set Point:	-0.031	Yaw Set Point:	0.012	X_WP:	0.000	Y_WP:	0.000	Y_WP:	0.500	X:	-0.017	Y:	0.016	Z:	0.662	yaw:	-0.703	yaw rate:	18.611	Roll:	-0.543	Pitch:	0.326	Yaw:	-0.789	Thrust:	68.202
Time:	2.650	Roll Set Point:	0.036	Pitch Set Point:	-0.031	Yaw Set Point:	0.030	X_WP:	0.000	Y_WP:	0.000	Y_WP:	0.500	X:	-0.018	Y:	0.016	Z:	0.666	yaw:	-1.713	yaw rate:	100.938	Roll:	-1.256	Pitch:	0.299	Yaw:	-18.623	Thrust:	31.676
Time:	2.674	Roll Set Point:	0.034	Pitch Set Point:	-0.031	Yaw Set Point:	0.005	X_WP:	0.000	Y_WP:	0.000	Y_WP:	0.500	X:	-0.017	Y:	0.015	Z:	0.670	yaw:	-0.274	yaw rate:	-143.883	Roll:	0.060	Pitch:	0.422	Yaw:	17.488	Thrust:	63.157
Time:	2.698	Roll Set Point:	0.034	Pitch Set Point:	-0.031	Yaw Set Point:	0.009	X_WP:	0.000	Y_WP:	0.000	Y_WP:	0.500	X:	-0.017	Y:	0.015	Z:	0.673	yaw:	-0.536	yaw rate:	26.263	Roll:	-0.619	Pitch:	0.332	Yaw:	-1.783	Thrust:	62.611
Time:	2.711	Roll Set Point:	0.034	Pitch Set Point:	-0.031	Yaw Set Point:	0.003	X_WP:	0.000	Y_WP:	0.000	Y_WP:	0.500	X:	-0.017	Y:	0.015	Z:	0.676	yaw:	-0.158	yaw rate:	-37.802	Roll:	-0.241	Pitch:	0.405	Yaw:	7.873	Thrust:	31.074
Time:	2.734	Roll Set Point:	0.034	Pitch Set Point:	-0.031	Yaw Set Point:	0.007	X_WP:	0.000	Y_WP:	0.000	Y_WP:	0.500	X:	-0.017	Y:	0.016	Z:	0.678	yaw:	-0.380	yaw rate:	22.151	Roll:	-0.641	Pitch:	0.419	Yaw:	-1.108	Thrust:	60.536
Time:	2.750	Roll Set Point:	0.034	Pitch Set Point:	-0.031	Yaw Set Point:	0.006	X_WP:	0.000	Y_WP:	0.000	Y_WP:	0.500	X:	-0.017	Y:	0.015	Z:	0.681	yaw:	-0.350	yaw rate:	-2.978	Roll:	-0.442	Pitch:	0.341	Yaw:	1.441	Thrust:	39.760
Time:	2.771	Roll Set Point:	0.034	Pitch Set Point:	-0.031	Yaw Set Point:	0.011	X_WP:	0.000	Y_WP:	0.000	Y_WP:	0.500	X:	-0.017	Y:	0.016	Z:	0.683	yaw:	-0.633	yaw rate:	28.328	Roll:	-0.655	Pitch:	0.381	Yaw:	-2.828	Thrust:	51.978
Time:	2.797	Roll Set Point:	0.034	Pitch Set Point:	-0.031	Yaw Set Point:	0.010	X_WP:	0.000	Y_WP:	0.000	Y_WP:	0.500	X:	-0.017	Y:	0.016	Z:	0.684	yaw:	-0.592	yaw rate:	-4.192	Roll:	-0.528	Pitch:	0.436	Yaw:	1.857	Thrust:	72.616
Time:	2.811	Roll Set Point:	0.034	Pitch Set Point:	-0.031	Yaw Set Point:	0.007	X_WP:	0.000	Y_WP:	0.000	Y_WP:	0.500	X:	-0.017	Y:	0.016	Z:	0.684	yaw:	-0.423	yaw rate:	-16.866	Roll:	-0.511	Pitch:	0.601	Yaw:	3.663	Thrust:	38.054
Time:	2.831	Roll Set Point:	0.034	Pitch Set Point:	-0.031	Yaw Set Point:	0.011	X_WP:	0.000	Y_WP:	0.000	Y_WP:	0.500	X:	-0.017	Y:	0.016	Z:	0.684	yaw:	-0.655	yaw rate:	23.212	Roll:	-0.528	Pitch:	0.329	Yaw:	-2.199	Thrust:	55.856
Time:	2.856	Roll Set Point:	0.033	Pitch Set Point:	-0.032	Yaw Set Point:	0.000	X_WP:	0.000	Y_WP:	0.000	Y_WP:	0.500	X:	-0.017	Y:	0.016	Z:	0.683	yaw:	-0.021	yaw rate:	-63.372	Roll:	-0.176	Pitch:	0.846	Yaw:	9.069	Thrust:	60.723
Time:	2.872	Roll Set Point:	0.033	Pitch Set Point:	-0.032	Yaw Set Point:	-0.002	X_WP:	0.000	Y_WP:	0.000	Y_WP:	0.500	X:	-0.017	Y:	0.016	Z:	0.681	yaw:	0.125	yaw rate:	-14.609	Roll:	-0.458	Pitch:	0.528	Yaw:	3.882	Thrust:	51.822
Time:	2.899	Roll Set Point:	0.034	Pitch Set Point:	-0.032	Yaw Set Point:	0.009	X_WP:	0.000	Y_WP:	0.000	Y_WP:	0.500	X:	-0.017	Y:	0.016	Z:	0.679	yaw:	-0.493	yaw rate:	61.741	Roll:	-0.790	Pitch:	0.241	Yaw:	-4.431	Thrust:	81.285
Time:	2.911	Roll Set Point:	0.034	Pitch Set Point:	-0.033	Yaw Set Point:	0.012	X_WP:	0.000	Y_WP:	0.000	Y_WP:	0.500	X:	-0.017	Y:	0.016	Z:	0.676	yaw:	-0.710	yaw rate:	21.776	Roll:	-0.650	Pitch:	0.690	Yaw:	-4.700	Thrust:	39.396
Time:	2.936	Roll Set Point:	0.034	Pitch Set Point:	-0.033	Yaw Set Point:	0.019	X_WP:	0.000	Y_WP:	0.000	Y_WP:	0.500	X:	-0.017	Y:	0.016	Z:	0.672	yaw:	-1.085	yaw rate:	37.432	Roll:	-0.596	Pitch:	0.377	Yaw:	-3.369	Thrust:	74.625
Time:	2.951	Roll Set Point:	0.033	Pitch Set Point:	-0.033	Yaw Set Point:	0.010	X_WP:	0.000	Y_WP:	0.000	Y_WP:	0.500	X:	-0.016	Y:	0.016	Z:	0.667	yaw:	-0.598	yaw rate:	-48.699	Roll:	-0.177	Pitch:	0.584	Yaw:	8.711	Thrust:	52.300
Time:	2.973	Roll Set Point:	0.033	Pitch Set Point:	-0.033	Yaw Set Point:	0.015	X_WP:	0.000	Y_WP:	0.000	Y_WP:	0.500	X:	-0.016	Y:	0.017	Z:	0.663	yaw:	-0.841	yaw rate:	24.332	Roll:	-0.530	Pitch:	0.405	Yaw:	-2.159	Thrust:	67.796
Time:	2.995	Roll Set Point:	0.033	Pitch Set Point:	-0.033	Yaw Set Point:	0.014	X_WP:	0.000	Y_WP:	0.000	Y_WP:	0.500	X:	-0.016	Y:	0.017	Z:	0.657	yaw:	-0.820	yaw rate:	-2.048	Roll:	-0.426	Pitch:	0.532	Yaw:	0.956	Thrust:	70.167
Time:	3.011	Roll Set Point:	0.034	Pitch Set Point:	-0.034	Yaw Set Point:	0.037	X_WP:	0.000	Y_WP:	0.000	Y_WP:	0.500	X:	-0.017	Y:	0.017	Z:	0.652	yaw:	-2.121	yaw rate:	130.064	Roll:	-1.259	Pitch:	0.560	Yaw:	-22.010	Thrust:	57.818
Time:	3.032	Roll Set Point:	0.033	Pitch Set Point:	-0.034	Yaw Set Point:	0.037	X_WP:	0.000	Y_WP:	0.000	Y_WP:	0.500	X:	-0.016	Y:	0.017	Z:	0.646	yaw:	-2.114	yaw rate:	-0.690	Roll:	-0.321	Pitch:	0.513	Yaw:	-1.097	Thrust:	67.104
Time:	3.052	Roll Set Point:	0.032	Pitch Set Point:	-0.034	Yaw Set Point:	0.015	X_WP:	0.000	Y_WP:	0.000	Y_WP:	0.500	X:	-0.016	Y:	0.017	Z:	0.641	yaw:	-0.848	yaw rate:	-126.630	Roll:	0.376	Pitch:	0.605	Yaw:	16.973	Thrust:	64.982
Time:	3.073	Roll Set Point:	0.031	Pitch Set Point:	-0.034	Yaw Set Point:	0.019	X_WP:	0.000	Y_WP:	0.000	Y_WP:	0.500	X:	-0.015	Y:	0.017	Z:	0.636	yaw:	-1.116	yaw rate:	26.788	Roll:	-0.361	Pitch:	0.496	Yaw:	-3.121	Thrust:	65.631
Time:	3.097	Roll Set Point:	0.030	Pitch Set Point:	-0.034	Yaw Set Point:	0.011	X_WP:	0.000	Y_WP:	0.000	Y_WP:	0.500	X:	-0.015	Y:	0.017	Z:	0.632	yaw:	-0.619	yaw rate:	-49.685	Roll:	-0.045	Pitch:	0.415	Yaw:	6.574	Thrust:	72.733
Time:	3.112	Roll Set Point:	0.029	Pitch Set Point:	-0.034	Yaw Set Point:	0.018	X_WP:	0.000	Y_WP:	0.000	Y_WP:	0.500	X:	-0.015	Y:	0.017	Z:	0.628	yaw:	-1.020	yaw rate:	40.060	Roll:	-0.287	Pitch:	0.499	Yaw:	-7.443	Thrust:	46.534
Time:	3.132	Roll Set Point:	0.028	Pitch Set Point:	-0.034	Yaw Set Point:	0.011	X_WP:	0.000	Y_WP:	0.000	Y_WP:	0.500	X:	-0.014	Y:	0.017	Z:	0.625	yaw:	-0.645	yaw rate:	-37.469	Roll:	0.112	Pitch:	0.409	Yaw:	5.649	Thrust:	61.951
Time:	3.151	Roll Set Point:	0.028	Pitch Set Point:	-0.034	Yaw Set Point:	0.018	X_WP:	0.000	Y_WP:	0.000	Y_WP:	0.500	X:	-0.014	Y:	0.017	Z:	0.622	yaw:	-1.028	yaw rate:	38.288	Roll:	-0.285	Pitch:	0.396	Yaw:	-4.996	Thrust:	56.826
Time:	3.175	Roll Set Point:	0.026	Pitch Set Point:	-0.034	Yaw Set Point:	0.005	X_WP:	0.000	Y_WP:	0.000	Y_WP:	0.500	X:	-0.013	Y:	0.017	Z:	0.620	yaw:	-0.300	yaw rate:	-72.823	Roll:	0.428	Pitch:	0.549	Yaw:	9.847	Thrust:	63.746
Time:	3.197	Roll Set Point:	0.026	Pitch Set Point:	-0.034	Yaw Set Point:	0.012	X_WP:	0.000	Y_WP:	0.000	Y_WP:	0.500	X:	-0.013	Y:	0.017	Z:	0.618	yaw:	-0.701	yaw rate:	40.147	Roll:	-0.502	Pitch:	0.448	Yaw:	-3.769	Thrust:	61.357
Time:	3.211	Roll Set Point:	0.025	Pitch Set Point:	-0.034	Yaw Set Point:	0.035	X_WP:	0.000	Y_WP:	0.000	Y_WP:	0.500	X:	-0.012	Y:	0.017	Z:	0.616	yaw:	-2.022	yaw rate:	132.125	Roll:	-0.450	Pitch:	0.149	Yaw:	-26.202	Thrust:	42.610
Time:	3.232	Roll Set Point:	0.023	Pitch Set Point:	-0.033	Yaw Set Point:	0.013	X_WP:	0.000	Y_WP:	0.000	Y_WP:	0.500	X:	-0.011	Y:	0.017	Z:	0.615	yaw:	-0.741	yaw rate:	-128.095	Roll:	0.687	Pitch:	0.225	Yaw:	16.251	Thrust:	58.981
Time:	3.252	Roll Set Point:	0.022	Pitch Set Point:	-0.033	Yaw Set Point:	0.016	X_WP:	0.000	Y_WP:	0.000	Y_WP:	0.500	X:	-0.011	Y:	0.017	Z:	0.614	yaw:	-0.927	yaw rate:	18.570	Roll:	0.117	Pitch:	0.268	Yaw:	-2.281	Thrust:	51.297
Time:	3.272	Roll Set Point:	0.021	Pitch Set Point:	-0.033	Yaw Set Point:	0.012	X_WP:	0.000	Y_WP:	0.000	Y_WP:	0.500	X:	-0.010	Y:	0.016	Z:	0.612	yaw:	-0.670	yaw rate:	-25.747	Roll:	0.133	Pitch:	0.406	Yaw:	4.028	Thrust:	54.223
Time:	3.299	Roll Set Point:	0.020	Pitch Set Point:	-0.033	Yaw Set Point:	0.033	X_WP:	0.000	Y_WP:	0.000	Y_WP:	0.500	X:	-0.010	Y:	0.016	Z:	0.611	yaw:	-1.902	yaw rate:	123.252	Roll:	-0.412	Pitch:	0.271	Yaw:	-12.288	Thrust:	73.686
Time:	3.312	Roll Set Point:	0.018	Pitch Set Point:	-0.032	Yaw Set Point:	0.015	X_WP:	0.000	Y_WP:	0.000	Y_WP:	0.500	X:	-0.009	Y:	0.016	Z:	0.610	yaw:	-0.842	yaw rate:	-105.986	Roll:	1.282	Pitch:	-0.014	Yaw:	21.143	Thrust:	35.606
Time:	3.334	Roll Set Point:	0.017	Pitch Set Point:	-0.032	Yaw Set Point:	0.015	X_WP:	0.000	Y_WP:	0.000	Y_WP:	0.500	X:	-0.008	Y:	0.016	Z:	0.608	yaw:	-0.837	yaw rate:	-0.529	Roll:	0.107	Pitch:	0.364	Yaw:	0.604	Thrust:	58.260
Time:	3.354	Roll Set Point:	0.016	Pitch Set Point:	-0.031	Yaw Set Point:	0.015	X_WP:	0.000	Y_WP:	0.000	Y_WP:	0.500	X:	-0.008	Y:	0.016	Z:	0.606	yaw:	-0.841	yaw rate:	0.440	Roll:	0.189	Pitch:	0.206	Yaw:	0.398	Thrust:	53.415
Time:	3.376	Roll Set Point:	0.014	Pitch Set Point:	-0.031	Yaw Set Point:	0.009	X_WP:	0.000	Y_WP:	0.000	Y_WP:	0.500	X:	-0.007	Y:	0.015	Z:	0.604	yaw:	-0.495	yaw rate:	-34.649	Roll:	0.272	Pitch:	0.240	Yaw:	5.194	Thrust:	62.165
Time:	3.393	Roll Set Point:	0.013	Pitch Set Point:	-0.030	Yaw Set Point:	0.007	X_WP:	0.000	Y_WP:	0.000	Y_WP:	0.500	X:	-0.007	Y:	0.015	Z:	0.601	yaw:	-0.380	yaw rate:	-11.505	Roll:	0.304	Pitch:	0.207	Yaw:	2.567	Thrust:	51.298
Time:	3.412	Roll Set Point:	0.012	Pitch Set Point:	-0.030	Yaw Set Point:	0.010	X_WP:	0.000	Y_WP:	0.000	Y_WP:	0.500	X:	-0.006	Y:	0.015	Z:	0.598	yaw:	-0.551	yaw rate:	17.137	Roll:	0.108	Pitch:	0.276	Yaw:	-1.808	Thrust:	52.631
Time:	3.431	Roll Set Point:	0.013	Pitch Set Point:	-0.030	Yaw Set Point:	0.034	X_WP:	0.000	Y_WP:	0.000	Y_WP:	0.500	X:	-0.006	Y:	0.015	Z:	0.594	yaw:	-1.955	yaw rate:	140.409	Roll:	-0.459	Pitch:	0.374	Yaw:	-19.963	Thrust:	57.353
Time:	3.452	Roll Set Point:	0.011	Pitch Set Point:	-0.029	Yaw Set Point:	0.011	X_WP:	0.000	Y_WP:	0.000	Y_WP:	0.500	X:	-0.005	Y:	0.015	Z:	0.591	yaw:	-0.643	yaw rate:	-131.259	Roll:	0.712	Pitch:	0.137	Yaw:	17.505	Thrust:	59.069
Time:	3.471	Roll Set Point:	0.010	Pitch Set Point:	-0.029	Yaw Set Point:	0.008	X_WP:	0.000	Y_WP:	0.000	Y_WP:	0.500	X:	-0.005	Y:	0.015	Z:	0.586	yaw:	-0.435	yaw rate:	-20.770	Roll:	0.258	Pitch:	0.281	Yaw:	3.689	Thrust:	58.630
Time:	3.497	Roll Set Point:	0.009	Pitch Set Point:	-0.029	Yaw Set Point:	0.012	X_WP:	0.000	Y_WP:	0.000	Y_WP:	0.500	X:	-0.004	Y:	0.014	Z:	0.582	yaw:	-0.671	yaw rate:	23.573	Roll:	-0.038	Pitch:	0.336	Yaw:	-1.365	Thrust:	69.887
Time:	3.512	Roll Set Point:	0.008	Pitch Set Point:	-0.029	Yaw Set Point:	0.006	X_WP:	0.000	Y_WP:	0.000	Y_WP:	0.500	X:	-0.004	Y:	0.014	Z:	0.578	yaw:	-0.354	yaw rate:	-31.621	Roll:	0.253	Pitch:	0.211	Yaw:	6.169	Thrust:	52.256
Time:	3.532	Roll Set Point:	0.007	Pitch Set Point:	-0.028	Yaw Set Point:	0.003	X_WP:	0.000	Y_WP:	0.000	Y_WP:	0.500	X:	-0.004	Y:	0.014	Z:	0.573	yaw:	-0.177	yaw rate:	-17.710	Roll:	0.134	Pitch:	0.338	Yaw:	3.594	Thrust:	61.717
Time:	3.551	Roll Set Point:	0.007	Pitch Set Point:	-0.028	Yaw Set Point:	0.004	X_WP:	0.000	Y_WP:	0.000	Y_WP:	0.500	X:	-0.003	Y:	0.014	Z:	0.569	yaw:	-0.229	yaw rate:	5.160	Roll:	0.107	Pitch:	0.198	Yaw:	0.350	Thrust:	56.877
Time:	3.572	Roll Set Point:	0.007	Pitch Set Point:	-0.028	Yaw Set Point:	0.003	X_WP:	0.000	Y_WP:	0.000	Y_WP:	0.500	X:	-0.003	Y:	0.014	Z:	0.564	yaw:	-0.168	yaw rate:	-6.079	Roll:	-0.112	Pitch:	0.359	Yaw:	2.169	Thrust:	63.981
Time:	3.599	Roll Set Point:	0.006	Pitch Set Point:	-0.028	Yaw Set Point:	0.012	X_WP:	0.000	Y_WP:	0.000	Y_WP:	0.500	X:	-0.003	Y:	0.014	Z:	0.560	yaw:	-0.708	yaw rate:	54.028	Roll:	-0.100	Pitch:	0.399	Yaw:	-4.329	Thrust:	75.293
Time:	3.611	Roll Set Point:	0.006	Pitch Set Point:	-0.028	Yaw Set Point:	0.010	X_WP:	0.000	Y_WP:	0.000	Y_WP:	0.500	X:	-0.003	Y:	0.014	Z:	0.555	yaw:	-0.569	yaw rate:	-13.972	Roll:	0.235	Pitch:	0.252	Yaw:	3.128	Thrust:	46.932
Time:	3.633	Roll Set Point:	0.006	Pitch Set Point:	-0.028	Yaw Set Point:	0.015	X_WP:	0.000	Y_WP:	0.000	Y_WP:	0.500	X:	-0.003	Y:	0.014	Z:	0.550	yaw:	-0.859	yaw rate:	28.995	Roll:	-0.092	Pitch:	0.334	Yaw:	-3.076	Thrust:	64.335
Time:	3.651	Roll Set Point:	0.005	Pitch Set Point:	-0.028	Yaw Set Point:	0.009	X_WP:	0.000	Y_WP:	0.000	Y_WP:	0.500	X:	-0.002	Y:	0.014	Z:	0.546	yaw:	-0.516	yaw rate:	-34.281	Roll:	0.117	Pitch:	0.224	Yaw:	5.617	Thrust:	57.249
Time:	3.674	Roll Set Point:	0.005	Pitch Set Point:	-0.027	Yaw Set Point:	0.008	X_WP:	0.000	Y_WP:	0.000	Y_WP:	0.500	X:	-0.002	Y:	0.014	Z:	0.542	yaw:	-0.441	yaw rate:	-7.514	Roll:	-0.091	Pitch:	0.332	Yaw:	2.007	Thrust:	68.489
Time:	3.692	Roll Set Point:	0.005	Pitch Set Point:	-0.028	Yaw Set Point:	0.019	X_WP:	0.000	Y_WP:	0.000	Y_WP:	0.500	X:	-0.002	Y:	0.014	Z:	0.537	yaw:	-1.089	yaw rate:	64.865	Roll:	-0.414	Pitch:	0.480	Yaw:	-9.524	Thrust:	54.253
Time:	3.712	Roll Set Point:	0.005	Pitch Set Point:	-0.028	Yaw Set Point:	0.017	X_WP:	0.000	Y_WP:	0.000	Y_WP:	0.500	X:	-0.002	Y:	0.014	Z:	0.533	yaw:	-0.996	yaw rate:	-9.357	Roll:	-0.058	Pitch:	0.357	Yaw:	1.336	Thrust:	61.424
Time:	3.734	Roll Set Point:	0.005	Pitch Set Point:	-0.028	Yaw Set Point:	0.012	X_WP:	0.000	Y_WP:	0.000	Y_WP:	0.500	X:	-0.002	Y:	0.014	Z:	0.529	yaw:	-0.696	yaw rate:	-29.974	Roll:	-0.042	Pitch:	0.307	Yaw:	4.236	Thrust:	65.370
Time:	3.751	Roll Set Point:	0.005	Pitch Set Point:	-0.027	Yaw Set Point:	0.013	X_WP:	0.000	Y_WP:	0.000	Y_WP:	0.500	X:	-0.002	Y:	0.014	Z:	0.525	yaw:	-0.741	yaw rate:	4.532	Roll:	-0.107	Pitch:	0.279	Yaw:	-0.513	Thrust:	53.078
Time:	3.775	Roll Set Point:	0.005	Pitch Set Point:	-0.027	Yaw Set Point:	0.010	X_WP:	0.000	Y_WP:	0.000	Y_WP:	0.500	X:	-0.002	Y:	0.014	Z:	0.522	yaw:	-0.581	yaw rate:	-16.042	Roll:	-0.176	Pitch:	0.376	Yaw:	2.726	Thrust:	67.926
Time:	3.796	Roll Set Point:	0.005	Pitch Set Point:	-0.027	Yaw Set Point:	0.012	X_WP:	0.000	Y_WP:	0.000	Y_WP:	0.500	X:	-0.002	Y:	0.014	Z:	0.518	yaw:	-0.672	yaw rate:	9.091	Roll:	-0.243	Pitch:	0.281	Yaw:	-0.338	Thrust:	62.861
Time:	3.811	Roll Set Point:	0.005	Pitch Set Point:	-0.027	Yaw Set Point:	0.012	X_WP:	0.000	Y_WP:	0.000	Y_WP:	0.500	X:	-0.003	Y:	0.014	Z:	0.515	yaw:	-0.699	yaw rate:	2.711	Roll:	-0.256	Pitch:	0.448	Yaw:	-0.386	Thrust:	49.932
Time:	3.834	Roll Set Point:	0.005	Pitch Set Point:	-0.027	Yaw Set Point:	0.009	X_WP:	0.000	Y_WP:	0.000	Y_WP:	0.500	X:	-0.003	Y:	0.014	Z:	0.511	yaw:	-0.525	yaw rate:	-17.446	Roll:	-0.202	Pitch:	0.419	Yaw:	2.948	Thrust:	64.589
Time:	3.850	Roll Set Point:	0.006	Pitch Set Point:	-0.028	Yaw Set Point:	0.009	X_WP:	0.000	Y_WP:	0.000	Y_WP:	0.500	X:	-0.003	Y:	0.014	Z:	0.508	yaw:	-0.511	yaw rate:	-1.392	Roll:	-0.317	Pitch:	0.476	Yaw:	0.707	Thrust:	53.361
Time:	3.872	Roll Set Point:	0.006	Pitch Set Point:	-0.028	Yaw Set Point:	0.010	X_WP:	0.000	Y_WP:	0.000	Y_WP:	0.500	X:	-0.003	Y:	0.014	Z:	0.505	yaw:	-0.569	yaw rate:	5.820	Roll:	-0.285	Pitch:	0.415	Yaw:	0.098	Thrust:	63.181
Time:	3.893	Roll Set Point:	0.006	Pitch Set Point:	-0.028	Yaw Set Point:	0.008	X_WP:	0.000	Y_WP:	0.000	Y_WP:	0.500	X:	-0.003	Y:	0.014	Z:	0.502	yaw:	-0.478	yaw rate:	-9.079	Roll:	-0.276	Pitch:	0.473	Yaw:	1.995	Thrust:	60.987
Time:	3.912	Roll Set Point:	0.007	Pitch Set Point:	-0.028	Yaw Set Point:	0.015	X_WP:	0.000	Y_WP:	0.000	Y_WP:	0.500	X:	-0.003	Y:	0.014	Z:	0.499	yaw:	-0.855	yaw rate:	37.730	Roll:	-0.373	Pitch:	0.401	Yaw:	-5.073	Thrust:	56.608
Time:	3.932	Roll Set Point:	0.007	Pitch Set Point:	-0.028	Yaw Set Point:	0.014	X_WP:	0.000	Y_WP:	0.000	Y_WP:	0.500	X:	-0.003	Y:	0.014	Z:	0.496	yaw:	-0.789	yaw rate:	-6.666	Roll:	-0.350	Pitch:	0.508	Yaw:	1.236	Thrust:	60.237
Time:	3.957	Roll Set Point:	0.007	Pitch Set Point:	-0.028	Yaw Set Point:	0.016	X_WP:	0.000	Y_WP:	0.000	Y_WP:	0.500	X:	-0.004	Y:	0.014	Z:	0.493	yaw:	-0.905	yaw rate:	11.684	Roll:	-0.333	Pitch:	0.416	Yaw:	-0.815	Thrust:	68.539
Time:	3.972	Roll Set Point:	0.007	Pitch Set Point:	-0.029	Yaw Set Point:	0.000	X_WP:	0.000	Y_WP:	0.000	Y_WP:	0.500	X:	-0.004	Y:	0.015	Z:	0.491	yaw:	-0.006	yaw rate:	-89.902	Roll:	0.028	Pitch:	0.801	Yaw:	16.112	Thrust:	48.669
Time:	3.996	Roll Set Point:	0.009	Pitch Set Point:	-0.030	Yaw Set Point:	0.040	X_WP:	0.000	Y_WP:	0.000	Y_WP:	0.500	X:	-0.004	Y:	0.015	Z:	0.488	yaw:	-2.306	yaw rate:	229.926	Roll:	-1.239	Pitch:	0.564	Yaw:	-26.361	Thrust:	69.929
Time:	4.012	Roll Set Point:	0.010	Pitch Set Point:	-0.030	Yaw Set Point:	0.040	X_WP:	0.000	Y_WP:	0.000	Y_WP:	0.500	X:	-0.005	Y:	0.015	Z:	0.485	yaw:	-2.264	yaw rate:	-4.172	Roll:	-0.377	Pitch:	0.594	Yaw:	-1.335	Thrust:	50.312
Time:	4.033	Roll Set Point:	0.009	Pitch Set Point:	-0.030	Yaw Set Point:	0.021	X_WP:	0.000	Y_WP:	0.000	Y_WP:	0.500	X:	-0.005	Y:	0.015	Z:	0.483	yaw:	-1.203	yaw rate:	-106.136	Roll:	0.026	Pitch:	0.421	Yaw:	12.663	Thrust:	62.948
Time:	4.051	Roll Set Point:	0.009	Pitch Set Point:	-0.031	Yaw Set Point:	0.002	X_WP:	0.000	Y_WP:	0.000	Y_WP:	0.500	X:	-0.004	Y:	0.015	Z:	0.480	yaw:	-0.131	yaw rate:	-107.174	Roll:	0.154	Pitch:	0.869	Yaw:	17.684	Thrust:	51.495
Time:	4.073	Roll Set Point:	0.009	Pitch Set Point:	-0.031	Yaw Set Point:	0.002	X_WP:	0.000	Y_WP:	0.000	Y_WP:	0.500	X:	-0.004	Y:	0.015	Z:	0.478	yaw:	-0.095	yaw rate:	-3.582	Roll:	-0.200	Pitch:	0.514	Yaw:	1.873	Thrust:	66.568
Time:	4.094	Roll Set Point:	0.010	Pitch Set Point:	-0.032	Yaw Set Point:	0.022	X_WP:	0.000	Y_WP:	0.000	Y_WP:	0.500	X:	-0.005	Y:	0.016	Z:	0.475	yaw:	-1.287	yaw rate:	119.142	Roll:	-1.004	Pitch:	0.833	Yaw:	-14.840	Thrust:	63.945
Time:	4.111	Roll Set Point:	0.011	Pitch Set Point:	-0.032	Yaw Set Point:	0.016	X_WP:	0.000	Y_WP:	0.000	Y_WP:	0.500	X:	-0.005	Y:	0.016	Z:	0.472	yaw:	-0.936	yaw rate:	-35.026	Roll:	-0.446	Pitch:	0.485	Yaw:	5.512	Thrust:	52.914
Time:	4.132	Roll Set Point:	0.011	Pitch Set Point:	-0.033	Yaw Set Point:	0.018	X_WP:	0.000	Y_WP:	0.000	Y_WP:	0.500	X:	-0.006	Y:	0.016	Z:	0.469	yaw:	-1.045	yaw rate:	10.886	Roll:	-0.452	Pitch:	0.630	Yaw:	-1.317	Thrust:	64.518
Time:	4.152	Roll Set Point:	0.012	Pitch Set Point:	-0.033	Yaw Set Point:	0.020	X_WP:	0.000	Y_WP:	0.000	Y_WP:	0.500	X:	-0.006	Y:	0.017	Z:	0.466	yaw:	-1.159	yaw rate:	11.349	Roll:	-0.540	Pitch:	0.694	Yaw:	-1.751	Thrust:	61.050
Time:	4.174	Roll Set Point:	0.012	Pitch Set Point:	-0.033	Yaw Set Point:	0.021	X_WP:	0.000	Y_WP:	0.000	Y_WP:	0.500	X:	-0.006	Y:	0.017	Z:	0.463	yaw:	-1.212	yaw rate:	5.389	Roll:	-0.458	Pitch:	0.621	Yaw:	-0.820	Thrust:	66.460
Time:	4.196	Roll Set Point:	0.013	Pitch Set Point:	-0.034	Yaw Set Point:	0.017	X_WP:	0.000	Y_WP:	0.000	Y_WP:	0.500	X:	-0.006	Y:	0.017	Z:	0.461	yaw:	-0.968	yaw rate:	-24.414	Roll:	-0.465	Pitch:	0.634	Yaw:	3.013	Thrust:	67.256
Time:	4.212	Roll Set Point:	0.013	Pitch Set Point:	-0.034	Yaw Set Point:	0.021	X_WP:	0.000	Y_WP:	0.000	Y_WP:	0.500	X:	-0.007	Y:	0.017	Z:	0.458	yaw:	-1.214	yaw rate:	24.589	Roll:	-0.581	Pitch:	0.665	Yaw:	-4.864	Thrust:	48.843
Time:	4.236	Roll Set Point:	0.013	Pitch Set Point:	-0.035	Yaw Set Point:	0.015	X_WP:	0.000	Y_WP:	0.000	Y_WP:	0.500	X:	-0.006	Y:	0.017	Z:	0.455	yaw:	-0.850	yaw rate:	-36.451	Roll:	0.047	Pitch:	0.602	Yaw:	4.399	Thrust:	73.283
Time:	4.251	Roll Set Point:	0.014	Pitch Set Point:	-0.036	Yaw Set Point:	0.017	X_WP:	0.000	Y_WP:	0.000	Y_WP:	0.500	X:	-0.007	Y:	0.018	Z:	0.454	yaw:	-0.995	yaw rate:	14.552	Roll:	-1.065	Pitch:	1.158	Yaw:	-2.776	Thrust:	48.689
Time:	4.274	Roll Set Point:	0.014	Pitch Set Point:	-0.036	Yaw Set Point:	0.018	X_WP:	0.000	Y_WP:	0.000	Y_WP:	0.500	X:	-0.007	Y:	0.018	Z:	0.452	yaw:	-1.024	yaw rate:	2.845	Roll:	-0.395	Pitch:	0.658	Yaw:	-0.254	Thrust:	65.038
Time:	4.291	Roll Set Point:	0.015	Pitch Set Point:	-0.037	Yaw Set Point:	0.027	X_WP:	0.000	Y_WP:	0.000	Y_WP:	0.500	X:	-0.007	Y:	0.018	Z:	0.452	yaw:	-1.553	yaw rate:	52.929	Roll:	-0.687	Pitch:	0.733	Yaw:	-9.151	Thrust:	51.729
Time:	4.312	Roll Set Point:	0.014	Pitch Set Point:	-0.037	Yaw Set Point:	0.009	X_WP:	0.000	Y_WP:	0.000	Y_WP:	0.500	X:	-0.007	Y:	0.019	Z:	0.451	yaw:	-0.542	yaw rate:	-101.104	Roll:	0.100	Pitch:	0.805	Yaw:	13.029	Thrust:	60.620
Time:	4.331	Roll Set Point:	0.015	Pitch Set Point:	-0.038	Yaw Set Point:	0.011	X_WP:	0.000	Y_WP:	0.000	Y_WP:	0.500	X:	-0.007	Y:	0.019	Z:	0.452	yaw:	-0.607	yaw rate:	6.534	Roll:	-0.494	Pitch:	0.878	Yaw:	-0.571	Thrust:	51.747
Time:	4.352	Roll Set Point:	0.016	Pitch Set Point:	-0.038	Yaw Set Point:	0.026	X_WP:	0.000	Y_WP:	0.000	Y_WP:	0.500	X:	-0.008	Y:	0.019	Z:	0.452	yaw:	-1.497	yaw rate:	88.945	Roll:	-0.849	Pitch:	0.608	Yaw:	-11.610	Thrust:	60.489
Time:	4.372	Roll Set Point:	0.015	Pitch Set Point:	-0.039	Yaw Set Point:	0.016	X_WP:	0.000	Y_WP:	0.000	Y_WP:	0.500	X:	-0.007	Y:	0.020	Z:	0.452	yaw:	-0.892	yaw rate:	-60.519	Roll:	0.079	Pitch:	0.915	Yaw:	8.127	Thrust:	53.692
Time:	4.398	Roll Set Point:	0.015	Pitch Set Point:	-0.039	Yaw Set Point:	0.014	X_WP:	0.000	Y_WP:	0.000	Y_WP:	0.500	X:	-0.007	Y:	0.020	Z:	0.453	yaw:	-0.791	yaw rate:	-10.004	Roll:	-0.324	Pitch:	0.670	Yaw:	1.571	Thrust:	71.398
Time:	4.412	Roll Set Point:	0.015	Pitch Set Point:	-0.039	Yaw Set Point:	0.011	X_WP:	0.000	Y_WP:	0.000	Y_WP:	0.500	X:	-0.008	Y:	0.020	Z:	0.453	yaw:	-0.626	yaw rate:	-16.507	Roll:	-0.541	Pitch:	0.614	Yaw:	2.957	Thrust:	42.317
Time:	4.433	Roll Set Point:	0.015	Pitch Set Point:	-0.039	Yaw Set Point:	0.009	X_WP:	0.000	Y_WP:	0.000	Y_WP:	0.500	X:	-0.007	Y:	0.020	Z:	0.454	yaw:	-0.540	yaw rate:	-8.594	Roll:	-0.107	Pitch:	0.635	Yaw:	1.658	Thrust:	58.105
Time:	4.451	Roll Set Point:	0.015	Pitch Set Point:	-0.040	Yaw Set Point:	0.008	X_WP:	0.000	Y_WP:	0.000	Y_WP:	0.500	X:	-0.008	Y:	0.020	Z:	0.454	yaw:	-0.460	yaw rate:	-8.079	Roll:	-0.439	Pitch:	0.906	Yaw:	1.685	Thrust:	49.924
Time:	4.472	Roll Set Point:	0.016	Pitch Set Point:	-0.041	Yaw Set Point:	0.022	X_WP:	0.000	Y_WP:	0.000	Y_WP:	0.500	X:	-0.008	Y:	0.020	Z:	0.454	yaw:	-1.246	yaw rate:	78.632	Roll:	-0.761	Pitch:	0.800	Yaw:	-9.936	Thrust:	61.892
Time:	4.496	Roll Set Point:	0.016	Pitch Set Point:	-0.041	Yaw Set Point:	0.027	X_WP:	0.000	Y_WP:	0.000	Y_WP:	0.500	X:	-0.008	Y:	0.021	Z:	0.454	yaw:	-1.557	yaw rate:	31.095	Roll:	-0.507	Pitch:	0.626	Yaw:	-4.047	Thrust:	68.279
Time:	4.511	Roll Set Point:	0.015	Pitch Set Point:	-0.042	Yaw Set Point:	0.005	X_WP:	0.000	Y_WP:	0.000	Y_WP:	0.500	X:	-0.008	Y:	0.021	Z:	0.453	yaw:	-0.303	yaw rate:	-125.386	Roll:	0.515	Pitch:	1.183	Yaw:	22.265	Thrust:	45.984
Time:	4.532	Roll Set Point:	0.016	Pitch Set Point:	-0.042	Yaw Set Point:	0.013	X_WP:	0.000	Y_WP:	0.000	Y_WP:	0.500	X:	-0.008	Y:	0.021	Z:	0.452	yaw:	-0.748	yaw rate:	44.474	Roll:	-0.503	Pitch:	0.789	Yaw:	-5.291	Thrust:	61.770
Time:	4.552	Roll Set Point:	0.015	Pitch Set Point:	-0.042	Yaw Set Point:	0.020	X_WP:	0.000	Y_WP:	0.000	Y_WP:	0.500	X:	-0.008	Y:	0.021	Z:	0.451	yaw:	-1.171	yaw rate:	42.347	Roll:	-0.285	Pitch:	0.478	Yaw:	-6.060	Thrust:	59.696
Time:	4.574	Roll Set Point:	0.016	Pitch Set Point:	-0.043	Yaw Set Point:	0.016	X_WP:	0.000	Y_WP:	0.000	Y_WP:	0.500	X:	-0.008	Y:	0.021	Z:	0.450	yaw:	-0.924	yaw rate:	-24.736	Roll:	-0.465	Pitch:	0.898	Yaw:	3.015	Thrust:	64.625
Time:	4.593	Roll Set Point:	0.016	Pitch Set Point:	-0.043	Yaw Set Point:	0.020	X_WP:	0.000	Y_WP:	0.000	Y_WP:	0.500	X:	-0.008	Y:	0.022	Z:	0.449	yaw:	-1.140	yaw rate:	21.647	Roll:	-0.551	Pitch:	0.903	Yaw:	-3.644	Thrust:	56.500
Time:	4.614	Roll Set Point:	0.016	Pitch Set Point:	-0.044	Yaw Set Point:	0.019	X_WP:	0.000	Y_WP:	0.000	Y_WP:	0.500	X:	-0.008	Y:	0.022	Z:	0.447	yaw:	-1.107	yaw rate:	-3.339	Roll:	-0.309	Pitch:	0.730	Yaw:	0.201	Thrust:	67.543
Time:	4.631	Roll Set Point:	0.016	Pitch Set Point:	-0.044	Yaw Set Point:	0.020	X_WP:	0.000	Y_WP:	0.000	Y_WP:	0.500	X:	-0.008	Y:	0.022	Z:	0.446	yaw:	-1.155	yaw rate:	4.795	Roll:	-0.261	Pitch:	0.761	Yaw:	-1.270	Thrust:	55.959
Time:	4.653	Roll Set Point:	0.017	Pitch Set Point:	-0.044	Yaw Set Point:	0.029	X_WP:	0.000	Y_WP:	0.000	Y_WP:	0.500	X:	-0.008	Y:	0.022	Z:	0.444	yaw:	-1.668	yaw rate:	51.260	Roll:	-0.624	Pitch:	0.914	Yaw:	-7.587	Thrust:	63.914
Time:	4.672	Roll Set Point:	0.016	Pitch Set Point:	-0.046	Yaw Set Point:	0.026	X_WP:	0.000	Y_WP:	0.000	Y_WP:	0.500	X:	-0.008	Y:	0.023	Z:	0.443	yaw:	-1.508	yaw rate:	-15.990	Roll:	-0.129	Pitch:	1.117	Yaw:	1.163	Thrust:	62.283
Time:	4.698	Roll Set Point:	0.017	Pitch Set Point:	-0.046	Yaw Set Point:	0.042	X_WP:	0.000	Y_WP:	0.000	Y_WP:	0.500	X:	-0.008	Y:	0.023	Z:	0.441	yaw:	-2.399	yaw rate:	89.173	Roll:	-0.989	Pitch:	0.663	Yaw:	-10.784	Thrust:	78.138
Time:	4.711	Roll Set Point:	0.015	Pitch Set Point:	-0.046	Yaw Set Point:	0.004	X_WP:	0.000	Y_WP:	0.000	Y_WP:	0.500	X:	-0.008	Y:	0.023	Z:	0.440	yaw:	-0.211	yaw rate:	-218.805	Roll:	1.318	Pitch:	1.129	Yaw:	44.422	Thrust:	46.004
Time:	4.733	Roll Set Point:	0.015	Pitch Set Point:	-0.046	Yaw Set Point:	0.000	X_WP:	0.000	Y_WP:	0.000	Y_WP:	0.500	X:	-0.008	Y:	0.023	Z:	0.439	yaw:	-0.028	yaw rate:	-18.344	Roll:	-0.192	Pitch:	0.748	Yaw:	3.429	Thrust:	67.864
Time:	4.759	Roll Set Point:	0.016	Pitch Set Point:	-0.047	Yaw Set Point:	0.007	X_WP:	0.000	Y_WP:	0.000	Y_WP:	0.500	X:	-0.008	Y:	0.023	Z:	0.438	yaw:	-0.419	yaw rate:	39.153	Roll:	-0.563	Pitch:	0.880	Yaw:	-3.339	Thrust:	55.033
Time:	4.771	Roll Set Point:	0.016	Pitch Set Point:	-0.047	Yaw Set Point:	0.008	X_WP:	0.000	Y_WP:	0.000	Y_WP:	0.500	X:	-0.008	Y:	0.024	Z:	0.437	yaw:	-0.444	yaw rate:	2.409	Roll:	-0.392	Pitch:	0.877	Yaw:	-0.296	Thrust:	63.420
Time:	4.795	Roll Set Point:	0.016	Pitch Set Point:	-0.047	Yaw Set Point:	0.011	X_WP:	0.000	Y_WP:	0.000	Y_WP:	0.500	X:	-0.008	Y:	0.024	Z:	0.436	yaw:	-0.621	yaw rate:	17.715	Roll:	-0.385	Pitch:	0.715	Yaw:	-1.430	Thrust:	70.014
Time:	4.811	Roll Set Point:	0.017	Pitch Set Point:	-0.047	Yaw Set Point:	0.021	X_WP:	0.000	Y_WP:	0.000	Y_WP:	0.500	X:	-0.008	Y:	0.024	Z:	0.435	yaw:	-1.215	yaw rate:	59.383	Roll:	-0.842	Pitch:	0.819	Yaw:	-10.448	Thrust:	55.108
Time:	4.832	Roll Set Point:	0.016	Pitch Set Point:	-0.048	Yaw Set Point:	0.016	X_WP:	0.000	Y_WP:	0.000	Y_WP:	0.500	X:	-0.008	Y:	0.024	Z:	0.435	yaw:	-0.889	yaw rate:	-32.572	Roll:	-0.170	Pitch:	0.900	Yaw:	4.019	Thrust:	64.862
Time:	4.850	Roll Set Point:	0.016	Pitch Set Point:	-0.048	Yaw Set Point:	0.015	X_WP:	0.000	Y_WP:	0.000	Y_WP:	0.500	X:	-0.008	Y:	0.024	Z:	0.434	yaw:	-0.875	yaw rate:	-1.419	Roll:	-0.366	Pitch:	0.825	Yaw:	0.017	Thrust:	55.290
Time:	4.874	Roll Set Point:	0.017	Pitch Set Point:	-0.048	Yaw Set Point:	0.026	X_WP:	0.000	Y_WP:	0.000	Y_WP:	0.500	X:	-0.008	Y:	0.024	Z:	0.433	yaw:	-1.464	yaw rate:	58.968	Roll:	-0.748	Pitch:	0.570	Yaw:	-7.245	Thrust:	72.554
Time:	4.896	Roll Set Point:	0.017	Pitch Set Point:	-0.048	Yaw Set Point:	0.027	X_WP:	0.000	Y_WP:	0.000	Y_WP:	0.500	X:	-0.008	Y:	0.024	Z:	0.433	yaw:	-1.550	yaw rate:	8.572	Roll:	-0.437	Pitch:	0.982	Yaw:	-1.970	Thrust:	69.097
Time:	4.911	Roll Set Point:	0.017	Pitch Set Point:	-0.049	Yaw Set Point:	0.025	X_WP:	0.000	Y_WP:	0.000	Y_WP:	0.500	X:	-0.008	Y:	0.024	Z:	0.432	yaw:	-1.446	yaw rate:	-10.394	Roll:	-0.411	Pitch:	0.880	Yaw:	0.599	Thrust:	49.896
Time:	4.932	Roll Set Point:	0.018	Pitch Set Point:	-0.049	Yaw Set Point:	0.028	X_WP:	0.000	Y_WP:	0.000	Y_WP:	0.500	X:	-0.008	Y:	0.025	Z:	0.432	yaw:	-1.621	yaw rate:	17.509	Roll:	-0.493	Pitch:	0.829	Yaw:	-3.487	Thrust:	61.195
Time:	4.953	Roll Set Point:	0.019	Pitch Set Point:	-0.050	Yaw Set Point:	0.049	X_WP:	0.000	Y_WP:	0.000	Y_WP:	0.500	X:	-0.009	Y:	0.025	Z:	0.432	yaw:	-2.799	yaw rate:	117.811	Roll:	-1.121	Pitch:	0.863	Yaw:	-17.108	Thrust:	66.183
Time:	4.971	Roll Set Point:	0.018	Pitch Set Point:	-0.049	Yaw Set Point:	0.024	X_WP:	0.000	Y_WP:	0.000	Y_WP:	0.500	X:	-0.008	Y:	0.025	Z:	0.433	yaw:	-1.372	yaw rate:	-142.742	Roll:	0.496	Pitch:	0.724	Yaw:	19.146	Thrust:	57.165
Time:	4.997	Roll Set Point:	0.017	Pitch Set Point:	-0.049	Yaw Set Point:	0.019	X_WP:	0.000	Y_WP:	0.000	Y_WP:	0.500	X:	-0.008	Y:	0.025	Z:	0.433	yaw:	-1.105	yaw rate:	-26.728	Roll:	-0.252	Pitch:	0.655	Yaw:	2.567	Thrust:	73.501
Time:	5.011	Roll Set Point:	0.018	Pitch Set Point:	-0.049	Yaw Set Point:	0.019	X_WP:	0.000	Y_WP:	0.000	Y_WP:	0.500	X:	-0.009	Y:	0.025	Z:	0.434	yaw:	-1.117	yaw rate:	1.240	Roll:	-0.508	Pitch:	0.882	Yaw:	-1.027	Thrust:	46.797
Time:	5.037	Roll Set Point:	0.017	Pitch Set Point:	-0.049	Yaw Set Point:	0.014	X_WP:	0.000	Y_WP:	0.000	Y_WP:	0.500	X:	-0.008	Y:	0.025	Z:	0.435	yaw:	-0.794	yaw rate:	-32.267	Roll:	-0.167	Pitch:	0.838	Yaw:	3.592	Thrust:	74.422
Time:	5.052	Roll Set Point:	0.017	Pitch Set Point:	-0.050	Yaw Set Point:	0.018	X_WP:	0.000	Y_WP:	0.000	Y_WP:	0.500	X:	-0.009	Y:	0.025	Z:	0.436	yaw:	-1.034	yaw rate:	24.001	Roll:	-0.520	Pitch:	0.864	Yaw:	-5.006	Thrust:	43.879
Time:	5.074	Roll Set Point:	0.017	Pitch Set Point:	-0.050	Yaw Set Point:	0.014	X_WP:	0.000	Y_WP:	0.000	Y_WP:	0.500	X:	-0.008	Y:	0.025	Z:	0.436	yaw:	-0.820	yaw rate:	-21.407	Roll:	-0.281	Pitch:	0.949	Yaw:	2.456	Thrust:	72.131
Time:	5.099	Roll Set Point:	0.018	Pitch Set Point:	-0.050	Yaw Set Point:	0.028	X_WP:	0.000	Y_WP:	0.000	Y_WP:	0.500	X:	-0.009	Y:	0.025	Z:	0.437	yaw:	-1.624	yaw rate:	80.396	Roll:	-0.910	Pitch:	0.762	Yaw:	-9.728	Thrust:	67.928
Time:	5.113	Roll Set Point:	0.018	Pitch Set Point:	-0.050	Yaw Set Point:	0.028	X_WP:	0.000	Y_WP:	0.000	Y_WP:	0.500	X:	-0.009	Y:	0.025	Z:	0.437	yaw:	-1.625	yaw rate:	0.118	Roll:	-0.424	Pitch:	0.768	Yaw:	-1.523	Thrust:	51.681
Time:	5.132	Roll Set Point:	0.018	Pitch Set Point:	-0.050	Yaw Set Point:	0.026	X_WP:	0.000	Y_WP:	0.000	Y_WP:	0.500	X:	-0.009	Y:	0.025	Z:	0.438	yaw:	-1.493	yaw rate:	-13.255	Roll:	-0.356	Pitch:	0.814	Yaw:	0.686	Thrust:	58.527
Time:	5.153	Roll Set Point:	0.019	Pitch Set Point:	-0.050	Yaw Set Point:	0.027	X_WP:	0.000	Y_WP:	0.000	Y_WP:	0.500	X:	-0.009	Y:	0.025	Z:	0.438	yaw:	-1.550	yaw rate:	5.753	Roll:	-0.436	Pitch:	0.802	Yaw:	-1.887	Thrust:	63.172
Time:	5.174	Roll Set Point:	0.018	Pitch Set Point:	-0.050	Yaw Set Point:	0.024	X_WP:	0.000	Y_WP:	0.000	Y_WP:	0.500	X:	-0.009	Y:	0.025	Z:	0.439	yaw:	-1.373	yaw rate:	-17.784	Roll:	-0.325	Pitch:	0.803	Yaw:	1.363	Thrust:	65.275
Time:	5.198	Roll Set Point:	0.019	Pitch Set Point:	-0.051	Yaw Set Point:	0.025	X_WP:	0.000	Y_WP:	0.000	Y_WP:	0.500	X:	-0.009	Y:	0.025	Z:	0.439	yaw:	-1.412	yaw rate:	3.976	Roll:	-0.462	Pitch:	0.870	Yaw:	-1.249	Thrust:	75.192
Time:	5.212	Roll Set Point:	0.020	Pitch Set Point:	-0.051	Yaw Set Point:	0.045	X_WP:	0.000	Y_WP:	0.000	Y_WP:	0.500	X:	-0.009	Y:	0.026	Z:	0.440	yaw:	-2.582	yaw rate:	117.000	Roll:	-1.359	Pitch:	0.874	Yaw:	-23.965	Thrust:	43.817
Time:	5.233	Roll Set Point:	0.018	Pitch Set Point:	-0.051	Yaw Set Point:	0.026	X_WP:	0.000	Y_WP:	0.000	Y_WP:	0.500	X:	-0.009	Y:	0.025	Z:	0.440	yaw:	-1.492	yaw rate:	-109.033	Roll:	0.325	Pitch:	0.637	Yaw:	12.333	Thrust:	67.898
Time:	5.257	Roll Set Point:	0.019	Pitch Set Point:	-0.051	Yaw Set Point:	0.028	X_WP:	0.000	Y_WP:	0.000	Y_WP:	0.500	X:	-0.009	Y:	0.025	Z:	0.441	yaw:	-1.603	yaw rate:	11.118	Roll:	-0.558	Pitch:	0.831	Yaw:	-2.415	Thrust:	71.285
Time:	5.279	Roll Set Point:	0.019	Pitch Set Point:	-0.051	Yaw Set Point:	0.025	X_WP:	0.000	Y_WP:	0.000	Y_WP:	0.500	X:	-0.009	Y:	0.025	Z:	0.442	yaw:	-1.414	yaw rate:	-18.923	Roll:	-0.292	Pitch:	0.771	Yaw:	1.270	Thrust:	68.083
Time:	5.294	Roll Set Point:	0.019	Pitch Set Point:	-0.051	Yaw Set Point:	0.027	X_WP:	0.000	Y_WP:	0.000	Y_WP:	0.500	X:	-0.009	Y:	0.025	Z:	0.443	yaw:	-1.566	yaw rate:	15.240	Roll:	-0.354	Pitch:	0.731	Yaw:	-4.133	Thrust:	48.085
Time:	5.314	Roll Set Point:	0.018	Pitch Set Point:	-0.050	Yaw Set Point:	0.028	X_WP:	0.000	Y_WP:	0.000	Y_WP:	0.500	X:	-0.009	Y:	0.025	Z:	0.444	yaw:	-1.584	yaw rate:	1.789	Roll:	-0.304	Pitch:	0.654	Yaw:	-1.503	Thrust:	62.522
Time:	5.333	Roll Set Point:	0.018	Pitch Set Point:	-0.050	Yaw Set Point:	0.026	X_WP:	0.000	Y_WP:	0.000	Y_WP:	0.500	X:	-0.009	Y:	0.025	Z:	0.445	yaw:	-1.468	yaw rate:	-11.607	Roll:	-0.288	Pitch:	0.731	Yaw:	0.397	Thrust:	57.112
