Time:	0.051	Roll Set Point:	-0.060	Pitch Set Point:	1.775	Yaw Set Point:	-0.084	X_WP:	0.000	Y_WP:	0.000	Y_WP:	0.750	X:	0.068	Y:	-0.886	Z:	0.403	yaw:	4.841	yaw rate:	-67.361	Roll:	-0.218	Pitch:	-25.769	Yaw:	6.760	Thrust:	19.102
Time:	0.070	Roll Set Point:	-0.071	Pitch Set Point:	1.775	Yaw Set Point:	-0.072	X_WP:	0.000	Y_WP:	0.000	Y_WP:	0.750	X:	0.068	Y:	-0.886	Z:	0.403	yaw:	4.134	yaw rate:	70.699	Roll:	9.837	Pitch:	-26.057	Yaw:	-3.908	Thrust:	19.836
Time:	0.090	Roll Set Point:	-0.060	Pitch Set Point:	1.775	Yaw Set Point:	-0.084	X_WP:	0.000	Y_WP:	0.000	Y_WP:	0.750	X:	0.068	Y:	-0.886	Z:	0.403	yaw:	4.839	yaw rate:	-70.496	Roll:	-9.918	Pitch:	-25.637	Yaw:	16.255	Thrust:	20.885
Time:	0.109	Roll Set Point:	-0.061	Pitch Set Point:	1.775	Yaw Set Point:	-0.084	X_WP:	0.000	Y_WP:	0.000	Y_WP:	0.750	X:	0.068	Y:	-0.886	Z:	0.403	yaw:	4.791	yaw rate:	4.792	Roll:	0.451	Pitch:	-25.889	Yaw:	6.143	Thrust:	21.502
Time:	0.131	Roll Set Point:	-0.072	Pitch Set Point:	1.775	Yaw Set Point:	-0.072	X_WP:	0.000	Y_WP:	0.000	Y_WP:	0.750	X:	0.068	Y:	-0.886	Z:	0.403	yaw:	4.142	yaw rate:	64.906	Roll:	8.829	Pitch:	-26.346	Yaw:	-1.873	Thrust:	22.171
Time:	0.151	Roll Set Point:	-0.073	Pitch Set Point:	1.775	Yaw Set Point:	-0.071	X_WP:	0.000	Y_WP:	0.000	Y_WP:	0.750	X:	0.068	Y:	-0.886	Z:	0.403	yaw:	4.089	yaw rate:	5.305	Roll:	0.809	Pitch:	-26.017	Yaw:	5.168	Thrust:	23.484
Time:	0.170	Roll Set Point:	-0.064	Pitch Set Point:	1.775	Yaw Set Point:	-0.081	X_WP:	0.000	Y_WP:	0.000	Y_WP:	0.750	X:	0.068	Y:	-0.886	Z:	0.403	yaw:	4.664	yaw rate:	-57.520	Roll:	-8.199	Pitch:	-25.858	Yaw:	14.549	Thrust:	24.015
Time:	0.190	Roll Set Point:	-0.060	Pitch Set Point:	1.775	Yaw Set Point:	-0.084	X_WP:	0.000	Y_WP:	0.000	Y_WP:	0.750	X:	0.067	Y:	-0.886	Z:	0.403	yaw:	4.821	yaw rate:	-15.654	Roll:	-2.597	Pitch:	-25.866	Yaw:	8.974	Thrust:	25.267
Time:	0.210	Roll Set Point:	-0.071	Pitch Set Point:	1.775	Yaw Set Point:	-0.073	X_WP:	0.000	Y_WP:	0.000	Y_WP:	0.750	X:	0.068	Y:	-0.886	Z:	0.403	yaw:	4.169	yaw rate:	65.201	Roll:	9.039	Pitch:	-26.361	Yaw:	-2.605	Thrust:	25.550
Time:	0.230	Roll Set Point:	-0.061	Pitch Set Point:	1.775	Yaw Set Point:	-0.084	X_WP:	0.000	Y_WP:	0.000	Y_WP:	0.750	X:	0.068	Y:	-0.886	Z:	0.403	yaw:	4.800	yaw rate:	-63.070	Roll:	-8.529	Pitch:	-25.974	Yaw:	15.076	Thrust:	26.821
Time:	0.251	Roll Set Point:	-0.061	Pitch Set Point:	1.775	Yaw Set Point:	-0.083	X_WP:	0.000	Y_WP:	0.000	Y_WP:	0.750	X:	0.067	Y:	-0.886	Z:	0.403	yaw:	4.782	yaw rate:	1.719	Roll:	0.013	Pitch:	-26.189	Yaw:	6.789	Thrust:	27.833
Time:	0.270	Roll Set Point:	-0.060	Pitch Set Point:	1.775	Yaw Set Point:	-0.085	X_WP:	0.000	Y_WP:	0.000	Y_WP:	0.750	X:	0.067	Y:	-0.886	Z:	0.403	yaw:	4.847	yaw rate:	-6.420	Roll:	-1.113	Pitch:	-26.232	Yaw:	7.971	Thrust:	27.515
Time:	0.290	Roll Set Point:	-0.061	Pitch Set Point:	1.775	Yaw Set Point:	-0.084	X_WP:	0.000	Y_WP:	0.000	Y_WP:	0.750	X:	0.067	Y:	-0.886	Z:	0.403	yaw:	4.792	yaw rate:	5.494	Roll:	0.524	Pitch:	-26.325	Yaw:	6.303	Thrust:	29.182
Time:	0.310	Roll Set Point:	-0.072	Pitch Set Point:	1.775	Yaw Set Point:	-0.072	X_WP:	0.000	Y_WP:	0.000	Y_WP:	0.750	X:	0.068	Y:	-0.886	Z:	0.403	yaw:	4.132	yaw rate:	65.999	Roll:	9.200	Pitch:	-26.560	Yaw:	-2.191	Thrust:	29.641
Time:	0.330	Roll Set Point:	-0.061	Pitch Set Point:	1.775	Yaw Set Point:	-0.084	X_WP:	0.000	Y_WP:	0.000	Y_WP:	0.750	X:	0.068	Y:	-0.886	Z:	0.403	yaw:	4.803	yaw rate:	-67.172	Roll:	-8.797	Pitch:	-26.232	Yaw:	15.885	Thrust:	31.456
Time:	0.351	Roll Set Point:	-0.060	Pitch Set Point:	1.775	Yaw Set Point:	-0.084	X_WP:	0.000	Y_WP:	0.000	Y_WP:	0.750	X:	0.067	Y:	-0.886	Z:	0.403	yaw:	4.808	yaw rate:	-0.500	Roll:	-0.282	Pitch:	-26.414	Yaw:	7.272	Thrust:	32.067
Time:	0.369	Roll Set Point:	-0.060	Pitch Set Point:	1.775	Yaw Set Point:	-0.084	X_WP:	0.000	Y_WP:	0.000	Y_WP:	0.750	X:	0.067	Y:	-0.886	Z:	0.403	yaw:	4.833	yaw rate:	-2.506	Roll:	-0.567	Pitch:	-26.464	Yaw:	7.579	Thrust:	31.507
Time:	0.390	Roll Set Point:	-0.071	Pitch Set Point:	1.775	Yaw Set Point:	-0.073	X_WP:	0.000	Y_WP:	0.000	Y_WP:	0.750	X:	0.068	Y:	-0.886	Z:	0.403	yaw:	4.182	yaw rate:	65.182	Roll:	9.010	Pitch:	-26.739	Yaw:	-2.050	Thrust:	32.883
Time:	0.410	Roll Set Point:	-0.061	Pitch Set Point:	1.775	Yaw Set Point:	-0.084	X_WP:	0.000	Y_WP:	0.000	Y_WP:	0.750	X:	0.067	Y:	-0.886	Z:	0.403	yaw:	4.795	yaw rate:	-61.330	Roll:	-8.248	Pitch:	-26.305	Yaw:	15.247	Thrust:	34.723
Time:	0.430	Roll Set Point:	-0.061	Pitch Set Point:	1.775	Yaw Set Point:	-0.084	X_WP:	0.000	Y_WP:	0.000	Y_WP:	0.750	X:	0.067	Y:	-0.886	Z:	0.403	yaw:	4.802	yaw rate:	-0.737	Roll:	-0.291	Pitch:	-26.567	Yaw:	7.430	Thrust:	35.575
Time:	0.451	Roll Set Point:	-0.060	Pitch Set Point:	1.775	Yaw Set Point:	-0.084	X_WP:	0.000	Y_WP:	0.000	Y_WP:	0.750	X:	0.067	Y:	-0.886	Z:	0.403	yaw:	4.815	yaw rate:	-1.231	Roll:	-0.364	Pitch:	-26.546	Yaw:	7.544	Thrust:	36.401
Time:	0.469	Roll Set Point:	-0.060	Pitch Set Point:	1.775	Yaw Set Point:	-0.084	X_WP:	0.000	Y_WP:	0.000	Y_WP:	0.750	X:	0.067	Y:	-0.886	Z:	0.403	yaw:	4.837	yaw rate:	-2.187	Roll:	-0.528	Pitch:	-26.431	Yaw:	7.683	Thrust:	34.986
Time:	0.490	Roll Set Point:	-0.061	Pitch Set Point:	1.775	Yaw Set Point:	-0.083	X_WP:	0.000	Y_WP:	0.000	Y_WP:	0.750	X:	0.067	Y:	-0.886	Z:	0.403	yaw:	4.778	yaw rate:	5.848	Roll:	0.574	Pitch:	-26.549	Yaw:	6.659	Thrust:	37.965
Time:	0.510	Roll Set Point:	-0.060	Pitch Set Point:	1.775	Yaw Set Point:	-0.085	X_WP:	0.000	Y_WP:	0.000	Y_WP:	0.750	X:	0.067	Y:	-0.886	Z:	0.403	yaw:	4.845	yaw rate:	-6.687	Roll:	-1.095	Pitch:	-26.513	Yaw:	8.386	Thrust:	38.052
Time:	0.530	Roll Set Point:	-0.061	Pitch Set Point:	1.775	Yaw Set Point:	-0.084	X_WP:	0.000	Y_WP:	0.000	Y_WP:	0.750	X:	0.067	Y:	-0.886	Z:	0.403	yaw:	4.798	yaw rate:	4.734	Roll:	0.427	Pitch:	-26.500	Yaw:	6.895	Thrust:	39.673
Time:	0.552	Roll Set Point:	-0.061	Pitch Set Point:	1.775	Yaw Set Point:	-0.083	X_WP:	0.000	Y_WP:	0.000	Y_WP:	0.750	X:	0.068	Y:	-0.886	Z:	0.403	yaw:	4.779	yaw rate:	1.876	Roll:	0.044	Pitch:	-26.597	Yaw:	7.319	Thrust:	41.541
Time:	0.569	Roll Set Point:	-0.072	Pitch Set Point:	1.775	Yaw Set Point:	-0.072	X_WP:	0.000	Y_WP:	0.000	Y_WP:	0.750	X:	0.068	Y:	-0.886	Z:	0.403	yaw:	4.127	yaw rate:	65.191	Roll:	9.904	Pitch:	-26.698	Yaw:	-3.596	Thrust:	37.298
Time:	0.589	Roll Set Point:	-0.060	Pitch Set Point:	1.775	Yaw Set Point:	-0.084	X_WP:	0.000	Y_WP:	0.000	Y_WP:	0.750	X:	0.067	Y:	-0.886	Z:	0.403	yaw:	4.827	yaw rate:	-70.046	Roll:	-9.425	Pitch:	-26.327	Yaw:	16.577	Thrust:	42.318
Time:	0.609	Roll Set Point:	-0.060	Pitch Set Point:	1.775	Yaw Set Point:	-0.085	X_WP:	0.000	Y_WP:	0.000	Y_WP:	0.750	X:	0.067	Y:	-0.886	Z:	0.403	yaw:	4.846	yaw rate:	-1.866	Roll:	-0.480	Pitch:	-26.510	Yaw:	7.920	Thrust:	42.575
Time:	0.629	Roll Set Point:	-0.060	Pitch Set Point:	1.775	Yaw Set Point:	-0.084	X_WP:	0.000	Y_WP:	0.000	Y_WP:	0.750	X:	0.068	Y:	-0.886	Z:	0.403	yaw:	4.830	yaw rate:	1.649	Roll:	-0.001	Pitch:	-26.506	Yaw:	7.464	Thrust:	43.125
Time:	0.652	Roll Set Point:	-0.073	Pitch Set Point:	1.775	Yaw Set Point:	-0.071	X_WP:	0.000	Y_WP:	0.000	Y_WP:	0.750	X:	0.068	Y:	-0.886	Z:	0.403	yaw:	4.094	yaw rate:	73.585	Roll:	9.118	Pitch:	-26.950	Yaw:	-1.899	Thrust:	46.514
Time:	0.669	Roll Set Point:	-0.060	Pitch Set Point:	1.775	Yaw Set Point:	-0.084	X_WP:	0.000	Y_WP:	0.000	Y_WP:	0.750	X:	0.068	Y:	-0.886	Z:	0.403	yaw:	4.814	yaw rate:	-72.055	Roll:	-11.433	Pitch:	-26.030	Yaw:	18.216	Thrust:	42.448
Time:	0.689	Roll Set Point:	-0.061	Pitch Set Point:	1.775	Yaw Set Point:	-0.083	X_WP:	0.000	Y_WP:	0.000	Y_WP:	0.750	X:	0.067	Y:	-0.886	Z:	0.403	yaw:	4.779	yaw rate:	3.474	Roll:	0.260	Pitch:	-26.527	Yaw:	7.262	Thrust:	45.911
Time:	0.710	Roll Set Point:	-0.060	Pitch Set Point:	1.775	Yaw Set Point:	-0.084	X_WP:	0.000	Y_WP:	0.000	Y_WP:	0.750	X:	0.067	Y:	-0.886	Z:	0.403	yaw:	4.828	yaw rate:	-4.864	Roll:	-0.869	Pitch:	-26.479	Yaw:	8.452	Thrust:	46.930
Time:	0.730	Roll Set Point:	-0.061	Pitch Set Point:	1.775	Yaw Set Point:	-0.084	X_WP:	0.000	Y_WP:	0.000	Y_WP:	0.750	X:	0.068	Y:	-0.886	Z:	0.403	yaw:	4.803	yaw rate:	2.527	Roll:	0.106	Pitch:	-26.601	Yaw:	7.543	Thrust:	48.677
Time:	0.750	Roll Set Point:	-0.060	Pitch Set Point:	1.775	Yaw Set Point:	-0.084	X_WP:	0.000	Y_WP:	0.000	Y_WP:	0.750	X:	0.067	Y:	-0.886	Z:	0.403	yaw:	4.821	yaw rate:	-1.808	Roll:	-0.481	Pitch:	-26.486	Yaw:	8.106	Thrust:	48.349
Time:	0.769	Roll Set Point:	-0.071	Pitch Set Point:	1.775	Yaw Set Point:	-0.073	X_WP:	0.000	Y_WP:	0.000	Y_WP:	0.750	X:	0.068	Y:	-0.886	Z:	0.403	yaw:	4.186	yaw rate:	63.474	Roll:	9.015	Pitch:	-26.740	Yaw:	-1.943	Thrust:	47.028
Time:	0.789	Roll Set Point:	-0.060	Pitch Set Point:	1.775	Yaw Set Point:	-0.084	X_WP:	0.000	Y_WP:	0.000	Y_WP:	0.750	X:	0.067	Y:	-0.886	Z:	0.403	yaw:	4.811	yaw rate:	-62.516	Roll:	-9.035	Pitch:	-26.249	Yaw:	16.217	Thrust:	48.756
Time:	0.810	Roll Set Point:	-0.061	Pitch Set Point:	1.775	Yaw Set Point:	-0.084	X_WP:	0.000	Y_WP:	0.000	Y_WP:	0.750	X:	0.067	Y:	-0.886	Z:	0.403	yaw:	4.803	yaw rate:	0.852	Roll:	-0.113	Pitch:	-26.527	Yaw:	7.877	Thrust:	51.153
Time:	0.829	Roll Set Point:	-0.061	Pitch Set Point:	1.775	Yaw Set Point:	-0.084	X_WP:	0.000	Y_WP:	0.000	Y_WP:	0.750	X:	0.068	Y:	-0.886	Z:	0.403	yaw:	4.807	yaw rate:	-0.401	Roll:	-0.231	Pitch:	-26.522	Yaw:	7.976	Thrust:	51.738
Time:	0.851	Roll Set Point:	-0.060	Pitch Set Point:	1.775	Yaw Set Point:	-0.084	X_WP:	0.000	Y_WP:	0.000	Y_WP:	0.750	X:	0.067	Y:	-0.886	Z:	0.403	yaw:	4.827	yaw rate:	-2.054	Roll:	-0.490	Pitch:	-26.571	Yaw:	8.408	Thrust:	55.583
Time:	0.869	Roll Set Point:	-0.060	Pitch Set Point:	1.775	Yaw Set Point:	-0.084	X_WP:	0.000	Y_WP:	0.000	Y_WP:	0.750	X:	0.067	Y:	-0.886	Z:	0.403	yaw:	4.834	yaw rate:	-0.647	Roll:	-0.320	Pitch:	-26.482	Yaw:	8.084	Thrust:	50.974
Time:	0.889	Roll Set Point:	-0.061	Pitch Set Point:	1.775	Yaw Set Point:	-0.084	X_WP:	0.000	Y_WP:	0.000	Y_WP:	0.750	X:	0.068	Y:	-0.886	Z:	0.403	yaw:	4.787	yaw rate:	4.678	Roll:	0.412	Pitch:	-26.511	Yaw:	7.458	Thrust:	54.446
Time:	0.909	Roll Set Point:	-0.062	Pitch Set Point:	1.775	Yaw Set Point:	-0.082	X_WP:	0.000	Y_WP:	0.000	Y_WP:	0.750	X:	0.068	Y:	-0.886	Z:	0.403	yaw:	4.727	yaw rate:	6.033	Roll:	0.671	Pitch:	-26.525	Yaw:	7.166	Thrust:	54.130
Time:	0.930	Roll Set Point:	-0.058	Pitch Set Point:	1.775	Yaw Set Point:	-0.086	X_WP:	0.000	Y_WP:	0.000	Y_WP:	0.750	X:	0.068	Y:	-0.886	Z:	0.403	yaw:	4.954	yaw rate:	-22.734	Roll:	-3.278	Pitch:	-26.563	Yaw:	11.234	Thrust:	56.744
Time:	0.951	Roll Set Point:	-0.072	Pitch Set Point:	1.775	Yaw Set Point:	-0.072	X_WP:	0.000	Y_WP:	0.000	Y_WP:	0.750	X:	0.068	Y:	-0.886	Z:	0.403	yaw:	4.101	yaw rate:	85.321	Roll:	11.426	Pitch:	-26.700	Yaw:	-3.586	Thrust:	58.331
Time:	0.970	Roll Set Point:	-0.061	Pitch Set Point:	1.775	Yaw Set Point:	-0.083	X_WP:	0.000	Y_WP:	0.000	Y_WP:	0.750	X:	0.068	Y:	-0.886	Z:	0.403	yaw:	4.762	yaw rate:	-66.078	Roll:	-9.593	Pitch:	-26.342	Yaw:	17.128	Thrust:	57.042
Time:	0.990	Roll Set Point:	-0.079	Pitch Set Point:	1.775	Yaw Set Point:	-0.063	X_WP:	0.000	Y_WP:	0.000	Y_WP:	0.750	X:	0.067	Y:	-0.886	Z:	0.403	yaw:	3.633	yaw rate:	112.857	Roll:	14.915	Pitch:	-26.750	Yaw:	-8.483	Thrust:	56.563
Time:	1.009	Roll Set Point:	-0.079	Pitch Set Point:	1.775	Yaw Set Point:	-0.063	X_WP:	0.000	Y_WP:	0.000	Y_WP:	0.750	X:	0.067	Y:	-0.886	Z:	0.403	yaw:	3.625	yaw rate:	0.764	Roll:	0.410	Pitch:	-26.503	Yaw:	6.496	Thrust:	59.491
Time:	1.030	Roll Set Point:	-0.066	Pitch Set Point:	1.775	Yaw Set Point:	-0.077	X_WP:	0.000	Y_WP:	0.000	Y_WP:	0.750	X:	0.067	Y:	-0.886	Z:	0.403	yaw:	4.396	yaw rate:	-77.031	Roll:	-10.139	Pitch:	-26.397	Yaw:	17.763	Thrust:	59.296
Time:	1.051	Roll Set Point:	-0.078	Pitch Set Point:	1.775	Yaw Set Point:	-0.064	X_WP:	0.000	Y_WP:	0.000	Y_WP:	0.750	X:	0.067	Y:	-0.886	Z:	0.403	yaw:	3.644	yaw rate:	75.128	Roll:	9.920	Pitch:	-26.740	Yaw:	-2.261	Thrust:	64.043
Time:	1.069	Roll Set Point:	-0.066	Pitch Set Point:	1.775	Yaw Set Point:	-0.076	X_WP:	0.000	Y_WP:	0.000	Y_WP:	0.750	X:	0.067	Y:	-0.886	Z:	0.403	yaw:	4.382	yaw rate:	-73.760	Roll:	-11.044	Pitch:	-26.259	Yaw:	18.217	Thrust:	59.018
Time:	1.090	Roll Set Point:	-0.078	Pitch Set Point:	1.775	Yaw Set Point:	-0.064	X_WP:	0.000	Y_WP:	0.000	Y_WP:	0.750	X:	0.067	Y:	-0.886	Z:	0.403	yaw:	3.690	yaw rate:	69.238	Roll:	9.236	Pitch:	-26.757	Yaw:	-1.993	Thrust:	63.334
Time:	1.110	Roll Set Point:	-0.065	Pitch Set Point:	1.775	Yaw Set Point:	-0.078	X_WP:	0.000	Y_WP:	0.000	Y_WP:	0.750	X:	0.067	Y:	-0.886	Z:	0.403	yaw:	4.441	yaw rate:	-75.148	Roll:	-10.453	Pitch:	-26.295	Yaw:	18.140	Thrust:	61.358
Time:	1.129	Roll Set Point:	-0.067	Pitch Set Point:	1.775	Yaw Set Point:	-0.076	X_WP:	0.000	Y_WP:	0.000	Y_WP:	0.750	X:	0.067	Y:	-0.886	Z:	0.403	yaw:	4.361	yaw rate:	8.020	Roll:	1.021	Pitch:	-26.527	Yaw:	6.837	Thrust:	65.239
Time:	1.151	Roll Set Point:	-0.065	Pitch Set Point:	1.775	Yaw Set Point:	-0.078	X_WP:	0.000	Y_WP:	0.000	Y_WP:	0.750	X:	0.067	Y:	-0.886	Z:	0.403	yaw:	4.451	yaw rate:	-8.998	Roll:	-1.246	Pitch:	-26.656	Yaw:	9.219	Thrust:	69.733
Time:	1.171	Roll Set Point:	-0.068	Pitch Set Point:	1.775	Yaw Set Point:	-0.075	X_WP:	0.000	Y_WP:	0.000	Y_WP:	0.750	X:	0.067	Y:	-0.886	Z:	0.403	yaw:	4.278	yaw rate:	17.339	Roll:	2.588	Pitch:	-26.357	Yaw:	5.343	Thrust:	61.696
Time:	1.189	Roll Set Point:	-0.081	Pitch Set Point:	1.775	Yaw Set Point:	-0.061	X_WP:	0.000	Y_WP:	0.000	Y_WP:	0.750	X:	0.068	Y:	-0.886	Z:	0.403	yaw:	3.514	yaw rate:	76.351	Roll:	11.596	Pitch:	-26.716	Yaw:	-4.154	Thrust:	65.470
Time:	1.209	Roll Set Point:	-0.079	Pitch Set Point:	1.775	Yaw Set Point:	-0.063	X_WP:	0.000	Y_WP:	0.000	Y_WP:	0.750	X:	0.067	Y:	-0.886	Z:	0.403	yaw:	3.635	yaw rate:	-12.107	Roll:	-1.669	Pitch:	-26.516	Yaw:	8.497	Thrust:	66.569
Time:	1.230	Roll Set Point:	-0.066	Pitch Set Point:	1.775	Yaw Set Point:	-0.078	X_WP:	0.000	Y_WP:	0.000	Y_WP:	0.750	X:	0.068	Y:	-0.886	Z:	0.403	yaw:	4.480	yaw rate:	-84.521	Roll:	-11.252	Pitch:	-26.423	Yaw:	18.678	Thrust:	71.228
Time:	1.253	Roll Set Point:	-0.066	Pitch Set Point:	1.775	Yaw Set Point:	-0.077	X_WP:	0.000	Y_WP:	0.000	Y_WP:	0.750	X:	0.067	Y:	-0.886	Z:	0.403	yaw:	4.401	yaw rate:	7.926	Roll:	0.507	Pitch:	-26.627	Yaw:	7.442	Thrust:	76.969
Time:	1.271	Roll Set Point:	-0.065	Pitch Set Point:	1.775	Yaw Set Point:	-0.077	X_WP:	0.000	Y_WP:	0.000	Y_WP:	0.750	X:	0.067	Y:	-0.886	Z:	0.403	yaw:	4.439	yaw rate:	-3.843	Roll:	-0.598	Pitch:	-26.430	Yaw:	8.491	Thrust:	64.830
Time:	1.291	Roll Set Point:	-0.066	Pitch Set Point:	1.775	Yaw Set Point:	-0.077	X_WP:	0.000	Y_WP:	0.000	Y_WP:	0.750	X:	0.067	Y:	-0.886	Z:	0.403	yaw:	4.418	yaw rate:	2.172	Roll:	0.254	Pitch:	-26.528	Yaw:	7.782	Thrust:	69.395
Time:	1.310	Roll Set Point:	-0.067	Pitch Set Point:	1.775	Yaw Set Point:	-0.076	X_WP:	0.000	Y_WP:	0.000	Y_WP:	0.750	X:	0.067	Y:	-0.886	Z:	0.403	yaw:	4.358	yaw rate:	5.994	Roll:	0.847	Pitch:	-26.505	Yaw:	7.181	Thrust:	69.607
Time:	1.330	Roll Set Point:	-0.065	Pitch Set Point:	1.775	Yaw Set Point:	-0.077	X_WP:	0.000	Y_WP:	0.000	Y_WP:	0.750	X:	0.067	Y:	-0.886	Z:	0.403	yaw:	4.434	yaw rate:	-7.616	Roll:	-1.063	Pitch:	-26.465	Yaw:	9.146	Thrust:	70.043
Time:	1.351	Roll Set Point:	-0.066	Pitch Set Point:	1.775	Yaw Set Point:	-0.077	X_WP:	0.000	Y_WP:	0.000	Y_WP:	0.750	X:	0.067	Y:	-0.886	Z:	0.403	yaw:	4.408	yaw rate:	2.586	Roll:	0.287	Pitch:	-26.593	Yaw:	8.028	Thrust:	78.311
Time:	1.370	Roll Set Point:	-0.079	Pitch Set Point:	1.775	Yaw Set Point:	-0.063	X_WP:	0.000	Y_WP:	0.000	Y_WP:	0.750	X:	0.067	Y:	-0.886	Z:	0.403	yaw:	3.613	yaw rate:	79.506	Roll:	11.448	Pitch:	-26.673	Yaw:	-3.783	Thrust:	69.390
Time:	1.390	Roll Set Point:	-0.066	Pitch Set Point:	1.775	Yaw Set Point:	-0.077	X_WP:	0.000	Y_WP:	0.000	Y_WP:	0.750	X:	0.067	Y:	-0.886	Z:	0.403	yaw:	4.387	yaw rate:	-77.370	Roll:	-10.473	Pitch:	-26.327	Yaw:	18.473	Thrust:	76.439
Time:	1.410	Roll Set Point:	-0.066	Pitch Set Point:	1.775	Yaw Set Point:	-0.077	X_WP:	0.000	Y_WP:	0.000	Y_WP:	0.750	X:	0.067	Y:	-0.886	Z:	0.403	yaw:	4.393	yaw rate:	-0.644	Roll:	-0.106	Pitch:	-26.543	Yaw:	8.279	Thrust:	74.732
Time:	1.429	Roll Set Point:	-0.067	Pitch Set Point:	1.775	Yaw Set Point:	-0.076	X_WP:	0.000	Y_WP:	0.000	Y_WP:	0.750	X:	0.067	Y:	-0.886	Z:	0.403	yaw:	4.328	yaw rate:	6.492	Roll:	0.844	Pitch:	-26.539	Yaw:	7.059	Thrust:	76.850
Time:	1.450	Roll Set Point:	-0.079	Pitch Set Point:	1.775	Yaw Set Point:	-0.063	X_WP:	0.000	Y_WP:	0.000	Y_WP:	0.750	X:	0.067	Y:	-0.886	Z:	0.403	yaw:	3.634	yaw rate:	69.423	Roll:	9.858	Pitch:	-26.696	Yaw:	-1.889	Thrust:	78.034
Time:	1.469	Roll Set Point:	-0.067	Pitch Set Point:	1.775	Yaw Set Point:	-0.076	X_WP:	0.000	Y_WP:	0.000	Y_WP:	0.750	X:	0.067	Y:	-0.886	Z:	0.403	yaw:	4.343	yaw rate:	-70.894	Roll:	-9.724	Pitch:	-26.304	Yaw:	17.630	Thrust:	76.108
Time:	1.489	Roll Set Point:	-0.067	Pitch Set Point:	1.775	Yaw Set Point:	-0.076	X_WP:	0.000	Y_WP:	0.000	Y_WP:	0.750	X:	0.067	Y:	-0.886	Z:	0.403	yaw:	4.356	yaw rate:	-1.342	Roll:	-0.196	Pitch:	-26.539	Yaw:	8.263	Thrust:	79.373
Time:	1.508	Roll Set Point:	-0.066	Pitch Set Point:	1.775	Yaw Set Point:	-0.076	X_WP:	0.000	Y_WP:	0.000	Y_WP:	0.750	X:	0.067	Y:	-0.886	Z:	0.403	yaw:	4.376	yaw rate:	-1.979	Roll:	-0.277	Pitch:	-26.510	Yaw:	8.323	Thrust:	78.290
Time:	1.529	Roll Set Point:	-0.066	Pitch Set Point:	1.775	Yaw Set Point:	-0.076	X_WP:	0.000	Y_WP:	0.000	Y_WP:	0.750	X:	0.067	Y:	-0.886	Z:	0.403	yaw:	4.371	yaw rate:	0.496	Roll:	0.026	Pitch:	-26.532	Yaw:	8.154	Thrust:	82.671
Time:	1.551	Roll Set Point:	-0.066	Pitch Set Point:	1.775	Yaw Set Point:	-0.077	X_WP:	0.000	Y_WP:	0.000	Y_WP:	0.750	X:	0.067	Y:	-0.886	Z:	0.403	yaw:	4.420	yaw rate:	-4.851	Roll:	-0.660	Pitch:	-26.590	Yaw:	8.916	Thrust:	88.110
Time:	1.569	Roll Set Point:	-0.079	Pitch Set Point:	1.775	Yaw Set Point:	-0.063	X_WP:	0.000	Y_WP:	0.000	Y_WP:	0.750	X:	0.067	Y:	-0.886	Z:	0.403	yaw:	3.628	yaw rate:	79.213	Roll:	11.398	Pitch:	-26.659	Yaw:	-4.461	Thrust:	76.889
Time:	1.590	Roll Set Point:	-0.078	Pitch Set Point:	1.775	Yaw Set Point:	-0.064	X_WP:	0.000	Y_WP:	0.000	Y_WP:	0.750	X:	0.067	Y:	-0.886	Z:	0.403	yaw:	3.685	yaw rate:	-5.701	Roll:	-0.474	Pitch:	-26.533	Yaw:	7.905	Thrust:	83.970
Time:	1.610	Roll Set Point:	-0.067	Pitch Set Point:	1.775	Yaw Set Point:	-0.076	X_WP:	0.000	Y_WP:	0.000	Y_WP:	0.750	X:	0.067	Y:	-0.886	Z:	0.403	yaw:	4.370	yaw rate:	-68.584	Roll:	-9.310	Pitch:	-26.404	Yaw:	16.925	Thrust:	85.669
Time:	1.631	Roll Set Point:	-0.066	Pitch Set Point:	1.775	Yaw Set Point:	-0.077	X_WP:	0.000	Y_WP:	0.000	Y_WP:	0.750	X:	0.067	Y:	-0.886	Z:	0.403	yaw:	4.432	yaw rate:	-6.141	Roll:	-0.850	Pitch:	-26.483	Yaw:	9.047	Thrust:	84.600
Time:	1.650	Roll Set Point:	-0.066	Pitch Set Point:	1.775	Yaw Set Point:	-0.077	X_WP:	0.000	Y_WP:	0.000	Y_WP:	0.750	X:	0.067	Y:	-0.886	Z:	0.403	yaw:	4.431	yaw rate:	0.103	Roll:	-0.038	Pitch:	-26.497	Yaw:	8.038	Thrust:	84.756
Time:	1.670	Roll Set Point:	-0.066	Pitch Set Point:	1.775	Yaw Set Point:	-0.076	X_WP:	0.000	Y_WP:	0.000	Y_WP:	0.750	X:	0.067	Y:	-0.886	Z:	0.403	yaw:	4.379	yaw rate:	5.209	Roll:	0.687	Pitch:	-26.535	Yaw:	7.432	Thrust:	86.600
Time:	1.690	Roll Set Point:	-0.066	Pitch Set Point:	1.775	Yaw Set Point:	-0.077	X_WP:	0.000	Y_WP:	0.000	Y_WP:	0.750	X:	0.067	Y:	-0.886	Z:	0.403	yaw:	4.400	yaw rate:	-2.161	Roll:	-0.317	Pitch:	-26.523	Yaw:	8.406	Thrust:	86.611
Time:	1.709	Roll Set Point:	-0.066	Pitch Set Point:	1.775	Yaw Set Point:	-0.077	X_WP:	0.000	Y_WP:	0.000	Y_WP:	0.750	X:	0.067	Y:	-0.886	Z:	0.403	yaw:	4.409	yaw rate:	-0.820	Roll:	-0.170	Pitch:	-26.504	Yaw:	8.244	Thrust:	87.581
Time:	1.729	Roll Set Point:	-0.065	Pitch Set Point:	1.775	Yaw Set Point:	-0.078	X_WP:	0.000	Y_WP:	0.000	Y_WP:	0.750	X:	0.067	Y:	-0.886	Z:	0.403	yaw:	4.446	yaw rate:	-3.780	Roll:	-0.533	Pitch:	-26.544	Yaw:	8.721	Thrust:	88.228
Time:	1.752	Roll Set Point:	-0.067	Pitch Set Point:	1.775	Yaw Set Point:	-0.076	X_WP:	0.000	Y_WP:	0.000	Y_WP:	0.750	X:	0.067	Y:	-0.886	Z:	0.403	yaw:	4.365	yaw rate:	8.112	Roll:	0.926	Pitch:	-26.610	Yaw:	7.349	Thrust:	99.304
Time:	1.777	Roll Set Point:	-0.081	Pitch Set Point:	1.775	Yaw Set Point:	-0.061	X_WP:	0.000	Y_WP:	0.000	Y_WP:	0.750	X:	0.067	Y:	-0.886	Z:	0.403	yaw:	3.469	yaw rate:	89.586	Roll:	9.986	Pitch:	-26.876	Yaw:	-1.720	Thrust:	100.000
Time:	1.791	Roll Set Point:	-0.078	Pitch Set Point:	1.775	Yaw Set Point:	-0.064	X_WP:	0.000	Y_WP:	0.000	Y_WP:	0.750	X:	0.067	Y:	-0.886	Z:	0.403	yaw:	3.689	yaw rate:	-21.968	Roll:	-4.070	Pitch:	-26.274	Yaw:	10.895	Thrust:	64.493
Time:	1.810	Roll Set Point:	-0.067	Pitch Set Point:	1.775	Yaw Set Point:	-0.076	X_WP:	0.000	Y_WP:	0.000	Y_WP:	0.750	X:	0.067	Y:	-0.886	Z:	0.403	yaw:	4.343	yaw rate:	-65.415	Roll:	-9.083	Pitch:	-26.337	Yaw:	16.620	Thrust:	90.838
Time:	1.829	Roll Set Point:	-0.066	Pitch Set Point:	1.775	Yaw Set Point:	-0.077	X_WP:	0.000	Y_WP:	0.000	Y_WP:	0.750	X:	0.067	Y:	-0.886	Z:	0.403	yaw:	4.400	yaw rate:	-5.671	Roll:	-0.794	Pitch:	-26.460	Yaw:	8.822	Thrust:	93.017
Time:	1.851	Roll Set Point:	-0.078	Pitch Set Point:	1.775	Yaw Set Point:	-0.064	X_WP:	0.000	Y_WP:	0.000	Y_WP:	0.750	X:	0.067	Y:	-0.886	Z:	0.403	yaw:	3.671	yaw rate:	72.860	Roll:	9.606	Pitch:	-26.781	Yaw:	-1.275	Thrust:	100.000
Time:	1.869	Roll Set Point:	-0.067	Pitch Set Point:	1.775	Yaw Set Point:	-0.076	X_WP:	0.000	Y_WP:	0.000	Y_WP:	0.750	X:	0.067	Y:	-0.886	Z:	0.403	yaw:	4.348	yaw rate:	-67.678	Roll:	-10.095	Pitch:	-26.277	Yaw:	17.644	Thrust:	84.404
Time:	1.890	Roll Set Point:	-0.066	Pitch Set Point:	1.775	Yaw Set Point:	-0.077	X_WP:	0.000	Y_WP:	0.000	Y_WP:	0.750	X:	0.067	Y:	-0.886	Z:	0.403	yaw:	4.389	yaw rate:	-4.079	Roll:	-0.550	Pitch:	-26.527	Yaw:	8.675	Thrust:	100.000
Time:	1.917	Roll Set Point:	-0.065	Pitch Set Point:	1.775	Yaw Set Point:	-0.077	X_WP:	0.000	Y_WP:	0.000	Y_WP:	0.750	X:	0.067	Y:	-0.886	Z:	0.403	yaw:	4.436	yaw rate:	-4.665	Roll:	-0.510	Pitch:	-26.772	Yaw:	9.399	Thrust:	100.000
Time:	1.937	Roll Set Point:	-0.066	Pitch Set Point:	1.775	Yaw Set Point:	-0.077	X_WP:	0.000	Y_WP:	0.000	Y_WP:	0.750	X:	0.067	Y:	-0.886	Z:	0.403	yaw:	4.434	yaw rate:	0.119	Roll:	-0.020	Pitch:	-26.543	Yaw:	8.151	Thrust:	96.558
Time:	1.951	Roll Set Point:	-0.066	Pitch Set Point:	1.775	Yaw Set Point:	-0.077	X_WP:	0.000	Y_WP:	0.000	Y_WP:	0.750	X:	0.067	Y:	-0.886	Z:	0.403	yaw:	4.413	yaw rate:	2.164	Roll:	0.363	Pitch:	-26.316	Yaw:	7.137	Thrust:	71.915
Time:	1.970	Roll Set Point:	-0.081	Pitch Set Point:	1.775	Yaw Set Point:	-0.061	X_WP:	0.000	Y_WP:	0.000	Y_WP:	0.750	X:	0.067	Y:	-0.886	Z:	0.403	yaw:	3.500	yaw rate:	91.232	Roll:	13.256	Pitch:	-26.657	Yaw:	-6.102	Thrust:	95.175
Time:	1.990	Roll Set Point:	-0.065	Pitch Set Point:	1.775	Yaw Set Point:	-0.078	X_WP:	0.000	Y_WP:	0.000	Y_WP:	0.750	X:	0.067	Y:	-0.886	Z:	0.403	yaw:	4.441	yaw rate:	-94.023	Roll:	-12.907	Pitch:	-26.328	Yaw:	20.386	Thrust:	100.000
Time:	2.010	Roll Set Point:	-0.078	Pitch Set Point:	1.775	Yaw Set Point:	-0.065	X_WP:	0.000	Y_WP:	0.000	Y_WP:	0.750	X:	0.067	Y:	-0.886	Z:	0.403	yaw:	3.697	yaw rate:	74.363	Roll:	10.430	Pitch:	-26.753	Yaw:	-2.388	Thrust:	100.000
Time:	2.030	Roll Set Point:	-0.078	Pitch Set Point:	1.775	Yaw Set Point:	-0.064	X_WP:	0.000	Y_WP:	0.000	Y_WP:	0.750	X:	0.067	Y:	-0.886	Z:	0.403	yaw:	3.675	yaw rate:	2.244	Roll:	0.598	Pitch:	-26.505	Yaw:	6.812	Thrust:	100.000
Time:	2.051	Roll Set Point:	-0.081	Pitch Set Point:	1.775	Yaw Set Point:	-0.061	X_WP:	0.000	Y_WP:	0.000	Y_WP:	0.750	X:	0.067	Y:	-0.886	Z:	0.403	yaw:	3.470	yaw rate:	20.455	Roll:	3.091	Pitch:	-26.543	Yaw:	4.409	Thrust:	100.000
Time:	2.070	Roll Set Point:	-0.066	Pitch Set Point:	1.775	Yaw Set Point:	-0.077	X_WP:	0.000	Y_WP:	0.000	Y_WP:	0.750	X:	0.067	Y:	-0.886	Z:	0.403	yaw:	4.408	yaw rate:	-93.770	Roll:	-13.382	Pitch:	-26.368	Yaw:	21.043	Thrust:	100.000
Time:	2.090	Roll Set Point:	-0.066	Pitch Set Point:	1.775	Yaw Set Point:	-0.077	X_WP:	0.000	Y_WP:	0.000	Y_WP:	0.750	X:	0.067	Y:	-0.886	Z:	0.403	yaw:	4.429	yaw rate:	-2.173	Roll:	-0.316	Pitch:	-26.522	Yaw:	8.526	Thrust:	100.000
Time:	2.109	Roll Set Point:	-0.081	Pitch Set Point:	1.775	Yaw Set Point:	-0.061	X_WP:	0.000	Y_WP:	0.000	Y_WP:	0.750	X:	0.067	Y:	-0.886	Z:	0.403	yaw:	3.495	yaw rate:	93.429	Roll:	13.817	Pitch:	-26.633	Yaw:	-5.946	Thrust:	100.000
Time:	2.132	Roll Set Point:	-0.066	Pitch Set Point:	1.775	Yaw Set Point:	-0.076	X_WP:	0.000	Y_WP:	0.000	Y_WP:	0.750	X:	0.067	Y:	-0.886	Z:	0.403	yaw:	4.374	yaw rate:	-87.896	Roll:	-10.640	Pitch:	-26.475	Yaw:	18.621	Thrust:	100.000
Time:	2.152	Roll Set Point:	-0.067	Pitch Set Point:	1.775	Yaw Set Point:	-0.076	X_WP:	0.000	Y_WP:	0.000	Y_WP:	0.750	X:	0.067	Y:	-0.886	Z:	0.403	yaw:	4.365	yaw rate:	0.870	Roll:	0.103	Pitch:	-26.549	Yaw:	7.995	Thrust:	100.000
Time:	2.172	Roll Set Point:	-0.069	Pitch Set Point:	1.775	Yaw Set Point:	-0.073	X_WP:	0.000	Y_WP:	0.000	Y_WP:	0.750	X:	0.067	Y:	-0.886	Z:	0.403	yaw:	4.198	yaw rate:	16.774	Roll:	2.512	Pitch:	-26.405	Yaw:	5.502	Thrust:	100.000
Time:	2.193	Roll Set Point:	-0.068	Pitch Set Point:	1.775	Yaw Set Point:	-0.076	X_WP:	0.000	Y_WP:	0.000	Y_WP:	0.750	X:	0.068	Y:	-0.886	Z:	0.403	yaw:	4.340	yaw rate:	-14.234	Roll:	-1.379	Pitch:	-26.726	Yaw:	9.935	Thrust:	100.000
Time:	2.210	Roll Set Point:	-0.072	Pitch Set Point:	1.775	Yaw Set Point:	-0.072	X_WP:	0.000	Y_WP:	0.000	Y_WP:	0.750	X:	0.068	Y:	-0.886	Z:	0.403	yaw:	4.122	yaw rate:	21.773	Roll:	3.274	Pitch:	-26.509	Yaw:	4.274	Thrust:	100.000
Time:	2.232	Roll Set Point:	-0.059	Pitch Set Point:	1.775	Yaw Set Point:	-0.085	X_WP:	0.000	Y_WP:	0.000	Y_WP:	0.750	X:	0.067	Y:	-0.886	Z:	0.403	yaw:	4.879	yaw rate:	-75.645	Roll:	-8.899	Pitch:	-26.384	Yaw:	17.852	Thrust:	100.000
Time:	2.251	Roll Set Point:	-0.059	Pitch Set Point:	1.775	Yaw Set Point:	-0.085	X_WP:	0.000	Y_WP:	0.000	Y_WP:	0.750	X:	0.067	Y:	-0.886	Z:	0.403	yaw:	4.872	yaw rate:	0.673	Roll:	-0.137	Pitch:	-26.464	Yaw:	8.616	Thrust:	100.000
Time:	2.270	Roll Set Point:	-0.061	Pitch Set Point:	1.775	Yaw Set Point:	-0.084	X_WP:	0.000	Y_WP:	0.000	Y_WP:	0.750	X:	0.068	Y:	-0.886	Z:	0.403	yaw:	4.804	yaw rate:	6.838	Roll:	0.825	Pitch:	-26.478	Yaw:	7.548	Thrust:	100.000
Time:	2.289	Roll Set Point:	-0.071	Pitch Set Point:	1.775	Yaw Set Point:	-0.073	X_WP:	0.000	Y_WP:	0.000	Y_WP:	0.750	X:	0.068	Y:	-0.886	Z:	0.403	yaw:	4.177	yaw rate:	62.684	Roll:	8.588	Pitch:	-26.734	Yaw:	-0.722	Thrust:	100.000
Time:	2.309	Roll Set Point:	-0.060	Pitch Set Point:	1.775	Yaw Set Point:	-0.084	X_WP:	0.000	Y_WP:	0.000	Y_WP:	0.750	X:	0.068	Y:	-0.886	Z:	0.403	yaw:	4.816	yaw rate:	-63.939	Roll:	-8.989	Pitch:	-26.275	Yaw:	17.058	Thrust:	100.000
Time:	2.330	Roll Set Point:	-0.071	Pitch Set Point:	1.775	Yaw Set Point:	-0.073	X_WP:	0.000	Y_WP:	0.000	Y_WP:	0.750	X:	0.068	Y:	-0.886	Z:	0.403	yaw:	4.156	yaw rate:	65.976	Roll:	8.727	Pitch:	-26.767	Yaw:	-0.475	Thrust:	100.000
Time:	2.351	Roll Set Point:	-0.071	Pitch Set Point:	1.775	Yaw Set Point:	-0.073	X_WP:	0.000	Y_WP:	0.000	Y_WP:	0.750	X:	0.068	Y:	-0.886	Z:	0.403	yaw:	4.157	yaw rate:	-0.109	Roll:	0.103	Pitch:	-26.593	Yaw:	7.887	Thrust:	100.000
Time:	2.370	Roll Set Point:	-0.061	Pitch Set Point:	1.775	Yaw Set Point:	-0.084	X_WP:	0.000	Y_WP:	0.000	Y_WP:	0.750	X:	0.068	Y:	-0.886	Z:	0.403	yaw:	4.801	yaw rate:	-64.360	Roll:	-9.219	Pitch:	-26.239	Yaw:	17.188	Thrust:	100.000
Time:	2.389	Roll Set Point:	-0.064	Pitch Set Point:	1.775	Yaw Set Point:	-0.082	X_WP:	0.000	Y_WP:	0.000	Y_WP:	0.750	X:	0.068	Y:	-0.886	Z:	0.403	yaw:	4.670	yaw rate:	13.111	Roll:	1.989	Pitch:	-26.735	Yaw:	6.630	Thrust:	100.000
Time:	2.411	Roll Set Point:	-0.060	Pitch Set Point:	1.775	Yaw Set Point:	-0.084	X_WP:	0.000	Y_WP:	0.000	Y_WP:	0.750	X:	0.068	Y:	-0.886	Z:	0.403	yaw:	4.815	yaw rate:	-14.470	Roll:	-2.394	Pitch:	-26.329	Yaw:	10.630	Thrust:	100.000
Time:	2.431	Roll Set Point:	-0.060	Pitch Set Point:	1.775	Yaw Set Point:	-0.085	X_WP:	0.000	Y_WP:	0.000	Y_WP:	0.750	X:	0.067	Y:	-0.886	Z:	0.403	yaw:	4.844	yaw rate:	-2.977	Roll:	-0.635	Pitch:	-26.514	Yaw:	9.187	Thrust:	100.000
Time:	2.457	Roll Set Point:	-0.072	Pitch Set Point:	1.775	Yaw Set Point:	-0.072	X_WP:	0.000	Y_WP:	0.000	Y_WP:	0.750	X:	0.068	Y:	-0.886	Z:	0.403	yaw:	4.116	yaw rate:	72.796	Roll:	7.518	Pitch:	-26.978	Yaw:	1.016	Thrust:	100.000
Time:	2.470	Roll Set Point:	-0.061	Pitch Set Point:	1.775	Yaw Set Point:	-0.084	X_WP:	0.000	Y_WP:	0.000	Y_WP:	0.750	X:	0.068	Y:	-0.886	Z:	0.403	yaw:	4.790	yaw rate:	-67.307	Roll:	-14.108	Pitch:	-25.890	Yaw:	21.991	Thrust:	82.537
Time:	2.491	Roll Set Point:	-0.072	Pitch Set Point:	1.775	Yaw Set Point:	-0.072	X_WP:	0.000	Y_WP:	0.000	Y_WP:	0.750	X:	0.068	Y:	-0.886	Z:	0.403	yaw:	4.097	yaw rate:	69.259	Roll:	9.436	Pitch:	-26.754	Yaw:	-1.064	Thrust:	100.000
Time:	2.517	Roll Set Point:	-0.060	Pitch Set Point:	1.775	Yaw Set Point:	-0.084	X_WP:	0.000	Y_WP:	0.000	Y_WP:	0.750	X:	0.067	Y:	-0.886	Z:	0.403	yaw:	4.809	yaw rate:	-71.241	Roll:	-7.268	Pitch:	-26.615	Yaw:	16.288	Thrust:	100.000
Time:	2.538	Roll Set Point:	-0.059	Pitch Set Point:	1.775	Yaw Set Point:	-0.085	X_WP:	0.000	Y_WP:	0.000	Y_WP:	0.750	X:	0.067	Y:	-0.886	Z:	0.403	yaw:	4.873	yaw rate:	-6.369	Roll:	-1.078	Pitch:	-26.510	Yaw:	9.681	Thrust:	100.000
Time:	2.558	Roll Set Point:	-0.061	Pitch Set Point:	1.775	Yaw Set Point:	-0.084	X_WP:	0.000	Y_WP:	0.000	Y_WP:	0.750	X:	0.068	Y:	-0.886	Z:	0.403	yaw:	4.802	yaw rate:	7.149	Roll:	0.751	Pitch:	-26.535	Yaw:	7.719	Thrust:	100.000
Time:	2.569	Roll Set Point:	-0.060	Pitch Set Point:	1.775	Yaw Set Point:	-0.084	X_WP:	0.000	Y_WP:	0.000	Y_WP:	0.750	X:	0.067	Y:	-0.886	Z:	0.403	yaw:	4.813	yaw rate:	-1.191	Roll:	-0.497	Pitch:	-26.213	Yaw:	8.151	Thrust:	80.220
Time:	2.589	Roll Set Point:	-0.059	Pitch Set Point:	1.775	Yaw Set Point:	-0.085	X_WP:	0.000	Y_WP:	0.000	Y_WP:	0.750	X:	0.068	Y:	-0.886	Z:	0.403	yaw:	4.877	yaw rate:	-6.322	Roll:	-1.062	Pitch:	-26.571	Yaw:	9.641	Thrust:	100.000
Time:	2.609	Roll Set Point:	-0.061	Pitch Set Point:	1.775	Yaw Set Point:	-0.084	X_WP:	0.000	Y_WP:	0.000	Y_WP:	0.750	X:	0.068	Y:	-0.886	Z:	0.403	yaw:	4.797	yaw rate:	7.955	Roll:	0.845	Pitch:	-26.446	Yaw:	7.540	Thrust:	100.000
Time:	2.629	Roll Set Point:	-0.060	Pitch Set Point:	1.775	Yaw Set Point:	-0.084	X_WP:	0.000	Y_WP:	0.000	Y_WP:	0.750	X:	0.067	Y:	-0.886	Z:	0.403	yaw:	4.838	yaw rate:	-4.070	Roll:	-0.752	Pitch:	-26.534	Yaw:	9.350	Thrust:	100.000
Time:	2.651	Roll Set Point:	-0.070	Pitch Set Point:	1.775	Yaw Set Point:	-0.073	X_WP:	0.000	Y_WP:	0.000	Y_WP:	0.750	X:	0.068	Y:	-0.886	Z:	0.403	yaw:	4.199	yaw rate:	63.934	Roll:	8.657	Pitch:	-26.806	Yaw:	0.059	Thrust:	100.000
Time:	2.677	Roll Set Point:	-0.060	Pitch Set Point:	1.775	Yaw Set Point:	-0.084	X_WP:	0.000	Y_WP:	0.000	Y_WP:	0.750	X:	0.068	Y:	-0.886	Z:	0.403	yaw:	4.825	yaw rate:	-62.610	Roll:	-6.700	Pitch:	-26.561	Yaw:	15.630	Thrust:	100.000
Time:	2.689	Roll Set Point:	-0.060	Pitch Set Point:	1.775	Yaw Set Point:	-0.084	X_WP:	0.000	Y_WP:	0.000	Y_WP:	0.750	X:	0.067	Y:	-0.886	Z:	0.403	yaw:	4.830	yaw rate:	-0.538	Roll:	-0.366	Pitch:	-26.204	Yaw:	8.076	Thrust:	86.066
Time:	2.718	Roll Set Point:	-0.061	Pitch Set Point:	1.775	Yaw Set Point:	-0.083	X_WP:	0.000	Y_WP:	0.000	Y_WP:	0.750	X:	0.067	Y:	-0.886	Z:	0.403	yaw:	4.773	yaw rate:	5.735	Roll:	0.331	Pitch:	-26.850	Yaw:	9.035	Thrust:	100.000
Time:	2.729	Roll Set Point:	-0.071	Pitch Set Point:	1.775	Yaw Set Point:	-0.073	X_WP:	0.000	Y_WP:	0.000	Y_WP:	0.750	X:	0.068	Y:	-0.886	Z:	0.403	yaw:	4.189	yaw rate:	58.385	Roll:	14.077	Pitch:	-26.608	Yaw:	-6.494	Thrust:	82.221
Time:	2.751	Roll Set Point:	-0.063	Pitch Set Point:	1.775	Yaw Set Point:	-0.081	X_WP:	0.000	Y_WP:	0.000	Y_WP:	0.750	X:	0.068	Y:	-0.886	Z:	0.403	yaw:	4.647	yaw rate:	-45.805	Roll:	-5.980	Pitch:	-26.307	Yaw:	14.218	Thrust:	100.000
Time:	2.769	Roll Set Point:	-0.060	Pitch Set Point:	1.775	Yaw Set Point:	-0.085	X_WP:	0.000	Y_WP:	0.000	Y_WP:	0.750	X:	0.068	Y:	-0.886	Z:	0.403	yaw:	4.863	yaw rate:	-21.638	Roll:	-3.291	Pitch:	-26.516	Yaw:	11.708	Thrust:	100.000
Time:	2.790	Roll Set Point:	-0.071	Pitch Set Point:	1.775	Yaw Set Point:	-0.072	X_WP:	0.000	Y_WP:	0.000	Y_WP:	0.750	X:	0.068	Y:	-0.886	Z:	0.403	yaw:	4.152	yaw rate:	71.130	Roll:	9.661	Pitch:	-26.740	Yaw:	-1.215	Thrust:	100.000
Time:	2.810	Roll Set Point:	-0.060	Pitch Set Point:	1.775	Yaw Set Point:	-0.084	X_WP:	0.000	Y_WP:	0.000	Y_WP:	0.750	X:	0.068	Y:	-0.886	Z:	0.403	yaw:	4.824	yaw rate:	-67.235	Roll:	-9.421	Pitch:	-26.294	Yaw:	17.475	Thrust:	100.000
Time:	2.830	Roll Set Point:	-0.066	Pitch Set Point:	1.775	Yaw Set Point:	-0.079	X_WP:	0.000	Y_WP:	0.000	Y_WP:	0.750	X:	0.068	Y:	-0.886	Z:	0.403	yaw:	4.526	yaw rate:	29.816	Roll:	4.234	Pitch:	-26.747	Yaw:	4.564	Thrust:	100.000
Time:	2.851	Roll Set Point:	-0.065	Pitch Set Point:	1.775	Yaw Set Point:	-0.080	X_WP:	0.000	Y_WP:	0.000	Y_WP:	0.750	X:	0.068	Y:	-0.886	Z:	0.403	yaw:	4.564	yaw rate:	-3.827	Roll:	-0.866	Pitch:	-26.272	Yaw:	8.861	Thrust:	100.000
Time:	2.869	Roll Set Point:	-0.061	Pitch Set Point:	1.775	Yaw Set Point:	-0.084	X_WP:	0.000	Y_WP:	0.000	Y_WP:	0.750	X:	0.067	Y:	-0.886	Z:	0.403	yaw:	4.785	yaw rate:	-22.107	Roll:	-3.430	Pitch:	-26.525	Yaw:	11.671	Thrust:	100.000
Time:	2.890	Roll Set Point:	-0.060	Pitch Set Point:	1.775	Yaw Set Point:	-0.084	X_WP:	0.000	Y_WP:	0.000	Y_WP:	0.750	X:	0.068	Y:	-0.886	Z:	0.403	yaw:	4.818	yaw rate:	-3.270	Roll:	-0.606	Pitch:	-26.584	Yaw:	9.271	Thrust:	100.000
Time:	2.909	Roll Set Point:	-0.061	Pitch Set Point:	1.775	Yaw Set Point:	-0.084	X_WP:	0.000	Y_WP:	0.000	Y_WP:	0.750	X:	0.067	Y:	-0.886	Z:	0.403	yaw:	4.799	yaw rate:	1.963	Roll:	0.031	Pitch:	-26.441	Yaw:	8.358	Thrust:	100.000
Time:	2.930	Roll Set Point:	-0.060	Pitch Set Point:	1.775	Yaw Set Point:	-0.084	X_WP:	0.000	Y_WP:	0.000	Y_WP:	0.750	X:	0.068	Y:	-0.886	Z:	0.403	yaw:	4.825	yaw rate:	-2.633	Roll:	-0.532	Pitch:	-26.533	Yaw:	9.053	Thrust:	100.000
Time:	2.950	Roll Set Point:	-0.071	Pitch Set Point:	1.775	Yaw Set Point:	-0.072	X_WP:	0.000	Y_WP:	0.000	Y_WP:	0.750	X:	0.068	Y:	-0.886	Z:	0.403	yaw:	4.144	yaw rate:	68.092	Roll:	9.115	Pitch:	-26.770	Yaw:	-0.689	Thrust:	100.000
Time:	2.970	Roll Set Point:	-0.060	Pitch Set Point:	1.775	Yaw Set Point:	-0.084	X_WP:	0.000	Y_WP:	0.000	Y_WP:	0.750	X:	0.067	Y:	-0.886	Z:	0.403	yaw:	4.837	yaw rate:	-69.267	Roll:	-9.653	Pitch:	-26.300	Yaw:	17.708	Thrust:	100.000
Time:	2.990	Roll Set Point:	-0.061	Pitch Set Point:	1.775	Yaw Set Point:	-0.084	X_WP:	0.000	Y_WP:	0.000	Y_WP:	0.750	X:	0.067	Y:	-0.886	Z:	0.403	yaw:	4.804	yaw rate:	3.301	Roll:	0.226	Pitch:	-26.489	Yaw:	8.245	Thrust:	100.000
Time:	3.010	Roll Set Point:	-0.060	Pitch Set Point:	1.775	Yaw Set Point:	-0.084	X_WP:	0.000	Y_WP:	0.000	Y_WP:	0.750	X:	0.067	Y:	-0.886	Z:	0.403	yaw:	4.830	yaw rate:	-2.608	Roll:	-0.571	Pitch:	-26.526	Yaw:	9.055	Thrust:	100.000
Time:	3.030	Roll Set Point:	-0.059	Pitch Set Point:	1.775	Yaw Set Point:	-0.086	X_WP:	0.000	Y_WP:	0.000	Y_WP:	0.750	X:	0.068	Y:	-0.886	Z:	0.403	yaw:	4.901	yaw rate:	-7.106	Roll:	-1.191	Pitch:	-26.492	Yaw:	9.803	Thrust:	100.000
Time:	3.052	Roll Set Point:	-0.068	Pitch Set Point:	1.775	Yaw Set Point:	-0.074	X_WP:	0.000	Y_WP:	0.000	Y_WP:	0.750	X:	0.067	Y:	-0.886	Z:	0.403	yaw:	4.257	yaw rate:	64.385	Roll:	7.118	Pitch:	-26.690	Yaw:	0.529	Thrust:	100.000
Time:	3.070	Roll Set Point:	-0.066	Pitch Set Point:	1.775	Yaw Set Point:	-0.077	X_WP:	0.000	Y_WP:	0.000	Y_WP:	0.750	X:	0.067	Y:	-0.886	Z:	0.403	yaw:	4.404	yaw rate:	-14.699	Roll:	-2.224	Pitch:	-26.504	Yaw:	10.097	Thrust:	100.000
Time:	3.090	Roll Set Point:	-0.078	Pitch Set Point:	1.775	Yaw Set Point:	-0.064	X_WP:	0.000	Y_WP:	0.000	Y_WP:	0.750	X:	0.067	Y:	-0.886	Z:	0.403	yaw:	3.671	yaw rate:	73.249	Roll:	10.186	Pitch:	-26.719	Yaw:	-2.175	Thrust:	100.000
Time:	3.110	Roll Set Point:	-0.066	Pitch Set Point:	1.775	Yaw Set Point:	-0.077	X_WP:	0.000	Y_WP:	0.000	Y_WP:	0.750	X:	0.067	Y:	-0.886	Z:	0.403	yaw:	4.409	yaw rate:	-73.804	Roll:	-10.534	Pitch:	-26.283	Yaw:	17.978	Thrust:	100.000
Time:	3.130	Roll Set Point:	-0.066	Pitch Set Point:	1.775	Yaw Set Point:	-0.077	X_WP:	0.000	Y_WP:	0.000	Y_WP:	0.750	X:	0.067	Y:	-0.886	Z:	0.403	yaw:	4.416	yaw rate:	-0.644	Roll:	-0.108	Pitch:	-26.519	Yaw:	8.297	Thrust:	100.000
Time:	3.151	Roll Set Point:	-0.079	Pitch Set Point:	1.775	Yaw Set Point:	-0.063	X_WP:	0.000	Y_WP:	0.000	Y_WP:	0.750	X:	0.067	Y:	-0.886	Z:	0.403	yaw:	3.631	yaw rate:	78.487	Roll:	10.161	Pitch:	-26.736	Yaw:	-2.850	Thrust:	100.000
Time:	3.169	Roll Set Point:	-0.078	Pitch Set Point:	1.775	Yaw Set Point:	-0.064	X_WP:	0.000	Y_WP:	0.000	Y_WP:	0.750	X:	0.067	Y:	-0.886	Z:	0.403	yaw:	3.676	yaw rate:	-4.522	Roll:	-0.343	Pitch:	-26.507	Yaw:	7.637	Thrust:	100.000
Time:	3.191	Roll Set Point:	-0.067	Pitch Set Point:	1.775	Yaw Set Point:	-0.075	X_WP:	0.000	Y_WP:	0.000	Y_WP:	0.750	X:	0.067	Y:	-0.886	Z:	0.403	yaw:	4.315	yaw rate:	-63.879	Roll:	-8.207	Pitch:	-26.386	Yaw:	16.182	Thrust:	100.000
Time:	3.210	Roll Set Point:	-0.066	Pitch Set Point:	1.775	Yaw Set Point:	-0.077	X_WP:	0.000	Y_WP:	0.000	Y_WP:	0.750	X:	0.067	Y:	-0.886	Z:	0.403	yaw:	4.400	yaw rate:	-8.503	Roll:	-1.167	Pitch:	-26.484	Yaw:	9.225	Thrust:	100.000
Time:	3.231	Roll Set Point:	-0.078	Pitch Set Point:	1.775	Yaw Set Point:	-0.064	X_WP:	0.000	Y_WP:	0.000	Y_WP:	0.750	X:	0.067	Y:	-0.886	Z:	0.403	yaw:	3.658	yaw rate:	74.241	Roll:	10.174	Pitch:	-26.749	Yaw:	-1.850	Thrust:	100.000
Time:	3.251	Roll Set Point:	-0.067	Pitch Set Point:	1.775	Yaw Set Point:	-0.076	X_WP:	0.000	Y_WP:	0.000	Y_WP:	0.750	X:	0.067	Y:	-0.886	Z:	0.403	yaw:	4.367	yaw rate:	-70.933	Roll:	-9.307	Pitch:	-26.404	Yaw:	17.332	Thrust:	100.000
Time:	3.270	Roll Set Point:	-0.067	Pitch Set Point:	1.775	Yaw Set Point:	-0.076	X_WP:	0.000	Y_WP:	0.000	Y_WP:	0.750	X:	0.067	Y:	-0.886	Z:	0.403	yaw:	4.367	yaw rate:	0.021	Roll:	-0.049	Pitch:	-26.413	Yaw:	8.021	Thrust:	100.000
Time:	3.290	Roll Set Point:	-0.067	Pitch Set Point:	1.775	Yaw Set Point:	-0.076	X_WP:	0.000	Y_WP:	0.000	Y_WP:	0.750	X:	0.067	Y:	-0.886	Z:	0.403	yaw:	4.339	yaw rate:	2.803	Roll:	0.371	Pitch:	-26.548	Yaw:	7.648	Thrust:	100.000
Time:	3.313	Roll Set Point:	-0.079	Pitch Set Point:	1.775	Yaw Set Point:	-0.063	X_WP:	0.000	Y_WP:	0.000	Y_WP:	0.750	X:	0.067	Y:	-0.886	Z:	0.403	yaw:	3.609	yaw rate:	73.016	Roll:	9.160	Pitch:	-26.793	Yaw:	-1.526	Thrust:	100.000
Time:	3.329	Roll Set Point:	-0.065	Pitch Set Point:	1.775	Yaw Set Point:	-0.078	X_WP:	0.000	Y_WP:	0.000	Y_WP:	0.750	X:	0.067	Y:	-0.886	Z:	0.403	yaw:	4.443	yaw rate:	-83.448	Roll:	-12.709	Pitch:	-26.204	Yaw:	20.264	Thrust:	100.000
Time:	3.352	Roll Set Point:	-0.066	Pitch Set Point:	1.775	Yaw Set Point:	-0.077	X_WP:	0.000	Y_WP:	0.000	Y_WP:	0.750	X:	0.067	Y:	-0.886	Z:	0.403	yaw:	4.405	yaw rate:	3.792	Roll:	0.398	Pitch:	-26.574	Yaw:	7.927	Thrust:	100.000
Time:	3.370	Roll Set Point:	-0.066	Pitch Set Point:	1.775	Yaw Set Point:	-0.076	X_WP:	0.000	Y_WP:	0.000	Y_WP:	0.750	X:	0.067	Y:	-0.886	Z:	0.403	yaw:	4.382	yaw rate:	2.305	Roll:	0.317	Pitch:	-26.501	Yaw:	7.593	Thrust:	100.000
Time:	3.390	Roll Set Point:	-0.078	Pitch Set Point:	1.775	Yaw Set Point:	-0.064	X_WP:	0.000	Y_WP:	0.000	Y_WP:	0.750	X:	0.067	Y:	-0.886	Z:	0.403	yaw:	3.687	yaw rate:	69.499	Roll:	9.648	Pitch:	-26.714	Yaw:	-1.595	Thrust:	100.000
Time:	3.410	Roll Set Point:	-0.066	Pitch Set Point:	1.775	Yaw Set Point:	-0.076	X_WP:	0.000	Y_WP:	0.000	Y_WP:	0.750	X:	0.067	Y:	-0.886	Z:	0.403	yaw:	4.383	yaw rate:	-69.599	Roll:	-9.985	Pitch:	-26.351	Yaw:	17.443	Thrust:	100.000
Time:	3.430	Roll Set Point:	-0.067	Pitch Set Point:	1.775	Yaw Set Point:	-0.076	X_WP:	0.000	Y_WP:	0.000	Y_WP:	0.750	X:	0.067	Y:	-0.886	Z:	0.403	yaw:	4.360	yaw rate:	2.273	Roll:	0.267	Pitch:	-26.520	Yaw:	7.803	Thrust:	100.000
Time:	3.451	Roll Set Point:	-0.067	Pitch Set Point:	1.775	Yaw Set Point:	-0.076	X_WP:	0.000	Y_WP:	0.000	Y_WP:	0.750	X:	0.067	Y:	-0.886	Z:	0.403	yaw:	4.337	yaw rate:	2.335	Roll:	0.272	Pitch:	-26.554	Yaw:	7.854	Thrust:	100.000
Time:	3.477	Roll Set Point:	-0.078	Pitch Set Point:	1.775	Yaw Set Point:	-0.064	X_WP:	0.000	Y_WP:	0.000	Y_WP:	0.750	X:	0.067	Y:	-0.886	Z:	0.403	yaw:	3.679	yaw rate:	65.803	Roll:	7.170	Pitch:	-26.922	Yaw:	1.279	Thrust:	100.000
Time:	3.491	Roll Set Point:	-0.066	Pitch Set Point:	1.775	Yaw Set Point:	-0.077	X_WP:	0.000	Y_WP:	0.000	Y_WP:	0.750	X:	0.067	Y:	-0.886	Z:	0.403	yaw:	4.393	yaw rate:	-71.359	Roll:	-13.885	Pitch:	-25.960	Yaw:	21.291	Thrust:	100.000
Time:	3.510	Roll Set Point:	-0.066	Pitch Set Point:	1.775	Yaw Set Point:	-0.077	X_WP:	0.000	Y_WP:	0.000	Y_WP:	0.750	X:	0.067	Y:	-0.886	Z:	0.403	yaw:	4.428	yaw rate:	-3.525	Roll:	-0.558	Pitch:	-26.459	Yaw:	8.547	Thrust:	100.000
Time:	3.531	Roll Set Point:	-0.067	Pitch Set Point:	1.775	Yaw Set Point:	-0.076	X_WP:	0.000	Y_WP:	0.000	Y_WP:	0.750	X:	0.067	Y:	-0.886	Z:	0.403	yaw:	4.348	yaw rate:	7.933	Roll:	1.012	Pitch:	-26.615	Yaw:	7.214	Thrust:	100.000
Time:	3.550	Roll Set Point:	-0.066	Pitch Set Point:	1.775	Yaw Set Point:	-0.077	X_WP:	0.000	Y_WP:	0.000	Y_WP:	0.750	X:	0.067	Y:	-0.886	Z:	0.403	yaw:	4.390	yaw rate:	-4.158	Roll:	-0.611	Pitch:	-26.482	Yaw:	8.640	Thrust:	100.000
Time:	3.571	Roll Set Point:	-0.066	Pitch Set Point:	1.775	Yaw Set Point:	-0.077	X_WP:	0.000	Y_WP:	0.000	Y_WP:	0.750	X:	0.067	Y:	-0.886	Z:	0.403	yaw:	4.413	yaw rate:	-2.321	Roll:	-0.377	Pitch:	-26.486	Yaw:	8.429	Thrust:	100.000
Time:	3.590	Roll Set Point:	-0.065	Pitch Set Point:	1.775	Yaw Set Point:	-0.077	X_WP:	0.000	Y_WP:	0.000	Y_WP:	0.750	X:	0.067	Y:	-0.886	Z:	0.403	yaw:	4.437	yaw rate:	-2.398	Roll:	-0.373	Pitch:	-26.556	Yaw:	8.518	Thrust:	100.000
Time:	3.610	Roll Set Point:	-0.078	Pitch Set Point:	1.775	Yaw Set Point:	-0.064	X_WP:	0.000	Y_WP:	0.000	Y_WP:	0.750	X:	0.067	Y:	-0.886	Z:	0.403	yaw:	3.644	yaw rate:	79.322	Roll:	10.914	Pitch:	-26.679	Yaw:	-3.501	Thrust:	100.000
Time:	3.633	Roll Set Point:	-0.066	Pitch Set Point:	1.775	Yaw Set Point:	-0.077	X_WP:	0.000	Y_WP:	0.000	Y_WP:	0.750	X:	0.067	Y:	-0.886	Z:	0.403	yaw:	4.412	yaw rate:	-76.827	Roll:	-9.780	Pitch:	-26.448	Yaw:	17.132	Thrust:	100.000
Time:	3.652	Roll Set Point:	-0.066	Pitch Set Point:	1.775	Yaw Set Point:	-0.077	X_WP:	0.000	Y_WP:	0.000	Y_WP:	0.750	X:	0.067	Y:	-0.886	Z:	0.403	yaw:	4.432	yaw rate:	-2.012	Roll:	-0.340	Pitch:	-26.516	Yaw:	8.417	Thrust:	100.000
Time:	3.671	Roll Set Point:	-0.066	Pitch Set Point:	1.775	Yaw Set Point:	-0.077	X_WP:	0.000	Y_WP:	0.000	Y_WP:	0.750	X:	0.067	Y:	-0.886	Z:	0.403	yaw:	4.395	yaw rate:	3.746	Roll:	0.523	Pitch:	-26.488	Yaw:	7.471	Thrust:	100.000
Time:	3.693	Roll Set Point:	-0.067	Pitch Set Point:	1.775	Yaw Set Point:	-0.076	X_WP:	0.000	Y_WP:	0.000	Y_WP:	0.750	X:	0.067	Y:	-0.886	Z:	0.403	yaw:	4.358	yaw rate:	3.711	Roll:	0.455	Pitch:	-26.572	Yaw:	7.773	Thrust:	100.000
Time:	3.709	Roll Set Point:	-0.066	Pitch Set Point:	1.775	Yaw Set Point:	-0.077	X_WP:	0.000	Y_WP:	0.000	Y_WP:	0.750	X:	0.067	Y:	-0.886	Z:	0.403	yaw:	4.431	yaw rate:	-7.271	Roll:	-1.114	Pitch:	-26.398	Yaw:	8.993	Thrust:	100.000
Time:	3.731	Roll Set Point:	-0.066	Pitch Set Point:	1.775	Yaw Set Point:	-0.077	X_WP:	0.000	Y_WP:	0.000	Y_WP:	0.750	X:	0.067	Y:	-0.886	Z:	0.403	yaw:	4.403	yaw rate:	2.715	Roll:	0.312	Pitch:	-26.589	Yaw:	8.029	Thrust:	100.000
Time:	3.754	Roll Set Point:	-0.078	Pitch Set Point:	1.775	Yaw Set Point:	-0.064	X_WP:	0.000	Y_WP:	0.000	Y_WP:	0.750	X:	0.067	Y:	-0.886	Z:	0.403	yaw:	3.655	yaw rate:	74.854	Roll:	9.076	Pitch:	-26.813	Yaw:	-1.285	Thrust:	100.000
Time:	3.772	Roll Set Point:	-0.066	Pitch Set Point:	1.775	Yaw Set Point:	-0.077	X_WP:	0.000	Y_WP:	0.000	Y_WP:	0.750	X:	0.067	Y:	-0.886	Z:	0.403	yaw:	4.387	yaw rate:	-73.246	Roll:	-10.824	Pitch:	-26.207	Yaw:	18.621	Thrust:	100.000
Time:	3.791	Roll Set Point:	-0.066	Pitch Set Point:	1.775	Yaw Set Point:	-0.077	X_WP:	0.000	Y_WP:	0.000	Y_WP:	0.750	X:	0.067	Y:	-0.886	Z:	0.403	yaw:	4.393	yaw rate:	-0.538	Roll:	-0.117	Pitch:	-26.446	Yaw:	8.043	Thrust:	100.000
Time:	3.810	Roll Set Point:	-0.067	Pitch Set Point:	1.775	Yaw Set Point:	-0.076	X_WP:	0.000	Y_WP:	0.000	Y_WP:	0.750	X:	0.067	Y:	-0.886	Z:	0.403	yaw:	4.357	yaw rate:	3.532	Roll:	0.480	Pitch:	-26.556	Yaw:	7.630	Thrust:	100.000
Time:	3.830	Roll Set Point:	-0.066	Pitch Set Point:	1.775	Yaw Set Point:	-0.077	X_WP:	0.000	Y_WP:	0.000	Y_WP:	0.750	X:	0.067	Y:	-0.886	Z:	0.403	yaw:	4.400	yaw rate:	-4.273	Roll:	-0.559	Pitch:	-26.552	Yaw:	8.724	Thrust:	100.000
Time:	3.851	Roll Set Point:	-0.066	Pitch Set Point:	1.775	Yaw Set Point:	-0.077	X_WP:	0.000	Y_WP:	0.000	Y_WP:	0.750	X:	0.067	Y:	-0.886	Z:	0.403	yaw:	4.400	yaw rate:	0.029	Roll:	-0.059	Pitch:	-26.522	Yaw:	8.250	Thrust:	100.000
Time:	3.870	Roll Set Point:	-0.078	Pitch Set Point:	1.775	Yaw Set Point:	-0.064	X_WP:	0.000	Y_WP:	0.000	Y_WP:	0.750	X:	0.067	Y:	-0.886	Z:	0.403	yaw:	3.671	yaw rate:	72.919	Roll:	10.776	Pitch:	-26.727	Yaw:	-3.436	Thrust:	100.000
Time:	3.891	Roll Set Point:	-0.066	Pitch Set Point:	1.775	Yaw Set Point:	-0.077	X_WP:	0.000	Y_WP:	0.000	Y_WP:	0.750	X:	0.067	Y:	-0.886	Z:	0.403	yaw:	4.429	yaw rate:	-75.820	Roll:	-10.470	Pitch:	-26.340	Yaw:	17.854	Thrust:	100.000
Time:	3.911	Roll Set Point:	-0.078	Pitch Set Point:	1.775	Yaw Set Point:	-0.064	X_WP:	0.000	Y_WP:	0.000	Y_WP:	0.750	X:	0.067	Y:	-0.886	Z:	0.403	yaw:	3.648	yaw rate:	78.091	Roll:	10.715	Pitch:	-26.644	Yaw:	-3.028	Thrust:	100.000
Time:	3.931	Roll Set Point:	-0.065	Pitch Set Point:	1.775	Yaw Set Point:	-0.078	X_WP:	0.000	Y_WP:	0.000	Y_WP:	0.750	X:	0.067	Y:	-0.886	Z:	0.403	yaw:	4.441	yaw rate:	-79.333	Roll:	-10.633	Pitch:	-26.426	Yaw:	18.470	Thrust:	100.000
Time:	3.953	Roll Set Point:	-0.108	Pitch Set Point:	1.776	Yaw Set Point:	-0.029	X_WP:	0.000	Y_WP:	0.000	Y_WP:	0.750	X:	0.067	Y:	-0.887	Z:	0.403	yaw:	1.647	yaw rate:	279.422	Roll:	30.000	Pitch:	-26.531	Yaw:	-29.438	Thrust:	100.000
Time:	3.970	Roll Set Point:	-0.072	Pitch Set Point:	1.775	Yaw Set Point:	-0.068	X_WP:	0.000	Y_WP:	0.000	Y_WP:	0.750	X:	0.066	Y:	-0.886	Z:	0.402	yaw:	3.896	yaw rate:	-224.873	Roll:	-30.000	Pitch:	-26.589	Yaw:	40.421	Thrust:	100.000
Time:	3.997	Roll Set Point:	-0.071	Pitch Set Point:	1.775	Yaw Set Point:	-0.069	X_WP:	0.000	Y_WP:	0.000	Y_WP:	0.750	X:	0.066	Y:	-0.886	Z:	0.402	yaw:	3.965	yaw rate:	-6.877	Roll:	-0.529	Pitch:	-26.816	Yaw:	8.871	Thrust:	100.000
Time:	4.011	Roll Set Point:	-0.101	Pitch Set Point:	1.775	Yaw Set Point:	-0.036	X_WP:	0.000	Y_WP:	0.000	Y_WP:	0.750	X:	0.067	Y:	-0.887	Z:	0.403	yaw:	2.086	yaw rate:	187.892	Roll:	30.000	Pitch:	-25.789	Yaw:	-33.398	Thrust:	100.000
Time:	4.030	Roll Set Point:	-0.088	Pitch Set Point:	1.775	Yaw Set Point:	-0.051	X_WP:	0.000	Y_WP:	0.000	Y_WP:	0.750	X:	0.067	Y:	-0.886	Z:	0.403	yaw:	2.910	yaw rate:	-82.398	Roll:	-10.130	Pitch:	-26.659	Yaw:	17.117	Thrust:	100.000
Time:	4.053	Roll Set Point:	-0.106	Pitch Set Point:	1.775	Yaw Set Point:	-0.032	X_WP:	0.000	Y_WP:	0.000	Y_WP:	0.750	X:	0.067	Y:	-0.887	Z:	0.403	yaw:	1.824	yaw rate:	108.603	Roll:	13.457	Pitch:	-26.508	Yaw:	-6.796	Thrust:	100.000
Time:	4.070	Roll Set Point:	-0.088	Pitch Set Point:	1.775	Yaw Set Point:	-0.051	X_WP:	0.000	Y_WP:	0.000	Y_WP:	0.750	X:	0.067	Y:	-0.886	Z:	0.403	yaw:	2.946	yaw rate:	-112.254	Roll:	-17.995	Pitch:	-26.625	Yaw:	23.358	Thrust:	100.000
Time:	4.090	Roll Set Point:	-0.066	Pitch Set Point:	1.775	Yaw Set Point:	-0.077	X_WP:	0.000	Y_WP:	0.000	Y_WP:	0.750	X:	0.067	Y:	-0.886	Z:	0.403	yaw:	4.387	yaw rate:	-144.138	Roll:	-17.956	Pitch:	-26.570	Yaw:	26.851	Thrust:	100.000
Time:	4.112	Roll Set Point:	-0.078	Pitch Set Point:	1.775	Yaw Set Point:	-0.064	X_WP:	0.000	Y_WP:	0.000	Y_WP:	0.750	X:	0.067	Y:	-0.886	Z:	0.403	yaw:	3.648	yaw rate:	73.946	Roll:	10.447	Pitch:	-26.707	Yaw:	-2.459	Thrust:	100.000
Time:	4.130	Roll Set Point:	-0.066	Pitch Set Point:	1.775	Yaw Set Point:	-0.077	X_WP:	0.000	Y_WP:	0.000	Y_WP:	0.750	X:	0.067	Y:	-0.886	Z:	0.403	yaw:	4.402	yaw rate:	-75.386	Roll:	-10.714	Pitch:	-26.300	Yaw:	18.380	Thrust:	100.000
Time:	4.152	Roll Set Point:	-0.079	Pitch Set Point:	1.775	Yaw Set Point:	-0.063	X_WP:	0.000	Y_WP:	0.000	Y_WP:	0.750	X:	0.067	Y:	-0.886	Z:	0.403	yaw:	3.630	yaw rate:	77.169	Roll:	9.541	Pitch:	-26.754	Yaw:	-1.879	Thrust:	100.000
Time:	4.170	Roll Set Point:	-0.067	Pitch Set Point:	1.775	Yaw Set Point:	-0.076	X_WP:	0.000	Y_WP:	0.000	Y_WP:	0.750	X:	0.067	Y:	-0.886	Z:	0.403	yaw:	4.366	yaw rate:	-73.553	Roll:	-10.986	Pitch:	-26.252	Yaw:	18.803	Thrust:	100.000
Time:	4.190	Roll Set Point:	-0.066	Pitch Set Point:	1.775	Yaw Set Point:	-0.077	X_WP:	0.000	Y_WP:	0.000	Y_WP:	0.750	X:	0.067	Y:	-0.886	Z:	0.403	yaw:	4.412	yaw rate:	-4.640	Roll:	-0.653	Pitch:	-26.509	Yaw:	8.776	Thrust:	100.000
Time:	4.215	Roll Set Point:	-0.066	Pitch Set Point:	1.775	Yaw Set Point:	-0.077	X_WP:	0.000	Y_WP:	0.000	Y_WP:	0.750	X:	0.067	Y:	-0.886	Z:	0.403	yaw:	4.430	yaw rate:	-1.781	Roll:	-0.250	Pitch:	-26.704	Yaw:	8.884	Thrust:	100.000
Time:	4.236	Roll Set Point:	-0.066	Pitch Set Point:	1.775	Yaw Set Point:	-0.077	X_WP:	0.000	Y_WP:	0.000	Y_WP:	0.750	X:	0.067	Y:	-0.886	Z:	0.403	yaw:	4.414	yaw rate:	1.634	Roll:	0.180	Pitch:	-26.583	Yaw:	8.120	Thrust:	100.000
Time:	4.250	Roll Set Point:	-0.078	Pitch Set Point:	1.775	Yaw Set Point:	-0.064	X_WP:	0.000	Y_WP:	0.000	Y_WP:	0.750	X:	0.067	Y:	-0.886	Z:	0.403	yaw:	3.666	yaw rate:	74.710	Roll:	14.834	Pitch:	-26.560	Yaw:	-8.174	Thrust:	100.000
Time:	4.272	Roll Set Point:	-0.079	Pitch Set Point:	1.775	Yaw Set Point:	-0.063	X_WP:	0.000	Y_WP:	0.000	Y_WP:	0.750	X:	0.067	Y:	-0.886	Z:	0.403	yaw:	3.599	yaw rate:	6.758	Roll:	1.140	Pitch:	-26.626	Yaw:	6.474	Thrust:	100.000
Time:	4.289	Roll Set Point:	-0.066	Pitch Set Point:	1.775	Yaw Set Point:	-0.077	X_WP:	0.000	Y_WP:	0.000	Y_WP:	0.750	X:	0.067	Y:	-0.886	Z:	0.403	yaw:	4.427	yaw rate:	-82.798	Roll:	-13.902	Pitch:	-26.176	Yaw:	20.884	Thrust:	100.000
Time:	4.311	Roll Set Point:	-0.067	Pitch Set Point:	1.775	Yaw Set Point:	-0.076	X_WP:	0.000	Y_WP:	0.000	Y_WP:	0.750	X:	0.067	Y:	-0.886	Z:	0.403	yaw:	4.366	yaw rate:	6.039	Roll:	0.730	Pitch:	-26.586	Yaw:	7.477	Thrust:	100.000
Time:	4.330	Roll Set Point:	-0.066	Pitch Set Point:	1.775	Yaw Set Point:	-0.077	X_WP:	0.000	Y_WP:	0.000	Y_WP:	0.750	X:	0.067	Y:	-0.886	Z:	0.403	yaw:	4.389	yaw rate:	-2.221	Roll:	-0.305	Pitch:	-26.513	Yaw:	8.409	Thrust:	100.000
Time:	4.349	Roll Set Point:	-0.078	Pitch Set Point:	1.775	Yaw Set Point:	-0.064	X_WP:	0.000	Y_WP:	0.000	Y_WP:	0.750	X:	0.067	Y:	-0.886	Z:	0.403	yaw:	3.661	yaw rate:	72.750	Roll:	10.598	Pitch:	-26.662	Yaw:	-2.977	Thrust:	100.000
Time:	4.368	Roll Set Point:	-0.066	Pitch Set Point:	1.775	Yaw Set Point:	-0.077	X_WP:	0.000	Y_WP:	0.000	Y_WP:	0.750	X:	0.067	Y:	-0.886	Z:	0.403	yaw:	4.426	yaw rate:	-76.523	Roll:	-10.547	Pitch:	-26.338	Yaw:	18.358	Thrust:	100.000
Time:	4.389	Roll Set Point:	-0.065	Pitch Set Point:	1.775	Yaw Set Point:	-0.078	X_WP:	0.000	Y_WP:	0.000	Y_WP:	0.750	X:	0.067	Y:	-0.886	Z:	0.403	yaw:	4.455	yaw rate:	-2.842	Roll:	-0.447	Pitch:	-26.523	Yaw:	8.608	Thrust:	100.000
Time:	4.409	Roll Set Point:	-0.066	Pitch Set Point:	1.775	Yaw Set Point:	-0.077	X_WP:	0.000	Y_WP:	0.000	Y_WP:	0.750	X:	0.067	Y:	-0.886	Z:	0.403	yaw:	4.397	yaw rate:	5.821	Roll:	0.766	Pitch:	-26.535	Yaw:	7.398	Thrust:	100.000
Time:	4.429	Roll Set Point:	-0.066	Pitch Set Point:	1.775	Yaw Set Point:	-0.077	X_WP:	0.000	Y_WP:	0.000	Y_WP:	0.750	X:	0.067	Y:	-0.886	Z:	0.403	yaw:	4.409	yaw rate:	-1.223	Roll:	-0.205	Pitch:	-26.533	Yaw:	8.341	Thrust:	100.000
Time:	4.451	Roll Set Point:	-0.078	Pitch Set Point:	1.775	Yaw Set Point:	-0.064	X_WP:	0.000	Y_WP:	0.000	Y_WP:	0.750	X:	0.067	Y:	-0.886	Z:	0.403	yaw:	3.647	yaw rate:	76.237	Roll:	10.044	Pitch:	-26.752	Yaw:	-1.923	Thrust:	100.000
Time:	4.470	Roll Set Point:	-0.066	Pitch Set Point:	1.775	Yaw Set Point:	-0.076	X_WP:	0.000	Y_WP:	0.000	Y_WP:	0.750	X:	0.067	Y:	-0.886	Z:	0.403	yaw:	4.375	yaw rate:	-72.877	Roll:	-10.292	Pitch:	-26.290	Yaw:	17.755	Thrust:	100.000
Time:	4.490	Roll Set Point:	-0.066	Pitch Set Point:	1.775	Yaw Set Point:	-0.076	X_WP:	0.000	Y_WP:	0.000	Y_WP:	0.750	X:	0.067	Y:	-0.886	Z:	0.403	yaw:	4.373	yaw rate:	0.209	Roll:	-0.017	Pitch:	-26.528	Yaw:	8.068	Thrust:	100.000
Time:	4.510	Roll Set Point:	-0.067	Pitch Set Point:	1.775	Yaw Set Point:	-0.076	X_WP:	0.000	Y_WP:	0.000	Y_WP:	0.750	X:	0.067	Y:	-0.886	Z:	0.403	yaw:	4.348	yaw rate:	2.544	Roll:	0.391	Pitch:	-26.519	Yaw:	7.685	Thrust:	100.000
Time:	4.533	Roll Set Point:	-0.078	Pitch Set Point:	1.775	Yaw Set Point:	-0.064	X_WP:	0.000	Y_WP:	0.000	Y_WP:	0.750	X:	0.067	Y:	-0.886	Z:	0.403	yaw:	3.650	yaw rate:	69.747	Roll:	8.114	Pitch:	-26.841	Yaw:	-0.443	Thrust:	100.000
Time:	4.553	Roll Set Point:	-0.065	Pitch Set Point:	1.775	Yaw Set Point:	-0.078	X_WP:	0.000	Y_WP:	0.000	Y_WP:	0.750	X:	0.067	Y:	-0.886	Z:	0.403	yaw:	4.441	yaw rate:	-79.022	Roll:	-11.257	Pitch:	-26.265	Yaw:	18.517	Thrust:	100.000
Time:	4.570	Roll Set Point:	-0.066	Pitch Set Point:	1.775	Yaw Set Point:	-0.077	X_WP:	0.000	Y_WP:	0.000	Y_WP:	0.750	X:	0.067	Y:	-0.886	Z:	0.403	yaw:	4.413	yaw rate:	2.733	Roll:	0.388	Pitch:	-26.452	Yaw:	7.385	Thrust:	100.000
Time:	4.591	Roll Set Point:	-0.066	Pitch Set Point:	1.775	Yaw Set Point:	-0.077	X_WP:	0.000	Y_WP:	0.000	Y_WP:	0.750	X:	0.067	Y:	-0.886	Z:	0.403	yaw:	4.398	yaw rate:	1.545	Roll:	0.186	Pitch:	-26.578	Yaw:	8.124	Thrust:	100.000
Time:	4.610	Roll Set Point:	-0.078	Pitch Set Point:	1.775	Yaw Set Point:	-0.064	X_WP:	0.000	Y_WP:	0.000	Y_WP:	0.750	X:	0.067	Y:	-0.886	Z:	0.403	yaw:	3.689	yaw rate:	70.846	Roll:	10.578	Pitch:	-26.635	Yaw:	-2.961	Thrust:	100.000
Time:	4.631	Roll Set Point:	-0.067	Pitch Set Point:	1.775	Yaw Set Point:	-0.076	X_WP:	0.000	Y_WP:	0.000	Y_WP:	0.750	X:	0.067	Y:	-0.886	Z:	0.403	yaw:	4.369	yaw rate:	-67.968	Roll:	-8.726	Pitch:	-26.395	Yaw:	16.654	Thrust:	100.000
Time:	4.651	Roll Set Point:	-0.078	Pitch Set Point:	1.775	Yaw Set Point:	-0.064	X_WP:	0.000	Y_WP:	0.000	Y_WP:	0.750	X:	0.067	Y:	-0.886	Z:	0.403	yaw:	3.695	yaw rate:	67.386	Roll:	9.171	Pitch:	-26.732	Yaw:	-1.626	Thrust:	100.000
Time:	4.670	Roll Set Point:	-0.078	Pitch Set Point:	1.775	Yaw Set Point:	-0.064	X_WP:	0.000	Y_WP:	0.000	Y_WP:	0.750	X:	0.067	Y:	-0.886	Z:	0.403	yaw:	3.644	yaw rate:	5.066	Roll:	1.036	Pitch:	-26.489	Yaw:	6.235	Thrust:	100.000
Time:	4.690	Roll Set Point:	-0.066	Pitch Set Point:	1.775	Yaw Set Point:	-0.077	X_WP:	0.000	Y_WP:	0.000	Y_WP:	0.750	X:	0.067	Y:	-0.886	Z:	0.403	yaw:	4.418	yaw rate:	-77.334	Roll:	-10.651	Pitch:	-26.361	Yaw:	18.223	Thrust:	100.000
Time:	4.711	Roll Set Point:	-0.078	Pitch Set Point:	1.775	Yaw Set Point:	-0.064	X_WP:	0.000	Y_WP:	0.000	Y_WP:	0.750	X:	0.067	Y:	-0.886	Z:	0.403	yaw:	3.645	yaw rate:	77.306	Roll:	10.654	Pitch:	-26.669	Yaw:	-3.240	Thrust:	100.000
Time:	4.730	Roll Set Point:	-0.066	Pitch Set Point:	1.775	Yaw Set Point:	-0.077	X_WP:	0.000	Y_WP:	0.000	Y_WP:	0.750	X:	0.067	Y:	-0.886	Z:	0.403	yaw:	4.396	yaw rate:	-75.089	Roll:	-9.872	Pitch:	-26.394	Yaw:	17.759	Thrust:	100.000
Time:	4.752	Roll Set Point:	-0.066	Pitch Set Point:	1.775	Yaw Set Point:	-0.076	X_WP:	0.000	Y_WP:	0.000	Y_WP:	0.750	X:	0.067	Y:	-0.886	Z:	0.403	yaw:	4.380	yaw rate:	1.607	Roll:	0.176	Pitch:	-26.592	Yaw:	8.072	Thrust:	100.000
Time:	4.775	Roll Set Point:	-0.066	Pitch Set Point:	1.775	Yaw Set Point:	-0.076	X_WP:	0.000	Y_WP:	0.000	Y_WP:	0.750	X:	0.067	Y:	-0.886	Z:	0.403	yaw:	4.374	yaw rate:	0.538	Roll:	0.050	Pitch:	-26.422	Yaw:	8.357	Thrust:	100.000
Time:	4.790	Roll Set Point:	-0.066	Pitch Set Point:	1.775	Yaw Set Point:	-0.077	X_WP:	0.000	Y_WP:	0.000	Y_WP:	0.750	X:	0.067	Y:	-0.886	Z:	0.403	yaw:	4.427	yaw rate:	-5.284	Roll:	-0.761	Pitch:	-26.513	Yaw:	8.609	Thrust:	100.000
Time:	4.811	Roll Set Point:	-0.078	Pitch Set Point:	1.775	Yaw Set Point:	-0.064	X_WP:	0.000	Y_WP:	0.000	Y_WP:	0.750	X:	0.067	Y:	-0.886	Z:	0.403	yaw:	3.663	yaw rate:	76.367	Roll:	10.573	Pitch:	-26.745	Yaw:	-2.478	Thrust:	100.000
Time:	4.830	Roll Set Point:	-0.066	Pitch Set Point:	1.775	Yaw Set Point:	-0.077	X_WP:	0.000	Y_WP:	0.000	Y_WP:	0.750	X:	0.067	Y:	-0.886	Z:	0.403	yaw:	4.387	yaw rate:	-72.365	Roll:	-10.041	Pitch:	-26.309	Yaw:	17.762	Thrust:	100.000
Time:	4.852	Roll Set Point:	-0.066	Pitch Set Point:	1.775	Yaw Set Point:	-0.077	X_WP:	0.000	Y_WP:	0.000	Y_WP:	0.750	X:	0.067	Y:	-0.886	Z:	0.403	yaw:	4.391	yaw rate:	-0.435	Roll:	-0.075	Pitch:	-26.601	Yaw:	8.359	Thrust:	100.000
Time:	4.869	Roll Set Point:	-0.078	Pitch Set Point:	1.775	Yaw Set Point:	-0.064	X_WP:	0.000	Y_WP:	0.000	Y_WP:	0.750	X:	0.067	Y:	-0.886	Z:	0.403	yaw:	3.680	yaw rate:	71.151	Roll:	11.585	Pitch:	-26.644	Yaw:	-4.423	Thrust:	100.000
Time:	4.889	Roll Set Point:	-0.066	Pitch Set Point:	1.775	Yaw Set Point:	-0.076	X_WP:	0.000	Y_WP:	0.000	Y_WP:	0.750	X:	0.067	Y:	-0.886	Z:	0.403	yaw:	4.376	yaw rate:	-69.654	Roll:	-9.429	Pitch:	-26.356	Yaw:	17.053	Thrust:	100.000
Time:	4.914	Roll Set Point:	-0.066	Pitch Set Point:	1.775	Yaw Set Point:	-0.077	X_WP:	0.000	Y_WP:	0.000	Y_WP:	0.750	X:	0.067	Y:	-0.886	Z:	0.403	yaw:	4.418	yaw rate:	-4.149	Roll:	-0.476	Pitch:	-26.714	Yaw:	9.132	Thrust:	100.000
Time:	4.931	Roll Set Point:	-0.065	Pitch Set Point:	1.775	Yaw Set Point:	-0.078	X_WP:	0.000	Y_WP:	0.000	Y_WP:	0.750	X:	0.067	Y:	-0.886	Z:	0.403	yaw:	4.444	yaw rate:	-2.586	Roll:	-0.440	Pitch:	-26.393	Yaw:	8.256	Thrust:	100.000
Time:	4.951	Roll Set Point:	-0.078	Pitch Set Point:	1.775	Yaw Set Point:	-0.064	X_WP:	0.000	Y_WP:	0.000	Y_WP:	0.750	X:	0.067	Y:	-0.886	Z:	0.403	yaw:	3.651	yaw rate:	79.284	Roll:	11.211	Pitch:	-26.732	Yaw:	-3.190	Thrust:	100.000
Time:	4.970	Roll Set Point:	-0.066	Pitch Set Point:	1.775	Yaw Set Point:	-0.077	X_WP:	0.000	Y_WP:	0.000	Y_WP:	0.750	X:	0.067	Y:	-0.886	Z:	0.403	yaw:	4.417	yaw rate:	-76.597	Roll:	-11.097	Pitch:	-26.306	Yaw:	18.522	Thrust:	100.000
Time:	4.991	Roll Set Point:	-0.066	Pitch Set Point:	1.775	Yaw Set Point:	-0.076	X_WP:	0.000	Y_WP:	0.000	Y_WP:	0.750	X:	0.067	Y:	-0.886	Z:	0.403	yaw:	4.378	yaw rate:	3.915	Roll:	0.472	Pitch:	-26.503	Yaw:	7.676	Thrust:	100.000
Time:	5.010	Roll Set Point:	-0.067	Pitch Set Point:	1.775	Yaw Set Point:	-0.076	X_WP:	0.000	Y_WP:	0.000	Y_WP:	0.750	X:	0.067	Y:	-0.886	Z:	0.403	yaw:	4.331	yaw rate:	4.640	Roll:	0.618	Pitch:	-26.538	Yaw:	7.301	Thrust:	100.000
Time:	5.029	Roll Set Point:	-0.078	Pitch Set Point:	1.775	Yaw Set Point:	-0.064	X_WP:	0.000	Y_WP:	0.000	Y_WP:	0.750	X:	0.067	Y:	-0.886	Z:	0.403	yaw:	3.645	yaw rate:	68.590	Roll:	10.095	Pitch:	-26.693	Yaw:	-2.119	Thrust:	100.000
Time:	5.052	Roll Set Point:	-0.066	Pitch Set Point:	1.775	Yaw Set Point:	-0.077	X_WP:	0.000	Y_WP:	0.000	Y_WP:	0.750	X:	0.067	Y:	-0.886	Z:	0.403	yaw:	4.417	yaw rate:	-77.142	Roll:	-9.251	Pitch:	-26.458	Yaw:	17.221	Thrust:	100.000
Time:	5.069	Roll Set Point:	-0.066	Pitch Set Point:	1.775	Yaw Set Point:	-0.077	X_WP:	0.000	Y_WP:	0.000	Y_WP:	0.750	X:	0.067	Y:	-0.886	Z:	0.403	yaw:	4.429	yaw rate:	-1.253	Roll:	-0.231	Pitch:	-26.433	Yaw:	8.086	Thrust:	100.000
Time:	5.091	Roll Set Point:	-0.066	Pitch Set Point:	1.775	Yaw Set Point:	-0.077	X_WP:	0.000	Y_WP:	0.000	Y_WP:	0.750	X:	0.067	Y:	-0.886	Z:	0.403	yaw:	4.414	yaw rate:	1.579	Roll:	0.190	Pitch:	-26.573	Yaw:	8.018	Thrust:	100.000
Time:	5.110	Roll Set Point:	-0.065	Pitch Set Point:	1.775	Yaw Set Point:	-0.077	X_WP:	0.000	Y_WP:	0.000	Y_WP:	0.750	X:	0.067	Y:	-0.886	Z:	0.403	yaw:	4.439	yaw rate:	-2.514	Roll:	-0.373	Pitch:	-26.478	Yaw:	8.543	Thrust:	100.000
Time:	5.131	Roll Set Point:	-0.078	Pitch Set Point:	1.775	Yaw Set Point:	-0.064	X_WP:	0.000	Y_WP:	0.000	Y_WP:	0.750	X:	0.067	Y:	-0.886	Z:	0.403	yaw:	3.672	yaw rate:	76.634	Roll:	10.495	Pitch:	-26.711	Yaw:	-2.679	Thrust:	100.000
Time:	5.151	Roll Set Point:	-0.079	Pitch Set Point:	1.775	Yaw Set Point:	-0.063	X_WP:	0.000	Y_WP:	0.000	Y_WP:	0.750	X:	0.067	Y:	-0.886	Z:	0.403	yaw:	3.634	yaw rate:	3.810	Roll:	0.798	Pitch:	-26.553	Yaw:	6.578	Thrust:	100.000
Time:	5.174	Roll Set Point:	-0.068	Pitch Set Point:	1.775	Yaw Set Point:	-0.075	X_WP:	0.000	Y_WP:	0.000	Y_WP:	0.750	X:	0.067	Y:	-0.886	Z:	0.403	yaw:	4.273	yaw rate:	-63.842	Roll:	-7.589	Pitch:	-26.405	Yaw:	15.619	Thrust:	100.000
Time:	5.196	Roll Set Point:	-0.166	Pitch Set Point:	1.774	Yaw Set Point:	0.033	X_WP:	0.000	Y_WP:	0.000	Y_WP:	0.750	X:	0.068	Y:	-0.888	Z:	0.402	yaw:	-1.912	yaw rate:	618.502	Roll:	30.000	Pitch:	-24.004	Yaw:	-75.588	Thrust:	100.000
Time:	5.218	Roll Set Point:	-0.168	Pitch Set Point:	1.774	Yaw Set Point:	0.036	X_WP:	0.000	Y_WP:	0.000	Y_WP:	0.750	X:	0.068	Y:	-0.888	Z:	0.402	yaw:	-2.057	yaw rate:	14.488	Roll:	4.853	Pitch:	-26.247	Yaw:	-2.393	Thrust:	100.000
Time:	5.234	Roll Set Point:	-0.106	Pitch Set Point:	1.775	Yaw Set Point:	-0.031	X_WP:	0.000	Y_WP:	0.000	Y_WP:	0.750	X:	0.067	Y:	-0.887	Z:	0.403	yaw:	1.790	yaw rate:	-384.727	Roll:	-30.000	Pitch:	-29.259	Yaw:	66.219	Thrust:	100.000
Time:	5.255	Roll Set Point:	-0.091	Pitch Set Point:	1.775	Yaw Set Point:	-0.048	X_WP:	0.000	Y_WP:	0.000	Y_WP:	0.750	X:	0.067	Y:	-0.886	Z:	0.403	yaw:	2.764	yaw rate:	-97.442	Roll:	-11.654	Pitch:	-26.708	Yaw:	17.806	Thrust:	100.000
Time:	5.270	Roll Set Point:	-0.089	Pitch Set Point:	1.775	Yaw Set Point:	-0.050	X_WP:	0.000	Y_WP:	0.000	Y_WP:	0.750	X:	0.067	Y:	-0.886	Z:	0.403	yaw:	2.883	yaw rate:	-11.821	Roll:	-1.230	Pitch:	-26.419	Yaw:	7.586	Thrust:	100.000
Time:	5.292	Roll Set Point:	-0.060	Pitch Set Point:	1.775	Yaw Set Point:	-0.085	X_WP:	0.000	Y_WP:	0.000	Y_WP:	0.750	X:	0.068	Y:	-0.886	Z:	0.403	yaw:	4.852	yaw rate:	-196.961	Roll:	-23.701	Pitch:	-26.556	Yaw:	32.835	Thrust:	100.000
Time:	5.309	Roll Set Point:	-0.061	Pitch Set Point:	1.775	Yaw Set Point:	-0.084	X_WP:	0.000	Y_WP:	0.000	Y_WP:	0.750	X:	0.068	Y:	-0.886	Z:	0.403	yaw:	4.806	yaw rate:	4.659	Roll:	0.516	Pitch:	-26.418	Yaw:	7.770	Thrust:	100.000
