Time:	0.041	Roll Set Point:	-0.021	Pitch Set Point:	1.826	Yaw Set Point:	-0.002	X_WP:	0.000	Y_WP:	0.000	Y_WP:	0.750	X:	0.012	Y:	-0.913	Z:	0.403	yaw:	0.134	yaw rate:	-5.584	Roll:	0.273	Pitch:	-26.482	Yaw:	0.187	Thrust:	19.061
Time:	0.063	Roll Set Point:	-0.022	Pitch Set Point:	1.826	Yaw Set Point:	-0.002	X_WP:	0.000	Y_WP:	0.000	Y_WP:	0.750	X:	0.012	Y:	-0.913	Z:	0.403	yaw:	0.093	yaw rate:	4.127	Roll:	0.823	Pitch:	-26.493	Yaw:	-0.381	Thrust:	19.945
Time:	0.083	Roll Set Point:	-0.021	Pitch Set Point:	1.826	Yaw Set Point:	-0.002	X_WP:	0.000	Y_WP:	0.000	Y_WP:	0.750	X:	0.012	Y:	-0.913	Z:	0.403	yaw:	0.141	yaw rate:	-4.852	Roll:	-0.401	Pitch:	-26.537	Yaw:	0.831	Thrust:	20.637
Time:	0.102	Roll Set Point:	-0.046	Pitch Set Point:	1.827	Yaw Set Point:	0.024	X_WP:	0.000	Y_WP:	0.000	Y_WP:	0.750	X:	0.012	Y:	-0.914	Z:	0.403	yaw:	-1.404	yaw rate:	154.484	Roll:	21.598	Pitch:	-26.566	Yaw:	-22.202	Thrust:	21.801
Time:	0.122	Roll Set Point:	-0.044	Pitch Set Point:	1.826	Yaw Set Point:	0.022	X_WP:	0.000	Y_WP:	0.000	Y_WP:	0.750	X:	0.012	Y:	-0.913	Z:	0.403	yaw:	-1.274	yaw rate:	-12.999	Roll:	-0.856	Pitch:	-26.604	Yaw:	-0.012	Thrust:	22.055
Time:	0.142	Roll Set Point:	-0.040	Pitch Set Point:	1.826	Yaw Set Point:	0.019	X_WP:	0.000	Y_WP:	0.000	Y_WP:	0.750	X:	0.012	Y:	-0.913	Z:	0.403	yaw:	-1.062	yaw rate:	-21.170	Roll:	-2.334	Pitch:	-26.632	Yaw:	1.185	Thrust:	23.673
Time:	0.164	Roll Set Point:	-0.038	Pitch Set Point:	1.826	Yaw Set Point:	0.016	X_WP:	0.000	Y_WP:	0.000	Y_WP:	0.750	X:	0.012	Y:	-0.913	Z:	0.403	yaw:	-0.914	yaw rate:	-14.820	Roll:	-1.100	Pitch:	-26.862	Yaw:	0.493	Thrust:	24.467
Time:	0.187	Roll Set Point:	-0.032	Pitch Set Point:	1.826	Yaw Set Point:	0.010	X_WP:	0.000	Y_WP:	0.000	Y_WP:	0.750	X:	0.012	Y:	-0.913	Z:	0.404	yaw:	-0.548	yaw rate:	-36.573	Roll:	-3.605	Pitch:	-26.799	Yaw:	3.507	Thrust:	25.040
Time:	0.204	Roll Set Point:	-0.017	Pitch Set Point:	1.826	Yaw Set Point:	-0.007	X_WP:	0.000	Y_WP:	0.000	Y_WP:	0.750	X:	0.012	Y:	-0.913	Z:	0.403	yaw:	0.375	yaw rate:	-92.264	Roll:	-14.296	Pitch:	-26.637	Yaw:	14.248	Thrust:	25.439
Time:	0.225	Roll Set Point:	-0.026	Pitch Set Point:	1.825	Yaw Set Point:	0.003	X_WP:	0.000	Y_WP:	0.000	Y_WP:	0.750	X:	0.012	Y:	-0.913	Z:	0.403	yaw:	-0.162	yaw rate:	53.681	Roll:	7.748	Pitch:	-26.699	Yaw:	-7.257	Thrust:	26.635
Time:	0.245	Roll Set Point:	0.002	Pitch Set Point:	1.826	Yaw Set Point:	-0.026	X_WP:	0.000	Y_WP:	0.000	Y_WP:	0.750	X:	0.011	Y:	-0.913	Z:	0.404	yaw:	1.518	yaw rate:	-167.986	Roll:	-23.518	Pitch:	-27.118	Yaw:	24.114	Thrust:	26.721
Time:	0.264	Roll Set Point:	-0.055	Pitch Set Point:	1.827	Yaw Set Point:	0.034	X_WP:	0.000	Y_WP:	0.000	Y_WP:	0.750	X:	0.012	Y:	-0.914	Z:	0.403	yaw:	-1.960	yaw rate:	347.789	Roll:	30.000	Pitch:	-27.230	Yaw:	-47.329	Thrust:	29.520
Time:	0.287	Roll Set Point:	-0.070	Pitch Set Point:	1.826	Yaw Set Point:	0.051	X_WP:	0.000	Y_WP:	0.000	Y_WP:	0.750	X:	0.012	Y:	-0.914	Z:	0.403	yaw:	-2.922	yaw rate:	96.230	Roll:	13.730	Pitch:	-26.196	Yaw:	-15.169	Thrust:	30.406
Time:	0.304	Roll Set Point:	-0.068	Pitch Set Point:	1.829	Yaw Set Point:	0.048	X_WP:	0.000	Y_WP:	0.000	Y_WP:	0.750	X:	0.012	Y:	-0.915	Z:	0.403	yaw:	-2.749	yaw rate:	-17.387	Roll:	-0.719	Pitch:	-28.487	Yaw:	-1.217	Thrust:	28.979
Time:	0.324	Roll Set Point:	-0.106	Pitch Set Point:	1.825	Yaw Set Point:	0.091	X_WP:	0.000	Y_WP:	0.000	Y_WP:	0.750	X:	0.011	Y:	-0.915	Z:	0.403	yaw:	-5.215	yaw rate:	246.644	Roll:	30.000	Pitch:	-23.836	Yaw:	-40.488	Thrust:	30.342
Time:	0.344	Roll Set Point:	-0.095	Pitch Set Point:	1.825	Yaw Set Point:	0.080	X_WP:	0.000	Y_WP:	0.000	Y_WP:	0.750	X:	0.011	Y:	-0.914	Z:	0.403	yaw:	-4.579	yaw rate:	-63.591	Roll:	-6.181	Pitch:	-27.531	Yaw:	2.138	Thrust:	30.969
Time:	0.364	Roll Set Point:	-0.073	Pitch Set Point:	1.824	Yaw Set Point:	0.057	X_WP:	0.000	Y_WP:	0.000	Y_WP:	0.750	X:	0.011	Y:	-0.913	Z:	0.404	yaw:	-3.248	yaw rate:	-133.150	Roll:	-16.718	Pitch:	-27.738	Yaw:	11.646	Thrust:	31.420
Time:	0.388	Roll Set Point:	-0.078	Pitch Set Point:	1.825	Yaw Set Point:	0.062	X_WP:	0.000	Y_WP:	0.000	Y_WP:	0.750	X:	0.011	Y:	-0.914	Z:	0.403	yaw:	-3.541	yaw rate:	29.389	Roll:	5.581	Pitch:	-27.331	Yaw:	-8.384	Thrust:	36.071
Time:	0.405	Roll Set Point:	-0.079	Pitch Set Point:	1.825	Yaw Set Point:	0.062	X_WP:	0.000	Y_WP:	0.000	Y_WP:	0.750	X:	0.011	Y:	-0.914	Z:	0.403	yaw:	-3.579	yaw rate:	3.787	Roll:	2.584	Pitch:	-26.994	Yaw:	-5.754	Thrust:	31.974
Time:	0.424	Roll Set Point:	-0.078	Pitch Set Point:	1.825	Yaw Set Point:	0.062	X_WP:	0.000	Y_WP:	0.000	Y_WP:	0.750	X:	0.011	Y:	-0.914	Z:	0.403	yaw:	-3.537	yaw rate:	-4.240	Roll:	1.395	Pitch:	-27.206	Yaw:	-4.539	Thrust:	34.051
Time:	0.444	Roll Set Point:	-0.078	Pitch Set Point:	1.825	Yaw Set Point:	0.061	X_WP:	0.000	Y_WP:	0.000	Y_WP:	0.750	X:	0.011	Y:	-0.914	Z:	0.404	yaw:	-3.510	yaw rate:	-2.697	Roll:	1.574	Pitch:	-27.135	Yaw:	-4.809	Thrust:	36.156
Time:	0.465	Roll Set Point:	-0.050	Pitch Set Point:	1.827	Yaw Set Point:	0.031	X_WP:	0.000	Y_WP:	0.000	Y_WP:	0.750	X:	0.011	Y:	-0.914	Z:	0.403	yaw:	-1.766	yaw rate:	-174.354	Roll:	-21.478	Pitch:	-29.001	Yaw:	18.915	Thrust:	37.656
Time:	0.487	Roll Set Point:	-0.049	Pitch Set Point:	1.827	Yaw Set Point:	0.029	X_WP:	0.000	Y_WP:	0.000	Y_WP:	0.750	X:	0.011	Y:	-0.914	Z:	0.403	yaw:	-1.671	yaw rate:	-9.540	Roll:	0.089	Pitch:	-27.330	Yaw:	-1.420	Thrust:	38.784
Time:	0.504	Roll Set Point:	-0.078	Pitch Set Point:	1.825	Yaw Set Point:	0.062	X_WP:	0.000	Y_WP:	0.000	Y_WP:	0.750	X:	0.011	Y:	-0.914	Z:	0.403	yaw:	-3.537	yaw rate:	186.616	Roll:	29.179	Pitch:	-24.965	Yaw:	-31.963	Thrust:	35.262
Time:	0.525	Roll Set Point:	-0.078	Pitch Set Point:	1.825	Yaw Set Point:	0.062	X_WP:	0.000	Y_WP:	0.000	Y_WP:	0.750	X:	0.011	Y:	-0.914	Z:	0.403	yaw:	-3.545	yaw rate:	0.793	Roll:	2.115	Pitch:	-27.129	Yaw:	-5.378	Thrust:	39.503
Time:	0.543	Roll Set Point:	-0.077	Pitch Set Point:	1.825	Yaw Set Point:	0.060	X_WP:	0.000	Y_WP:	0.000	Y_WP:	0.750	X:	0.011	Y:	-0.913	Z:	0.403	yaw:	-3.457	yaw rate:	-8.793	Roll:	0.711	Pitch:	-27.153	Yaw:	-3.765	Thrust:	37.833
Time:	0.564	Roll Set Point:	-0.079	Pitch Set Point:	1.824	Yaw Set Point:	0.062	X_WP:	0.000	Y_WP:	0.000	Y_WP:	0.750	X:	0.011	Y:	-0.913	Z:	0.403	yaw:	-3.571	yaw rate:	11.409	Roll:	3.513	Pitch:	-27.113	Yaw:	-6.739	Thrust:	43.050
Time:	0.583	Roll Set Point:	-0.077	Pitch Set Point:	1.824	Yaw Set Point:	0.061	X_WP:	0.000	Y_WP:	0.000	Y_WP:	0.750	X:	0.011	Y:	-0.913	Z:	0.403	yaw:	-3.468	yaw rate:	-10.311	Roll:	0.574	Pitch:	-27.251	Yaw:	-3.793	Thrust:	40.284
Time:	0.602	Roll Set Point:	-0.078	Pitch Set Point:	1.824	Yaw Set Point:	0.062	X_WP:	0.000	Y_WP:	0.000	Y_WP:	0.750	X:	0.011	Y:	-0.913	Z:	0.403	yaw:	-3.529	yaw rate:	6.088	Roll:	2.798	Pitch:	-27.032	Yaw:	-6.162	Thrust:	41.154
Time:	0.622	Roll Set Point:	-0.078	Pitch Set Point:	1.824	Yaw Set Point:	0.062	X_WP:	0.000	Y_WP:	0.000	Y_WP:	0.750	X:	0.011	Y:	-0.913	Z:	0.403	yaw:	-3.530	yaw rate:	0.060	Roll:	1.853	Pitch:	-27.200	Yaw:	-5.368	Thrust:	42.838
Time:	0.642	Roll Set Point:	-0.079	Pitch Set Point:	1.824	Yaw Set Point:	0.063	X_WP:	0.000	Y_WP:	0.000	Y_WP:	0.750	X:	0.010	Y:	-0.913	Z:	0.403	yaw:	-3.629	yaw rate:	9.953	Roll:	3.262	Pitch:	-27.062	Yaw:	-6.808	Thrust:	45.041
Time:	0.663	Roll Set Point:	-0.078	Pitch Set Point:	1.824	Yaw Set Point:	0.062	X_WP:	0.000	Y_WP:	0.000	Y_WP:	0.750	X:	0.011	Y:	-0.913	Z:	0.403	yaw:	-3.557	yaw rate:	-7.251	Roll:	1.244	Pitch:	-27.306	Yaw:	-4.574	Thrust:	46.089
Time:	0.684	Roll Set Point:	-0.078	Pitch Set Point:	1.824	Yaw Set Point:	0.062	X_WP:	0.000	Y_WP:	0.000	Y_WP:	0.750	X:	0.011	Y:	-0.913	Z:	0.403	yaw:	-3.555	yaw rate:	-0.132	Roll:	2.082	Pitch:	-27.214	Yaw:	-5.469	Thrust:	46.312
Time:	0.702	Roll Set Point:	-0.078	Pitch Set Point:	1.825	Yaw Set Point:	0.062	X_WP:	0.000	Y_WP:	0.000	Y_WP:	0.750	X:	0.011	Y:	-0.913	Z:	0.403	yaw:	-3.561	yaw rate:	0.573	Roll:	2.192	Pitch:	-27.124	Yaw:	-5.551	Thrust:	44.293
Time:	0.722	Roll Set Point:	-0.078	Pitch Set Point:	1.824	Yaw Set Point:	0.062	X_WP:	0.000	Y_WP:	0.000	Y_WP:	0.750	X:	0.011	Y:	-0.913	Z:	0.403	yaw:	-3.538	yaw rate:	-2.259	Roll:	1.787	Pitch:	-27.167	Yaw:	-5.213	Thrust:	47.393
Time:	0.741	Roll Set Point:	-0.079	Pitch Set Point:	1.824	Yaw Set Point:	0.062	X_WP:	0.000	Y_WP:	0.000	Y_WP:	0.750	X:	0.011	Y:	-0.913	Z:	0.404	yaw:	-3.542	yaw rate:	0.393	Roll:	2.333	Pitch:	-27.103	Yaw:	-5.555	Thrust:	46.130
Time:	0.762	Roll Set Point:	-0.081	Pitch Set Point:	1.824	Yaw Set Point:	0.063	X_WP:	0.000	Y_WP:	0.000	Y_WP:	0.750	X:	0.012	Y:	-0.913	Z:	0.404	yaw:	-3.631	yaw rate:	8.814	Roll:	3.563	Pitch:	-26.955	Yaw:	-6.808	Thrust:	48.558
Time:	0.785	Roll Set Point:	-0.077	Pitch Set Point:	1.823	Yaw Set Point:	0.058	X_WP:	0.000	Y_WP:	0.000	Y_WP:	0.750	X:	0.012	Y:	-0.913	Z:	0.406	yaw:	-3.319	yaw rate:	-31.196	Roll:	-1.525	Pitch:	-26.874	Yaw:	-1.699	Thrust:	49.394
Time:	0.802	Roll Set Point:	-0.078	Pitch Set Point:	1.819	Yaw Set Point:	0.058	X_WP:	0.000	Y_WP:	0.000	Y_WP:	0.750	X:	0.013	Y:	-0.911	Z:	0.408	yaw:	-3.327	yaw rate:	0.846	Roll:	2.426	Pitch:	-25.501	Yaw:	-5.339	Thrust:	41.990
Time:	0.822	Roll Set Point:	-0.080	Pitch Set Point:	1.815	Yaw Set Point:	0.059	X_WP:	0.000	Y_WP:	0.000	Y_WP:	0.750	X:	0.013	Y:	-0.909	Z:	0.411	yaw:	-3.379	yaw rate:	5.147	Roll:	3.297	Pitch:	-25.267	Yaw:	-6.073	Thrust:	45.658
Time:	0.843	Roll Set Point:	-0.081	Pitch Set Point:	1.811	Yaw Set Point:	0.057	X_WP:	0.000	Y_WP:	0.000	Y_WP:	0.750	X:	0.015	Y:	-0.906	Z:	0.415	yaw:	-3.276	yaw rate:	-10.211	Roll:	1.438	Pitch:	-24.861	Yaw:	-3.994	Thrust:	44.260
Time:	0.863	Roll Set Point:	-0.084	Pitch Set Point:	1.804	Yaw Set Point:	0.057	X_WP:	0.000	Y_WP:	0.000	Y_WP:	0.750	X:	0.016	Y:	-0.903	Z:	0.419	yaw:	-3.275	yaw rate:	-0.153	Roll:	3.234	Pitch:	-24.517	Yaw:	-5.305	Thrust:	44.039
Time:	0.883	Roll Set Point:	-0.076	Pitch Set Point:	1.798	Yaw Set Point:	0.044	X_WP:	0.000	Y_WP:	0.000	Y_WP:	0.750	X:	0.018	Y:	-0.900	Z:	0.424	yaw:	-2.503	yaw rate:	-77.150	Roll:	-6.452	Pitch:	-24.355	Yaw:	6.023	Thrust:	40.142
Time:	0.903	Roll Set Point:	-0.092	Pitch Set Point:	1.790	Yaw Set Point:	0.055	X_WP:	0.000	Y_WP:	0.000	Y_WP:	0.750	X:	0.022	Y:	-0.896	Z:	0.430	yaw:	-3.130	yaw rate:	62.627	Roll:	13.959	Pitch:	-22.597	Yaw:	-13.478	Thrust:	38.328
Time:	0.922	Roll Set Point:	-0.100	Pitch Set Point:	1.781	Yaw Set Point:	0.053	X_WP:	0.000	Y_WP:	0.000	Y_WP:	0.750	X:	0.026	Y:	-0.892	Z:	0.436	yaw:	-3.051	yaw rate:	-7.857	Roll:	4.643	Pitch:	-22.904	Yaw:	-3.955	Thrust:	38.886
Time:	0.942	Roll Set Point:	-0.110	Pitch Set Point:	1.772	Yaw Set Point:	0.054	X_WP:	0.000	Y_WP:	0.000	Y_WP:	0.750	X:	0.031	Y:	-0.887	Z:	0.443	yaw:	-3.089	yaw rate:	3.775	Roll:	7.180	Pitch:	-22.222	Yaw:	-5.623	Thrust:	39.473
Time:	0.962	Roll Set Point:	-0.117	Pitch Set Point:	1.762	Yaw Set Point:	0.048	X_WP:	0.000	Y_WP:	0.000	Y_WP:	0.750	X:	0.037	Y:	-0.882	Z:	0.450	yaw:	-2.752	yaw rate:	-33.660	Roll:	2.864	Pitch:	-21.995	Yaw:	-0.281	Thrust:	37.606
Time:	0.983	Roll Set Point:	-0.127	Pitch Set Point:	1.750	Yaw Set Point:	0.045	X_WP:	0.000	Y_WP:	0.000	Y_WP:	0.750	X:	0.044	Y:	-0.876	Z:	0.458	yaw:	-2.564	yaw rate:	-18.797	Roll:	5.574	Pitch:	-21.392	Yaw:	-2.065	Thrust:	38.680
Time:	1.002	Roll Set Point:	-0.138	Pitch Set Point:	1.738	Yaw Set Point:	0.040	X_WP:	0.000	Y_WP:	0.000	Y_WP:	0.750	X:	0.052	Y:	-0.870	Z:	0.466	yaw:	-2.279	yaw rate:	-28.566	Roll:	5.354	Pitch:	-20.662	Yaw:	-0.131	Thrust:	34.776
Time:	1.023	Roll Set Point:	-0.149	Pitch Set Point:	1.725	Yaw Set Point:	0.033	X_WP:	0.000	Y_WP:	0.000	Y_WP:	0.750	X:	0.060	Y:	-0.864	Z:	0.474	yaw:	-1.918	yaw rate:	-36.101	Roll:	4.995	Pitch:	-20.255	Yaw:	1.082	Thrust:	37.604
Time:	1.043	Roll Set Point:	-0.163	Pitch Set Point:	1.711	Yaw Set Point:	0.029	X_WP:	0.000	Y_WP:	0.000	Y_WP:	0.750	X:	0.069	Y:	-0.856	Z:	0.483	yaw:	-1.654	yaw rate:	-26.344	Roll:	7.256	Pitch:	-19.407	Yaw:	0.276	Thrust:	36.308
Time:	1.063	Roll Set Point:	-0.186	Pitch Set Point:	1.695	Yaw Set Point:	0.032	X_WP:	0.000	Y_WP:	0.000	Y_WP:	0.750	X:	0.079	Y:	-0.849	Z:	0.491	yaw:	-1.825	yaw rate:	17.046	Roll:	13.688	Pitch:	-18.500	Yaw:	-5.657	Thrust:	38.545
Time:	1.085	Roll Set Point:	-0.196	Pitch Set Point:	1.680	Yaw Set Point:	0.019	X_WP:	0.000	Y_WP:	0.000	Y_WP:	0.750	X:	0.090	Y:	-0.841	Z:	0.499	yaw:	-1.062	yaw rate:	-76.276	Roll:	2.590	Pitch:	-19.566	Yaw:	6.932	Thrust:	41.317
Time:	1.103	Roll Set Point:	-0.207	Pitch Set Point:	1.664	Yaw Set Point:	0.006	X_WP:	0.000	Y_WP:	0.000	Y_WP:	0.750	X:	0.101	Y:	-0.832	Z:	0.507	yaw:	-0.347	yaw rate:	-71.487	Roll:	3.616	Pitch:	-18.377	Yaw:	8.692	Thrust:	33.823
Time:	1.124	Roll Set Point:	-0.229	Pitch Set Point:	1.647	Yaw Set Point:	0.006	X_WP:	0.000	Y_WP:	0.000	Y_WP:	0.750	X:	0.112	Y:	-0.824	Z:	0.514	yaw:	-0.339	yaw rate:	-0.816	Roll:	12.362	Pitch:	-18.044	Yaw:	-1.384	Thrust:	43.752
Time:	1.143	Roll Set Point:	-0.252	Pitch Set Point:	1.630	Yaw Set Point:	0.005	X_WP:	0.000	Y_WP:	0.000	Y_WP:	0.750	X:	0.124	Y:	-0.815	Z:	0.521	yaw:	-0.309	yaw rate:	-2.948	Roll:	13.761	Pitch:	-16.072	Yaw:	-0.839	Thrust:	33.991
Time:	1.163	Roll Set Point:	-0.271	Pitch Set Point:	1.613	Yaw Set Point:	0.001	X_WP:	0.000	Y_WP:	0.000	Y_WP:	0.750	X:	0.135	Y:	-0.806	Z:	0.529	yaw:	-0.064	yaw rate:	-24.518	Roll:	10.968	Pitch:	-17.108	Yaw:	2.060	Thrust:	41.714
Time:	1.184	Roll Set Point:	-0.288	Pitch Set Point:	1.595	Yaw Set Point:	-0.008	X_WP:	0.000	Y_WP:	0.000	Y_WP:	0.750	X:	0.147	Y:	-0.797	Z:	0.536	yaw:	0.464	yaw rate:	-52.807	Roll:	8.138	Pitch:	-16.968	Yaw:	6.270	Thrust:	43.367
Time:	1.203	Roll Set Point:	-0.313	Pitch Set Point:	1.577	Yaw Set Point:	-0.008	X_WP:	0.000	Y_WP:	0.000	Y_WP:	0.750	X:	0.160	Y:	-0.788	Z:	0.543	yaw:	0.468	yaw rate:	-0.412	Roll:	15.573	Pitch:	-15.972	Yaw:	-0.183	Thrust:	38.365
Time:	1.223	Roll Set Point:	-0.333	Pitch Set Point:	1.559	Yaw Set Point:	-0.016	X_WP:	0.000	Y_WP:	0.000	Y_WP:	0.750	X:	0.173	Y:	-0.778	Z:	0.549	yaw:	0.906	yaw rate:	-43.794	Roll:	11.122	Pitch:	-16.299	Yaw:	6.170	Thrust:	40.895
Time:	1.243	Roll Set Point:	-0.360	Pitch Set Point:	1.540	Yaw Set Point:	-0.016	X_WP:	0.000	Y_WP:	0.000	Y_WP:	0.750	X:	0.186	Y:	-0.768	Z:	0.555	yaw:	0.911	yaw rate:	-0.452	Roll:	15.996	Pitch:	-14.976	Yaw:	0.407	Thrust:	43.009
Time:	1.263	Roll Set Point:	-0.389	Pitch Set Point:	1.520	Yaw Set Point:	-0.013	X_WP:	0.000	Y_WP:	0.000	Y_WP:	0.750	X:	0.199	Y:	-0.759	Z:	0.562	yaw:	0.716	yaw rate:	19.426	Roll:	19.347	Pitch:	-14.277	Yaw:	-2.419	Thrust:	45.001
Time:	1.286	Roll Set Point:	-0.425	Pitch Set Point:	1.499	Yaw Set Point:	-0.002	X_WP:	0.000	Y_WP:	0.000	Y_WP:	0.750	X:	0.213	Y:	-0.749	Z:	0.568	yaw:	0.096	yaw rate:	62.069	Roll:	24.817	Pitch:	-13.181	Yaw:	-8.316	Thrust:	48.768
Time:	1.303	Roll Set Point:	-0.434	Pitch Set Point:	1.483	Yaw Set Point:	-0.026	X_WP:	0.000	Y_WP:	0.000	Y_WP:	0.750	X:	0.227	Y:	-0.739	Z:	0.573	yaw:	1.467	yaw rate:	-137.189	Roll:	2.786	Pitch:	-17.812	Yaw:	20.500	Thrust:	38.351
Time:	1.323	Roll Set Point:	-0.463	Pitch Set Point:	1.462	Yaw Set Point:	-0.025	X_WP:	0.000	Y_WP:	0.000	Y_WP:	0.750	X:	0.241	Y:	-0.728	Z:	0.578	yaw:	1.454	yaw rate:	1.366	Roll:	19.486	Pitch:	-13.177	Yaw:	0.975	Thrust:	45.957
Time:	1.343	Roll Set Point:	-0.498	Pitch Set Point:	1.439	Yaw Set Point:	-0.017	X_WP:	0.000	Y_WP:	0.000	Y_WP:	0.750	X:	0.255	Y:	-0.717	Z:	0.582	yaw:	0.967	yaw rate:	48.707	Roll:	24.415	Pitch:	-10.889	Yaw:	-5.731	Thrust:	48.037
Time:	1.363	Roll Set Point:	-0.520	Pitch Set Point:	1.420	Yaw Set Point:	-0.028	X_WP:	0.000	Y_WP:	0.000	Y_WP:	0.750	X:	0.270	Y:	-0.707	Z:	0.587	yaw:	1.592	yaw rate:	-62.484	Roll:	13.502	Pitch:	-14.827	Yaw:	9.719	Thrust:	49.232
Time:	1.384	Roll Set Point:	-0.459	Pitch Set Point:	1.430	Yaw Set Point:	-0.162	X_WP:	0.000	Y_WP:	0.000	Y_WP:	0.750	X:	0.288	Y:	-0.697	Z:	0.584	yaw:	9.273	yaw rate:	-768.138	Roll:	-30.000	Pitch:	-30.000	Yaw:	109.277	Thrust:	65.166
Time:	1.403	Roll Set Point:	-0.496	Pitch Set Point:	1.409	Yaw Set Point:	-0.154	X_WP:	0.000	Y_WP:	0.000	Y_WP:	0.750	X:	0.302	Y:	-0.685	Z:	0.588	yaw:	8.850	yaw rate:	42.319	Roll:	24.604	Pitch:	-12.877	Yaw:	5.827	Thrust:	47.238
Time:	1.423	Roll Set Point:	-0.521	Pitch Set Point:	1.389	Yaw Set Point:	-0.164	X_WP:	0.000	Y_WP:	0.000	Y_WP:	0.750	X:	0.317	Y:	-0.673	Z:	0.592	yaw:	9.413	yaw rate:	-56.316	Roll:	14.586	Pitch:	-14.981	Yaw:	19.761	Thrust:	49.437
Time:	1.443	Roll Set Point:	-0.552	Pitch Set Point:	1.367	Yaw Set Point:	-0.164	X_WP:	0.000	Y_WP:	0.000	Y_WP:	0.750	X:	0.332	Y:	-0.661	Z:	0.597	yaw:	9.419	yaw rate:	-0.618	Roll:	20.718	Pitch:	-13.000	Yaw:	12.546	Thrust:	49.673
Time:	1.463	Roll Set Point:	-0.594	Pitch Set Point:	1.341	Yaw Set Point:	-0.150	X_WP:	0.000	Y_WP:	0.000	Y_WP:	0.750	X:	0.347	Y:	-0.648	Z:	0.601	yaw:	8.585	yaw rate:	83.427	Roll:	30.000	Pitch:	-9.528	Yaw:	0.458	Thrust:	49.024
Time:	1.485	Roll Set Point:	-0.629	Pitch Set Point:	1.316	Yaw Set Point:	-0.144	X_WP:	0.000	Y_WP:	0.000	Y_WP:	0.750	X:	0.362	Y:	-0.635	Z:	0.605	yaw:	8.274	yaw rate:	31.087	Roll:	24.825	Pitch:	-11.035	Yaw:	7.202	Thrust:	51.565
Time:	1.503	Roll Set Point:	-0.650	Pitch Set Point:	1.296	Yaw Set Point:	-0.162	X_WP:	0.000	Y_WP:	0.000	Y_WP:	0.750	X:	0.377	Y:	-0.622	Z:	0.610	yaw:	9.261	yaw rate:	-98.659	Roll:	12.802	Pitch:	-14.477	Yaw:	26.337	Thrust:	47.695
Time:	1.523	Roll Set Point:	-0.643	Pitch Set Point:	1.286	Yaw Set Point:	-0.220	X_WP:	0.000	Y_WP:	0.000	Y_WP:	0.750	X:	0.393	Y:	-0.607	Z:	0.615	yaw:	12.601	yaw rate:	-334.080	Roll:	-11.546	Pitch:	-24.153	Yaw:	63.782	Thrust:	44.420
Time:	1.542	Roll Set Point:	-0.791	Pitch Set Point:	1.196	Yaw Set Point:	-0.029	X_WP:	0.000	Y_WP:	0.000	Y_WP:	0.750	X:	0.404	Y:	-0.592	Z:	0.625	yaw:	1.650	yaw rate:	1095.150	Roll:	30.000	Pitch:	30.000	Yaw:	-143.387	Thrust:	36.151
Time:	1.562	Roll Set Point:	-0.828	Pitch Set Point:	1.162	Yaw Set Point:	-0.018	X_WP:	0.000	Y_WP:	0.000	Y_WP:	0.750	X:	0.419	Y:	-0.577	Z:	0.628	yaw:	1.033	yaw rate:	61.655	Roll:	30.000	Pitch:	-1.668	Yaw:	-6.801	Thrust:	50.098
Time:	1.582	Roll Set Point:	-0.852	Pitch Set Point:	1.137	Yaw Set Point:	-0.028	X_WP:	0.000	Y_WP:	0.000	Y_WP:	0.750	X:	0.434	Y:	-0.562	Z:	0.633	yaw:	1.622	yaw rate:	-58.833	Roll:	20.147	Pitch:	-8.822	Yaw:	9.603	Thrust:	50.703
Time:	1.604	Roll Set Point:	-0.882	Pitch Set Point:	1.107	Yaw Set Point:	-0.029	X_WP:	0.000	Y_WP:	0.000	Y_WP:	0.750	X:	0.449	Y:	-0.547	Z:	0.637	yaw:	1.668	yaw rate:	-4.617	Roll:	25.673	Pitch:	-5.131	Yaw:	2.582	Thrust:	52.802
Time:	1.622	Roll Set Point:	-0.913	Pitch Set Point:	1.075	Yaw Set Point:	-0.026	X_WP:	0.000	Y_WP:	0.000	Y_WP:	0.750	X:	0.464	Y:	-0.532	Z:	0.641	yaw:	1.466	yaw rate:	20.191	Roll:	27.818	Pitch:	-1.938	Yaw:	-0.987	Thrust:	48.440
Time:	1.643	Roll Set Point:	-0.945	Pitch Set Point:	1.043	Yaw Set Point:	-0.021	X_WP:	0.000	Y_WP:	0.000	Y_WP:	0.750	X:	0.478	Y:	-0.516	Z:	0.644	yaw:	1.209	yaw rate:	25.684	Roll:	29.073	Pitch:	-1.657	Yaw:	-1.927	Thrust:	51.881
Time:	1.664	Roll Set Point:	-0.969	Pitch Set Point:	1.017	Yaw Set Point:	-0.030	X_WP:	0.000	Y_WP:	0.000	Y_WP:	0.750	X:	0.492	Y:	-0.501	Z:	0.648	yaw:	1.741	yaw rate:	-53.166	Roll:	22.645	Pitch:	-6.838	Yaw:	8.905	Thrust:	52.733
Time:	1.687	Roll Set Point:	-1.002	Pitch Set Point:	0.980	Yaw Set Point:	-0.019	X_WP:	0.000	Y_WP:	0.000	Y_WP:	0.750	X:	0.505	Y:	-0.485	Z:	0.651	yaw:	1.068	yaw rate:	67.317	Roll:	29.207	Pitch:	0.132	Yaw:	-6.442	Thrust:	61.444
Time:	1.703	Roll Set Point:	-1.063	Pitch Set Point:	0.910	Yaw Set Point:	0.058	X_WP:	0.000	Y_WP:	0.000	Y_WP:	0.750	X:	0.518	Y:	-0.470	Z:	0.654	yaw:	-3.340	yaw rate:	440.752	Roll:	30.000	Pitch:	30.000	Yaw:	-75.842	Thrust:	41.480
Time:	1.723	Roll Set Point:	-1.086	Pitch Set Point:	0.878	Yaw Set Point:	0.058	X_WP:	0.000	Y_WP:	0.000	Y_WP:	0.750	X:	0.530	Y:	-0.455	Z:	0.658	yaw:	-3.295	yaw rate:	-4.482	Roll:	25.882	Pitch:	0.592	Yaw:	-4.333	Thrust:	50.959
Time:	1.742	Roll Set Point:	-1.104	Pitch Set Point:	0.852	Yaw Set Point:	0.048	X_WP:	0.000	Y_WP:	0.000	Y_WP:	0.750	X:	0.542	Y:	-0.439	Z:	0.661	yaw:	-2.778	yaw rate:	-51.748	Roll:	22.623	Pitch:	-3.407	Yaw:	2.852	Thrust:	52.972
Time:	1.764	Roll Set Point:	-1.121	Pitch Set Point:	0.823	Yaw Set Point:	0.044	X_WP:	0.000	Y_WP:	0.000	Y_WP:	0.750	X:	0.552	Y:	-0.424	Z:	0.664	yaw:	-2.516	yaw rate:	-26.138	Roll:	23.036	Pitch:	-1.590	Yaw:	-0.700	Thrust:	56.331
Time:	1.784	Roll Set Point:	-1.137	Pitch Set Point:	0.798	Yaw Set Point:	0.035	X_WP:	0.000	Y_WP:	0.000	Y_WP:	0.750	X:	0.561	Y:	-0.409	Z:	0.666	yaw:	-1.983	yaw rate:	-53.374	Roll:	22.107	Pitch:	-3.120	Yaw:	4.368	Thrust:	52.438
Time:	1.803	Roll Set Point:	-1.153	Pitch Set Point:	0.771	Yaw Set Point:	0.030	X_WP:	0.000	Y_WP:	0.000	Y_WP:	0.750	X:	0.571	Y:	-0.394	Z:	0.668	yaw:	-1.720	yaw rate:	-26.305	Roll:	23.994	Pitch:	-1.011	Yaw:	0.625	Thrust:	55.620
Time:	1.822	Roll Set Point:	-1.168	Pitch Set Point:	0.741	Yaw Set Point:	0.028	X_WP:	0.000	Y_WP:	0.000	Y_WP:	0.750	X:	0.579	Y:	-0.379	Z:	0.668	yaw:	-1.617	yaw rate:	-10.234	Roll:	23.727	Pitch:	1.217	Yaw:	-1.213	Thrust:	57.410
Time:	1.843	Roll Set Point:	-1.189	Pitch Set Point:	0.698	Yaw Set Point:	0.048	X_WP:	0.000	Y_WP:	0.000	Y_WP:	0.750	X:	0.586	Y:	-0.363	Z:	0.668	yaw:	-2.756	yaw rate:	113.854	Roll:	30.000	Pitch:	12.256	Yaw:	-18.724	Thrust:	63.171
Time:	1.863	Roll Set Point:	-1.200	Pitch Set Point:	0.670	Yaw Set Point:	0.044	X_WP:	0.000	Y_WP:	0.000	Y_WP:	0.750	X:	0.593	Y:	-0.348	Z:	0.668	yaw:	-2.525	yaw rate:	-23.097	Roll:	22.063	Pitch:	1.208	Yaw:	-0.832	Thrust:	58.299
Time:	1.885	Roll Set Point:	-1.213	Pitch Set Point:	0.639	Yaw Set Point:	0.047	X_WP:	0.000	Y_WP:	0.000	Y_WP:	0.750	X:	0.599	Y:	-0.334	Z:	0.667	yaw:	-2.712	yaw rate:	18.685	Roll:	23.695	Pitch:	3.435	Yaw:	-6.404	Thrust:	67.535
Time:	1.903	Roll Set Point:	-1.217	Pitch Set Point:	0.621	Yaw Set Point:	0.027	X_WP:	0.000	Y_WP:	0.000	Y_WP:	0.750	X:	0.604	Y:	-0.319	Z:	0.667	yaw:	-1.566	yaw rate:	-114.594	Roll:	16.920	Pitch:	-6.966	Yaw:	14.409	Thrust:	58.765
Time:	1.922	Roll Set Point:	-1.230	Pitch Set Point:	0.581	Yaw Set Point:	0.044	X_WP:	0.000	Y_WP:	0.000	Y_WP:	0.750	X:	0.609	Y:	-0.304	Z:	0.664	yaw:	-2.508	yaw rate:	94.280	Roll:	26.674	Pitch:	13.281	Yaw:	-16.617	Thrust:	66.158
Time:	1.943	Roll Set Point:	-1.235	Pitch Set Point:	0.558	Yaw Set Point:	0.034	X_WP:	0.000	Y_WP:	0.000	Y_WP:	0.750	X:	0.613	Y:	-0.289	Z:	0.660	yaw:	-1.925	yaw rate:	-58.378	Roll:	19.645	Pitch:	-0.988	Yaw:	4.348	Thrust:	68.199
Time:	1.964	Roll Set Point:	-1.240	Pitch Set Point:	0.534	Yaw Set Point:	0.025	X_WP:	0.000	Y_WP:	0.000	Y_WP:	0.750	X:	0.617	Y:	-0.275	Z:	0.657	yaw:	-1.410	yaw rate:	-51.501	Roll:	19.422	Pitch:	-0.932	Yaw:	4.151	Thrust:	72.288
Time:	1.985	Roll Set Point:	-1.247	Pitch Set Point:	0.502	Yaw Set Point:	0.028	X_WP:	0.000	Y_WP:	0.000	Y_WP:	0.750	X:	0.620	Y:	-0.260	Z:	0.653	yaw:	-1.627	yaw rate:	21.685	Roll:	22.078	Pitch:	5.779	Yaw:	-5.426	Thrust:	73.329
Time:	2.003	Roll Set Point:	-1.259	Pitch Set Point:	0.451	Yaw Set Point:	0.066	X_WP:	0.000	Y_WP:	0.000	Y_WP:	0.750	X:	0.622	Y:	-0.246	Z:	0.649	yaw:	-3.789	yaw rate:	216.252	Roll:	28.151	Pitch:	27.714	Yaw:	-36.803	Thrust:	69.757
Time:	2.022	Roll Set Point:	-1.265	Pitch Set Point:	0.419	Yaw Set Point:	0.074	X_WP:	0.000	Y_WP:	0.000	Y_WP:	0.750	X:	0.625	Y:	-0.233	Z:	0.646	yaw:	-4.222	yaw rate:	43.303	Roll:	22.182	Pitch:	9.323	Yaw:	-12.253	Thrust:	70.100
Time:	2.042	Roll Set Point:	-1.265	Pitch Set Point:	0.404	Yaw Set Point:	0.060	X_WP:	0.000	Y_WP:	0.000	Y_WP:	0.750	X:	0.626	Y:	-0.221	Z:	0.642	yaw:	-3.416	yaw rate:	-80.575	Roll:	17.844	Pitch:	-3.268	Yaw:	5.215	Thrust:	72.680
Time:	2.063	Roll Set Point:	-1.265	Pitch Set Point:	0.386	Yaw Set Point:	0.046	X_WP:	0.000	Y_WP:	0.000	Y_WP:	0.750	X:	0.628	Y:	-0.208	Z:	0.638	yaw:	-2.618	yaw rate:	-79.823	Roll:	17.951	Pitch:	-2.084	Yaw:	6.159	Thrust:	73.824
Time:	2.084	Roll Set Point:	-1.266	Pitch Set Point:	0.362	Yaw Set Point:	0.046	X_WP:	0.000	Y_WP:	0.000	Y_WP:	0.750	X:	0.629	Y:	-0.195	Z:	0.633	yaw:	-2.636	yaw rate:	1.834	Roll:	19.622	Pitch:	4.706	Yaw:	-4.554	Thrust:	78.652
Time:	2.103	Roll Set Point:	-1.268	Pitch Set Point:	0.330	Yaw Set Point:	0.056	X_WP:	0.000	Y_WP:	0.000	Y_WP:	0.750	X:	0.629	Y:	-0.183	Z:	0.627	yaw:	-3.206	yaw rate:	56.945	Roll:	20.282	Pitch:	11.424	Yaw:	-12.876	Thrust:	76.561
Time:	2.122	Roll Set Point:	-1.265	Pitch Set Point:	0.319	Yaw Set Point:	0.037	X_WP:	0.000	Y_WP:	0.000	Y_WP:	0.750	X:	0.630	Y:	-0.171	Z:	0.624	yaw:	-2.093	yaw rate:	-111.305	Roll:	16.489	Pitch:	-5.574	Yaw:	11.589	Thrust:	72.853
Time:	2.143	Roll Set Point:	-1.265	Pitch Set Point:	0.295	Yaw Set Point:	0.036	X_WP:	0.000	Y_WP:	0.000	Y_WP:	0.750	X:	0.630	Y:	-0.159	Z:	0.617	yaw:	-2.089	yaw rate:	-0.379	Roll:	18.864	Pitch:	5.374	Yaw:	-3.534	Thrust:	80.760
Time:	2.163	Roll Set Point:	-1.264	Pitch Set Point:	0.277	Yaw Set Point:	0.031	X_WP:	0.000	Y_WP:	0.000	Y_WP:	0.750	X:	0.630	Y:	-0.148	Z:	0.613	yaw:	-1.799	yaw rate:	-29.037	Roll:	18.465	Pitch:	2.087	Yaw:	0.601	Thrust:	77.932
Time:	2.184	Roll Set Point:	-1.262	Pitch Set Point:	0.257	Yaw Set Point:	0.026	X_WP:	0.000	Y_WP:	0.000	Y_WP:	0.750	X:	0.629	Y:	-0.137	Z:	0.605	yaw:	-1.509	yaw rate:	-29.013	Roll:	17.958	Pitch:	1.957	Yaw:	0.737	Thrust:	87.217
Time:	2.204	Roll Set Point:	-1.264	Pitch Set Point:	0.233	Yaw Set Point:	0.034	X_WP:	0.000	Y_WP:	0.000	Y_WP:	0.750	X:	0.630	Y:	-0.127	Z:	0.600	yaw:	-1.942	yaw rate:	43.377	Roll:	19.885	Pitch:	9.242	Yaw:	-9.172	Thrust:	78.644
Time:	2.223	Roll Set Point:	-1.263	Pitch Set Point:	0.220	Yaw Set Point:	0.023	X_WP:	0.000	Y_WP:	0.000	Y_WP:	0.750	X:	0.630	Y:	-0.118	Z:	0.594	yaw:	-1.336	yaw rate:	-60.631	Roll:	18.389	Pitch:	-1.080	Yaw:	5.785	Thrust:	79.270
Time:	2.242	Roll Set Point:	-1.264	Pitch Set Point:	0.210	Yaw Set Point:	0.012	X_WP:	0.000	Y_WP:	0.000	Y_WP:	0.750	X:	0.631	Y:	-0.108	Z:	0.588	yaw:	-0.667	yaw rate:	-66.852	Roll:	18.652	Pitch:	-2.262	Yaw:	7.176	Thrust:	85.780
Time:	2.263	Roll Set Point:	-1.265	Pitch Set Point:	0.197	Yaw Set Point:	0.005	X_WP:	0.000	Y_WP:	0.000	Y_WP:	0.750	X:	0.632	Y:	-0.100	Z:	0.581	yaw:	-0.258	yaw rate:	-40.919	Roll:	19.447	Pitch:	-0.381	Yaw:	4.104	Thrust:	86.240
Time:	2.285	Roll Set Point:	-1.269	Pitch Set Point:	0.175	Yaw Set Point:	0.012	X_WP:	0.000	Y_WP:	0.000	Y_WP:	0.750	X:	0.634	Y:	-0.091	Z:	0.575	yaw:	-0.688	yaw rate:	42.966	Roll:	20.882	Pitch:	7.691	Yaw:	-6.971	Thrust:	91.125
Time:	2.303	Roll Set Point:	-1.274	Pitch Set Point:	0.155	Yaw Set Point:	0.021	X_WP:	0.000	Y_WP:	0.000	Y_WP:	0.750	X:	0.636	Y:	-0.084	Z:	0.567	yaw:	-1.209	yaw rate:	52.055	Roll:	21.641	Pitch:	9.089	Yaw:	-9.716	Thrust:	85.107
Time:	2.323	Roll Set Point:	-1.279	Pitch Set Point:	0.135	Yaw Set Point:	0.029	X_WP:	0.000	Y_WP:	0.000	Y_WP:	0.750	X:	0.639	Y:	-0.077	Z:	0.560	yaw:	-1.663	yaw rate:	45.499	Roll:	21.828	Pitch:	8.220	Yaw:	-8.970	Thrust:	90.770
Time:	2.343	Roll Set Point:	-1.285	Pitch Set Point:	0.123	Yaw Set Point:	0.028	X_WP:	0.000	Y_WP:	0.000	Y_WP:	0.750	X:	0.642	Y:	-0.070	Z:	0.553	yaw:	-1.605	yaw rate:	-5.816	Roll:	22.010	Pitch:	3.010	Yaw:	-2.199	Thrust:	87.833
Time:	2.363	Roll Set Point:	-1.291	Pitch Set Point:	0.123	Yaw Set Point:	0.006	X_WP:	0.000	Y_WP:	0.000	Y_WP:	0.750	X:	0.645	Y:	-0.063	Z:	0.545	yaw:	-0.323	yaw rate:	-128.231	Roll:	21.280	Pitch:	-8.372	Yaw:	15.139	Thrust:	93.004
Time:	2.385	Roll Set Point:	-1.300	Pitch Set Point:	0.095	Yaw Set Point:	0.029	X_WP:	0.000	Y_WP:	0.000	Y_WP:	0.750	X:	0.649	Y:	-0.057	Z:	0.538	yaw:	-1.657	yaw rate:	133.391	Roll:	23.433	Pitch:	15.639	Yaw:	-19.392	Thrust:	95.047
Time:	2.403	Roll Set Point:	-1.304	Pitch Set Point:	0.139	Yaw Set Point:	-0.055	X_WP:	0.000	Y_WP:	0.000	Y_WP:	0.750	X:	0.654	Y:	-0.052	Z:	0.532	yaw:	3.166	yaw rate:	-482.254	Roll:	19.111	Pitch:	-30.000	Yaw:	71.376	Thrust:	87.923
Time:	2.423	Roll Set Point:	-1.317	Pitch Set Point:	0.082	Yaw Set Point:	0.020	X_WP:	0.000	Y_WP:	0.000	Y_WP:	0.750	X:	0.658	Y:	-0.047	Z:	0.525	yaw:	-1.120	yaw rate:	428.579	Roll:	27.255	Pitch:	30.000	Yaw:	-61.662	Thrust:	91.877
Time:	2.445	Roll Set Point:	-1.325	Pitch Set Point:	0.120	Yaw Set Point:	-0.053	X_WP:	0.000	Y_WP:	0.000	Y_WP:	0.750	X:	0.664	Y:	-0.043	Z:	0.519	yaw:	3.009	yaw rate:	-412.961	Roll:	21.533	Pitch:	-30.000	Yaw:	52.982	Thrust:	96.465
Time:	2.463	Roll Set Point:	-1.335	Pitch Set Point:	0.093	Yaw Set Point:	-0.028	X_WP:	0.000	Y_WP:	0.000	Y_WP:	0.750	X:	0.668	Y:	-0.037	Z:	0.512	yaw:	1.588	yaw rate:	142.165	Roll:	25.552	Pitch:	17.552	Yaw:	-18.531	Thrust:	91.436
Time:	2.484	Roll Set Point:	-1.346	Pitch Set Point:	0.082	Yaw Set Point:	-0.024	X_WP:	0.000	Y_WP:	0.000	Y_WP:	0.750	X:	0.674	Y:	-0.033	Z:	0.506	yaw:	1.397	yaw rate:	19.058	Roll:	25.300	Pitch:	3.024	Yaw:	-1.162	Thrust:	97.526
Time:	2.503	Roll Set Point:	-1.359	Pitch Set Point:	0.072	Yaw Set Point:	-0.023	X_WP:	0.000	Y_WP:	0.000	Y_WP:	0.750	X:	0.680	Y:	-0.028	Z:	0.500	yaw:	1.312	yaw rate:	8.479	Roll:	25.755	Pitch:	2.758	Yaw:	-0.019	Thrust:	90.931
Time:	2.523	Roll Set Point:	-0.776	Pitch Set Point:	-0.676	Yaw Set Point:	1.481	X_WP:	0.000	Y_WP:	0.000	Y_WP:	0.750	X:	0.697	Y:	-0.017	Z:	0.498	yaw:	-84.874	yaw rate:	8618.670	Roll:	-30.000	Pitch:	30.000	Yaw:	-1242.876	Thrust:	84.944
Time:	2.542	Roll Set Point:	-1.382	Pitch Set Point:	0.039	Yaw Set Point:	0.009	X_WP:	0.000	Y_WP:	0.000	Y_WP:	0.750	X:	0.691	Y:	-0.023	Z:	0.489	yaw:	-0.535	yaw rate:	-8433.972	Roll:	30.000	Pitch:	-30.000	Yaw:	1161.027	Thrust:	100.000
Time:	2.563	Roll Set Point:	-1.394	Pitch Set Point:	0.016	Yaw Set Point:	0.036	X_WP:	0.000	Y_WP:	0.000	Y_WP:	0.750	X:	0.697	Y:	-0.021	Z:	0.482	yaw:	-2.084	yaw rate:	154.954	Roll:	26.296	Pitch:	17.244	Yaw:	-23.951	Thrust:	99.590
Time:	2.584	Roll Set Point:	-1.407	Pitch Set Point:	0.008	Yaw Set Point:	0.038	X_WP:	0.000	Y_WP:	0.000	Y_WP:	0.750	X:	0.704	Y:	-0.017	Z:	0.476	yaw:	-2.167	yaw rate:	8.313	Roll:	26.535	Pitch:	3.519	Yaw:	-5.451	Thrust:	100.000
Time:	2.603	Roll Set Point:	-1.421	Pitch Set Point:	-0.019	Yaw Set Point:	0.068	X_WP:	0.000	Y_WP:	0.000	Y_WP:	0.750	X:	0.711	Y:	-0.015	Z:	0.471	yaw:	-3.914	yaw rate:	174.631	Roll:	26.870	Pitch:	21.211	Yaw:	-30.629	Thrust:	95.755
Time:	2.622	Roll Set Point:	-1.436	Pitch Set Point:	-0.010	Yaw Set Point:	0.045	X_WP:	0.000	Y_WP:	0.000	Y_WP:	0.750	X:	0.718	Y:	-0.011	Z:	0.465	yaw:	-2.584	yaw rate:	-132.981	Roll:	28.161	Pitch:	-10.932	Yaw:	13.181	Thrust:	98.005
Time:	2.643	Roll Set Point:	-1.449	Pitch Set Point:	-0.038	Yaw Set Point:	0.076	X_WP:	0.000	Y_WP:	0.000	Y_WP:	0.750	X:	0.725	Y:	-0.009	Z:	0.460	yaw:	-4.364	yaw rate:	178.017	Roll:	27.215	Pitch:	21.473	Yaw:	-30.159	Thrust:	100.000
Time:	2.663	Roll Set Point:	-1.465	Pitch Set Point:	-0.046	Yaw Set Point:	0.080	X_WP:	0.000	Y_WP:	0.000	Y_WP:	0.750	X:	0.733	Y:	-0.006	Z:	0.454	yaw:	-4.568	yaw rate:	20.385	Roll:	28.013	Pitch:	5.984	Yaw:	-10.455	Thrust:	100.000
Time:	2.685	Roll Set Point:	-1.483	Pitch Set Point:	-0.018	Yaw Set Point:	0.031	X_WP:	0.000	Y_WP:	0.000	Y_WP:	0.750	X:	0.742	Y:	-0.003	Z:	0.450	yaw:	-1.783	yaw rate:	-278.452	Roll:	30.000	Pitch:	-25.619	Yaw:	29.225	Thrust:	100.000
Time:	2.703	Roll Set Point:	-1.499	Pitch Set Point:	-0.053	Yaw Set Point:	0.075	X_WP:	0.000	Y_WP:	0.000	Y_WP:	0.750	X:	0.751	Y:	-0.002	Z:	0.446	yaw:	-4.276	yaw rate:	249.240	Roll:	28.745	Pitch:	30.000	Yaw:	-42.753	Thrust:	96.000
Time:	2.722	Roll Set Point:	-1.518	Pitch Set Point:	-0.053	Yaw Set Point:	0.069	X_WP:	0.000	Y_WP:	0.000	Y_WP:	0.750	X:	0.760	Y:	0.000	Z:	0.442	yaw:	-3.963	yaw rate:	-31.264	Roll:	30.000	Pitch:	-0.720	Yaw:	-2.726	Thrust:	99.331
Time:	2.744	Roll Set Point:	-1.536	Pitch Set Point:	-0.055	Yaw Set Point:	0.068	X_WP:	0.000	Y_WP:	0.000	Y_WP:	0.750	X:	0.769	Y:	0.001	Z:	0.438	yaw:	-3.881	yaw rate:	-8.185	Roll:	30.000	Pitch:	1.610	Yaw:	-5.892	Thrust:	100.000
Time:	2.763	Roll Set Point:	-1.553	Pitch Set Point:	-0.058	Yaw Set Point:	0.068	X_WP:	0.000	Y_WP:	0.000	Y_WP:	0.750	X:	0.778	Y:	0.003	Z:	0.435	yaw:	-3.874	yaw rate:	-0.750	Roll:	30.000	Pitch:	2.305	Yaw:	-6.860	Thrust:	100.000
Time:	2.784	Roll Set Point:	-1.570	Pitch Set Point:	-0.058	Yaw Set Point:	0.065	X_WP:	0.000	Y_WP:	0.000	Y_WP:	0.750	X:	0.786	Y:	0.004	Z:	0.432	yaw:	-3.714	yaw rate:	-15.977	Roll:	30.000	Pitch:	0.304	Yaw:	-4.856	Thrust:	100.000
Time:	2.803	Roll Set Point:	-1.586	Pitch Set Point:	-0.060	Yaw Set Point:	0.065	X_WP:	0.000	Y_WP:	0.000	Y_WP:	0.750	X:	0.794	Y:	0.004	Z:	0.428	yaw:	-3.700	yaw rate:	-1.435	Roll:	30.000	Pitch:	1.840	Yaw:	-6.504	Thrust:	98.648
Time:	2.822	Roll Set Point:	-1.602	Pitch Set Point:	-0.062	Yaw Set Point:	0.064	X_WP:	0.000	Y_WP:	0.000	Y_WP:	0.750	X:	0.802	Y:	0.005	Z:	0.425	yaw:	-3.678	yaw rate:	-2.127	Roll:	30.000	Pitch:	1.881	Yaw:	-6.402	Thrust:	100.000
Time:	2.843	Roll Set Point:	-1.617	Pitch Set Point:	-0.063	Yaw Set Point:	0.064	X_WP:	0.000	Y_WP:	0.000	Y_WP:	0.750	X:	0.809	Y:	0.006	Z:	0.422	yaw:	-3.668	yaw rate:	-1.065	Roll:	30.000	Pitch:	1.737	Yaw:	-6.669	Thrust:	100.000
Time:	2.863	Roll Set Point:	-1.631	Pitch Set Point:	-0.062	Yaw Set Point:	0.061	X_WP:	0.000	Y_WP:	0.000	Y_WP:	0.750	X:	0.816	Y:	0.006	Z:	0.420	yaw:	-3.514	yaw rate:	-15.343	Roll:	30.000	Pitch:	-0.096	Yaw:	-4.674	Thrust:	100.000
Time:	2.885	Roll Set Point:	-1.643	Pitch Set Point:	-0.071	Yaw Set Point:	0.069	X_WP:	0.000	Y_WP:	0.000	Y_WP:	0.750	X:	0.823	Y:	0.007	Z:	0.418	yaw:	-3.950	yaw rate:	43.565	Roll:	29.460	Pitch:	7.204	Yaw:	-12.652	Thrust:	100.000
Time:	2.904	Roll Set Point:	-1.657	Pitch Set Point:	-0.037	Yaw Set Point:	0.021	X_WP:	0.000	Y_WP:	0.000	Y_WP:	0.750	X:	0.828	Y:	0.010	Z:	0.414	yaw:	-1.223	yaw rate:	-272.657	Roll:	30.000	Pitch:	-30.000	Yaw:	35.848	Thrust:	100.000
Time:	2.923	Roll Set Point:	-1.653	Pitch Set Point:	-0.166	Yaw Set Point:	0.181	X_WP:	0.000	Y_WP:	0.000	Y_WP:	0.750	X:	0.834	Y:	0.008	Z:	0.418	yaw:	-10.382	yaw rate:	915.919	Roll:	16.674	Pitch:	30.000	Yaw:	-140.616	Thrust:	88.819
Time:	2.943	Roll Set Point:	-1.674	Pitch Set Point:	-0.090	Yaw Set Point:	0.082	X_WP:	0.000	Y_WP:	0.000	Y_WP:	0.750	X:	0.839	Y:	0.011	Z:	0.412	yaw:	-4.676	yaw rate:	-570.696	Roll:	30.000	Pitch:	-30.000	Yaw:	64.954	Thrust:	100.000
Time:	2.964	Roll Set Point:	-1.677	Pitch Set Point:	-0.147	Yaw Set Point:	0.146	X_WP:	0.000	Y_WP:	0.000	Y_WP:	0.750	X:	0.844	Y:	0.012	Z:	0.411	yaw:	-8.352	yaw rate:	367.626	Roll:	23.135	Pitch:	30.000	Yaw:	-59.379	Thrust:	100.000
Time:	2.984	Roll Set Point:	-1.696	Pitch Set Point:	-0.034	Yaw Set Point:	0.010	X_WP:	0.000	Y_WP:	0.000	Y_WP:	0.750	X:	0.848	Y:	0.013	Z:	0.409	yaw:	-0.547	yaw rate:	-780.473	Roll:	30.000	Pitch:	-30.000	Yaw:	99.284	Thrust:	100.000
Time:	3.003	Roll Set Point:	-1.699	Pitch Set Point:	-0.086	Yaw Set Point:	0.074	X_WP:	0.000	Y_WP:	0.000	Y_WP:	0.750	X:	0.851	Y:	0.012	Z:	0.411	yaw:	-4.260	yaw rate:	371.255	Roll:	25.446	Pitch:	30.000	Yaw:	-58.775	Thrust:	94.725
Time:	3.023	Roll Set Point:	-1.705	Pitch Set Point:	-0.087	Yaw Set Point:	0.075	X_WP:	0.000	Y_WP:	0.000	Y_WP:	0.750	X:	0.854	Y:	0.012	Z:	0.410	yaw:	-4.304	yaw rate:	4.460	Roll:	27.873	Pitch:	2.260	Yaw:	-8.525	Thrust:	100.000
Time:	3.043	Roll Set Point:	-1.709	Pitch Set Point:	-0.087	Yaw Set Point:	0.074	X_WP:	0.000	Y_WP:	0.000	Y_WP:	0.750	X:	0.856	Y:	0.012	Z:	0.410	yaw:	-4.267	yaw rate:	-3.673	Roll:	27.138	Pitch:	1.501	Yaw:	-7.493	Thrust:	100.000
Time:	3.064	Roll Set Point:	-1.711	Pitch Set Point:	-0.091	Yaw Set Point:	0.078	X_WP:	0.000	Y_WP:	0.000	Y_WP:	0.750	X:	0.857	Y:	0.012	Z:	0.409	yaw:	-4.470	yaw rate:	20.289	Roll:	26.261	Pitch:	4.143	Yaw:	-10.871	Thrust:	100.000
Time:	3.084	Roll Set Point:	-1.712	Pitch Set Point:	-0.094	Yaw Set Point:	0.082	X_WP:	0.000	Y_WP:	0.000	Y_WP:	0.750	X:	0.858	Y:	0.012	Z:	0.409	yaw:	-4.692	yaw rate:	22.123	Roll:	25.725	Pitch:	4.555	Yaw:	-11.446	Thrust:	100.000
Time:	3.103	Roll Set Point:	-1.712	Pitch Set Point:	-0.103	Yaw Set Point:	0.093	X_WP:	0.000	Y_WP:	0.000	Y_WP:	0.750	X:	0.859	Y:	0.012	Z:	0.409	yaw:	-5.311	yaw rate:	61.951	Roll:	25.361	Pitch:	10.166	Yaw:	-18.069	Thrust:	100.000
Time:	3.123	Roll Set Point:	-1.714	Pitch Set Point:	-0.107	Yaw Set Point:	0.098	X_WP:	0.000	Y_WP:	0.000	Y_WP:	0.750	X:	0.860	Y:	0.012	Z:	0.408	yaw:	-5.621	yaw rate:	30.950	Roll:	25.934	Pitch:	6.117	Yaw:	-14.005	Thrust:	100.000
Time:	3.143	Roll Set Point:	-1.716	Pitch Set Point:	-0.114	Yaw Set Point:	0.106	X_WP:	0.000	Y_WP:	0.000	Y_WP:	0.750	X:	0.861	Y:	0.011	Z:	0.408	yaw:	-6.095	yaw rate:	47.453	Roll:	26.077	Pitch:	7.913	Yaw:	-16.861	Thrust:	100.000
Time:	3.163	Roll Set Point:	-1.719	Pitch Set Point:	-0.115	Yaw Set Point:	0.109	X_WP:	0.000	Y_WP:	0.000	Y_WP:	0.750	X:	0.863	Y:	0.011	Z:	0.408	yaw:	-6.228	yaw rate:	13.294	Roll:	26.862	Pitch:	4.064	Yaw:	-12.613	Thrust:	100.000
Time:	3.187	Roll Set Point:	-1.722	Pitch Set Point:	-0.118	Yaw Set Point:	0.111	X_WP:	0.000	Y_WP:	0.000	Y_WP:	0.750	X:	0.865	Y:	0.011	Z:	0.408	yaw:	-6.388	yaw rate:	16.016	Roll:	26.894	Pitch:	4.248	Yaw:	-13.319	Thrust:	100.000
Time:	3.203	Roll Set Point:	-1.726	Pitch Set Point:	-0.120	Yaw Set Point:	0.115	X_WP:	0.000	Y_WP:	0.000	Y_WP:	0.750	X:	0.867	Y:	0.011	Z:	0.407	yaw:	-6.583	yaw rate:	19.430	Roll:	27.188	Pitch:	5.478	Yaw:	-14.168	Thrust:	99.670
Time:	3.223	Roll Set Point:	-1.730	Pitch Set Point:	-0.123	Yaw Set Point:	0.119	X_WP:	0.000	Y_WP:	0.000	Y_WP:	0.750	X:	0.869	Y:	0.010	Z:	0.407	yaw:	-6.810	yaw rate:	22.763	Roll:	27.061	Pitch:	5.407	Yaw:	-14.798	Thrust:	100.000
Time:	3.243	Roll Set Point:	-1.733	Pitch Set Point:	-0.125	Yaw Set Point:	0.122	X_WP:	0.000	Y_WP:	0.000	Y_WP:	0.750	X:	0.870	Y:	0.009	Z:	0.407	yaw:	-6.986	yaw rate:	17.620	Roll:	27.116	Pitch:	4.731	Yaw:	-14.416	Thrust:	100.000
Time:	3.263	Roll Set Point:	-1.736	Pitch Set Point:	-0.126	Yaw Set Point:	0.124	X_WP:	0.000	Y_WP:	0.000	Y_WP:	0.750	X:	0.872	Y:	0.009	Z:	0.407	yaw:	-7.128	yaw rate:	14.148	Roll:	27.046	Pitch:	4.209	Yaw:	-14.226	Thrust:	100.000
Time:	3.283	Roll Set Point:	-0.069	Pitch Set Point:	-0.346	Yaw Set Point:	2.734	X_WP:	0.000	Y_WP:	0.000	Y_WP:	0.750	X:	0.871	Y:	0.007	Z:	0.401	yaw:	-156.649	yaw rate:	14952.159	Roll:	-30.000	Pitch:	30.000	Yaw:	-2215.043	Thrust:	100.000
Time:	3.303	Roll Set Point:	-0.074	Pitch Set Point:	-0.358	Yaw Set Point:	2.720	X_WP:	0.000	Y_WP:	0.000	Y_WP:	0.750	X:	0.873	Y:	0.006	Z:	0.401	yaw:	-155.837	yaw rate:	-81.279	Roll:	-19.115	Pitch:	20.280	Yaw:	-210.538	Thrust:	100.000
Time:	3.323	Roll Set Point:	-0.071	Pitch Set Point:	-0.351	Yaw Set Point:	2.729	X_WP:	0.000	Y_WP:	0.000	Y_WP:	0.750	X:	0.874	Y:	0.006	Z:	0.400	yaw:	-156.364	yaw rate:	52.728	Roll:	-25.952	Pitch:	3.863	Yaw:	-229.238	Thrust:	100.000
Time:	3.343	Roll Set Point:	-0.075	Pitch Set Point:	-0.360	Yaw Set Point:	2.717	X_WP:	0.000	Y_WP:	0.000	Y_WP:	0.750	X:	0.875	Y:	0.005	Z:	0.400	yaw:	-155.699	yaw rate:	-66.464	Roll:	-19.648	Pitch:	18.609	Yaw:	-212.537	Thrust:	100.000
Time:	3.363	Roll Set Point:	-0.077	Pitch Set Point:	-0.362	Yaw Set Point:	2.715	X_WP:	0.000	Y_WP:	0.000	Y_WP:	0.750	X:	0.875	Y:	0.005	Z:	0.400	yaw:	-155.566	yaw rate:	-13.339	Roll:	-22.230	Pitch:	11.956	Yaw:	-219.467	Thrust:	100.000
Time:	3.385	Roll Set Point:	-0.078	Pitch Set Point:	-0.366	Yaw Set Point:	2.711	X_WP:	0.000	Y_WP:	0.000	Y_WP:	0.750	X:	0.876	Y:	0.004	Z:	0.400	yaw:	-155.322	yaw rate:	-24.393	Roll:	-22.040	Pitch:	13.373	Yaw:	-218.309	Thrust:	100.000
Time:	3.405	Roll Set Point:	-0.060	Pitch Set Point:	-0.323	Yaw Set Point:	2.765	X_WP:	0.000	Y_WP:	0.000	Y_WP:	0.750	X:	0.877	Y:	0.003	Z:	0.399	yaw:	-158.402	yaw rate:	308.010	Roll:	-30.000	Pitch:	-26.244	Yaw:	-265.253	Thrust:	100.000
Time:	3.422	Roll Set Point:	-0.057	Pitch Set Point:	-0.313	Yaw Set Point:	2.777	X_WP:	0.000	Y_WP:	0.000	Y_WP:	0.750	X:	0.878	Y:	0.003	Z:	0.399	yaw:	-159.095	yaw rate:	69.335	Roll:	-27.868	Pitch:	0.270	Yaw:	-235.981	Thrust:	100.000
Time:	3.443	Roll Set Point:	-0.055	Pitch Set Point:	-0.307	Yaw Set Point:	2.785	X_WP:	0.000	Y_WP:	0.000	Y_WP:	0.750	X:	0.879	Y:	0.002	Z:	0.399	yaw:	-159.542	yaw rate:	44.613	Roll:	-26.377	Pitch:	3.934	Yaw:	-232.560	Thrust:	100.000
Time:	3.463	Roll Set Point:	-0.063	Pitch Set Point:	-0.330	Yaw Set Point:	2.758	X_WP:	0.000	Y_WP:	0.000	Y_WP:	0.750	X:	0.881	Y:	0.001	Z:	0.398	yaw:	-158.037	yaw rate:	-150.487	Roll:	-17.485	Pitch:	28.383	Yaw:	-205.040	Thrust:	100.000
Time:	3.485	Roll Set Point:	-0.059	Pitch Set Point:	-0.318	Yaw Set Point:	2.774	X_WP:	0.000	Y_WP:	0.000	Y_WP:	0.750	X:	0.883	Y:	0.001	Z:	0.398	yaw:	-158.916	yaw rate:	87.947	Roll:	-28.449	Pitch:	-0.529	Yaw:	-236.683	Thrust:	100.000
Time:	3.503	Roll Set Point:	-0.057	Pitch Set Point:	-0.314	Yaw Set Point:	2.779	X_WP:	0.000	Y_WP:	0.000	Y_WP:	0.750	X:	0.884	Y:	0.001	Z:	0.398	yaw:	-159.209	yaw rate:	29.337	Roll:	-26.543	Pitch:	5.371	Yaw:	-230.181	Thrust:	100.000
Time:	3.523	Roll Set Point:	-0.062	Pitch Set Point:	-0.327	Yaw Set Point:	2.763	X_WP:	0.000	Y_WP:	0.000	Y_WP:	0.750	X:	0.886	Y:	0.001	Z:	0.398	yaw:	-158.327	yaw rate:	-88.285	Roll:	-20.709	Pitch:	21.064	Yaw:	-213.621	Thrust:	100.000
Time:	3.550	Roll Set Point:	-0.055	Pitch Set Point:	-0.309	Yaw Set Point:	2.786	X_WP:	0.000	Y_WP:	0.000	Y_WP:	0.750	X:	0.887	Y:	0.001	Z:	0.398	yaw:	-159.604	yaw rate:	127.728	Roll:	-28.966	Pitch:	-2.693	Yaw:	-240.661	Thrust:	100.000
Time:	3.563	Roll Set Point:	-0.058	Pitch Set Point:	-0.317	Yaw Set Point:	2.777	X_WP:	0.000	Y_WP:	0.000	Y_WP:	0.750	X:	0.889	Y:	0.001	Z:	0.398	yaw:	-159.127	yaw rate:	-47.681	Roll:	-22.357	Pitch:	18.848	Yaw:	-215.298	Thrust:	90.476
Time:	3.585	Roll Set Point:	-0.059	Pitch Set Point:	-0.320	Yaw Set Point:	2.774	X_WP:	0.000	Y_WP:	0.000	Y_WP:	0.750	X:	0.890	Y:	0.001	Z:	0.398	yaw:	-158.911	yaw rate:	-21.584	Roll:	-24.114	Pitch:	11.757	Yaw:	-223.651	Thrust:	100.000
Time:	3.603	Roll Set Point:	-0.054	Pitch Set Point:	-0.308	Yaw Set Point:	2.789	X_WP:	0.000	Y_WP:	0.000	Y_WP:	0.750	X:	0.891	Y:	0.001	Z:	0.398	yaw:	-159.812	yaw rate:	90.071	Roll:	-29.220	Pitch:	-2.734	Yaw:	-239.576	Thrust:	100.000
Time:	3.624	Roll Set Point:	-0.057	Pitch Set Point:	-0.316	Yaw Set Point:	2.780	X_WP:	0.000	Y_WP:	0.000	Y_WP:	0.750	X:	0.892	Y:	0.001	Z:	0.398	yaw:	-159.264	yaw rate:	-54.804	Roll:	-22.456	Pitch:	16.273	Yaw:	-219.408	Thrust:	100.000
Time:	3.643	Roll Set Point:	-0.063	Pitch Set Point:	-0.331	Yaw Set Point:	2.762	X_WP:	0.000	Y_WP:	0.000	Y_WP:	0.750	X:	0.893	Y:	0.001	Z:	0.398	yaw:	-158.229	yaw rate:	-103.503	Roll:	-19.436	Pitch:	22.418	Yaw:	-210.593	Thrust:	100.000
Time:	3.664	Roll Set Point:	-0.061	Pitch Set Point:	-0.325	Yaw Set Point:	2.770	X_WP:	0.000	Y_WP:	0.000	Y_WP:	0.750	X:	0.894	Y:	0.000	Z:	0.398	yaw:	-158.685	yaw rate:	45.601	Roll:	-26.516	Pitch:	3.953	Yaw:	-231.445	Thrust:	100.000
Time:	3.684	Roll Set Point:	-1.830	Pitch Set Point:	-0.062	Yaw Set Point:	0.033	X_WP:	0.000	Y_WP:	0.000	Y_WP:	0.750	X:	0.916	Y:	0.016	Z:	0.406	yaw:	-1.869	yaw rate:	-15681.611	Roll:	30.000	Pitch:	-30.000	Yaw:	2129.159	Thrust:	100.000
Time:	3.703	Roll Set Point:	-1.652	Pitch Set Point:	-0.495	Yaw Set Point:	0.566	X_WP:	0.000	Y_WP:	0.000	Y_WP:	0.750	X:	0.898	Y:	0.007	Z:	0.408	yaw:	-32.453	yaw rate:	3058.413	Roll:	-30.000	Pitch:	30.000	Yaw:	-458.164	Thrust:	100.000
Time:	3.724	Roll Set Point:	-1.629	Pitch Set Point:	-0.529	Yaw Set Point:	0.613	X_WP:	0.000	Y_WP:	0.000	Y_WP:	0.750	X:	0.898	Y:	0.007	Z:	0.408	yaw:	-35.149	yaw rate:	269.606	Roll:	0.998	Pitch:	30.000	Yaw:	-87.951	Thrust:	100.000
Time:	3.743	Roll Set Point:	-1.612	Pitch Set Point:	-0.551	Yaw Set Point:	0.645	X_WP:	0.000	Y_WP:	0.000	Y_WP:	0.750	X:	0.898	Y:	0.006	Z:	0.408	yaw:	-36.960	yaw rate:	181.136	Roll:	6.424	Pitch:	30.000	Yaw:	-79.425	Thrust:	100.000
Time:	3.763	Roll Set Point:	-0.347	Pitch Set Point:	0.713	Yaw Set Point:	-2.224	X_WP:	0.000	Y_WP:	0.000	Y_WP:	0.750	X:	0.895	Y:	-0.005	Z:	0.398	yaw:	127.436	yaw rate:	-16439.665	Roll:	-30.000	Pitch:	-30.000	Yaw:	2374.662	Thrust:	100.000
Time:	3.785	Roll Set Point:	-0.349	Pitch Set Point:	0.714	Yaw Set Point:	-2.221	X_WP:	0.000	Y_WP:	0.000	Y_WP:	0.750	X:	0.895	Y:	-0.005	Z:	0.398	yaw:	127.264	yaw rate:	17.217	Roll:	-14.231	Pitch:	-21.727	Yaw:	172.212	Thrust:	100.000
Time:	3.803	Roll Set Point:	-0.358	Pitch Set Point:	0.722	Yaw Set Point:	-2.208	X_WP:	0.000	Y_WP:	0.000	Y_WP:	0.750	X:	0.895	Y:	-0.006	Z:	0.398	yaw:	126.498	yaw rate:	76.593	Roll:	-7.322	Pitch:	-27.200	Yaw:	163.423	Thrust:	100.000
Time:	3.823	Roll Set Point:	-0.358	Pitch Set Point:	0.722	Yaw Set Point:	-2.208	X_WP:	0.000	Y_WP:	0.000	Y_WP:	0.750	X:	0.895	Y:	-0.006	Z:	0.397	yaw:	126.490	yaw rate:	0.784	Roll:	-15.680	Pitch:	-21.562	Yaw:	175.147	Thrust:	100.000
Time:	3.843	Roll Set Point:	-0.348	Pitch Set Point:	0.714	Yaw Set Point:	-2.222	X_WP:	0.000	Y_WP:	0.000	Y_WP:	0.750	X:	0.895	Y:	-0.005	Z:	0.397	yaw:	127.312	yaw rate:	-82.207	Roll:	-24.334	Pitch:	-14.244	Yaw:	188.186	Thrust:	100.000
Time:	3.863	Roll Set Point:	-0.361	Pitch Set Point:	0.724	Yaw Set Point:	-2.204	X_WP:	0.000	Y_WP:	0.000	Y_WP:	0.750	X:	0.895	Y:	-0.005	Z:	0.397	yaw:	126.303	yaw rate:	100.955	Roll:	-5.418	Pitch:	-29.480	Yaw:	163.814	Thrust:	100.000
Time:	3.886	Roll Set Point:	-0.358	Pitch Set Point:	0.721	Yaw Set Point:	-2.210	X_WP:	0.000	Y_WP:	0.000	Y_WP:	0.750	X:	0.896	Y:	-0.005	Z:	0.397	yaw:	126.601	yaw rate:	-29.826	Roll:	-18.720	Pitch:	-19.414	Yaw:	181.690	Thrust:	100.000
Time:	3.903	Roll Set Point:	-0.360	Pitch Set Point:	0.723	Yaw Set Point:	-2.207	X_WP:	0.000	Y_WP:	0.000	Y_WP:	0.750	X:	0.896	Y:	-0.005	Z:	0.397	yaw:	126.438	yaw rate:	16.328	Roll:	-13.569	Pitch:	-22.680	Yaw:	175.744	Thrust:	100.000
Time:	3.923	Roll Set Point:	-0.359	Pitch Set Point:	0.722	Yaw Set Point:	-2.209	X_WP:	0.000	Y_WP:	0.000	Y_WP:	0.750	X:	0.896	Y:	-0.005	Z:	0.397	yaw:	126.539	yaw rate:	-10.117	Roll:	-16.806	Pitch:	-20.586	Yaw:	180.005	Thrust:	100.000
Time:	3.943	Roll Set Point:	-0.358	Pitch Set Point:	0.721	Yaw Set Point:	-2.210	X_WP:	0.000	Y_WP:	0.000	Y_WP:	0.750	X:	0.896	Y:	-0.004	Z:	0.397	yaw:	126.634	yaw rate:	-9.512	Roll:	-16.795	Pitch:	-20.702	Yaw:	180.008	Thrust:	100.000
Time:	3.964	Roll Set Point:	-0.359	Pitch Set Point:	0.722	Yaw Set Point:	-2.209	X_WP:	0.000	Y_WP:	0.000	Y_WP:	0.750	X:	0.896	Y:	-0.004	Z:	0.397	yaw:	126.587	yaw rate:	4.687	Roll:	-15.234	Pitch:	-21.998	Yaw:	178.383	Thrust:	100.000
Time:	3.985	Roll Set Point:	-0.358	Pitch Set Point:	0.721	Yaw Set Point:	-2.211	X_WP:	0.000	Y_WP:	0.000	Y_WP:	0.750	X:	0.897	Y:	-0.004	Z:	0.398	yaw:	126.677	yaw rate:	-9.016	Roll:	-16.528	Pitch:	-21.300	Yaw:	180.129	Thrust:	100.000
Time:	4.004	Roll Set Point:	-1.800	Pitch Set Point:	0.052	Yaw Set Point:	-0.063	X_WP:	0.000	Y_WP:	0.000	Y_WP:	0.750	X:	0.901	Y:	0.002	Z:	0.400	yaw:	3.586	yaw rate:	12309.135	Roll:	30.000	Pitch:	30.000	Yaw:	-1677.935	Thrust:	100.000
Time:	4.024	Roll Set Point:	-0.403	Pitch Set Point:	0.743	Yaw Set Point:	-2.164	X_WP:	0.000	Y_WP:	0.000	Y_WP:	0.750	X:	0.900	Y:	0.007	Z:	0.402	yaw:	123.988	yaw rate:	-12040.229	Roll:	-30.000	Pitch:	-30.000	Yaw:	1753.439	Thrust:	100.000
Time:	4.044	Roll Set Point:	-0.406	Pitch Set Point:	0.746	Yaw Set Point:	-2.161	X_WP:	0.000	Y_WP:	0.000	Y_WP:	0.750	X:	0.902	Y:	0.008	Z:	0.402	yaw:	123.840	yaw rate:	14.877	Roll:	-13.316	Pitch:	-25.398	Yaw:	172.974	Thrust:	100.000
Time:	4.065	Roll Set Point:	-0.401	Pitch Set Point:	0.742	Yaw Set Point:	-2.172	X_WP:	0.000	Y_WP:	0.000	Y_WP:	0.750	X:	0.905	Y:	0.009	Z:	0.402	yaw:	124.444	yaw rate:	-60.480	Roll:	-21.519	Pitch:	-20.521	Yaw:	183.433	Thrust:	100.000
Time:	4.086	Roll Set Point:	-0.307	Pitch Set Point:	0.679	Yaw Set Point:	-2.294	X_WP:	0.000	Y_WP:	0.000	Y_WP:	0.750	X:	0.906	Y:	0.001	Z:	0.397	yaw:	131.429	yaw rate:	-698.446	Roll:	-30.000	Pitch:	30.000	Yaw:	273.777	Thrust:	100.000
Time:	4.104	Roll Set Point:	-0.318	Pitch Set Point:	0.688	Yaw Set Point:	-2.280	X_WP:	0.000	Y_WP:	0.000	Y_WP:	0.750	X:	0.907	Y:	0.002	Z:	0.397	yaw:	130.620	yaw rate:	80.899	Roll:	-8.861	Pitch:	-30.000	Yaw:	172.591	Thrust:	100.000
Time:	4.124	Roll Set Point:	-0.344	Pitch Set Point:	0.711	Yaw Set Point:	-2.242	X_WP:	0.000	Y_WP:	0.000	Y_WP:	0.750	X:	0.908	Y:	0.001	Z:	0.397	yaw:	128.441	yaw rate:	217.875	Roll:	5.333	Pitch:	-30.000	Yaw:	153.090	Thrust:	100.000
Time:	4.143	Roll Set Point:	-0.370	Pitch Set Point:	0.730	Yaw Set Point:	-2.206	X_WP:	0.000	Y_WP:	0.000	Y_WP:	0.750	X:	0.907	Y:	0.001	Z:	0.397	yaw:	126.410	yaw rate:	203.115	Roll:	6.172	Pitch:	-30.000	Yaw:	150.028	Thrust:	100.000
Time:	4.164	Roll Set Point:	-0.369	Pitch Set Point:	0.729	Yaw Set Point:	-2.206	X_WP:	0.000	Y_WP:	0.000	Y_WP:	0.750	X:	0.907	Y:	0.001	Z:	0.397	yaw:	126.410	yaw rate:	0.014	Roll:	-15.756	Pitch:	-21.476	Yaw:	178.613	Thrust:	100.000
Time:	4.185	Roll Set Point:	-0.402	Pitch Set Point:	0.746	Yaw Set Point:	-2.171	X_WP:	0.000	Y_WP:	0.000	Y_WP:	0.750	X:	0.908	Y:	0.008	Z:	0.400	yaw:	124.379	yaw rate:	203.080	Roll:	10.037	Pitch:	-30.000	Yaw:	150.486	Thrust:	100.000
Time:	4.204	Roll Set Point:	-1.815	Pitch Set Point:	0.078	Yaw Set Point:	-0.106	X_WP:	0.000	Y_WP:	0.000	Y_WP:	0.750	X:	0.910	Y:	0.009	Z:	0.399	yaw:	6.072	yaw rate:	11830.722	Roll:	30.000	Pitch:	30.000	Yaw:	-1648.712	Thrust:	100.000
Time:	4.223	Roll Set Point:	-1.822	Pitch Set Point:	0.042	Yaw Set Point:	-0.061	X_WP:	0.000	Y_WP:	0.000	Y_WP:	0.750	X:	0.911	Y:	0.007	Z:	0.400	yaw:	3.523	yaw rate:	254.845	Roll:	29.989	Pitch:	30.000	Yaw:	-28.911	Thrust:	100.000
Time:	4.243	Roll Set Point:	-1.823	Pitch Set Point:	0.037	Yaw Set Point:	-0.055	X_WP:	0.000	Y_WP:	0.000	Y_WP:	0.750	X:	0.912	Y:	0.007	Z:	0.400	yaw:	3.160	yaw rate:	36.340	Roll:	26.850	Pitch:	2.485	Yaw:	1.732	Thrust:	100.000
Time:	4.263	Roll Set Point:	-1.823	Pitch Set Point:	0.031	Yaw Set Point:	-0.049	X_WP:	0.000	Y_WP:	0.000	Y_WP:	0.750	X:	0.912	Y:	0.007	Z:	0.400	yaw:	2.818	yaw rate:	34.202	Roll:	26.154	Pitch:	2.811	Yaw:	1.628	Thrust:	100.000
Time:	4.286	Roll Set Point:	-1.823	Pitch Set Point:	0.036	Yaw Set Point:	-0.054	X_WP:	0.000	Y_WP:	0.000	Y_WP:	0.750	X:	0.912	Y:	0.007	Z:	0.399	yaw:	3.095	yaw rate:	-27.674	Roll:	25.981	Pitch:	-5.281	Yaw:	9.780	Thrust:	100.000
Time:	4.304	Roll Set Point:	-1.823	Pitch Set Point:	0.026	Yaw Set Point:	-0.043	X_WP:	0.000	Y_WP:	0.000	Y_WP:	0.750	X:	0.912	Y:	0.007	Z:	0.400	yaw:	2.477	yaw rate:	61.726	Roll:	26.636	Pitch:	7.731	Yaw:	-3.883	Thrust:	100.000
Time:	4.323	Roll Set Point:	-1.823	Pitch Set Point:	0.027	Yaw Set Point:	-0.046	X_WP:	0.000	Y_WP:	0.000	Y_WP:	0.750	X:	0.912	Y:	0.007	Z:	0.399	yaw:	2.616	yaw rate:	-13.896	Roll:	26.331	Pitch:	-3.290	Yaw:	7.469	Thrust:	100.000
Time:	4.342	Roll Set Point:	-1.822	Pitch Set Point:	0.034	Yaw Set Point:	-0.052	X_WP:	0.000	Y_WP:	0.000	Y_WP:	0.750	X:	0.912	Y:	0.007	Z:	0.399	yaw:	2.969	yaw rate:	-35.268	Roll:	25.790	Pitch:	-7.250	Yaw:	10.946	Thrust:	100.000
Time:	4.362	Roll Set Point:	-1.823	Pitch Set Point:	0.040	Yaw Set Point:	-0.059	X_WP:	0.000	Y_WP:	0.000	Y_WP:	0.750	X:	0.912	Y:	0.006	Z:	0.399	yaw:	3.354	yaw rate:	-38.514	Roll:	26.296	Pitch:	-7.593	Yaw:	11.635	Thrust:	100.000
Time:	4.384	Roll Set Point:	-1.823	Pitch Set Point:	0.021	Yaw Set Point:	-0.037	X_WP:	0.000	Y_WP:	0.000	Y_WP:	0.750	X:	0.912	Y:	0.006	Z:	0.399	yaw:	2.099	yaw rate:	125.505	Roll:	26.949	Pitch:	14.595	Yaw:	-10.246	Thrust:	100.000
Time:	4.402	Roll Set Point:	-1.822	Pitch Set Point:	0.036	Yaw Set Point:	-0.054	X_WP:	0.000	Y_WP:	0.000	Y_WP:	0.750	X:	0.912	Y:	0.007	Z:	0.400	yaw:	3.106	yaw rate:	-100.717	Roll:	25.908	Pitch:	-15.853	Yaw:	20.361	Thrust:	100.000
Time:	4.423	Roll Set Point:	-1.823	Pitch Set Point:	0.028	Yaw Set Point:	-0.045	X_WP:	0.000	Y_WP:	0.000	Y_WP:	0.750	X:	0.912	Y:	0.006	Z:	0.399	yaw:	2.579	yaw rate:	52.725	Roll:	26.911	Pitch:	5.172	Yaw:	-1.715	Thrust:	100.000
Time:	4.444	Roll Set Point:	-1.823	Pitch Set Point:	0.029	Yaw Set Point:	-0.046	X_WP:	0.000	Y_WP:	0.000	Y_WP:	0.750	X:	0.912	Y:	0.006	Z:	0.399	yaw:	2.613	yaw rate:	-3.351	Roll:	26.521	Pitch:	-2.249	Yaw:	6.247	Thrust:	100.000
Time:	4.464	Roll Set Point:	-1.823	Pitch Set Point:	0.029	Yaw Set Point:	-0.046	X_WP:	0.000	Y_WP:	0.000	Y_WP:	0.750	X:	0.912	Y:	0.006	Z:	0.399	yaw:	2.658	yaw rate:	-4.493	Roll:	26.550	Pitch:	-2.384	Yaw:	6.266	Thrust:	100.000
Time:	4.485	Roll Set Point:	-1.823	Pitch Set Point:	0.035	Yaw Set Point:	-0.053	X_WP:	0.000	Y_WP:	0.000	Y_WP:	0.750	X:	0.912	Y:	0.007	Z:	0.400	yaw:	3.035	yaw rate:	-37.755	Roll:	26.367	Pitch:	-6.505	Yaw:	10.893	Thrust:	100.000
Time:	4.504	Roll Set Point:	-1.823	Pitch Set Point:	0.033	Yaw Set Point:	-0.051	X_WP:	0.000	Y_WP:	0.000	Y_WP:	0.750	X:	0.912	Y:	0.006	Z:	0.399	yaw:	2.894	yaw rate:	14.094	Roll:	26.902	Pitch:	-0.148	Yaw:	3.803	Thrust:	100.000
Time:	4.525	Roll Set Point:	-1.823	Pitch Set Point:	0.028	Yaw Set Point:	-0.045	X_WP:	0.000	Y_WP:	0.000	Y_WP:	0.750	X:	0.912	Y:	0.006	Z:	0.399	yaw:	2.586	yaw rate:	30.812	Roll:	26.841	Pitch:	2.276	Yaw:	1.886	Thrust:	100.000
Time:	4.543	Roll Set Point:	-1.823	Pitch Set Point:	0.028	Yaw Set Point:	-0.045	X_WP:	0.000	Y_WP:	0.000	Y_WP:	0.750	X:	0.912	Y:	0.006	Z:	0.399	yaw:	2.558	yaw rate:	2.823	Roll:	26.753	Pitch:	-1.249	Yaw:	5.062	Thrust:	100.000
Time:	4.563	Roll Set Point:	-1.823	Pitch Set Point:	0.028	Yaw Set Point:	-0.045	X_WP:	0.000	Y_WP:	0.000	Y_WP:	0.750	X:	0.912	Y:	0.006	Z:	0.399	yaw:	2.578	yaw rate:	-1.992	Roll:	26.795	Pitch:	-2.060	Yaw:	5.817	Thrust:	100.000
Time:	4.587	Roll Set Point:	-1.823	Pitch Set Point:	0.029	Yaw Set Point:	-0.046	X_WP:	0.000	Y_WP:	0.000	Y_WP:	0.750	X:	0.912	Y:	0.006	Z:	0.399	yaw:	2.629	yaw rate:	-5.123	Roll:	26.861	Pitch:	-2.447	Yaw:	6.549	Thrust:	100.000
Time:	4.603	Roll Set Point:	-1.823	Pitch Set Point:	0.029	Yaw Set Point:	-0.045	X_WP:	0.000	Y_WP:	0.000	Y_WP:	0.750	X:	0.912	Y:	0.006	Z:	0.399	yaw:	2.596	yaw rate:	3.338	Roll:	26.893	Pitch:	-1.311	Yaw:	4.827	Thrust:	100.000
Time:	4.623	Roll Set Point:	-1.823	Pitch Set Point:	0.028	Yaw Set Point:	-0.045	X_WP:	0.000	Y_WP:	0.000	Y_WP:	0.750	X:	0.912	Y:	0.006	Z:	0.399	yaw:	2.580	yaw rate:	1.569	Roll:	26.926	Pitch:	-1.546	Yaw:	5.369	Thrust:	100.000
Time:	4.643	Roll Set Point:	-1.823	Pitch Set Point:	0.028	Yaw Set Point:	-0.045	X_WP:	0.000	Y_WP:	0.000	Y_WP:	0.750	X:	0.912	Y:	0.006	Z:	0.399	yaw:	2.593	yaw rate:	-1.290	Roll:	26.989	Pitch:	-1.856	Yaw:	5.774	Thrust:	100.000
Time:	4.666	Roll Set Point:	-1.823	Pitch Set Point:	0.028	Yaw Set Point:	-0.045	X_WP:	0.000	Y_WP:	0.000	Y_WP:	0.750	X:	0.912	Y:	0.006	Z:	0.399	yaw:	2.574	yaw rate:	1.837	Roll:	27.117	Pitch:	-1.631	Yaw:	5.643	Thrust:	100.000
Time:	4.687	Roll Set Point:	-1.823	Pitch Set Point:	0.029	Yaw Set Point:	-0.046	X_WP:	0.000	Y_WP:	0.000	Y_WP:	0.750	X:	0.912	Y:	0.006	Z:	0.399	yaw:	2.622	yaw rate:	-4.762	Roll:	27.052	Pitch:	-2.408	Yaw:	6.399	Thrust:	100.000
Time:	4.707	Roll Set Point:	-1.823	Pitch Set Point:	0.030	Yaw Set Point:	-0.047	X_WP:	0.000	Y_WP:	0.000	Y_WP:	0.750	X:	0.912	Y:	0.006	Z:	0.399	yaw:	2.666	yaw rate:	-4.363	Roll:	27.122	Pitch:	-2.350	Yaw:	6.243	Thrust:	100.000
Time:	4.725	Roll Set Point:	-1.823	Pitch Set Point:	0.029	Yaw Set Point:	-0.046	X_WP:	0.000	Y_WP:	0.000	Y_WP:	0.750	X:	0.912	Y:	0.006	Z:	0.399	yaw:	2.639	yaw rate:	2.675	Roll:	27.186	Pitch:	-1.415	Yaw:	5.182	Thrust:	100.000
Time:	4.747	Roll Set Point:	-1.823	Pitch Set Point:	0.029	Yaw Set Point:	-0.046	X_WP:	0.000	Y_WP:	0.000	Y_WP:	0.750	X:	0.912	Y:	0.006	Z:	0.399	yaw:	2.613	yaw rate:	2.603	Roll:	27.192	Pitch:	-1.513	Yaw:	5.550	Thrust:	100.000
Time:	4.773	Roll Set Point:	-1.823	Pitch Set Point:	0.029	Yaw Set Point:	-0.046	X_WP:	0.000	Y_WP:	0.000	Y_WP:	0.750	X:	0.912	Y:	0.006	Z:	0.399	yaw:	2.623	yaw rate:	-0.999	Roll:	27.196	Pitch:	-1.845	Yaw:	6.369	Thrust:	100.000
Time:	4.787	Roll Set Point:	-1.823	Pitch Set Point:	0.028	Yaw Set Point:	-0.045	X_WP:	0.000	Y_WP:	0.000	Y_WP:	0.750	X:	0.912	Y:	0.006	Z:	0.399	yaw:	2.567	yaw rate:	5.572	Roll:	27.234	Pitch:	-1.078	Yaw:	3.890	Thrust:	100.000
Time:	4.804	Roll Set Point:	-1.823	Pitch Set Point:	0.030	Yaw Set Point:	-0.046	X_WP:	0.000	Y_WP:	0.000	Y_WP:	0.750	X:	0.912	Y:	0.006	Z:	0.399	yaw:	2.664	yaw rate:	-9.708	Roll:	27.040	Pitch:	-3.182	Yaw:	6.914	Thrust:	100.000
Time:	4.824	Roll Set Point:	-1.823	Pitch Set Point:	0.029	Yaw Set Point:	-0.046	X_WP:	0.000	Y_WP:	0.000	Y_WP:	0.750	X:	0.912	Y:	0.006	Z:	0.399	yaw:	2.626	yaw rate:	3.776	Roll:	27.167	Pitch:	-1.279	Yaw:	5.181	Thrust:	100.000
Time:	4.844	Roll Set Point:	-1.823	Pitch Set Point:	0.028	Yaw Set Point:	-0.045	X_WP:	0.000	Y_WP:	0.000	Y_WP:	0.750	X:	0.912	Y:	0.006	Z:	0.399	yaw:	2.595	yaw rate:	3.104	Roll:	27.184	Pitch:	-1.293	Yaw:	5.201	Thrust:	100.000
Time:	4.864	Roll Set Point:	-1.823	Pitch Set Point:	0.029	Yaw Set Point:	-0.046	X_WP:	0.000	Y_WP:	0.000	Y_WP:	0.750	X:	0.912	Y:	0.006	Z:	0.399	yaw:	2.644	yaw rate:	-4.839	Roll:	27.178	Pitch:	-2.409	Yaw:	6.329	Thrust:	100.000
Time:	4.885	Roll Set Point:	-1.823	Pitch Set Point:	0.030	Yaw Set Point:	-0.046	X_WP:	0.000	Y_WP:	0.000	Y_WP:	0.750	X:	0.912	Y:	0.006	Z:	0.399	yaw:	2.663	yaw rate:	-1.909	Roll:	27.200	Pitch:	-2.127	Yaw:	6.052	Thrust:	100.000
Time:	4.903	Roll Set Point:	-1.823	Pitch Set Point:	0.028	Yaw Set Point:	-0.045	X_WP:	0.000	Y_WP:	0.000	Y_WP:	0.750	X:	0.912	Y:	0.006	Z:	0.399	yaw:	2.551	yaw rate:	11.173	Roll:	27.205	Pitch:	-0.132	Yaw:	3.861	Thrust:	100.000
Time:	4.923	Roll Set Point:	-1.823	Pitch Set Point:	0.030	Yaw Set Point:	-0.046	X_WP:	0.000	Y_WP:	0.000	Y_WP:	0.750	X:	0.912	Y:	0.006	Z:	0.399	yaw:	2.660	yaw rate:	-10.924	Roll:	27.114	Pitch:	-3.256	Yaw:	7.127	Thrust:	100.000
Time:	4.944	Roll Set Point:	-1.823	Pitch Set Point:	0.029	Yaw Set Point:	-0.046	X_WP:	0.000	Y_WP:	0.000	Y_WP:	0.750	X:	0.912	Y:	0.006	Z:	0.399	yaw:	2.626	yaw rate:	3.395	Roll:	27.208	Pitch:	-1.328	Yaw:	5.388	Thrust:	100.000
Time:	4.964	Roll Set Point:	-1.823	Pitch Set Point:	0.029	Yaw Set Point:	-0.046	X_WP:	0.000	Y_WP:	0.000	Y_WP:	0.750	X:	0.912	Y:	0.006	Z:	0.399	yaw:	2.614	yaw rate:	1.221	Roll:	27.182	Pitch:	-1.640	Yaw:	5.443	Thrust:	100.000
Time:	4.989	Roll Set Point:	-1.823	Pitch Set Point:	0.029	Yaw Set Point:	-0.046	X_WP:	0.000	Y_WP:	0.000	Y_WP:	0.750	X:	0.912	Y:	0.006	Z:	0.399	yaw:	2.637	yaw rate:	-2.304	Roll:	27.334	Pitch:	-2.228	Yaw:	6.393	Thrust:	100.000
Time:	5.004	Roll Set Point:	-1.823	Pitch Set Point:	0.028	Yaw Set Point:	-0.045	X_WP:	0.000	Y_WP:	0.000	Y_WP:	0.750	X:	0.912	Y:	0.006	Z:	0.399	yaw:	2.553	yaw rate:	8.475	Roll:	27.073	Pitch:	-0.015	Yaw:	3.662	Thrust:	100.000
Time:	5.024	Roll Set Point:	-1.823	Pitch Set Point:	0.029	Yaw Set Point:	-0.046	X_WP:	0.000	Y_WP:	0.000	Y_WP:	0.750	X:	0.912	Y:	0.006	Z:	0.399	yaw:	2.634	yaw rate:	-8.162	Roll:	27.142	Pitch:	-2.907	Yaw:	6.750	Thrust:	100.000
Time:	5.045	Roll Set Point:	-1.823	Pitch Set Point:	0.030	Yaw Set Point:	-0.047	X_WP:	0.000	Y_WP:	0.000	Y_WP:	0.750	X:	0.912	Y:	0.006	Z:	0.399	yaw:	2.698	yaw rate:	-6.349	Roll:	27.129	Pitch:	-2.605	Yaw:	6.643	Thrust:	100.000
Time:	5.065	Roll Set Point:	-1.823	Pitch Set Point:	0.028	Yaw Set Point:	-0.044	X_WP:	0.000	Y_WP:	0.000	Y_WP:	0.750	X:	0.912	Y:	0.006	Z:	0.399	yaw:	2.547	yaw rate:	15.085	Roll:	27.246	Pitch:	0.247	Yaw:	3.593	Thrust:	100.000
Time:	5.087	Roll Set Point:	-1.823	Pitch Set Point:	0.030	Yaw Set Point:	-0.047	X_WP:	0.000	Y_WP:	0.000	Y_WP:	0.750	X:	0.912	Y:	0.006	Z:	0.399	yaw:	2.696	yaw rate:	-14.958	Roll:	27.170	Pitch:	-3.747	Yaw:	7.734	Thrust:	100.000
Time:	5.105	Roll Set Point:	-1.823	Pitch Set Point:	0.028	Yaw Set Point:	-0.045	X_WP:	0.000	Y_WP:	0.000	Y_WP:	0.750	X:	0.912	Y:	0.006	Z:	0.399	yaw:	2.591	yaw rate:	10.510	Roll:	27.166	Pitch:	-0.206	Yaw:	4.073	Thrust:	100.000
Time:	5.125	Roll Set Point:	-1.823	Pitch Set Point:	0.028	Yaw Set Point:	-0.045	X_WP:	0.000	Y_WP:	0.000	Y_WP:	0.750	X:	0.912	Y:	0.006	Z:	0.399	yaw:	2.586	yaw rate:	0.519	Roll:	27.153	Pitch:	-1.666	Yaw:	5.445	Thrust:	100.000
Time:	5.144	Roll Set Point:	-1.823	Pitch Set Point:	0.030	Yaw Set Point:	-0.047	X_WP:	0.000	Y_WP:	0.000	Y_WP:	0.750	X:	0.912	Y:	0.006	Z:	0.399	yaw:	2.684	yaw rate:	-9.763	Roll:	27.181	Pitch:	-3.114	Yaw:	7.050	Thrust:	100.000
Time:	5.166	Roll Set Point:	-1.823	Pitch Set Point:	0.030	Yaw Set Point:	-0.047	X_WP:	0.000	Y_WP:	0.000	Y_WP:	0.750	X:	0.912	Y:	0.006	Z:	0.399	yaw:	2.699	yaw rate:	-1.503	Roll:	27.157	Pitch:	-2.024	Yaw:	6.058	Thrust:	100.000
Time:	5.187	Roll Set Point:	-1.823	Pitch Set Point:	0.029	Yaw Set Point:	-0.046	X_WP:	0.000	Y_WP:	0.000	Y_WP:	0.750	X:	0.912	Y:	0.006	Z:	0.399	yaw:	2.610	yaw rate:	8.855	Roll:	27.277	Pitch:	-0.648	Yaw:	4.565	Thrust:	100.000
Time:	5.205	Roll Set Point:	-1.823	Pitch Set Point:	0.029	Yaw Set Point:	-0.045	X_WP:	0.000	Y_WP:	0.000	Y_WP:	0.750	X:	0.912	Y:	0.006	Z:	0.399	yaw:	2.589	yaw rate:	2.121	Roll:	27.136	Pitch:	-1.391	Yaw:	5.120	Thrust:	100.000
Time:	5.226	Roll Set Point:	-1.823	Pitch Set Point:	0.029	Yaw Set Point:	-0.046	X_WP:	0.000	Y_WP:	0.000	Y_WP:	0.750	X:	0.912	Y:	0.006	Z:	0.399	yaw:	2.622	yaw rate:	-3.326	Roll:	27.193	Pitch:	-2.202	Yaw:	6.141	Thrust:	100.000
Time:	5.243	Roll Set Point:	-1.823	Pitch Set Point:	0.030	Yaw Set Point:	-0.046	X_WP:	0.000	Y_WP:	0.000	Y_WP:	0.750	X:	0.912	Y:	0.006	Z:	0.399	yaw:	2.660	yaw rate:	-3.781	Roll:	27.082	Pitch:	-2.321	Yaw:	6.043	Thrust:	100.000
Time:	5.263	Roll Set Point:	-1.823	Pitch Set Point:	0.028	Yaw Set Point:	-0.045	X_WP:	0.000	Y_WP:	0.000	Y_WP:	0.750	X:	0.912	Y:	0.006	Z:	0.399	yaw:	2.573	yaw rate:	8.666	Roll:	27.238	Pitch:	-0.621	Yaw:	4.633	Thrust:	100.000
Time:	5.286	Roll Set Point:	-1.823	Pitch Set Point:	0.029	Yaw Set Point:	-0.045	X_WP:	0.000	Y_WP:	0.000	Y_WP:	0.750	X:	0.912	Y:	0.006	Z:	0.399	yaw:	2.592	yaw rate:	-1.859	Roll:	27.164	Pitch:	-2.064	Yaw:	5.981	Thrust:	100.000
