Time:	0.043	Roll Set Point:	-0.002	Pitch Set Point:	-0.000	Yaw Set Point:	3.138	X_WP:	0.000	Y_WP:	0.000	Y_WP:	1.000	X:	0.021	Y:	-0.490	Z:	0.055	yaw:	-179.799	yaw rate:	-0.137	Roll:	-0.556	Pitch:	14.202	Yaw:	-251.047	Thrust:	51.952
Time:	0.063	Roll Set Point:	-0.002	Pitch Set Point:	-0.000	Yaw Set Point:	3.138	X_WP:	0.000	Y_WP:	0.000	Y_WP:	1.000	X:	0.021	Y:	-0.490	Z:	0.055	yaw:	-179.805	yaw rate:	0.607	Roll:	-0.599	Pitch:	14.222	Yaw:	-252.396	Thrust:	54.406
Time:	0.086	Roll Set Point:	-0.001	Pitch Set Point:	-0.000	Yaw Set Point:	3.139	X_WP:	0.000	Y_WP:	0.000	Y_WP:	1.000	X:	0.021	Y:	-0.490	Z:	0.055	yaw:	-179.855	yaw rate:	4.948	Roll:	-0.858	Pitch:	14.236	Yaw:	-254.537	Thrust:	56.813
Time:	0.103	Roll Set Point:	-0.002	Pitch Set Point:	-0.000	Yaw Set Point:	3.138	X_WP:	0.000	Y_WP:	0.000	Y_WP:	1.000	X:	0.021	Y:	-0.490	Z:	0.055	yaw:	-179.807	yaw rate:	-4.796	Roll:	-0.194	Pitch:	14.293	Yaw:	-253.536	Thrust:	58.032
Time:	0.125	Roll Set Point:	-0.002	Pitch Set Point:	-0.000	Yaw Set Point:	3.138	X_WP:	0.000	Y_WP:	0.000	Y_WP:	1.000	X:	0.021	Y:	-0.490	Z:	0.055	yaw:	-179.805	yaw rate:	-0.134	Roll:	-0.551	Pitch:	14.305	Yaw:	-255.456	Thrust:	61.781
Time:	0.144	Roll Set Point:	-0.002	Pitch Set Point:	-0.000	Yaw Set Point:	3.138	X_WP:	0.000	Y_WP:	0.000	Y_WP:	1.000	X:	0.021	Y:	-0.490	Z:	0.055	yaw:	-179.798	yaw rate:	-0.749	Roll:	-0.520	Pitch:	14.315	Yaw:	-254.445	Thrust:	62.129
Time:	0.162	Roll Set Point:	-0.002	Pitch Set Point:	-0.000	Yaw Set Point:	3.138	X_WP:	0.000	Y_WP:	0.000	Y_WP:	1.000	X:	0.021	Y:	-0.490	Z:	0.055	yaw:	-179.811	yaw rate:	1.306	Roll:	-0.657	Pitch:	14.337	Yaw:	-255.082	Thrust:	64.693
Time:	0.184	Roll Set Point:	-0.002	Pitch Set Point:	-0.000	Yaw Set Point:	3.138	X_WP:	0.000	Y_WP:	0.000	Y_WP:	1.000	X:	0.021	Y:	-0.490	Z:	0.055	yaw:	-179.794	yaw rate:	-1.749	Roll:	-0.451	Pitch:	14.403	Yaw:	-255.347	Thrust:	69.887
Time:	0.202	Roll Set Point:	-0.002	Pitch Set Point:	-0.000	Yaw Set Point:	3.138	X_WP:	0.000	Y_WP:	0.000	Y_WP:	1.000	X:	0.021	Y:	-0.490	Z:	0.055	yaw:	-179.803	yaw rate:	0.983	Roll:	-0.630	Pitch:	14.386	Yaw:	-254.829	Thrust:	68.806
Time:	0.223	Roll Set Point:	-0.002	Pitch Set Point:	-0.000	Yaw Set Point:	3.138	X_WP:	0.000	Y_WP:	0.000	Y_WP:	1.000	X:	0.021	Y:	-0.490	Z:	0.055	yaw:	-179.798	yaw rate:	-0.537	Roll:	-0.529	Pitch:	14.421	Yaw:	-255.095	Thrust:	72.456
Time:	0.243	Roll Set Point:	-0.002	Pitch Set Point:	-0.000	Yaw Set Point:	3.138	X_WP:	0.000	Y_WP:	0.000	Y_WP:	1.000	X:	0.021	Y:	-0.490	Z:	0.055	yaw:	-179.811	yaw rate:	1.314	Roll:	-0.677	Pitch:	14.450	Yaw:	-255.173	Thrust:	74.861
Time:	0.261	Roll Set Point:	-0.001	Pitch Set Point:	-0.000	Yaw Set Point:	3.139	X_WP:	0.000	Y_WP:	0.000	Y_WP:	1.000	X:	0.021	Y:	-0.490	Z:	0.055	yaw:	-179.859	yaw rate:	4.810	Roll:	-0.890	Pitch:	14.425	Yaw:	-255.549	Thrust:	75.222
Time:	0.283	Roll Set Point:	-0.001	Pitch Set Point:	-0.000	Yaw Set Point:	3.139	X_WP:	0.000	Y_WP:	0.000	Y_WP:	1.000	X:	0.021	Y:	-0.490	Z:	0.055	yaw:	-179.825	yaw rate:	-3.397	Roll:	-0.375	Pitch:	14.528	Yaw:	-254.889	Thrust:	80.744
Time:	0.303	Roll Set Point:	-0.002	Pitch Set Point:	-0.000	Yaw Set Point:	3.138	X_WP:	0.000	Y_WP:	0.000	Y_WP:	1.000	X:	0.021	Y:	-0.490	Z:	0.055	yaw:	-179.812	yaw rate:	-1.371	Roll:	-0.460	Pitch:	14.517	Yaw:	-254.895	Thrust:	81.514
Time:	0.323	Roll Set Point:	-0.002	Pitch Set Point:	-0.000	Yaw Set Point:	3.138	X_WP:	0.000	Y_WP:	0.000	Y_WP:	1.000	X:	0.021	Y:	-0.490	Z:	0.055	yaw:	-179.799	yaw rate:	-1.218	Roll:	-0.505	Pitch:	14.565	Yaw:	-255.008	Thrust:	84.595
Time:	0.343	Roll Set Point:	-0.002	Pitch Set Point:	-0.000	Yaw Set Point:	3.138	X_WP:	0.000	Y_WP:	0.000	Y_WP:	1.000	X:	0.021	Y:	-0.490	Z:	0.055	yaw:	-179.807	yaw rate:	0.761	Roll:	-0.615	Pitch:	14.558	Yaw:	-255.075	Thrust:	85.235
Time:	0.362	Roll Set Point:	-0.002	Pitch Set Point:	-0.000	Yaw Set Point:	3.138	X_WP:	0.000	Y_WP:	0.000	Y_WP:	1.000	X:	0.021	Y:	-0.490	Z:	0.055	yaw:	-179.805	yaw rate:	-0.208	Roll:	-0.552	Pitch:	14.580	Yaw:	-254.859	Thrust:	86.701
Time:	0.385	Roll Set Point:	-0.002	Pitch Set Point:	-0.000	Yaw Set Point:	3.138	X_WP:	0.000	Y_WP:	0.000	Y_WP:	1.000	X:	0.021	Y:	-0.490	Z:	0.055	yaw:	-179.810	yaw rate:	0.554	Roll:	-0.615	Pitch:	14.666	Yaw:	-255.707	Thrust:	95.157
Time:	0.403	Roll Set Point:	-0.002	Pitch Set Point:	-0.000	Yaw Set Point:	3.138	X_WP:	0.000	Y_WP:	0.000	Y_WP:	1.000	X:	0.021	Y:	-0.490	Z:	0.055	yaw:	-179.809	yaw rate:	-0.126	Roll:	-0.570	Pitch:	14.600	Yaw:	-254.574	Thrust:	88.948
Time:	0.422	Roll Set Point:	-0.002	Pitch Set Point:	-0.000	Yaw Set Point:	3.138	X_WP:	0.000	Y_WP:	0.000	Y_WP:	1.000	X:	0.021	Y:	-0.490	Z:	0.055	yaw:	-179.807	yaw rate:	-0.240	Roll:	-0.544	Pitch:	14.649	Yaw:	-254.840	Thrust:	93.008
Time:	0.446	Roll Set Point:	-0.002	Pitch Set Point:	-0.000	Yaw Set Point:	3.138	X_WP:	0.000	Y_WP:	0.000	Y_WP:	1.000	X:	0.021	Y:	-0.490	Z:	0.055	yaw:	-179.807	yaw rate:	0.036	Roll:	-0.597	Pitch:	14.772	Yaw:	-255.683	Thrust:	100.000
Time:	0.462	Roll Set Point:	-0.002	Pitch Set Point:	-0.000	Yaw Set Point:	3.138	X_WP:	0.000	Y_WP:	0.000	Y_WP:	1.000	X:	0.021	Y:	-0.490	Z:	0.055	yaw:	-179.790	yaw rate:	-1.695	Roll:	-0.409	Pitch:	14.637	Yaw:	-254.141	Thrust:	91.921
Time:	0.485	Roll Set Point:	-0.002	Pitch Set Point:	-0.000	Yaw Set Point:	3.138	X_WP:	0.000	Y_WP:	0.000	Y_WP:	1.000	X:	0.021	Y:	-0.490	Z:	0.055	yaw:	-179.806	yaw rate:	1.545	Roll:	-0.694	Pitch:	14.791	Yaw:	-255.850	Thrust:	100.000
Time:	0.503	Roll Set Point:	-0.001	Pitch Set Point:	-0.000	Yaw Set Point:	3.139	X_WP:	0.000	Y_WP:	0.000	Y_WP:	1.000	X:	0.021	Y:	-0.490	Z:	0.055	yaw:	-179.865	yaw rate:	5.901	Roll:	-1.010	Pitch:	14.691	Yaw:	-255.616	Thrust:	96.492
Time:	0.523	Roll Set Point:	-0.002	Pitch Set Point:	-0.000	Yaw Set Point:	3.138	X_WP:	0.000	Y_WP:	0.000	Y_WP:	1.000	X:	0.021	Y:	-0.490	Z:	0.055	yaw:	-179.813	yaw rate:	-5.194	Roll:	-0.259	Pitch:	14.822	Yaw:	-254.288	Thrust:	100.000
Time:	0.544	Roll Set Point:	-0.002	Pitch Set Point:	-0.000	Yaw Set Point:	3.138	X_WP:	0.000	Y_WP:	0.000	Y_WP:	1.000	X:	0.021	Y:	-0.490	Z:	0.055	yaw:	-179.802	yaw rate:	-1.028	Roll:	-0.485	Pitch:	14.826	Yaw:	-255.004	Thrust:	100.000
Time:	0.562	Roll Set Point:	-0.002	Pitch Set Point:	-0.000	Yaw Set Point:	3.138	X_WP:	0.000	Y_WP:	0.000	Y_WP:	1.000	X:	0.021	Y:	-0.490	Z:	0.055	yaw:	-179.810	yaw rate:	0.793	Roll:	-0.641	Pitch:	14.800	Yaw:	-254.892	Thrust:	100.000
Time:	0.585	Roll Set Point:	-0.002	Pitch Set Point:	-0.000	Yaw Set Point:	3.138	X_WP:	0.000	Y_WP:	0.000	Y_WP:	1.000	X:	0.021	Y:	-0.490	Z:	0.055	yaw:	-179.804	yaw rate:	-0.596	Roll:	-0.556	Pitch:	14.931	Yaw:	-255.508	Thrust:	100.000
Time:	0.603	Roll Set Point:	-0.002	Pitch Set Point:	-0.000	Yaw Set Point:	3.138	X_WP:	0.000	Y_WP:	0.000	Y_WP:	1.000	X:	0.021	Y:	-0.490	Z:	0.055	yaw:	-179.802	yaw rate:	-0.269	Roll:	-0.542	Pitch:	14.859	Yaw:	-254.729	Thrust:	100.000
Time:	0.622	Roll Set Point:	-0.002	Pitch Set Point:	-0.000	Yaw Set Point:	3.138	X_WP:	0.000	Y_WP:	0.000	Y_WP:	1.000	X:	0.021	Y:	-0.490	Z:	0.055	yaw:	-179.800	yaw rate:	-0.162	Roll:	-0.585	Pitch:	14.875	Yaw:	-254.847	Thrust:	100.000
Time:	0.645	Roll Set Point:	-0.002	Pitch Set Point:	-0.000	Yaw Set Point:	3.138	X_WP:	0.000	Y_WP:	0.000	Y_WP:	1.000	X:	0.021	Y:	-0.490	Z:	0.055	yaw:	-179.810	yaw rate:	0.954	Roll:	-0.655	Pitch:	15.056	Yaw:	-255.870	Thrust:	100.000
Time:	0.662	Roll Set Point:	-0.002	Pitch Set Point:	-0.000	Yaw Set Point:	3.138	X_WP:	0.000	Y_WP:	0.000	Y_WP:	1.000	X:	0.021	Y:	-0.490	Z:	0.055	yaw:	-179.804	yaw rate:	-0.617	Roll:	-0.541	Pitch:	14.825	Yaw:	-254.170	Thrust:	100.000
Time:	0.687	Roll Set Point:	-0.002	Pitch Set Point:	-0.000	Yaw Set Point:	3.138	X_WP:	0.000	Y_WP:	0.000	Y_WP:	1.000	X:	0.021	Y:	-0.490	Z:	0.055	yaw:	-179.808	yaw rate:	0.498	Roll:	-0.612	Pitch:	15.110	Yaw:	-256.191	Thrust:	100.000
Time:	0.710	Roll Set Point:	-0.002	Pitch Set Point:	-0.000	Yaw Set Point:	3.138	X_WP:	0.000	Y_WP:	0.000	Y_WP:	1.000	X:	0.021	Y:	-0.490	Z:	0.055	yaw:	-179.811	yaw rate:	0.232	Roll:	-0.617	Pitch:	15.134	Yaw:	-255.846	Thrust:	100.000
Time:	0.723	Roll Set Point:	-0.002	Pitch Set Point:	-0.000	Yaw Set Point:	3.138	X_WP:	0.000	Y_WP:	0.000	Y_WP:	1.000	X:	0.021	Y:	-0.490	Z:	0.055	yaw:	-179.808	yaw rate:	-0.311	Roll:	-0.552	Pitch:	14.680	Yaw:	-253.604	Thrust:	100.000
Time:	0.744	Roll Set Point:	-0.002	Pitch Set Point:	-0.000	Yaw Set Point:	3.138	X_WP:	0.000	Y_WP:	0.000	Y_WP:	1.000	X:	0.021	Y:	-0.490	Z:	0.055	yaw:	-179.807	yaw rate:	-0.087	Roll:	-0.567	Pitch:	14.935	Yaw:	-255.083	Thrust:	100.000
Time:	0.762	Roll Set Point:	-0.002	Pitch Set Point:	-0.000	Yaw Set Point:	3.138	X_WP:	0.000	Y_WP:	0.000	Y_WP:	1.000	X:	0.021	Y:	-0.490	Z:	0.055	yaw:	-179.801	yaw rate:	-0.568	Roll:	-0.562	Pitch:	14.900	Yaw:	-254.590	Thrust:	100.000
Time:	0.784	Roll Set Point:	-0.001	Pitch Set Point:	-0.000	Yaw Set Point:	3.139	X_WP:	0.000	Y_WP:	0.000	Y_WP:	1.000	X:	0.021	Y:	-0.490	Z:	0.055	yaw:	-179.868	yaw rate:	6.656	Roll:	-1.012	Pitch:	15.006	Yaw:	-256.349	Thrust:	100.000
Time:	0.802	Roll Set Point:	-0.002	Pitch Set Point:	-0.000	Yaw Set Point:	3.138	X_WP:	0.000	Y_WP:	0.000	Y_WP:	1.000	X:	0.021	Y:	-0.490	Z:	0.055	yaw:	-179.803	yaw rate:	-6.484	Roll:	-0.120	Pitch:	14.925	Yaw:	-253.721	Thrust:	100.000
Time:	0.822	Roll Set Point:	-0.002	Pitch Set Point:	-0.000	Yaw Set Point:	3.138	X_WP:	0.000	Y_WP:	0.000	Y_WP:	1.000	X:	0.021	Y:	-0.490	Z:	0.055	yaw:	-179.802	yaw rate:	-0.109	Roll:	-0.573	Pitch:	14.932	Yaw:	-254.954	Thrust:	100.000
Time:	0.845	Roll Set Point:	-0.002	Pitch Set Point:	-0.000	Yaw Set Point:	3.138	X_WP:	0.000	Y_WP:	0.000	Y_WP:	1.000	X:	0.021	Y:	-0.490	Z:	0.055	yaw:	-179.816	yaw rate:	1.453	Roll:	-0.714	Pitch:	15.072	Yaw:	-255.875	Thrust:	100.000
Time:	0.862	Roll Set Point:	-0.002	Pitch Set Point:	-0.000	Yaw Set Point:	3.138	X_WP:	0.000	Y_WP:	0.000	Y_WP:	1.000	X:	0.021	Y:	-0.490	Z:	0.055	yaw:	-179.799	yaw rate:	-1.718	Roll:	-0.435	Pitch:	14.834	Yaw:	-254.218	Thrust:	100.000
Time:	0.885	Roll Set Point:	-0.002	Pitch Set Point:	-0.000	Yaw Set Point:	3.138	X_WP:	0.000	Y_WP:	0.000	Y_WP:	1.000	X:	0.021	Y:	-0.490	Z:	0.055	yaw:	-179.798	yaw rate:	-0.119	Roll:	-0.593	Pitch:	15.069	Yaw:	-255.564	Thrust:	100.000
Time:	0.903	Roll Set Point:	-0.002	Pitch Set Point:	-0.000	Yaw Set Point:	3.138	X_WP:	0.000	Y_WP:	0.000	Y_WP:	1.000	X:	0.021	Y:	-0.490	Z:	0.055	yaw:	-179.809	yaw rate:	1.107	Roll:	-0.694	Pitch:	14.881	Yaw:	-254.815	Thrust:	100.000
Time:	0.923	Roll Set Point:	-0.001	Pitch Set Point:	-0.000	Yaw Set Point:	3.139	X_WP:	0.000	Y_WP:	0.000	Y_WP:	1.000	X:	0.021	Y:	-0.490	Z:	0.055	yaw:	-179.865	yaw rate:	5.642	Roll:	-0.996	Pitch:	14.903	Yaw:	-255.891	Thrust:	100.000
Time:	0.944	Roll Set Point:	-0.002	Pitch Set Point:	-0.000	Yaw Set Point:	3.138	X_WP:	0.000	Y_WP:	0.000	Y_WP:	1.000	X:	0.021	Y:	-0.490	Z:	0.055	yaw:	-179.802	yaw rate:	-6.350	Roll:	-0.187	Pitch:	15.003	Yaw:	-254.504	Thrust:	100.000
Time:	0.962	Roll Set Point:	-0.002	Pitch Set Point:	-0.000	Yaw Set Point:	3.138	X_WP:	0.000	Y_WP:	0.000	Y_WP:	1.000	X:	0.021	Y:	-0.490	Z:	0.055	yaw:	-179.812	yaw rate:	1.001	Roll:	-0.671	Pitch:	14.899	Yaw:	-254.731	Thrust:	100.000
Time:	0.986	Roll Set Point:	-0.001	Pitch Set Point:	-0.000	Yaw Set Point:	3.139	X_WP:	0.000	Y_WP:	0.000	Y_WP:	1.000	X:	0.021	Y:	-0.490	Z:	0.055	yaw:	-179.850	yaw rate:	3.852	Roll:	-0.841	Pitch:	15.063	Yaw:	-256.324	Thrust:	100.000
Time:	1.002	Roll Set Point:	-0.002	Pitch Set Point:	-0.000	Yaw Set Point:	3.138	X_WP:	0.000	Y_WP:	0.000	Y_WP:	1.000	X:	0.021	Y:	-0.490	Z:	0.055	yaw:	-179.803	yaw rate:	-4.707	Roll:	-0.249	Pitch:	14.887	Yaw:	-253.762	Thrust:	100.000
Time:	1.022	Roll Set Point:	-0.002	Pitch Set Point:	-0.000	Yaw Set Point:	3.138	X_WP:	0.000	Y_WP:	0.000	Y_WP:	1.000	X:	0.021	Y:	-0.490	Z:	0.055	yaw:	-179.805	yaw rate:	0.151	Roll:	-0.606	Pitch:	14.909	Yaw:	-254.889	Thrust:	100.000
Time:	1.045	Roll Set Point:	-0.002	Pitch Set Point:	-0.000	Yaw Set Point:	3.138	X_WP:	0.000	Y_WP:	0.000	Y_WP:	1.000	X:	0.021	Y:	-0.490	Z:	0.055	yaw:	-179.812	yaw rate:	0.681	Roll:	-0.682	Pitch:	15.086	Yaw:	-255.939	Thrust:	100.000
Time:	1.062	Roll Set Point:	-0.001	Pitch Set Point:	-0.000	Yaw Set Point:	3.139	X_WP:	0.000	Y_WP:	0.000	Y_WP:	1.000	X:	0.021	Y:	-0.490	Z:	0.055	yaw:	-179.847	yaw rate:	3.510	Roll:	-0.826	Pitch:	14.802	Yaw:	-255.013	Thrust:	100.000
Time:	1.085	Roll Set Point:	-0.002	Pitch Set Point:	-0.000	Yaw Set Point:	3.139	X_WP:	0.000	Y_WP:	0.000	Y_WP:	1.000	X:	0.021	Y:	-0.490	Z:	0.055	yaw:	-179.824	yaw rate:	-2.309	Roll:	-0.510	Pitch:	15.074	Yaw:	-255.368	Thrust:	100.000
Time:	1.103	Roll Set Point:	-0.002	Pitch Set Point:	-0.000	Yaw Set Point:	3.138	X_WP:	0.000	Y_WP:	0.000	Y_WP:	1.000	X:	0.021	Y:	-0.490	Z:	0.055	yaw:	-179.805	yaw rate:	-1.867	Roll:	-0.459	Pitch:	14.881	Yaw:	-254.303	Thrust:	100.000
Time:	1.123	Roll Set Point:	-0.001	Pitch Set Point:	-0.000	Yaw Set Point:	3.139	X_WP:	0.000	Y_WP:	0.000	Y_WP:	1.000	X:	0.021	Y:	-0.490	Z:	0.055	yaw:	-179.855	yaw rate:	5.014	Roll:	-0.933	Pitch:	14.925	Yaw:	-255.809	Thrust:	100.000
Time:	1.143	Roll Set Point:	-0.001	Pitch Set Point:	-0.000	Yaw Set Point:	3.139	X_WP:	0.000	Y_WP:	0.000	Y_WP:	1.000	X:	0.021	Y:	-0.490	Z:	0.055	yaw:	-179.861	yaw rate:	0.605	Roll:	-0.660	Pitch:	14.979	Yaw:	-255.242	Thrust:	100.000
Time:	1.162	Roll Set Point:	-0.002	Pitch Set Point:	-0.000	Yaw Set Point:	3.138	X_WP:	0.000	Y_WP:	0.000	Y_WP:	1.000	X:	0.021	Y:	-0.490	Z:	0.055	yaw:	-179.803	yaw rate:	-5.809	Roll:	-0.219	Pitch:	14.912	Yaw:	-253.929	Thrust:	100.000
Time:	1.186	Roll Set Point:	-0.001	Pitch Set Point:	-0.000	Yaw Set Point:	3.139	X_WP:	0.000	Y_WP:	0.000	Y_WP:	1.000	X:	0.021	Y:	-0.490	Z:	0.055	yaw:	-179.856	yaw rate:	5.250	Roll:	-0.937	Pitch:	15.063	Yaw:	-256.457	Thrust:	100.000
Time:	1.203	Roll Set Point:	-0.002	Pitch Set Point:	-0.000	Yaw Set Point:	3.138	X_WP:	0.000	Y_WP:	0.000	Y_WP:	1.000	X:	0.021	Y:	-0.490	Z:	0.055	yaw:	-179.793	yaw rate:	-6.257	Roll:	-0.123	Pitch:	14.865	Yaw:	-253.634	Thrust:	100.000
Time:	1.221	Roll Set Point:	-0.002	Pitch Set Point:	-0.000	Yaw Set Point:	3.138	X_WP:	0.000	Y_WP:	0.000	Y_WP:	1.000	X:	0.021	Y:	-0.490	Z:	0.055	yaw:	-179.813	yaw rate:	1.985	Roll:	-0.771	Pitch:	14.931	Yaw:	-255.056	Thrust:	100.000
Time:	1.243	Roll Set Point:	-0.002	Pitch Set Point:	-0.000	Yaw Set Point:	3.138	X_WP:	0.000	Y_WP:	0.000	Y_WP:	1.000	X:	0.021	Y:	-0.490	Z:	0.055	yaw:	-179.817	yaw rate:	0.432	Roll:	-0.642	Pitch:	14.963	Yaw:	-255.398	Thrust:	100.000
Time:	1.262	Roll Set Point:	-0.002	Pitch Set Point:	-0.000	Yaw Set Point:	3.138	X_WP:	0.000	Y_WP:	0.000	Y_WP:	1.000	X:	0.021	Y:	-0.490	Z:	0.055	yaw:	-179.804	yaw rate:	-1.362	Roll:	-0.530	Pitch:	14.962	Yaw:	-254.682	Thrust:	100.000
Time:	1.285	Roll Set Point:	-0.002	Pitch Set Point:	-0.000	Yaw Set Point:	3.138	X_WP:	0.000	Y_WP:	0.000	Y_WP:	1.000	X:	0.021	Y:	-0.490	Z:	0.055	yaw:	-179.816	yaw rate:	1.284	Roll:	-0.699	Pitch:	15.041	Yaw:	-255.837	Thrust:	100.000
Time:	1.302	Roll Set Point:	-0.002	Pitch Set Point:	-0.000	Yaw Set Point:	3.138	X_WP:	0.000	Y_WP:	0.000	Y_WP:	1.000	X:	0.021	Y:	-0.490	Z:	0.055	yaw:	-179.808	yaw rate:	-0.894	Roll:	-0.558	Pitch:	14.884	Yaw:	-254.438	Thrust:	100.000
Time:	1.322	Roll Set Point:	-0.002	Pitch Set Point:	-0.000	Yaw Set Point:	3.138	X_WP:	0.000	Y_WP:	0.000	Y_WP:	1.000	X:	0.021	Y:	-0.490	Z:	0.055	yaw:	-179.802	yaw rate:	-0.596	Roll:	-0.548	Pitch:	14.925	Yaw:	-254.819	Thrust:	100.000
Time:	1.343	Roll Set Point:	-0.002	Pitch Set Point:	-0.000	Yaw Set Point:	3.138	X_WP:	0.000	Y_WP:	0.000	Y_WP:	1.000	X:	0.021	Y:	-0.490	Z:	0.055	yaw:	-179.820	yaw rate:	1.877	Roll:	-0.761	Pitch:	14.950	Yaw:	-255.540	Thrust:	100.000
Time:	1.362	Roll Set Point:	-0.001	Pitch Set Point:	-0.000	Yaw Set Point:	3.139	X_WP:	0.000	Y_WP:	0.000	Y_WP:	1.000	X:	0.021	Y:	-0.490	Z:	0.055	yaw:	-179.860	yaw rate:	4.006	Roll:	-0.904	Pitch:	14.932	Yaw:	-255.443	Thrust:	100.000
Time:	1.386	Roll Set Point:	-0.002	Pitch Set Point:	-0.000	Yaw Set Point:	3.138	X_WP:	0.000	Y_WP:	0.000	Y_WP:	1.000	X:	0.021	Y:	-0.490	Z:	0.055	yaw:	-179.810	yaw rate:	-5.020	Roll:	-0.336	Pitch:	15.093	Yaw:	-255.292	Thrust:	100.000
Time:	1.403	Roll Set Point:	-0.001	Pitch Set Point:	-0.000	Yaw Set Point:	3.139	X_WP:	0.000	Y_WP:	0.000	Y_WP:	1.000	X:	0.021	Y:	-0.490	Z:	0.055	yaw:	-179.856	yaw rate:	4.595	Roll:	-0.979	Pitch:	14.834	Yaw:	-255.253	Thrust:	100.000
Time:	1.422	Roll Set Point:	-0.002	Pitch Set Point:	-0.000	Yaw Set Point:	3.138	X_WP:	0.000	Y_WP:	0.000	Y_WP:	1.000	X:	0.021	Y:	-0.490	Z:	0.055	yaw:	-179.813	yaw rate:	-4.351	Roll:	-0.334	Pitch:	14.926	Yaw:	-254.292	Thrust:	100.000
Time:	1.443	Roll Set Point:	-0.002	Pitch Set Point:	-0.000	Yaw Set Point:	3.138	X_WP:	0.000	Y_WP:	0.000	Y_WP:	1.000	X:	0.021	Y:	-0.490	Z:	0.055	yaw:	-179.811	yaw rate:	-0.181	Roll:	-0.624	Pitch:	14.977	Yaw:	-255.076	Thrust:	100.000
Time:	1.462	Roll Set Point:	-0.002	Pitch Set Point:	-0.000	Yaw Set Point:	3.138	X_WP:	0.000	Y_WP:	0.000	Y_WP:	1.000	X:	0.021	Y:	-0.490	Z:	0.055	yaw:	-179.793	yaw rate:	-1.746	Roll:	-0.465	Pitch:	14.940	Yaw:	-254.658	Thrust:	100.000
Time:	1.483	Roll Set Point:	-0.002	Pitch Set Point:	-0.000	Yaw Set Point:	3.138	X_WP:	0.000	Y_WP:	0.000	Y_WP:	1.000	X:	0.021	Y:	-0.490	Z:	0.055	yaw:	-179.801	yaw rate:	0.771	Roll:	-0.693	Pitch:	14.972	Yaw:	-255.331	Thrust:	100.000
Time:	1.503	Roll Set Point:	-0.002	Pitch Set Point:	-0.000	Yaw Set Point:	3.138	X_WP:	0.000	Y_WP:	0.000	Y_WP:	1.000	X:	0.021	Y:	-0.490	Z:	0.055	yaw:	-179.813	yaw rate:	1.235	Roll:	-0.730	Pitch:	14.969	Yaw:	-255.299	Thrust:	100.000
Time:	1.522	Roll Set Point:	-0.002	Pitch Set Point:	-0.000	Yaw Set Point:	3.138	X_WP:	0.000	Y_WP:	0.000	Y_WP:	1.000	X:	0.021	Y:	-0.490	Z:	0.055	yaw:	-179.818	yaw rate:	0.409	Roll:	-0.665	Pitch:	14.891	Yaw:	-254.888	Thrust:	100.000
Time:	1.543	Roll Set Point:	-0.001	Pitch Set Point:	-0.000	Yaw Set Point:	3.139	X_WP:	0.000	Y_WP:	0.000	Y_WP:	1.000	X:	0.021	Y:	-0.490	Z:	0.055	yaw:	-179.858	yaw rate:	4.069	Roll:	-0.878	Pitch:	15.009	Yaw:	-255.958	Thrust:	100.000
Time:	1.562	Roll Set Point:	-0.002	Pitch Set Point:	-0.000	Yaw Set Point:	3.138	X_WP:	0.000	Y_WP:	0.000	Y_WP:	1.000	X:	0.021	Y:	-0.490	Z:	0.055	yaw:	-179.792	yaw rate:	-6.654	Roll:	-0.173	Pitch:	14.934	Yaw:	-253.879	Thrust:	100.000
Time:	1.586	Roll Set Point:	-0.002	Pitch Set Point:	-0.000	Yaw Set Point:	3.138	X_WP:	0.000	Y_WP:	0.000	Y_WP:	1.000	X:	0.021	Y:	-0.490	Z:	0.055	yaw:	-179.801	yaw rate:	0.958	Roll:	-0.707	Pitch:	15.054	Yaw:	-255.795	Thrust:	100.000
Time:	1.603	Roll Set Point:	-0.002	Pitch Set Point:	-0.000	Yaw Set Point:	3.138	X_WP:	0.000	Y_WP:	0.000	Y_WP:	1.000	X:	0.021	Y:	-0.490	Z:	0.055	yaw:	-179.803	yaw rate:	0.169	Roll:	-0.623	Pitch:	14.877	Yaw:	-254.573	Thrust:	100.000
Time:	1.622	Roll Set Point:	-0.001	Pitch Set Point:	-0.000	Yaw Set Point:	3.139	X_WP:	0.000	Y_WP:	0.000	Y_WP:	1.000	X:	0.021	Y:	-0.490	Z:	0.055	yaw:	-179.869	yaw rate:	6.562	Roll:	-1.114	Pitch:	14.883	Yaw:	-255.862	Thrust:	100.000
Time:	1.643	Roll Set Point:	-0.002	Pitch Set Point:	-0.000	Yaw Set Point:	3.138	X_WP:	0.000	Y_WP:	0.000	Y_WP:	1.000	X:	0.021	Y:	-0.490	Z:	0.055	yaw:	-179.809	yaw rate:	-5.915	Roll:	-0.274	Pitch:	15.023	Yaw:	-254.578	Thrust:	100.000
Time:	1.662	Roll Set Point:	-0.002	Pitch Set Point:	-0.000	Yaw Set Point:	3.138	X_WP:	0.000	Y_WP:	0.000	Y_WP:	1.000	X:	0.021	Y:	-0.490	Z:	0.055	yaw:	-179.818	yaw rate:	0.824	Roll:	-0.710	Pitch:	14.924	Yaw:	-255.038	Thrust:	100.000
Time:	1.683	Roll Set Point:	-0.002	Pitch Set Point:	-0.000	Yaw Set Point:	3.138	X_WP:	0.000	Y_WP:	0.000	Y_WP:	1.000	X:	0.021	Y:	-0.490	Z:	0.055	yaw:	-179.802	yaw rate:	-1.604	Roll:	-0.511	Pitch:	14.951	Yaw:	-254.933	Thrust:	100.000
Time:	1.703	Roll Set Point:	-0.002	Pitch Set Point:	-0.000	Yaw Set Point:	3.138	X_WP:	0.000	Y_WP:	0.000	Y_WP:	1.000	X:	0.021	Y:	-0.490	Z:	0.055	yaw:	-179.812	yaw rate:	1.055	Roll:	-0.723	Pitch:	14.934	Yaw:	-255.046	Thrust:	100.000
Time:	1.723	Roll Set Point:	-0.002	Pitch Set Point:	-0.000	Yaw Set Point:	3.138	X_WP:	0.000	Y_WP:	0.000	Y_WP:	1.000	X:	0.021	Y:	-0.490	Z:	0.055	yaw:	-179.813	yaw rate:	0.129	Roll:	-0.650	Pitch:	14.974	Yaw:	-255.199	Thrust:	100.000
Time:	1.744	Roll Set Point:	-0.001	Pitch Set Point:	-0.000	Yaw Set Point:	3.139	X_WP:	0.000	Y_WP:	0.000	Y_WP:	1.000	X:	0.021	Y:	-0.490	Z:	0.055	yaw:	-179.859	yaw rate:	4.569	Roll:	-0.953	Pitch:	14.963	Yaw:	-255.839	Thrust:	100.000
Time:	1.762	Roll Set Point:	-0.002	Pitch Set Point:	-0.000	Yaw Set Point:	3.138	X_WP:	0.000	Y_WP:	0.000	Y_WP:	1.000	X:	0.021	Y:	-0.490	Z:	0.055	yaw:	-179.808	yaw rate:	-5.130	Roll:	-0.244	Pitch:	14.912	Yaw:	-254.056	Thrust:	100.000
Time:	1.786	Roll Set Point:	-0.002	Pitch Set Point:	-0.000	Yaw Set Point:	3.138	X_WP:	0.000	Y_WP:	0.000	Y_WP:	1.000	X:	0.021	Y:	-0.490	Z:	0.055	yaw:	-179.818	yaw rate:	1.044	Roll:	-0.739	Pitch:	15.048	Yaw:	-255.829	Thrust:	100.000
Time:	1.802	Roll Set Point:	-0.001	Pitch Set Point:	-0.000	Yaw Set Point:	3.139	X_WP:	0.000	Y_WP:	0.000	Y_WP:	1.000	X:	0.021	Y:	-0.490	Z:	0.055	yaw:	-179.854	yaw rate:	3.541	Roll:	-0.878	Pitch:	14.857	Yaw:	-255.097	Thrust:	100.000
Time:	1.822	Roll Set Point:	-0.002	Pitch Set Point:	-0.000	Yaw Set Point:	3.138	X_WP:	0.000	Y_WP:	0.000	Y_WP:	1.000	X:	0.021	Y:	-0.490	Z:	0.055	yaw:	-179.801	yaw rate:	-5.228	Roll:	-0.316	Pitch:	14.953	Yaw:	-254.382	Thrust:	100.000
Time:	1.843	Roll Set Point:	-0.002	Pitch Set Point:	-0.000	Yaw Set Point:	3.138	X_WP:	0.000	Y_WP:	0.000	Y_WP:	1.000	X:	0.021	Y:	-0.490	Z:	0.055	yaw:	-179.804	yaw rate:	0.275	Roll:	-0.658	Pitch:	14.961	Yaw:	-255.044	Thrust:	100.000
Time:	1.861	Roll Set Point:	-0.002	Pitch Set Point:	-0.000	Yaw Set Point:	3.138	X_WP:	0.000	Y_WP:	0.000	Y_WP:	1.000	X:	0.021	Y:	-0.490	Z:	0.055	yaw:	-179.805	yaw rate:	0.049	Roll:	-0.634	Pitch:	14.918	Yaw:	-254.892	Thrust:	100.000
Time:	1.884	Roll Set Point:	-0.002	Pitch Set Point:	-0.000	Yaw Set Point:	3.138	X_WP:	0.000	Y_WP:	0.000	Y_WP:	1.000	X:	0.021	Y:	-0.490	Z:	0.055	yaw:	-179.803	yaw rate:	-0.139	Roll:	-0.650	Pitch:	15.030	Yaw:	-255.629	Thrust:	100.000
Time:	1.901	Roll Set Point:	-0.001	Pitch Set Point:	-0.000	Yaw Set Point:	3.139	X_WP:	0.000	Y_WP:	0.000	Y_WP:	1.000	X:	0.021	Y:	-0.490	Z:	0.055	yaw:	-179.852	yaw rate:	4.823	Roll:	-0.964	Pitch:	14.876	Yaw:	-255.353	Thrust:	100.000
Time:	1.922	Roll Set Point:	-0.002	Pitch Set Point:	-0.000	Yaw Set Point:	3.138	X_WP:	0.000	Y_WP:	0.000	Y_WP:	1.000	X:	0.021	Y:	-0.490	Z:	0.055	yaw:	-179.807	yaw rate:	-4.407	Roll:	-0.370	Pitch:	14.977	Yaw:	-254.613	Thrust:	100.000
Time:	1.944	Roll Set Point:	-0.002	Pitch Set Point:	-0.000	Yaw Set Point:	3.138	X_WP:	0.000	Y_WP:	0.000	Y_WP:	1.000	X:	0.021	Y:	-0.490	Z:	0.055	yaw:	-179.818	yaw rate:	1.059	Roll:	-0.726	Pitch:	15.054	Yaw:	-255.697	Thrust:	100.000
Time:	1.962	Roll Set Point:	-0.001	Pitch Set Point:	-0.000	Yaw Set Point:	3.139	X_WP:	0.000	Y_WP:	0.000	Y_WP:	1.000	X:	0.021	Y:	-0.490	Z:	0.055	yaw:	-179.861	yaw rate:	4.327	Roll:	-0.964	Pitch:	14.840	Yaw:	-255.290	Thrust:	100.000
Time:	1.986	Roll Set Point:	-0.002	Pitch Set Point:	-0.000	Yaw Set Point:	3.138	X_WP:	0.000	Y_WP:	0.000	Y_WP:	1.000	X:	0.021	Y:	-0.490	Z:	0.055	yaw:	-179.799	yaw rate:	-6.221	Roll:	-0.239	Pitch:	14.996	Yaw:	-254.843	Thrust:	100.000
Time:	2.002	Roll Set Point:	-0.002	Pitch Set Point:	-0.000	Yaw Set Point:	3.138	X_WP:	0.000	Y_WP:	0.000	Y_WP:	1.000	X:	0.021	Y:	-0.490	Z:	0.055	yaw:	-179.800	yaw rate:	0.055	Roll:	-0.658	Pitch:	14.945	Yaw:	-254.564	Thrust:	100.000
Time:	2.024	Roll Set Point:	-0.001	Pitch Set Point:	-0.000	Yaw Set Point:	3.139	X_WP:	0.000	Y_WP:	0.000	Y_WP:	1.000	X:	0.021	Y:	-0.490	Z:	0.055	yaw:	-179.827	yaw rate:	2.718	Roll:	-0.852	Pitch:	14.996	Yaw:	-255.731	Thrust:	100.000
Time:	2.043	Roll Set Point:	-0.002	Pitch Set Point:	-0.000	Yaw Set Point:	3.138	X_WP:	0.000	Y_WP:	0.000	Y_WP:	1.000	X:	0.021	Y:	-0.490	Z:	0.055	yaw:	-179.800	yaw rate:	-2.710	Roll:	-0.426	Pitch:	14.902	Yaw:	-254.291	Thrust:	100.000
Time:	2.061	Roll Set Point:	-0.002	Pitch Set Point:	-0.000	Yaw Set Point:	3.138	X_WP:	0.000	Y_WP:	0.000	Y_WP:	1.000	X:	0.021	Y:	-0.490	Z:	0.055	yaw:	-179.812	yaw rate:	1.212	Roll:	-0.733	Pitch:	14.914	Yaw:	-255.140	Thrust:	100.000
Time:	2.082	Roll Set Point:	-0.002	Pitch Set Point:	-0.000	Yaw Set Point:	3.138	X_WP:	0.000	Y_WP:	0.000	Y_WP:	1.000	X:	0.021	Y:	-0.490	Z:	0.055	yaw:	-179.809	yaw rate:	-0.253	Roll:	-0.653	Pitch:	14.994	Yaw:	-255.149	Thrust:	100.000
Time:	2.103	Roll Set Point:	-0.002	Pitch Set Point:	-0.000	Yaw Set Point:	3.138	X_WP:	0.000	Y_WP:	0.000	Y_WP:	1.000	X:	0.021	Y:	-0.490	Z:	0.055	yaw:	-179.810	yaw rate:	0.084	Roll:	-0.664	Pitch:	14.933	Yaw:	-255.008	Thrust:	100.000
Time:	2.122	Roll Set Point:	-0.002	Pitch Set Point:	-0.000	Yaw Set Point:	3.138	X_WP:	0.000	Y_WP:	0.000	Y_WP:	1.000	X:	0.021	Y:	-0.490	Z:	0.055	yaw:	-179.809	yaw rate:	-0.099	Roll:	-0.639	Pitch:	14.955	Yaw:	-255.161	Thrust:	100.000
Time:	2.142	Roll Set Point:	-0.002	Pitch Set Point:	-0.000	Yaw Set Point:	3.138	X_WP:	0.000	Y_WP:	0.000	Y_WP:	1.000	X:	0.021	Y:	-0.490	Z:	0.055	yaw:	-179.811	yaw rate:	0.200	Roll:	-0.680	Pitch:	14.958	Yaw:	-255.016	Thrust:	100.000
Time:	2.162	Roll Set Point:	-0.001	Pitch Set Point:	-0.000	Yaw Set Point:	3.139	X_WP:	0.000	Y_WP:	0.000	Y_WP:	1.000	X:	0.021	Y:	-0.490	Z:	0.055	yaw:	-179.859	yaw rate:	4.818	Roll:	-0.991	Pitch:	14.915	Yaw:	-255.694	Thrust:	100.000
Time:	2.185	Roll Set Point:	0.002	Pitch Set Point:	0.000	Yaw Set Point:	-3.138	X_WP:	0.000	Y_WP:	0.000	Y_WP:	1.000	X:	0.021	Y:	-0.490	Z:	0.055	yaw:	179.820	yaw rate:	-35967.962	Roll:	-2.996	Pitch:	14.904	Yaw:	4316.399	Thrust:	100.000
Time:	2.202	Roll Set Point:	-0.001	Pitch Set Point:	-0.000	Yaw Set Point:	3.139	X_WP:	0.000	Y_WP:	0.000	Y_WP:	1.000	X:	0.021	Y:	-0.490	Z:	0.055	yaw:	-179.857	yaw rate:	35967.697	Roll:	2.142	Pitch:	15.076	Yaw:	-5567.229	Thrust:	100.000
Time:	2.222	Roll Set Point:	-0.002	Pitch Set Point:	-0.000	Yaw Set Point:	3.138	X_WP:	0.000	Y_WP:	0.000	Y_WP:	1.000	X:	0.021	Y:	-0.490	Z:	0.055	yaw:	-179.804	yaw rate:	-5.290	Roll:	-0.327	Pitch:	14.960	Yaw:	-254.380	Thrust:	100.000
Time:	2.242	Roll Set Point:	-0.001	Pitch Set Point:	-0.000	Yaw Set Point:	3.139	X_WP:	0.000	Y_WP:	0.000	Y_WP:	1.000	X:	0.021	Y:	-0.490	Z:	0.055	yaw:	-179.852	yaw rate:	4.775	Roll:	-0.971	Pitch:	14.933	Yaw:	-255.685	Thrust:	100.000
Time:	2.262	Roll Set Point:	-0.002	Pitch Set Point:	-0.000	Yaw Set Point:	3.138	X_WP:	0.000	Y_WP:	0.000	Y_WP:	1.000	X:	0.021	Y:	-0.490	Z:	0.055	yaw:	-179.814	yaw rate:	-3.783	Roll:	-0.412	Pitch:	14.924	Yaw:	-254.464	Thrust:	100.000
Time:	2.286	Roll Set Point:	-0.002	Pitch Set Point:	-0.000	Yaw Set Point:	3.138	X_WP:	0.000	Y_WP:	0.000	Y_WP:	1.000	X:	0.021	Y:	-0.490	Z:	0.055	yaw:	-179.814	yaw rate:	0.029	Roll:	-0.694	Pitch:	15.095	Yaw:	-255.897	Thrust:	100.000
Time:	2.303	Roll Set Point:	-0.002	Pitch Set Point:	-0.000	Yaw Set Point:	3.138	X_WP:	0.000	Y_WP:	0.000	Y_WP:	1.000	X:	0.021	Y:	-0.490	Z:	0.055	yaw:	-179.820	yaw rate:	0.596	Roll:	-0.709	Pitch:	14.861	Yaw:	-254.509	Thrust:	100.000
Time:	2.322	Roll Set Point:	-0.002	Pitch Set Point:	-0.000	Yaw Set Point:	3.138	X_WP:	0.000	Y_WP:	0.000	Y_WP:	1.000	X:	0.021	Y:	-0.490	Z:	0.055	yaw:	-179.796	yaw rate:	-2.351	Roll:	-0.473	Pitch:	14.904	Yaw:	-254.422	Thrust:	100.000
Time:	2.342	Roll Set Point:	-0.002	Pitch Set Point:	-0.000	Yaw Set Point:	3.138	X_WP:	0.000	Y_WP:	0.000	Y_WP:	1.000	X:	0.021	Y:	-0.490	Z:	0.055	yaw:	-179.794	yaw rate:	-0.283	Roll:	-0.625	Pitch:	14.937	Yaw:	-254.927	Thrust:	100.000
Time:	2.361	Roll Set Point:	-0.002	Pitch Set Point:	-0.000	Yaw Set Point:	3.138	X_WP:	0.000	Y_WP:	0.000	Y_WP:	1.000	X:	0.021	Y:	-0.490	Z:	0.055	yaw:	-179.808	yaw rate:	1.452	Roll:	-0.784	Pitch:	14.976	Yaw:	-255.358	Thrust:	100.000
Time:	2.386	Roll Set Point:	-0.001	Pitch Set Point:	-0.000	Yaw Set Point:	3.140	X_WP:	0.000	Y_WP:	0.000	Y_WP:	1.000	X:	0.021	Y:	-0.490	Z:	0.055	yaw:	-179.931	yaw rate:	12.284	Roll:	-1.422	Pitch:	15.075	Yaw:	-257.388	Thrust:	100.000
Time:	2.401	Roll Set Point:	-0.002	Pitch Set Point:	-0.000	Yaw Set Point:	3.138	X_WP:	0.000	Y_WP:	0.000	Y_WP:	1.000	X:	0.021	Y:	-0.490	Z:	0.055	yaw:	-179.803	yaw rate:	-12.786	Roll:	0.385	Pitch:	14.830	Yaw:	-252.163	Thrust:	100.000
Time:	2.422	Roll Set Point:	-0.002	Pitch Set Point:	-0.000	Yaw Set Point:	3.138	X_WP:	0.000	Y_WP:	0.000	Y_WP:	1.000	X:	0.021	Y:	-0.490	Z:	0.055	yaw:	-179.803	yaw rate:	-0.018	Roll:	-0.660	Pitch:	14.981	Yaw:	-255.270	Thrust:	100.000
Time:	2.443	Roll Set Point:	-0.002	Pitch Set Point:	-0.000	Yaw Set Point:	3.138	X_WP:	0.000	Y_WP:	0.000	Y_WP:	1.000	X:	0.021	Y:	-0.490	Z:	0.055	yaw:	-179.812	yaw rate:	0.896	Roll:	-0.745	Pitch:	14.952	Yaw:	-255.315	Thrust:	100.000
Time:	2.462	Roll Set Point:	-0.001	Pitch Set Point:	-0.000	Yaw Set Point:	3.139	X_WP:	0.000	Y_WP:	0.000	Y_WP:	1.000	X:	0.021	Y:	-0.490	Z:	0.055	yaw:	-179.854	yaw rate:	4.198	Roll:	-0.957	Pitch:	14.900	Yaw:	-255.348	Thrust:	100.000
Time:	2.486	Roll Set Point:	-0.002	Pitch Set Point:	-0.000	Yaw Set Point:	3.138	X_WP:	0.000	Y_WP:	0.000	Y_WP:	1.000	X:	0.021	Y:	-0.490	Z:	0.055	yaw:	-179.804	yaw rate:	-4.966	Roll:	-0.398	Pitch:	15.087	Yaw:	-255.256	Thrust:	100.000
Time:	2.502	Roll Set Point:	-0.002	Pitch Set Point:	-0.000	Yaw Set Point:	3.138	X_WP:	0.000	Y_WP:	0.000	Y_WP:	1.000	X:	0.021	Y:	-0.490	Z:	0.055	yaw:	-179.817	yaw rate:	1.260	Roll:	-0.794	Pitch:	14.817	Yaw:	-254.617	Thrust:	100.000
Time:	2.521	Roll Set Point:	-0.002	Pitch Set Point:	-0.000	Yaw Set Point:	3.138	X_WP:	0.000	Y_WP:	0.000	Y_WP:	1.000	X:	0.021	Y:	-0.490	Z:	0.055	yaw:	-179.798	yaw rate:	-1.844	Roll:	-0.510	Pitch:	14.968	Yaw:	-254.721	Thrust:	100.000
Time:	2.543	Roll Set Point:	-0.002	Pitch Set Point:	-0.000	Yaw Set Point:	3.138	X_WP:	0.000	Y_WP:	0.000	Y_WP:	1.000	X:	0.021	Y:	-0.490	Z:	0.055	yaw:	-179.808	yaw rate:	0.978	Roll:	-0.775	Pitch:	14.972	Yaw:	-255.472	Thrust:	100.000
Time:	2.562	Roll Set Point:	-0.002	Pitch Set Point:	-0.000	Yaw Set Point:	3.138	X_WP:	0.000	Y_WP:	0.000	Y_WP:	1.000	X:	0.021	Y:	-0.490	Z:	0.055	yaw:	-179.820	yaw rate:	1.195	Roll:	-0.755	Pitch:	14.914	Yaw:	-254.893	Thrust:	100.000
Time:	2.584	Roll Set Point:	-0.002	Pitch Set Point:	-0.000	Yaw Set Point:	3.138	X_WP:	0.000	Y_WP:	0.000	Y_WP:	1.000	X:	0.021	Y:	-0.490	Z:	0.055	yaw:	-179.806	yaw rate:	-1.382	Roll:	-0.616	Pitch:	15.071	Yaw:	-255.572	Thrust:	100.000
Time:	2.602	Roll Set Point:	-0.001	Pitch Set Point:	-0.000	Yaw Set Point:	3.139	X_WP:	0.000	Y_WP:	0.000	Y_WP:	1.000	X:	0.021	Y:	-0.490	Z:	0.055	yaw:	-179.855	yaw rate:	4.880	Roll:	-1.032	Pitch:	14.836	Yaw:	-255.285	Thrust:	100.000
Time:	2.622	Roll Set Point:	-0.001	Pitch Set Point:	-0.000	Yaw Set Point:	3.139	X_WP:	0.000	Y_WP:	0.000	Y_WP:	1.000	X:	0.021	Y:	-0.490	Z:	0.055	yaw:	-179.867	yaw rate:	1.220	Roll:	-0.812	Pitch:	14.941	Yaw:	-255.414	Thrust:	100.000
Time:	2.643	Roll Set Point:	-0.002	Pitch Set Point:	-0.000	Yaw Set Point:	3.138	X_WP:	0.000	Y_WP:	0.000	Y_WP:	1.000	X:	0.021	Y:	-0.490	Z:	0.055	yaw:	-179.811	yaw rate:	-5.625	Roll:	-0.327	Pitch:	15.026	Yaw:	-254.483	Thrust:	100.000
Time:	2.661	Roll Set Point:	-0.002	Pitch Set Point:	-0.000	Yaw Set Point:	3.138	X_WP:	0.000	Y_WP:	0.000	Y_WP:	1.000	X:	0.021	Y:	-0.490	Z:	0.055	yaw:	-179.802	yaw rate:	-0.906	Roll:	-0.602	Pitch:	14.894	Yaw:	-254.636	Thrust:	100.000
Time:	2.683	Roll Set Point:	-0.002	Pitch Set Point:	-0.000	Yaw Set Point:	3.138	X_WP:	0.000	Y_WP:	0.000	Y_WP:	1.000	X:	0.021	Y:	-0.490	Z:	0.055	yaw:	-179.806	yaw rate:	0.393	Roll:	-0.741	Pitch:	15.017	Yaw:	-255.521	Thrust:	100.000
Time:	2.702	Roll Set Point:	-0.002	Pitch Set Point:	-0.000	Yaw Set Point:	3.138	X_WP:	0.000	Y_WP:	0.000	Y_WP:	1.000	X:	0.021	Y:	-0.490	Z:	0.055	yaw:	-179.814	yaw rate:	0.800	Roll:	-0.723	Pitch:	14.898	Yaw:	-254.849	Thrust:	100.000
Time:	2.721	Roll Set Point:	-0.002	Pitch Set Point:	-0.000	Yaw Set Point:	3.138	X_WP:	0.000	Y_WP:	0.000	Y_WP:	1.000	X:	0.021	Y:	-0.490	Z:	0.055	yaw:	-179.802	yaw rate:	-1.204	Roll:	-0.598	Pitch:	14.942	Yaw:	-254.812	Thrust:	100.000
Time:	2.746	Roll Set Point:	-0.002	Pitch Set Point:	-0.000	Yaw Set Point:	3.138	X_WP:	0.000	Y_WP:	0.000	Y_WP:	1.000	X:	0.021	Y:	-0.490	Z:	0.055	yaw:	-179.800	yaw rate:	-0.231	Roll:	-0.679	Pitch:	15.031	Yaw:	-255.838	Thrust:	100.000
Time:	2.761	Roll Set Point:	-0.002	Pitch Set Point:	-0.000	Yaw Set Point:	3.138	X_WP:	0.000	Y_WP:	0.000	Y_WP:	1.000	X:	0.021	Y:	-0.490	Z:	0.055	yaw:	-179.813	yaw rate:	1.370	Roll:	-0.802	Pitch:	14.843	Yaw:	-254.403	Thrust:	100.000
Time:	2.785	Roll Set Point:	-0.002	Pitch Set Point:	-0.000	Yaw Set Point:	3.138	X_WP:	0.000	Y_WP:	0.000	Y_WP:	1.000	X:	0.021	Y:	-0.490	Z:	0.055	yaw:	-179.804	yaw rate:	-0.956	Roll:	-0.644	Pitch:	15.099	Yaw:	-255.647	Thrust:	100.000
Time:	2.802	Roll Set Point:	-0.002	Pitch Set Point:	-0.000	Yaw Set Point:	3.138	X_WP:	0.000	Y_WP:	0.000	Y_WP:	1.000	X:	0.021	Y:	-0.490	Z:	0.055	yaw:	-179.797	yaw rate:	-0.648	Roll:	-0.589	Pitch:	14.804	Yaw:	-254.170	Thrust:	100.000
Time:	2.824	Roll Set Point:	-0.002	Pitch Set Point:	-0.000	Yaw Set Point:	3.138	X_WP:	0.000	Y_WP:	0.000	Y_WP:	1.000	X:	0.021	Y:	-0.490	Z:	0.055	yaw:	-179.807	yaw rate:	0.991	Roll:	-0.787	Pitch:	15.048	Yaw:	-255.789	Thrust:	100.000
Time:	2.844	Roll Set Point:	-0.002	Pitch Set Point:	-0.000	Yaw Set Point:	3.138	X_WP:	0.000	Y_WP:	0.000	Y_WP:	1.000	X:	0.021	Y:	-0.490	Z:	0.055	yaw:	-179.807	yaw rate:	0.010	Roll:	-0.691	Pitch:	14.992	Yaw:	-255.153	Thrust:	100.000
Time:	2.861	Roll Set Point:	-0.002	Pitch Set Point:	-0.000	Yaw Set Point:	3.138	X_WP:	0.000	Y_WP:	0.000	Y_WP:	1.000	X:	0.021	Y:	-0.490	Z:	0.055	yaw:	-179.818	yaw rate:	1.114	Roll:	-0.766	Pitch:	14.806	Yaw:	-254.565	Thrust:	100.000
Time:	2.885	Roll Set Point:	-0.002	Pitch Set Point:	-0.000	Yaw Set Point:	3.138	X_WP:	0.000	Y_WP:	0.000	Y_WP:	1.000	X:	0.021	Y:	-0.490	Z:	0.055	yaw:	-179.798	yaw rate:	-2.079	Roll:	-0.584	Pitch:	15.098	Yaw:	-255.595	Thrust:	100.000
Time:	2.902	Roll Set Point:	-0.001	Pitch Set Point:	-0.000	Yaw Set Point:	3.139	X_WP:	0.000	Y_WP:	0.000	Y_WP:	1.000	X:	0.021	Y:	-0.490	Z:	0.055	yaw:	-179.855	yaw rate:	5.760	Roll:	-1.139	Pitch:	14.834	Yaw:	-255.454	Thrust:	100.000
Time:	2.921	Roll Set Point:	-0.002	Pitch Set Point:	-0.000	Yaw Set Point:	3.138	X_WP:	0.000	Y_WP:	0.000	Y_WP:	1.000	X:	0.021	Y:	-0.490	Z:	0.055	yaw:	-179.812	yaw rate:	-4.324	Roll:	-0.428	Pitch:	14.936	Yaw:	-254.297	Thrust:	100.000
Time:	2.942	Roll Set Point:	-0.002	Pitch Set Point:	-0.000	Yaw Set Point:	3.138	X_WP:	0.000	Y_WP:	0.000	Y_WP:	1.000	X:	0.021	Y:	-0.490	Z:	0.055	yaw:	-179.810	yaw rate:	-0.174	Roll:	-0.674	Pitch:	15.005	Yaw:	-255.275	Thrust:	100.000
Time:	2.962	Roll Set Point:	-0.002	Pitch Set Point:	-0.000	Yaw Set Point:	3.138	X_WP:	0.000	Y_WP:	0.000	Y_WP:	1.000	X:	0.021	Y:	-0.490	Z:	0.055	yaw:	-179.803	yaw rate:	-0.758	Roll:	-0.649	Pitch:	14.922	Yaw:	-254.879	Thrust:	100.000
Time:	2.987	Roll Set Point:	-0.002	Pitch Set Point:	-0.000	Yaw Set Point:	3.138	X_WP:	0.000	Y_WP:	0.000	Y_WP:	1.000	X:	0.021	Y:	-0.490	Z:	0.055	yaw:	-179.791	yaw rate:	-1.120	Roll:	-0.633	Pitch:	15.122	Yaw:	-255.861	Thrust:	100.000
Time:	3.002	Roll Set Point:	-0.002	Pitch Set Point:	-0.000	Yaw Set Point:	3.138	X_WP:	0.000	Y_WP:	0.000	Y_WP:	1.000	X:	0.021	Y:	-0.490	Z:	0.055	yaw:	-179.813	yaw rate:	2.166	Roll:	-0.903	Pitch:	14.757	Yaw:	-254.472	Thrust:	100.000
Time:	3.023	Roll Set Point:	-0.001	Pitch Set Point:	-0.000	Yaw Set Point:	3.139	X_WP:	0.000	Y_WP:	0.000	Y_WP:	1.000	X:	0.021	Y:	-0.490	Z:	0.055	yaw:	-179.862	yaw rate:	4.922	Roll:	-1.018	Pitch:	14.991	Yaw:	-255.878	Thrust:	100.000
Time:	3.042	Roll Set Point:	-0.002	Pitch Set Point:	-0.000	Yaw Set Point:	3.138	X_WP:	0.000	Y_WP:	0.000	Y_WP:	1.000	X:	0.021	Y:	-0.490	Z:	0.055	yaw:	-179.815	yaw rate:	-4.756	Roll:	-0.374	Pitch:	14.958	Yaw:	-254.381	Thrust:	100.000
Time:	3.061	Roll Set Point:	-0.002	Pitch Set Point:	-0.000	Yaw Set Point:	3.138	X_WP:	0.000	Y_WP:	0.000	Y_WP:	1.000	X:	0.021	Y:	-0.490	Z:	0.055	yaw:	-179.799	yaw rate:	-1.621	Roll:	-0.579	Pitch:	14.909	Yaw:	-254.679	Thrust:	100.000
Time:	3.084	Roll Set Point:	-0.002	Pitch Set Point:	-0.000	Yaw Set Point:	3.138	X_WP:	0.000	Y_WP:	0.000	Y_WP:	1.000	X:	0.021	Y:	-0.490	Z:	0.055	yaw:	-179.811	yaw rate:	1.266	Roll:	-0.818	Pitch:	15.054	Yaw:	-255.631	Thrust:	100.000
Time:	3.102	Roll Set Point:	-0.002	Pitch Set Point:	-0.000	Yaw Set Point:	3.138	X_WP:	0.000	Y_WP:	0.000	Y_WP:	1.000	X:	0.021	Y:	-0.490	Z:	0.055	yaw:	-179.813	yaw rate:	0.184	Roll:	-0.695	Pitch:	14.848	Yaw:	-254.573	Thrust:	100.000
Time:	3.121	Roll Set Point:	-0.002	Pitch Set Point:	-0.000	Yaw Set Point:	3.138	X_WP:	0.000	Y_WP:	0.000	Y_WP:	1.000	X:	0.021	Y:	-0.490	Z:	0.055	yaw:	-179.808	yaw rate:	-0.481	Roll:	-0.657	Pitch:	14.976	Yaw:	-255.124	Thrust:	100.000
Time:	3.142	Roll Set Point:	-0.002	Pitch Set Point:	-0.000	Yaw Set Point:	3.138	X_WP:	0.000	Y_WP:	0.000	Y_WP:	1.000	X:	0.021	Y:	-0.490	Z:	0.055	yaw:	-179.808	yaw rate:	-0.031	Roll:	-0.723	Pitch:	14.937	Yaw:	-255.176	Thrust:	100.000
Time:	3.161	Roll Set Point:	-0.002	Pitch Set Point:	-0.000	Yaw Set Point:	3.138	X_WP:	0.000	Y_WP:	0.000	Y_WP:	1.000	X:	0.021	Y:	-0.490	Z:	0.055	yaw:	-179.814	yaw rate:	0.598	Roll:	-0.761	Pitch:	14.956	Yaw:	-254.952	Thrust:	100.000
Time:	3.187	Roll Set Point:	-0.002	Pitch Set Point:	-0.000	Yaw Set Point:	3.138	X_WP:	0.000	Y_WP:	0.000	Y_WP:	1.000	X:	0.021	Y:	-0.490	Z:	0.055	yaw:	-179.803	yaw rate:	-1.136	Roll:	-0.656	Pitch:	15.124	Yaw:	-255.953	Thrust:	100.000
Time:	3.202	Roll Set Point:	-0.002	Pitch Set Point:	-0.000	Yaw Set Point:	3.138	X_WP:	0.000	Y_WP:	0.000	Y_WP:	1.000	X:	0.021	Y:	-0.490	Z:	0.055	yaw:	-179.806	yaw rate:	0.334	Roll:	-0.706	Pitch:	14.770	Yaw:	-254.258	Thrust:	100.000
Time:	3.222	Roll Set Point:	-0.002	Pitch Set Point:	-0.000	Yaw Set Point:	3.138	X_WP:	0.000	Y_WP:	0.000	Y_WP:	1.000	X:	0.021	Y:	-0.490	Z:	0.055	yaw:	-179.810	yaw rate:	0.393	Roll:	-0.758	Pitch:	14.998	Yaw:	-255.128	Thrust:	100.000
Time:	3.243	Roll Set Point:	-0.002	Pitch Set Point:	-0.000	Yaw Set Point:	3.138	X_WP:	0.000	Y_WP:	0.000	Y_WP:	1.000	X:	0.021	Y:	-0.490	Z:	0.055	yaw:	-179.805	yaw rate:	-0.432	Roll:	-0.685	Pitch:	14.957	Yaw:	-255.218	Thrust:	100.000
Time:	3.262	Roll Set Point:	-0.002	Pitch Set Point:	-0.000	Yaw Set Point:	3.138	X_WP:	0.000	Y_WP:	0.000	Y_WP:	1.000	X:	0.021	Y:	-0.490	Z:	0.055	yaw:	-179.812	yaw rate:	0.630	Roll:	-0.752	Pitch:	14.912	Yaw:	-254.902	Thrust:	100.000
Time:	3.283	Roll Set Point:	-0.002	Pitch Set Point:	-0.000	Yaw Set Point:	3.138	X_WP:	0.000	Y_WP:	0.000	Y_WP:	1.000	X:	0.021	Y:	-0.490	Z:	0.055	yaw:	-179.797	yaw rate:	-1.528	Roll:	-0.619	Pitch:	15.022	Yaw:	-255.179	Thrust:	100.000
Time:	3.309	Roll Set Point:	-0.002	Pitch Set Point:	-0.000	Yaw Set Point:	3.138	X_WP:	0.000	Y_WP:	0.000	Y_WP:	1.000	X:	0.021	Y:	-0.490	Z:	0.055	yaw:	-179.812	yaw rate:	1.526	Roll:	-0.854	Pitch:	15.159	Yaw:	-256.251	Thrust:	100.000
Time:	3.321	Roll Set Point:	-0.001	Pitch Set Point:	-0.000	Yaw Set Point:	3.139	X_WP:	0.000	Y_WP:	0.000	Y_WP:	1.000	X:	0.021	Y:	-0.490	Z:	0.055	yaw:	-179.846	yaw rate:	3.448	Roll:	-0.982	Pitch:	14.658	Yaw:	-254.419	Thrust:	100.000
Time:	3.341	Roll Set Point:	-0.002	Pitch Set Point:	-0.000	Yaw Set Point:	3.138	X_WP:	0.000	Y_WP:	0.000	Y_WP:	1.000	X:	0.021	Y:	-0.490	Z:	0.055	yaw:	-179.816	yaw rate:	-3.061	Roll:	-0.536	Pitch:	14.962	Yaw:	-254.584	Thrust:	100.000
Time:	3.362	Roll Set Point:	-0.002	Pitch Set Point:	-0.000	Yaw Set Point:	3.138	X_WP:	0.000	Y_WP:	0.000	Y_WP:	1.000	X:	0.021	Y:	-0.490	Z:	0.055	yaw:	-179.805	yaw rate:	-1.015	Roll:	-0.654	Pitch:	14.936	Yaw:	-254.958	Thrust:	100.000
Time:	3.386	Roll Set Point:	-0.001	Pitch Set Point:	-0.000	Yaw Set Point:	3.139	X_WP:	0.000	Y_WP:	0.000	Y_WP:	1.000	X:	0.021	Y:	-0.490	Z:	0.055	yaw:	-179.861	yaw rate:	5.522	Roll:	-1.070	Pitch:	15.074	Yaw:	-256.549	Thrust:	100.000
Time:	3.403	Roll Set Point:	-0.002	Pitch Set Point:	-0.000	Yaw Set Point:	3.138	X_WP:	0.000	Y_WP:	0.000	Y_WP:	1.000	X:	0.021	Y:	-0.490	Z:	0.055	yaw:	-179.811	yaw rate:	-4.936	Roll:	-0.375	Pitch:	14.877	Yaw:	-253.586	Thrust:	100.000
Time:	3.423	Roll Set Point:	-0.001	Pitch Set Point:	-0.000	Yaw Set Point:	3.139	X_WP:	0.000	Y_WP:	0.000	Y_WP:	1.000	X:	0.021	Y:	-0.490	Z:	0.055	yaw:	-179.862	yaw rate:	5.096	Roll:	-1.069	Pitch:	14.952	Yaw:	-255.899	Thrust:	100.000
Time:	3.443	Roll Set Point:	-0.002	Pitch Set Point:	-0.000	Yaw Set Point:	3.138	X_WP:	0.000	Y_WP:	0.000	Y_WP:	1.000	X:	0.021	Y:	-0.490	Z:	0.055	yaw:	-179.797	yaw rate:	-6.518	Roll:	-0.280	Pitch:	14.969	Yaw:	-254.092	Thrust:	100.000
Time:	3.461	Roll Set Point:	-0.002	Pitch Set Point:	-0.000	Yaw Set Point:	3.138	X_WP:	0.000	Y_WP:	0.000	Y_WP:	1.000	X:	0.021	Y:	-0.490	Z:	0.055	yaw:	-179.801	yaw rate:	0.379	Roll:	-0.740	Pitch:	14.894	Yaw:	-254.946	Thrust:	100.000
Time:	3.483	Roll Set Point:	-0.002	Pitch Set Point:	-0.000	Yaw Set Point:	3.138	X_WP:	0.000	Y_WP:	0.000	Y_WP:	1.000	X:	0.021	Y:	-0.490	Z:	0.055	yaw:	-179.821	yaw rate:	2.003	Roll:	-0.882	Pitch:	15.044	Yaw:	-255.721	Thrust:	100.000
Time:	3.502	Roll Set Point:	-0.002	Pitch Set Point:	-0.000	Yaw Set Point:	3.138	X_WP:	0.000	Y_WP:	0.000	Y_WP:	1.000	X:	0.021	Y:	-0.490	Z:	0.055	yaw:	-179.809	yaw rate:	-1.176	Roll:	-0.618	Pitch:	14.896	Yaw:	-254.583	Thrust:	100.000
Time:	3.522	Roll Set Point:	-0.002	Pitch Set Point:	-0.000	Yaw Set Point:	3.138	X_WP:	0.000	Y_WP:	0.000	Y_WP:	1.000	X:	0.021	Y:	-0.490	Z:	0.055	yaw:	-179.797	yaw rate:	-1.190	Roll:	-0.622	Pitch:	14.955	Yaw:	-254.853	Thrust:	100.000
Time:	3.542	Roll Set Point:	-0.002	Pitch Set Point:	-0.000	Yaw Set Point:	3.138	X_WP:	0.000	Y_WP:	0.000	Y_WP:	1.000	X:	0.021	Y:	-0.490	Z:	0.055	yaw:	-179.803	yaw rate:	0.558	Roll:	-0.783	Pitch:	14.914	Yaw:	-254.958	Thrust:	100.000
Time:	3.562	Roll Set Point:	-0.001	Pitch Set Point:	-0.000	Yaw Set Point:	3.139	X_WP:	0.000	Y_WP:	0.000	Y_WP:	1.000	X:	0.021	Y:	-0.490	Z:	0.055	yaw:	-179.859	yaw rate:	5.643	Roll:	-1.099	Pitch:	14.958	Yaw:	-255.979	Thrust:	100.000
Time:	3.584	Roll Set Point:	-0.002	Pitch Set Point:	-0.000	Yaw Set Point:	3.138	X_WP:	0.000	Y_WP:	0.000	Y_WP:	1.000	X:	0.021	Y:	-0.490	Z:	0.055	yaw:	-179.801	yaw rate:	-5.856	Roll:	-0.384	Pitch:	15.017	Yaw:	-254.682	Thrust:	100.000
Time:	3.603	Roll Set Point:	-0.002	Pitch Set Point:	-0.000	Yaw Set Point:	3.138	X_WP:	0.000	Y_WP:	0.000	Y_WP:	1.000	X:	0.021	Y:	-0.490	Z:	0.055	yaw:	-179.814	yaw rate:	1.326	Roll:	-0.836	Pitch:	14.916	Yaw:	-254.997	Thrust:	100.000
Time:	3.621	Roll Set Point:	-0.002	Pitch Set Point:	-0.000	Yaw Set Point:	3.138	X_WP:	0.000	Y_WP:	0.000	Y_WP:	1.000	X:	0.021	Y:	-0.490	Z:	0.055	yaw:	-179.814	yaw rate:	0.010	Roll:	-0.729	Pitch:	14.934	Yaw:	-254.985	Thrust:	100.000
Time:	3.643	Roll Set Point:	-0.002	Pitch Set Point:	-0.000	Yaw Set Point:	3.138	X_WP:	0.000	Y_WP:	0.000	Y_WP:	1.000	X:	0.021	Y:	-0.490	Z:	0.055	yaw:	-179.806	yaw rate:	-0.802	Roll:	-0.684	Pitch:	15.025	Yaw:	-255.306	Thrust:	100.000
Time:	3.661	Roll Set Point:	-0.002	Pitch Set Point:	-0.000	Yaw Set Point:	3.138	X_WP:	0.000	Y_WP:	0.000	Y_WP:	1.000	X:	0.021	Y:	-0.490	Z:	0.055	yaw:	-179.797	yaw rate:	-0.905	Roll:	-0.629	Pitch:	14.860	Yaw:	-254.516	Thrust:	100.000
Time:	3.685	Roll Set Point:	-0.002	Pitch Set Point:	-0.000	Yaw Set Point:	3.138	X_WP:	0.000	Y_WP:	0.000	Y_WP:	1.000	X:	0.021	Y:	-0.490	Z:	0.055	yaw:	-179.804	yaw rate:	0.706	Roll:	-0.812	Pitch:	15.104	Yaw:	-255.862	Thrust:	100.000
Time:	3.702	Roll Set Point:	-0.002	Pitch Set Point:	-0.000	Yaw Set Point:	3.138	X_WP:	0.000	Y_WP:	0.000	Y_WP:	1.000	X:	0.021	Y:	-0.490	Z:	0.055	yaw:	-179.811	yaw rate:	0.709	Roll:	-0.771	Pitch:	14.830	Yaw:	-254.505	Thrust:	100.000
Time:	3.721	Roll Set Point:	-0.002	Pitch Set Point:	-0.000	Yaw Set Point:	3.138	X_WP:	0.000	Y_WP:	0.000	Y_WP:	1.000	X:	0.021	Y:	-0.490	Z:	0.055	yaw:	-179.806	yaw rate:	-0.507	Roll:	-0.691	Pitch:	14.953	Yaw:	-255.005	Thrust:	100.000
Time:	3.742	Roll Set Point:	-0.002	Pitch Set Point:	-0.000	Yaw Set Point:	3.138	X_WP:	0.000	Y_WP:	0.000	Y_WP:	1.000	X:	0.021	Y:	-0.490	Z:	0.055	yaw:	-179.813	yaw rate:	0.679	Roll:	-0.778	Pitch:	14.922	Yaw:	-254.999	Thrust:	100.000
Time:	3.761	Roll Set Point:	-0.001	Pitch Set Point:	-0.000	Yaw Set Point:	3.139	X_WP:	0.000	Y_WP:	0.000	Y_WP:	1.000	X:	0.021	Y:	-0.490	Z:	0.055	yaw:	-179.868	yaw rate:	5.466	Roll:	-1.131	Pitch:	14.930	Yaw:	-255.967	Thrust:	100.000
Time:	3.784	Roll Set Point:	-0.002	Pitch Set Point:	-0.000	Yaw Set Point:	3.138	X_WP:	0.000	Y_WP:	0.000	Y_WP:	1.000	X:	0.021	Y:	-0.490	Z:	0.055	yaw:	-179.793	yaw rate:	-7.453	Roll:	-0.273	Pitch:	15.064	Yaw:	-254.582	Thrust:	100.000
Time:	3.803	Roll Set Point:	-0.001	Pitch Set Point:	-0.000	Yaw Set Point:	3.139	X_WP:	0.000	Y_WP:	0.000	Y_WP:	1.000	X:	0.021	Y:	-0.490	Z:	0.055	yaw:	-179.860	yaw rate:	6.712	Roll:	-1.236	Pitch:	14.864	Yaw:	-255.715	Thrust:	100.000
Time:	3.823	Roll Set Point:	-0.002	Pitch Set Point:	-0.000	Yaw Set Point:	3.138	X_WP:	0.000	Y_WP:	0.000	Y_WP:	1.000	X:	0.021	Y:	-0.490	Z:	0.055	yaw:	-179.791	yaw rate:	-6.909	Roll:	-0.297	Pitch:	15.017	Yaw:	-254.397	Thrust:	100.000
Time:	3.843	Roll Set Point:	-0.002	Pitch Set Point:	-0.000	Yaw Set Point:	3.138	X_WP:	0.000	Y_WP:	0.000	Y_WP:	1.000	X:	0.021	Y:	-0.490	Z:	0.055	yaw:	-179.800	yaw rate:	0.862	Roll:	-0.805	Pitch:	14.923	Yaw:	-255.209	Thrust:	100.000
Time:	3.861	Roll Set Point:	-0.002	Pitch Set Point:	-0.000	Yaw Set Point:	3.138	X_WP:	0.000	Y_WP:	0.000	Y_WP:	1.000	X:	0.021	Y:	-0.490	Z:	0.055	yaw:	-179.811	yaw rate:	1.102	Roll:	-0.820	Pitch:	14.912	Yaw:	-254.902	Thrust:	100.000
Time:	3.885	Roll Set Point:	-0.002	Pitch Set Point:	-0.000	Yaw Set Point:	3.138	X_WP:	0.000	Y_WP:	0.000	Y_WP:	1.000	X:	0.021	Y:	-0.490	Z:	0.055	yaw:	-179.813	yaw rate:	0.276	Roll:	-0.800	Pitch:	15.085	Yaw:	-255.748	Thrust:	100.000
Time:	3.902	Roll Set Point:	-0.002	Pitch Set Point:	-0.000	Yaw Set Point:	3.138	X_WP:	0.000	Y_WP:	0.000	Y_WP:	1.000	X:	0.021	Y:	-0.490	Z:	0.055	yaw:	-179.807	yaw rate:	-0.669	Roll:	-0.662	Pitch:	14.845	Yaw:	-254.347	Thrust:	100.000
Time:	3.922	Roll Set Point:	-0.002	Pitch Set Point:	-0.000	Yaw Set Point:	3.138	X_WP:	0.000	Y_WP:	0.000	Y_WP:	1.000	X:	0.021	Y:	-0.490	Z:	0.055	yaw:	-179.802	yaw rate:	-0.467	Roll:	-0.686	Pitch:	14.959	Yaw:	-255.005	Thrust:	100.000
Time:	3.942	Roll Set Point:	-0.001	Pitch Set Point:	-0.000	Yaw Set Point:	3.139	X_WP:	0.000	Y_WP:	0.000	Y_WP:	1.000	X:	0.021	Y:	-0.490	Z:	0.055	yaw:	-179.859	yaw rate:	5.718	Roll:	-1.149	Pitch:	14.894	Yaw:	-255.756	Thrust:	100.000
Time:	3.961	Roll Set Point:	0.002	Pitch Set Point:	0.000	Yaw Set Point:	-3.138	X_WP:	0.000	Y_WP:	0.000	Y_WP:	1.000	X:	0.021	Y:	-0.490	Z:	0.055	yaw:	179.815	yaw rate:	-35967.386	Roll:	-3.386	Pitch:	14.775	Yaw:	4910.899	Thrust:	100.000
Time:	3.982	Roll Set Point:	-0.002	Pitch Set Point:	-0.000	Yaw Set Point:	3.138	X_WP:	0.000	Y_WP:	0.000	Y_WP:	1.000	X:	0.021	Y:	-0.490	Z:	0.055	yaw:	-179.804	yaw rate:	35961.894	Roll:	2.065	Pitch:	15.173	Yaw:	-4794.587	Thrust:	100.000
Time:	4.003	Roll Set Point:	-0.002	Pitch Set Point:	-0.000	Yaw Set Point:	3.138	X_WP:	0.000	Y_WP:	0.000	Y_WP:	1.000	X:	0.021	Y:	-0.490	Z:	0.055	yaw:	-179.814	yaw rate:	0.991	Roll:	-0.827	Pitch:	14.973	Yaw:	-255.319	Thrust:	100.000
Time:	4.030	Roll Set Point:	-0.002	Pitch Set Point:	-0.000	Yaw Set Point:	3.138	X_WP:	0.000	Y_WP:	0.000	Y_WP:	1.000	X:	0.021	Y:	-0.490	Z:	0.055	yaw:	-179.817	yaw rate:	0.275	Roll:	-0.842	Pitch:	15.218	Yaw:	-256.631	Thrust:	100.000
Time:	4.044	Roll Set Point:	-0.002	Pitch Set Point:	-0.000	Yaw Set Point:	3.138	X_WP:	0.000	Y_WP:	0.000	Y_WP:	1.000	X:	0.021	Y:	-0.490	Z:	0.055	yaw:	-179.798	yaw rate:	-1.927	Roll:	-0.456	Pitch:	14.766	Yaw:	-253.546	Thrust:	100.000
Time:	4.062	Roll Set Point:	-0.002	Pitch Set Point:	-0.000	Yaw Set Point:	3.138	X_WP:	0.000	Y_WP:	0.000	Y_WP:	1.000	X:	0.021	Y:	-0.490	Z:	0.055	yaw:	-179.793	yaw rate:	-0.446	Roll:	-0.699	Pitch:	14.878	Yaw:	-254.610	Thrust:	100.000
Time:	4.085	Roll Set Point:	-0.002	Pitch Set Point:	-0.000	Yaw Set Point:	3.138	X_WP:	0.000	Y_WP:	0.000	Y_WP:	1.000	X:	0.021	Y:	-0.490	Z:	0.055	yaw:	-179.803	yaw rate:	1.008	Roll:	-0.863	Pitch:	15.016	Yaw:	-255.585	Thrust:	100.000
Time:	4.111	Roll Set Point:	-0.002	Pitch Set Point:	-0.000	Yaw Set Point:	3.138	X_WP:	0.000	Y_WP:	0.000	Y_WP:	1.000	X:	0.021	Y:	-0.490	Z:	0.055	yaw:	-179.818	yaw rate:	1.463	Roll:	-0.892	Pitch:	15.173	Yaw:	-256.492	Thrust:	100.000
Time:	4.130	Roll Set Point:	-0.002	Pitch Set Point:	-0.000	Yaw Set Point:	3.138	X_WP:	0.000	Y_WP:	0.000	Y_WP:	1.000	X:	0.021	Y:	-0.490	Z:	0.055	yaw:	-179.806	yaw rate:	-1.237	Roll:	-0.657	Pitch:	14.947	Yaw:	-254.679	Thrust:	100.000
Time:	4.152	Roll Set Point:	-0.001	Pitch Set Point:	-0.000	Yaw Set Point:	3.139	X_WP:	0.000	Y_WP:	0.000	Y_WP:	1.000	X:	0.021	Y:	-0.490	Z:	0.055	yaw:	-179.855	yaw rate:	4.924	Roll:	-1.098	Pitch:	14.996	Yaw:	-255.983	Thrust:	100.000
Time:	4.170	Roll Set Point:	-0.001	Pitch Set Point:	-0.000	Yaw Set Point:	3.139	X_WP:	0.000	Y_WP:	0.000	Y_WP:	1.000	X:	0.021	Y:	-0.490	Z:	0.055	yaw:	-179.865	yaw rate:	1.013	Roll:	-0.808	Pitch:	14.855	Yaw:	-255.082	Thrust:	100.000
Time:	4.190	Roll Set Point:	-0.002	Pitch Set Point:	-0.000	Yaw Set Point:	3.138	X_WP:	0.000	Y_WP:	0.000	Y_WP:	1.000	X:	0.021	Y:	-0.490	Z:	0.055	yaw:	-179.805	yaw rate:	-5.981	Roll:	-0.382	Pitch:	15.001	Yaw:	-254.282	Thrust:	100.000
Time:	4.210	Roll Set Point:	-0.001	Pitch Set Point:	-0.000	Yaw Set Point:	3.139	X_WP:	0.000	Y_WP:	0.000	Y_WP:	1.000	X:	0.021	Y:	-0.490	Z:	0.055	yaw:	-179.853	yaw rate:	4.786	Roll:	-1.068	Pitch:	14.965	Yaw:	-255.789	Thrust:	100.000
Time:	4.230	Roll Set Point:	-0.002	Pitch Set Point:	-0.000	Yaw Set Point:	3.138	X_WP:	0.000	Y_WP:	0.000	Y_WP:	1.000	X:	0.021	Y:	-0.490	Z:	0.055	yaw:	-179.802	yaw rate:	-5.119	Roll:	-0.414	Pitch:	14.943	Yaw:	-254.192	Thrust:	100.000
Time:	4.253	Roll Set Point:	-0.002	Pitch Set Point:	-0.000	Yaw Set Point:	3.138	X_WP:	0.000	Y_WP:	0.000	Y_WP:	1.000	X:	0.021	Y:	-0.490	Z:	0.055	yaw:	-179.802	yaw rate:	-0.026	Roll:	-0.774	Pitch:	15.059	Yaw:	-255.720	Thrust:	100.000
Time:	4.270	Roll Set Point:	-0.002	Pitch Set Point:	-0.000	Yaw Set Point:	3.138	X_WP:	0.000	Y_WP:	0.000	Y_WP:	1.000	X:	0.021	Y:	-0.490	Z:	0.055	yaw:	-179.797	yaw rate:	-0.508	Roll:	-0.692	Pitch:	14.862	Yaw:	-254.408	Thrust:	100.000
Time:	4.290	Roll Set Point:	-0.001	Pitch Set Point:	-0.000	Yaw Set Point:	3.139	X_WP:	0.000	Y_WP:	0.000	Y_WP:	1.000	X:	0.021	Y:	-0.490	Z:	0.055	yaw:	-179.861	yaw rate:	6.494	Roll:	-1.219	Pitch:	14.916	Yaw:	-255.921	Thrust:	100.000
Time:	4.304	Roll Set Point:	-0.002	Pitch Set Point:	-0.000	Yaw Set Point:	3.138	X_WP:	0.000	Y_WP:	0.000	Y_WP:	1.000	X:	0.021	Y:	-0.490	Z:	0.055	yaw:	-179.794	yaw rate:	-6.777	Roll:	0.009	Pitch:	14.714	Yaw:	-252.214	Thrust:	100.000
Time:	4.323	Roll Set Point:	0.002	Pitch Set Point:	0.000	Yaw Set Point:	-3.138	X_WP:	0.000	Y_WP:	0.000	Y_WP:	1.000	X:	0.021	Y:	-0.490	Z:	0.055	yaw:	179.816	yaw rate:	-35960.960	Roll:	-3.805	Pitch:	14.747	Yaw:	4870.775	Thrust:	100.000
Time:	4.349	Roll Set Point:	0.002	Pitch Set Point:	0.000	Yaw Set Point:	-3.138	X_WP:	0.000	Y_WP:	0.000	Y_WP:	1.000	X:	0.021	Y:	-0.490	Z:	0.055	yaw:	179.816	yaw rate:	0.030	Roll:	-0.885	Pitch:	15.099	Yaw:	247.750	Thrust:	100.000
Time:	4.364	Roll Set Point:	0.002	Pitch Set Point:	0.000	Yaw Set Point:	-3.138	X_WP:	0.000	Y_WP:	0.000	Y_WP:	1.000	X:	0.021	Y:	-0.490	Z:	0.055	yaw:	179.805	yaw rate:	1.020	Roll:	-0.937	Pitch:	14.837	Yaw:	249.640	Thrust:	100.000
Time:	4.384	Roll Set Point:	0.002	Pitch Set Point:	0.000	Yaw Set Point:	-3.138	X_WP:	0.000	Y_WP:	0.000	Y_WP:	1.000	X:	0.021	Y:	-0.490	Z:	0.055	yaw:	179.815	yaw rate:	-1.003	Roll:	-0.800	Pitch:	14.932	Yaw:	250.970	Thrust:	100.000
Time:	4.405	Roll Set Point:	0.002	Pitch Set Point:	0.000	Yaw Set Point:	-3.138	X_WP:	0.000	Y_WP:	0.000	Y_WP:	1.000	X:	0.021	Y:	-0.490	Z:	0.055	yaw:	179.812	yaw rate:	0.376	Roll:	-0.896	Pitch:	14.966	Yaw:	252.076	Thrust:	100.000
Time:	4.424	Roll Set Point:	0.002	Pitch Set Point:	0.000	Yaw Set Point:	-3.138	X_WP:	0.000	Y_WP:	0.000	Y_WP:	1.000	X:	0.021	Y:	-0.490	Z:	0.055	yaw:	179.814	yaw rate:	-0.242	Roll:	-0.844	Pitch:	14.899	Yaw:	252.958	Thrust:	100.000
Time:	4.450	Roll Set Point:	0.002	Pitch Set Point:	0.000	Yaw Set Point:	-3.138	X_WP:	0.000	Y_WP:	0.000	Y_WP:	1.000	X:	0.021	Y:	-0.490	Z:	0.055	yaw:	179.821	yaw rate:	-0.676	Roll:	-0.872	Pitch:	15.155	Yaw:	253.754	Thrust:	100.000
Time:	4.463	Roll Set Point:	0.002	Pitch Set Point:	0.000	Yaw Set Point:	-3.138	X_WP:	0.000	Y_WP:	0.000	Y_WP:	1.000	X:	0.021	Y:	-0.490	Z:	0.055	yaw:	179.822	yaw rate:	-0.151	Roll:	-0.787	Pitch:	14.704	Yaw:	252.414	Thrust:	100.000
Time:	4.485	Roll Set Point:	0.001	Pitch Set Point:	0.000	Yaw Set Point:	-3.139	X_WP:	0.000	Y_WP:	0.000	Y_WP:	1.000	X:	0.021	Y:	-0.490	Z:	0.055	yaw:	179.826	yaw rate:	-0.332	Roll:	-0.883	Pitch:	15.023	Yaw:	253.345	Thrust:	100.000
Time:	4.503	Roll Set Point:	0.002	Pitch Set Point:	0.000	Yaw Set Point:	-3.138	X_WP:	0.000	Y_WP:	0.000	Y_WP:	1.000	X:	0.021	Y:	-0.490	Z:	0.055	yaw:	179.811	yaw rate:	1.494	Roll:	-0.969	Pitch:	14.863	Yaw:	252.611	Thrust:	100.000
Time:	4.523	Roll Set Point:	0.002	Pitch Set Point:	0.000	Yaw Set Point:	-3.138	X_WP:	0.000	Y_WP:	0.000	Y_WP:	1.000	X:	0.021	Y:	-0.490	Z:	0.055	yaw:	179.792	yaw rate:	1.906	Roll:	-1.062	Pitch:	15.032	Yaw:	252.857	Thrust:	100.000
Time:	4.542	Roll Set Point:	0.002	Pitch Set Point:	0.000	Yaw Set Point:	-3.138	X_WP:	0.000	Y_WP:	0.000	Y_WP:	1.000	X:	0.021	Y:	-0.490	Z:	0.055	yaw:	179.793	yaw rate:	-0.174	Roll:	-0.799	Pitch:	14.881	Yaw:	252.987	Thrust:	100.000
Time:	4.562	Roll Set Point:	0.002	Pitch Set Point:	0.000	Yaw Set Point:	-3.138	X_WP:	0.000	Y_WP:	0.000	Y_WP:	1.000	X:	0.021	Y:	-0.490	Z:	0.055	yaw:	179.798	yaw rate:	-0.445	Roll:	-0.853	Pitch:	14.965	Yaw:	253.078	Thrust:	100.000
Time:	4.582	Roll Set Point:	0.002	Pitch Set Point:	0.000	Yaw Set Point:	-3.138	X_WP:	0.000	Y_WP:	0.000	Y_WP:	1.000	X:	0.021	Y:	-0.490	Z:	0.055	yaw:	179.803	yaw rate:	-0.550	Roll:	-0.825	Pitch:	14.932	Yaw:	253.197	Thrust:	100.000
Time:	4.603	Roll Set Point:	0.002	Pitch Set Point:	0.000	Yaw Set Point:	-3.138	X_WP:	0.000	Y_WP:	0.000	Y_WP:	1.000	X:	0.021	Y:	-0.490	Z:	0.055	yaw:	179.819	yaw rate:	-1.522	Roll:	-0.781	Pitch:	14.967	Yaw:	253.296	Thrust:	100.000
Time:	4.623	Roll Set Point:	0.002	Pitch Set Point:	0.000	Yaw Set Point:	-3.138	X_WP:	0.000	Y_WP:	0.000	Y_WP:	1.000	X:	0.021	Y:	-0.490	Z:	0.055	yaw:	179.812	yaw rate:	0.664	Roll:	-0.913	Pitch:	14.921	Yaw:	252.989	Thrust:	100.000
Time:	4.644	Roll Set Point:	0.002	Pitch Set Point:	0.000	Yaw Set Point:	-3.138	X_WP:	0.000	Y_WP:	0.000	Y_WP:	1.000	X:	0.021	Y:	-0.490	Z:	0.055	yaw:	179.821	yaw rate:	-0.946	Roll:	-0.820	Pitch:	14.963	Yaw:	253.201	Thrust:	100.000
Time:	4.663	Roll Set Point:	0.002	Pitch Set Point:	0.000	Yaw Set Point:	-3.138	X_WP:	0.000	Y_WP:	0.000	Y_WP:	1.000	X:	0.021	Y:	-0.490	Z:	0.055	yaw:	179.812	yaw rate:	0.971	Roll:	-0.964	Pitch:	14.915	Yaw:	252.911	Thrust:	100.000
Time:	4.684	Roll Set Point:	0.002	Pitch Set Point:	0.000	Yaw Set Point:	-3.138	X_WP:	0.000	Y_WP:	0.000	Y_WP:	1.000	X:	0.021	Y:	-0.490	Z:	0.055	yaw:	179.820	yaw rate:	-0.823	Roll:	-0.823	Pitch:	15.013	Yaw:	253.340	Thrust:	100.000
Time:	4.703	Roll Set Point:	0.002	Pitch Set Point:	0.000	Yaw Set Point:	-3.138	X_WP:	0.000	Y_WP:	0.000	Y_WP:	1.000	X:	0.021	Y:	-0.490	Z:	0.055	yaw:	179.811	yaw rate:	0.905	Roll:	-0.928	Pitch:	14.866	Yaw:	252.764	Thrust:	100.000
Time:	4.723	Roll Set Point:	0.002	Pitch Set Point:	0.000	Yaw Set Point:	-3.138	X_WP:	0.000	Y_WP:	0.000	Y_WP:	1.000	X:	0.021	Y:	-0.490	Z:	0.055	yaw:	179.816	yaw rate:	-0.487	Roll:	-0.860	Pitch:	14.980	Yaw:	253.142	Thrust:	100.000
Time:	4.746	Roll Set Point:	0.002	Pitch Set Point:	0.000	Yaw Set Point:	-3.138	X_WP:	0.000	Y_WP:	0.000	Y_WP:	1.000	X:	0.021	Y:	-0.490	Z:	0.055	yaw:	179.816	yaw rate:	-0.061	Roll:	-0.928	Pitch:	15.071	Yaw:	253.430	Thrust:	100.000
Time:	4.763	Roll Set Point:	0.002	Pitch Set Point:	0.000	Yaw Set Point:	-3.138	X_WP:	0.000	Y_WP:	0.000	Y_WP:	1.000	X:	0.021	Y:	-0.490	Z:	0.055	yaw:	179.816	yaw rate:	-0.004	Roll:	-0.844	Pitch:	14.820	Yaw:	252.726	Thrust:	100.000
Time:	4.789	Roll Set Point:	0.001	Pitch Set Point:	0.000	Yaw Set Point:	-3.139	X_WP:	0.000	Y_WP:	0.000	Y_WP:	1.000	X:	0.021	Y:	-0.490	Z:	0.055	yaw:	179.826	yaw rate:	-0.913	Roll:	-0.834	Pitch:	15.030	Yaw:	253.753	Thrust:	100.000
Time:	4.804	Roll Set Point:	0.002	Pitch Set Point:	0.000	Yaw Set Point:	-3.138	X_WP:	0.000	Y_WP:	0.000	Y_WP:	1.000	X:	0.021	Y:	-0.490	Z:	0.055	yaw:	179.812	yaw rate:	1.308	Roll:	-0.990	Pitch:	14.898	Yaw:	252.348	Thrust:	100.000
Time:	4.824	Roll Set Point:	0.002	Pitch Set Point:	0.000	Yaw Set Point:	-3.138	X_WP:	0.000	Y_WP:	0.000	Y_WP:	1.000	X:	0.021	Y:	-0.490	Z:	0.055	yaw:	179.808	yaw rate:	0.433	Roll:	-0.927	Pitch:	14.933	Yaw:	252.984	Thrust:	100.000
Time:	4.848	Roll Set Point:	0.002	Pitch Set Point:	0.000	Yaw Set Point:	-3.138	X_WP:	0.000	Y_WP:	0.000	Y_WP:	1.000	X:	0.021	Y:	-0.490	Z:	0.055	yaw:	179.820	yaw rate:	-1.222	Roll:	-0.838	Pitch:	15.063	Yaw:	253.619	Thrust:	100.000
Time:	4.864	Roll Set Point:	0.002	Pitch Set Point:	0.000	Yaw Set Point:	-3.138	X_WP:	0.000	Y_WP:	0.000	Y_WP:	1.000	X:	0.021	Y:	-0.490	Z:	0.055	yaw:	179.823	yaw rate:	-0.228	Roll:	-0.823	Pitch:	14.823	Yaw:	252.668	Thrust:	100.000
Time:	4.887	Roll Set Point:	0.002	Pitch Set Point:	0.000	Yaw Set Point:	-3.138	X_WP:	0.000	Y_WP:	0.000	Y_WP:	1.000	X:	0.021	Y:	-0.490	Z:	0.055	yaw:	179.809	yaw rate:	1.365	Roll:	-1.041	Pitch:	15.077	Yaw:	253.279	Thrust:	100.000
Time:	4.904	Roll Set Point:	0.001	Pitch Set Point:	0.000	Yaw Set Point:	-3.139	X_WP:	0.000	Y_WP:	0.000	Y_WP:	1.000	X:	0.021	Y:	-0.490	Z:	0.056	yaw:	179.830	yaw rate:	-2.149	Roll:	-0.655	Pitch:	14.814	Yaw:	253.162	Thrust:	100.000
Time:	4.924	Roll Set Point:	-0.002	Pitch Set Point:	-0.000	Yaw Set Point:	3.138	X_WP:	0.000	Y_WP:	0.000	Y_WP:	1.000	X:	0.021	Y:	-0.490	Z:	0.055	yaw:	-179.794	yaw rate:	35962.442	Roll:	1.994	Pitch:	15.207	Yaw:	-5056.740	Thrust:	100.000
Time:	4.944	Roll Set Point:	-0.002	Pitch Set Point:	-0.000	Yaw Set Point:	3.138	X_WP:	0.000	Y_WP:	0.000	Y_WP:	1.000	X:	0.021	Y:	-0.490	Z:	0.055	yaw:	-179.802	yaw rate:	0.791	Roll:	-0.860	Pitch:	14.900	Yaw:	-250.428	Thrust:	100.000
Time:	4.963	Roll Set Point:	-0.002	Pitch Set Point:	-0.000	Yaw Set Point:	3.138	X_WP:	0.000	Y_WP:	0.000	Y_WP:	1.000	X:	0.021	Y:	-0.490	Z:	0.055	yaw:	-179.803	yaw rate:	0.068	Roll:	-0.819	Pitch:	14.941	Yaw:	-251.565	Thrust:	100.000
Time:	4.985	Roll Set Point:	-0.002	Pitch Set Point:	-0.000	Yaw Set Point:	3.138	X_WP:	0.000	Y_WP:	0.000	Y_WP:	1.000	X:	0.021	Y:	-0.490	Z:	0.055	yaw:	-179.794	yaw rate:	-0.890	Roll:	-0.715	Pitch:	15.018	Yaw:	-252.857	Thrust:	100.000
Time:	5.002	Roll Set Point:	0.015	Pitch Set Point:	2.667	Yaw Set Point:	3.138	X_WP:	-0.008	Y_WP:	-2.667	Y_WP:	1.000	X:	0.021	Y:	-0.490	Z:	0.055	yaw:	-179.817	yaw rate:	2.322	Roll:	-17.146	Pitch:	-30.000	Yaw:	-254.079	Thrust:	100.000
Time:	5.022	Roll Set Point:	0.017	Pitch Set Point:	2.667	Yaw Set Point:	3.138	X_WP:	-0.008	Y_WP:	-2.667	Y_WP:	1.000	X:	0.021	Y:	-0.490	Z:	0.055	yaw:	-179.780	yaw rate:	-3.658	Roll:	-2.613	Pitch:	-30.000	Yaw:	-254.388	Thrust:	100.000
Time:	5.045	Roll Set Point:	0.017	Pitch Set Point:	2.667	Yaw Set Point:	3.138	X_WP:	-0.008	Y_WP:	-2.667	Y_WP:	1.000	X:	0.021	Y:	-0.490	Z:	0.055	yaw:	-179.776	yaw rate:	-0.425	Roll:	-1.484	Pitch:	-30.000	Yaw:	-255.136	Thrust:	100.000
Time:	5.062	Roll Set Point:	0.017	Pitch Set Point:	2.667	Yaw Set Point:	3.138	X_WP:	-0.008	Y_WP:	-2.667	Y_WP:	1.000	X:	0.021	Y:	-0.489	Z:	0.055	yaw:	-179.780	yaw rate:	0.430	Roll:	-1.228	Pitch:	-30.000	Yaw:	-254.803	Thrust:	100.000
Time:	5.086	Roll Set Point:	0.017	Pitch Set Point:	2.667	Yaw Set Point:	3.137	X_WP:	-0.008	Y_WP:	-2.667	Y_WP:	1.000	X:	0.021	Y:	-0.489	Z:	0.055	yaw:	-179.764	yaw rate:	-1.670	Roll:	-1.816	Pitch:	-30.000	Yaw:	-255.775	Thrust:	100.000
Time:	5.103	Roll Set Point:	0.028	Pitch Set Point:	2.667	Yaw Set Point:	3.133	X_WP:	-0.008	Y_WP:	-2.667	Y_WP:	1.000	X:	0.021	Y:	-0.489	Z:	0.055	yaw:	-179.488	yaw rate:	-27.570	Roll:	-11.908	Pitch:	-30.000	Yaw:	-249.259	Thrust:	100.000
Time:	5.124	Roll Set Point:	0.027	Pitch Set Point:	2.667	Yaw Set Point:	3.133	X_WP:	-0.008	Y_WP:	-2.667	Y_WP:	1.000	X:	0.021	Y:	-0.489	Z:	0.055	yaw:	-179.508	yaw rate:	1.988	Roll:	-1.015	Pitch:	-30.000	Yaw:	-255.103	Thrust:	100.000
Time:	5.146	Roll Set Point:	0.027	Pitch Set Point:	2.667	Yaw Set Point:	3.133	X_WP:	-0.008	Y_WP:	-2.667	Y_WP:	1.000	X:	0.021	Y:	-0.489	Z:	0.055	yaw:	-179.500	yaw rate:	-0.807	Roll:	-1.904	Pitch:	-30.000	Yaw:	-254.647	Thrust:	100.000
Time:	5.162	Roll Set Point:	0.027	Pitch Set Point:	2.667	Yaw Set Point:	3.133	X_WP:	-0.008	Y_WP:	-2.667	Y_WP:	1.000	X:	0.021	Y:	-0.489	Z:	0.055	yaw:	-179.519	yaw rate:	1.911	Roll:	-0.868	Pitch:	-30.000	Yaw:	-254.658	Thrust:	100.000
Time:	5.186	Roll Set Point:	0.027	Pitch Set Point:	2.667	Yaw Set Point:	3.133	X_WP:	-0.008	Y_WP:	-2.667	Y_WP:	1.000	X:	0.021	Y:	-0.489	Z:	0.055	yaw:	-179.499	yaw rate:	-1.947	Roll:	-2.256	Pitch:	-30.000	Yaw:	-255.038	Thrust:	100.000
Time:	5.204	Roll Set Point:	0.027	Pitch Set Point:	2.667	Yaw Set Point:	3.133	X_WP:	-0.008	Y_WP:	-2.667	Y_WP:	1.000	X:	0.021	Y:	-0.489	Z:	0.055	yaw:	-179.509	yaw rate:	0.958	Roll:	-1.259	Pitch:	-30.000	Yaw:	-254.209	Thrust:	100.000
