Time:	0.033	Roll Set Point:	-0.018	Pitch Set Point:	-0.037	Yaw Set Point:	-0.032	X_WP:	0.000	Y_WP:	0.000	Y_WP:	0.000	X:	0.009	Y:	0.018	Z:	0.057	yaw:	1.854	yaw rate:	-0.980	Roll:	0.264	Pitch:	0.526	Yaw:	2.589	Thrust:	0.000
Time:	0.053	Roll Set Point:	-0.018	Pitch Set Point:	-0.037	Yaw Set Point:	-0.032	X_WP:	0.000	Y_WP:	0.000	Y_WP:	0.000	X:	0.009	Y:	0.018	Z:	0.057	yaw:	1.850	yaw rate:	0.491	Roll:	0.268	Pitch:	0.532	Yaw:	2.532	Thrust:	0.000
Time:	0.072	Roll Set Point:	-0.018	Pitch Set Point:	-0.037	Yaw Set Point:	-0.032	X_WP:	0.000	Y_WP:	0.000	Y_WP:	0.000	X:	0.009	Y:	0.018	Z:	0.057	yaw:	1.853	yaw rate:	-0.327	Roll:	0.266	Pitch:	0.528	Yaw:	2.657	Thrust:	0.000
Time:	0.092	Roll Set Point:	-0.018	Pitch Set Point:	-0.037	Yaw Set Point:	-0.032	X_WP:	0.000	Y_WP:	0.000	Y_WP:	0.000	X:	0.009	Y:	0.018	Z:	0.057	yaw:	1.857	yaw rate:	-0.430	Roll:	0.264	Pitch:	0.521	Yaw:	2.688	Thrust:	0.000
Time:	0.114	Roll Set Point:	-0.018	Pitch Set Point:	-0.037	Yaw Set Point:	-0.032	X_WP:	0.000	Y_WP:	0.000	Y_WP:	0.000	X:	0.009	Y:	0.018	Z:	0.057	yaw:	1.852	yaw rate:	0.510	Roll:	0.263	Pitch:	0.532	Yaw:	2.579	Thrust:	0.000
Time:	0.133	Roll Set Point:	-0.018	Pitch Set Point:	-0.037	Yaw Set Point:	-0.032	X_WP:	0.000	Y_WP:	0.000	Y_WP:	0.000	X:	0.009	Y:	0.018	Z:	0.057	yaw:	1.847	yaw rate:	0.520	Roll:	0.270	Pitch:	0.535	Yaw:	2.572	Thrust:	0.000
Time:	0.153	Roll Set Point:	-0.018	Pitch Set Point:	-0.037	Yaw Set Point:	-0.032	X_WP:	0.000	Y_WP:	0.000	Y_WP:	0.000	X:	0.009	Y:	0.018	Z:	0.057	yaw:	1.852	yaw rate:	-0.470	Roll:	0.256	Pitch:	0.524	Yaw:	2.724	Thrust:	0.000
Time:	0.172	Roll Set Point:	-0.018	Pitch Set Point:	-0.037	Yaw Set Point:	-0.032	X_WP:	0.000	Y_WP:	0.000	Y_WP:	0.000	X:	0.009	Y:	0.018	Z:	0.057	yaw:	1.857	yaw rate:	-0.577	Roll:	0.283	Pitch:	0.534	Yaw:	2.759	Thrust:	0.000
Time:	0.196	Roll Set Point:	-0.018	Pitch Set Point:	-0.037	Yaw Set Point:	-0.032	X_WP:	0.000	Y_WP:	0.000	Y_WP:	0.000	X:	0.009	Y:	0.018	Z:	0.057	yaw:	1.851	yaw rate:	0.598	Roll:	0.265	Pitch:	0.536	Yaw:	2.641	Thrust:	0.000
Time:	0.213	Roll Set Point:	-0.018	Pitch Set Point:	-0.037	Yaw Set Point:	-0.032	X_WP:	0.000	Y_WP:	0.000	Y_WP:	0.000	X:	0.009	Y:	0.018	Z:	0.057	yaw:	1.843	yaw rate:	0.853	Roll:	0.260	Pitch:	0.532	Yaw:	2.542	Thrust:	0.000
Time:	0.233	Roll Set Point:	-0.018	Pitch Set Point:	-0.037	Yaw Set Point:	-0.032	X_WP:	0.000	Y_WP:	0.000	Y_WP:	0.000	X:	0.009	Y:	0.018	Z:	0.057	yaw:	1.852	yaw rate:	-0.927	Roll:	0.275	Pitch:	0.540	Yaw:	2.836	Thrust:	0.000
Time:	0.252	Roll Set Point:	-0.018	Pitch Set Point:	-0.037	Yaw Set Point:	-0.032	X_WP:	0.000	Y_WP:	0.000	Y_WP:	0.000	X:	0.009	Y:	0.018	Z:	0.057	yaw:	1.855	yaw rate:	-0.256	Roll:	0.270	Pitch:	0.523	Yaw:	2.764	Thrust:	0.000
Time:	0.272	Roll Set Point:	-0.018	Pitch Set Point:	-0.037	Yaw Set Point:	-0.032	X_WP:	0.000	Y_WP:	0.000	Y_WP:	0.000	X:	0.009	Y:	0.018	Z:	0.057	yaw:	1.840	yaw rate:	1.460	Roll:	0.263	Pitch:	0.544	Yaw:	2.531	Thrust:	0.000
Time:	0.293	Roll Set Point:	-0.018	Pitch Set Point:	-0.037	Yaw Set Point:	-0.032	X_WP:	0.000	Y_WP:	0.000	Y_WP:	0.000	X:	0.009	Y:	0.018	Z:	0.057	yaw:	1.848	yaw rate:	-0.832	Roll:	0.273	Pitch:	0.539	Yaw:	2.859	Thrust:	0.000
Time:	0.313	Roll Set Point:	-0.018	Pitch Set Point:	-0.037	Yaw Set Point:	-0.032	X_WP:	0.000	Y_WP:	0.000	Y_WP:	0.000	X:	0.009	Y:	0.018	Z:	0.057	yaw:	1.847	yaw rate:	0.178	Roll:	0.273	Pitch:	0.541	Yaw:	2.733	Thrust:	0.000
Time:	0.333	Roll Set Point:	-0.018	Pitch Set Point:	-0.037	Yaw Set Point:	-0.032	X_WP:	0.000	Y_WP:	0.000	Y_WP:	0.000	X:	0.009	Y:	0.018	Z:	0.057	yaw:	1.848	yaw rate:	-0.187	Roll:	0.265	Pitch:	0.539	Yaw:	2.800	Thrust:	0.000
Time:	0.352	Roll Set Point:	-0.018	Pitch Set Point:	-0.037	Yaw Set Point:	-0.032	X_WP:	0.000	Y_WP:	0.000	Y_WP:	0.000	X:	0.009	Y:	0.018	Z:	0.057	yaw:	1.848	yaw rate:	0.013	Roll:	0.279	Pitch:	0.531	Yaw:	2.781	Thrust:	0.000
Time:	0.372	Roll Set Point:	-0.018	Pitch Set Point:	-0.037	Yaw Set Point:	-0.032	X_WP:	0.000	Y_WP:	0.000	Y_WP:	0.000	X:	0.009	Y:	0.018	Z:	0.057	yaw:	1.850	yaw rate:	-0.145	Roll:	0.264	Pitch:	0.549	Yaw:	2.823	Thrust:	0.000
Time:	0.394	Roll Set Point:	-0.018	Pitch Set Point:	-0.037	Yaw Set Point:	-0.032	X_WP:	0.000	Y_WP:	0.000	Y_WP:	0.000	X:	0.009	Y:	0.018	Z:	0.057	yaw:	1.841	yaw rate:	0.830	Roll:	0.282	Pitch:	0.543	Yaw:	2.729	Thrust:	0.000
Time:	0.412	Roll Set Point:	-0.018	Pitch Set Point:	-0.037	Yaw Set Point:	-0.032	X_WP:	0.000	Y_WP:	0.000	Y_WP:	0.000	X:	0.009	Y:	0.018	Z:	0.057	yaw:	1.842	yaw rate:	-0.101	Roll:	0.266	Pitch:	0.540	Yaw:	2.803	Thrust:	0.000
Time:	0.433	Roll Set Point:	-0.018	Pitch Set Point:	-0.037	Yaw Set Point:	-0.032	X_WP:	0.000	Y_WP:	0.000	Y_WP:	0.000	X:	0.009	Y:	0.018	Z:	0.057	yaw:	1.842	yaw rate:	0.073	Roll:	0.271	Pitch:	0.545	Yaw:	2.824	Thrust:	0.000
Time:	0.453	Roll Set Point:	-0.018	Pitch Set Point:	-0.037	Yaw Set Point:	-0.032	X_WP:	0.000	Y_WP:	0.000	Y_WP:	0.000	X:	0.009	Y:	0.018	Z:	0.057	yaw:	1.846	yaw rate:	-0.442	Roll:	0.282	Pitch:	0.543	Yaw:	2.908	Thrust:	0.000
Time:	0.472	Roll Set Point:	-0.018	Pitch Set Point:	-0.037	Yaw Set Point:	-0.032	X_WP:	0.000	Y_WP:	0.000	Y_WP:	0.000	X:	0.009	Y:	0.018	Z:	0.057	yaw:	1.857	yaw rate:	-1.056	Roll:	0.266	Pitch:	0.540	Yaw:	3.009	Thrust:	0.000
Time:	0.492	Roll Set Point:	-0.018	Pitch Set Point:	-0.037	Yaw Set Point:	-0.032	X_WP:	0.000	Y_WP:	0.000	Y_WP:	0.000	X:	0.009	Y:	0.018	Z:	0.057	yaw:	1.847	yaw rate:	0.937	Roll:	0.280	Pitch:	0.552	Yaw:	2.762	Thrust:	0.000
Time:	0.513	Roll Set Point:	-0.018	Pitch Set Point:	-0.037	Yaw Set Point:	-0.032	X_WP:	0.000	Y_WP:	0.000	Y_WP:	0.000	X:	0.009	Y:	0.018	Z:	0.057	yaw:	1.851	yaw rate:	-0.329	Roll:	0.280	Pitch:	0.549	Yaw:	2.955	Thrust:	0.000
Time:	0.534	Roll Set Point:	-0.018	Pitch Set Point:	-0.037	Yaw Set Point:	-0.032	X_WP:	0.000	Y_WP:	0.000	Y_WP:	0.000	X:	0.009	Y:	0.018	Z:	0.057	yaw:	1.854	yaw rate:	-0.377	Roll:	0.268	Pitch:	0.545	Yaw:	2.969	Thrust:	0.000
Time:	0.551	Roll Set Point:	-0.018	Pitch Set Point:	-0.037	Yaw Set Point:	-0.032	X_WP:	0.000	Y_WP:	0.000	Y_WP:	0.000	X:	0.009	Y:	0.018	Z:	0.057	yaw:	1.850	yaw rate:	0.459	Roll:	0.278	Pitch:	0.548	Yaw:	2.809	Thrust:	0.000
Time:	0.572	Roll Set Point:	-0.018	Pitch Set Point:	-0.037	Yaw Set Point:	-0.032	X_WP:	0.000	Y_WP:	0.000	Y_WP:	0.000	X:	0.009	Y:	0.018	Z:	0.057	yaw:	1.838	yaw rate:	1.198	Roll:	0.275	Pitch:	0.558	Yaw:	2.773	Thrust:	0.000
Time:	0.594	Roll Set Point:	-0.018	Pitch Set Point:	-0.037	Yaw Set Point:	-0.032	X_WP:	0.000	Y_WP:	0.000	Y_WP:	0.000	X:	0.009	Y:	0.018	Z:	0.057	yaw:	1.848	yaw rate:	-0.989	Roll:	0.279	Pitch:	0.549	Yaw:	3.097	Thrust:	0.000
Time:	0.613	Roll Set Point:	-0.018	Pitch Set Point:	-0.037	Yaw Set Point:	-0.032	X_WP:	0.000	Y_WP:	0.000	Y_WP:	0.000	X:	0.009	Y:	0.018	Z:	0.057	yaw:	1.843	yaw rate:	0.434	Roll:	0.275	Pitch:	0.556	Yaw:	2.852	Thrust:	0.000
Time:	0.632	Roll Set Point:	-0.018	Pitch Set Point:	-0.037	Yaw Set Point:	-0.032	X_WP:	0.000	Y_WP:	0.000	Y_WP:	0.000	X:	0.009	Y:	0.018	Z:	0.057	yaw:	1.843	yaw rate:	0.048	Roll:	0.278	Pitch:	0.542	Yaw:	2.954	Thrust:	0.000
Time:	0.653	Roll Set Point:	-0.018	Pitch Set Point:	-0.037	Yaw Set Point:	-0.032	X_WP:	0.000	Y_WP:	0.000	Y_WP:	0.000	X:	0.009	Y:	0.018	Z:	0.057	yaw:	1.853	yaw rate:	-1.012	Roll:	0.278	Pitch:	0.561	Yaw:	3.129	Thrust:	0.000
Time:	0.672	Roll Set Point:	-0.018	Pitch Set Point:	-0.037	Yaw Set Point:	-0.032	X_WP:	0.000	Y_WP:	0.000	Y_WP:	0.000	X:	0.009	Y:	0.018	Z:	0.057	yaw:	1.848	yaw rate:	0.488	Roll:	0.281	Pitch:	0.547	Yaw:	2.898	Thrust:	0.000
Time:	0.693	Roll Set Point:	-0.018	Pitch Set Point:	-0.037	Yaw Set Point:	-0.032	X_WP:	0.000	Y_WP:	0.000	Y_WP:	0.000	X:	0.009	Y:	0.018	Z:	0.057	yaw:	1.843	yaw rate:	0.483	Roll:	0.279	Pitch:	0.555	Yaw:	2.954	Thrust:	0.000
Time:	0.713	Roll Set Point:	-0.018	Pitch Set Point:	-0.037	Yaw Set Point:	-0.032	X_WP:	0.000	Y_WP:	0.000	Y_WP:	0.000	X:	0.009	Y:	0.018	Z:	0.057	yaw:	1.846	yaw rate:	-0.299	Roll:	0.286	Pitch:	0.569	Yaw:	3.058	Thrust:	0.000
Time:	0.736	Roll Set Point:	-0.018	Pitch Set Point:	-0.037	Yaw Set Point:	-0.032	X_WP:	0.000	Y_WP:	0.000	Y_WP:	0.000	X:	0.009	Y:	0.018	Z:	0.057	yaw:	1.851	yaw rate:	-0.496	Roll:	0.273	Pitch:	0.550	Yaw:	3.151	Thrust:	0.000
Time:	0.752	Roll Set Point:	-0.018	Pitch Set Point:	-0.037	Yaw Set Point:	-0.032	X_WP:	0.000	Y_WP:	0.000	Y_WP:	0.000	X:	0.009	Y:	0.018	Z:	0.057	yaw:	1.843	yaw rate:	0.857	Roll:	0.283	Pitch:	0.566	Yaw:	2.837	Thrust:	0.000
Time:	0.773	Roll Set Point:	-0.018	Pitch Set Point:	-0.037	Yaw Set Point:	-0.032	X_WP:	0.000	Y_WP:	0.000	Y_WP:	0.000	X:	0.009	Y:	0.018	Z:	0.057	yaw:	1.847	yaw rate:	-0.473	Roll:	0.279	Pitch:	0.551	Yaw:	3.130	Thrust:	0.000
Time:	0.796	Roll Set Point:	-0.018	Pitch Set Point:	-0.037	Yaw Set Point:	-0.032	X_WP:	0.000	Y_WP:	0.000	Y_WP:	0.000	X:	0.009	Y:	0.018	Z:	0.057	yaw:	1.844	yaw rate:	0.360	Roll:	0.279	Pitch:	0.565	Yaw:	3.086	Thrust:	0.000
Time:	0.812	Roll Set Point:	-0.018	Pitch Set Point:	-0.037	Yaw Set Point:	-0.032	X_WP:	0.000	Y_WP:	0.000	Y_WP:	0.000	X:	0.009	Y:	0.018	Z:	0.057	yaw:	1.853	yaw rate:	-0.925	Roll:	0.295	Pitch:	0.562	Yaw:	3.150	Thrust:	0.000
Time:	0.832	Roll Set Point:	-0.018	Pitch Set Point:	-0.037	Yaw Set Point:	-0.032	X_WP:	0.000	Y_WP:	0.000	Y_WP:	0.000	X:	0.009	Y:	0.018	Z:	0.057	yaw:	1.846	yaw rate:	0.733	Roll:	0.273	Pitch:	0.564	Yaw:	3.019	Thrust:	0.000
Time:	0.854	Roll Set Point:	-0.018	Pitch Set Point:	-0.037	Yaw Set Point:	-0.032	X_WP:	0.000	Y_WP:	0.000	Y_WP:	0.000	X:	0.009	Y:	0.018	Z:	0.057	yaw:	1.848	yaw rate:	-0.225	Roll:	0.289	Pitch:	0.562	Yaw:	3.158	Thrust:	0.000
Time:	0.872	Roll Set Point:	-0.018	Pitch Set Point:	-0.037	Yaw Set Point:	-0.032	X_WP:	0.000	Y_WP:	0.000	Y_WP:	0.000	X:	0.009	Y:	0.018	Z:	0.057	yaw:	1.851	yaw rate:	-0.294	Roll:	0.268	Pitch:	0.557	Yaw:	3.117	Thrust:	0.000
Time:	0.892	Roll Set Point:	-0.018	Pitch Set Point:	-0.037	Yaw Set Point:	-0.032	X_WP:	0.000	Y_WP:	0.000	Y_WP:	0.000	X:	0.009	Y:	0.018	Z:	0.057	yaw:	1.849	yaw rate:	0.234	Roll:	0.308	Pitch:	0.568	Yaw:	3.118	Thrust:	0.000
Time:	0.913	Roll Set Point:	-0.018	Pitch Set Point:	-0.037	Yaw Set Point:	-0.032	X_WP:	0.000	Y_WP:	0.000	Y_WP:	0.000	X:	0.009	Y:	0.018	Z:	0.057	yaw:	1.850	yaw rate:	-0.190	Roll:	0.268	Pitch:	0.569	Yaw:	3.194	Thrust:	0.000
Time:	0.934	Roll Set Point:	-0.018	Pitch Set Point:	-0.037	Yaw Set Point:	-0.032	X_WP:	0.000	Y_WP:	0.000	Y_WP:	0.000	X:	0.009	Y:	0.018	Z:	0.057	yaw:	1.841	yaw rate:	0.935	Roll:	0.288	Pitch:	0.566	Yaw:	3.085	Thrust:	0.000
Time:	0.952	Roll Set Point:	-0.018	Pitch Set Point:	-0.037	Yaw Set Point:	-0.032	X_WP:	0.000	Y_WP:	0.000	Y_WP:	0.000	X:	0.009	Y:	0.018	Z:	0.057	yaw:	1.842	yaw rate:	-0.084	Roll:	0.296	Pitch:	0.569	Yaw:	3.127	Thrust:	0.000
Time:	0.972	Roll Set Point:	-0.018	Pitch Set Point:	-0.037	Yaw Set Point:	-0.032	X_WP:	0.000	Y_WP:	0.000	Y_WP:	0.000	X:	0.009	Y:	0.018	Z:	0.057	yaw:	1.858	yaw rate:	-1.603	Roll:	0.267	Pitch:	0.565	Yaw:	3.394	Thrust:	0.000
Time:	0.993	Roll Set Point:	-0.018	Pitch Set Point:	-0.037	Yaw Set Point:	-0.032	X_WP:	0.000	Y_WP:	0.000	Y_WP:	0.000	X:	0.009	Y:	0.018	Z:	0.057	yaw:	1.849	yaw rate:	0.922	Roll:	0.297	Pitch:	0.582	Yaw:	3.156	Thrust:	0.000
Time:	1.012	Roll Set Point:	-0.018	Pitch Set Point:	-0.037	Yaw Set Point:	-0.032	X_WP:	0.000	Y_WP:	0.000	Y_WP:	0.000	X:	0.009	Y:	0.018	Z:	0.057	yaw:	1.842	yaw rate:	0.670	Roll:	0.295	Pitch:	0.560	Yaw:	3.076	Thrust:	0.000
Time:	1.032	Roll Set Point:	-0.018	Pitch Set Point:	-0.037	Yaw Set Point:	-0.032	X_WP:	0.000	Y_WP:	0.000	Y_WP:	0.000	X:	0.009	Y:	0.018	Z:	0.057	yaw:	1.849	yaw rate:	-0.654	Roll:	0.268	Pitch:	0.572	Yaw:	3.315	Thrust:	0.000
Time:	1.053	Roll Set Point:	-0.018	Pitch Set Point:	-0.037	Yaw Set Point:	-0.032	X_WP:	0.000	Y_WP:	0.000	Y_WP:	0.000	X:	0.009	Y:	0.018	Z:	0.057	yaw:	1.848	yaw rate:	0.050	Roll:	0.301	Pitch:	0.566	Yaw:	3.217	Thrust:	0.000
Time:	1.072	Roll Set Point:	-0.018	Pitch Set Point:	-0.037	Yaw Set Point:	-0.032	X_WP:	0.000	Y_WP:	0.000	Y_WP:	0.000	X:	0.009	Y:	0.018	Z:	0.057	yaw:	1.850	yaw rate:	-0.171	Roll:	0.299	Pitch:	0.574	Yaw:	3.260	Thrust:	0.000
Time:	1.093	Roll Set Point:	-0.018	Pitch Set Point:	-0.037	Yaw Set Point:	-0.032	X_WP:	0.000	Y_WP:	0.000	Y_WP:	0.000	X:	0.009	Y:	0.018	Z:	0.057	yaw:	1.849	yaw rate:	0.073	Roll:	0.274	Pitch:	0.573	Yaw:	3.275	Thrust:	0.000
Time:	1.113	Roll Set Point:	-0.018	Pitch Set Point:	-0.037	Yaw Set Point:	-0.032	X_WP:	0.000	Y_WP:	0.000	Y_WP:	0.000	X:	0.009	Y:	0.018	Z:	0.057	yaw:	1.848	yaw rate:	0.108	Roll:	0.277	Pitch:	0.577	Yaw:	3.268	Thrust:	0.000
Time:	1.134	Roll Set Point:	-0.018	Pitch Set Point:	-0.037	Yaw Set Point:	-0.032	X_WP:	0.000	Y_WP:	0.000	Y_WP:	0.000	X:	0.009	Y:	0.018	Z:	0.057	yaw:	1.850	yaw rate:	-0.199	Roll:	0.318	Pitch:	0.581	Yaw:	3.373	Thrust:	0.000
Time:	1.152	Roll Set Point:	-0.018	Pitch Set Point:	-0.037	Yaw Set Point:	-0.032	X_WP:	0.000	Y_WP:	0.000	Y_WP:	0.000	X:	0.009	Y:	0.018	Z:	0.057	yaw:	1.856	yaw rate:	-0.620	Roll:	0.269	Pitch:	0.572	Yaw:	3.335	Thrust:	0.000
Time:	1.172	Roll Set Point:	-0.018	Pitch Set Point:	-0.037	Yaw Set Point:	-0.032	X_WP:	0.000	Y_WP:	0.000	Y_WP:	0.000	X:	0.009	Y:	0.018	Z:	0.057	yaw:	1.855	yaw rate:	0.134	Roll:	0.292	Pitch:	0.577	Yaw:	3.332	Thrust:	0.000
Time:	1.193	Roll Set Point:	-0.018	Pitch Set Point:	-0.037	Yaw Set Point:	-0.032	X_WP:	0.000	Y_WP:	0.000	Y_WP:	0.000	X:	0.009	Y:	0.018	Z:	0.057	yaw:	1.841	yaw rate:	1.363	Roll:	0.297	Pitch:	0.585	Yaw:	3.163	Thrust:	0.000
Time:	1.212	Roll Set Point:	-0.018	Pitch Set Point:	-0.037	Yaw Set Point:	-0.032	X_WP:	0.000	Y_WP:	0.000	Y_WP:	0.000	X:	0.009	Y:	0.018	Z:	0.057	yaw:	1.845	yaw rate:	-0.348	Roll:	0.284	Pitch:	0.578	Yaw:	3.349	Thrust:	0.000
Time:	1.233	Roll Set Point:	-0.018	Pitch Set Point:	-0.037	Yaw Set Point:	-0.032	X_WP:	0.000	Y_WP:	0.000	Y_WP:	0.000	X:	0.009	Y:	0.018	Z:	0.057	yaw:	1.848	yaw rate:	-0.347	Roll:	0.290	Pitch:	0.571	Yaw:	3.414	Thrust:	0.000
Time:	1.253	Roll Set Point:	-0.018	Pitch Set Point:	-0.037	Yaw Set Point:	-0.032	X_WP:	0.000	Y_WP:	0.000	Y_WP:	0.000	X:	0.009	Y:	0.018	Z:	0.057	yaw:	1.855	yaw rate:	-0.657	Roll:	0.296	Pitch:	0.580	Yaw:	3.465	Thrust:	0.000
Time:	1.272	Roll Set Point:	-0.018	Pitch Set Point:	-0.037	Yaw Set Point:	-0.032	X_WP:	0.000	Y_WP:	0.000	Y_WP:	0.000	X:	0.009	Y:	0.018	Z:	0.057	yaw:	1.851	yaw rate:	0.387	Roll:	0.296	Pitch:	0.591	Yaw:	3.294	Thrust:	0.000
Time:	1.292	Roll Set Point:	-0.018	Pitch Set Point:	-0.037	Yaw Set Point:	-0.032	X_WP:	0.000	Y_WP:	0.000	Y_WP:	0.000	X:	0.009	Y:	0.018	Z:	0.057	yaw:	1.854	yaw rate:	-0.268	Roll:	0.272	Pitch:	0.572	Yaw:	3.461	Thrust:	0.000
Time:	1.313	Roll Set Point:	-0.018	Pitch Set Point:	-0.037	Yaw Set Point:	-0.032	X_WP:	0.000	Y_WP:	0.000	Y_WP:	0.000	X:	0.009	Y:	0.018	Z:	0.057	yaw:	1.849	yaw rate:	0.489	Roll:	0.310	Pitch:	0.591	Yaw:	3.361	Thrust:	0.000
Time:	1.333	Roll Set Point:	-0.018	Pitch Set Point:	-0.037	Yaw Set Point:	-0.032	X_WP:	0.000	Y_WP:	0.000	Y_WP:	0.000	X:	0.009	Y:	0.018	Z:	0.057	yaw:	1.844	yaw rate:	0.468	Roll:	0.301	Pitch:	0.590	Yaw:	3.393	Thrust:	0.000
Time:	1.352	Roll Set Point:	-0.018	Pitch Set Point:	-0.037	Yaw Set Point:	-0.032	X_WP:	0.000	Y_WP:	0.000	Y_WP:	0.000	X:	0.009	Y:	0.018	Z:	0.057	yaw:	1.855	yaw rate:	-1.057	Roll:	0.267	Pitch:	0.573	Yaw:	3.505	Thrust:	0.000
Time:	1.372	Roll Set Point:	-0.018	Pitch Set Point:	-0.037	Yaw Set Point:	-0.032	X_WP:	0.000	Y_WP:	0.000	Y_WP:	0.000	X:	0.009	Y:	0.018	Z:	0.057	yaw:	1.847	yaw rate:	0.790	Roll:	0.315	Pitch:	0.592	Yaw:	3.335	Thrust:	0.000
Time:	1.395	Roll Set Point:	-0.018	Pitch Set Point:	-0.037	Yaw Set Point:	-0.032	X_WP:	0.000	Y_WP:	0.000	Y_WP:	0.000	X:	0.009	Y:	0.018	Z:	0.057	yaw:	1.852	yaw rate:	-0.547	Roll:	0.299	Pitch:	0.593	Yaw:	3.679	Thrust:	0.000
Time:	1.413	Roll Set Point:	-0.018	Pitch Set Point:	-0.037	Yaw Set Point:	-0.032	X_WP:	0.000	Y_WP:	0.000	Y_WP:	0.000	X:	0.009	Y:	0.018	Z:	0.057	yaw:	1.854	yaw rate:	-0.174	Roll:	0.279	Pitch:	0.586	Yaw:	3.395	Thrust:	0.000
Time:	1.432	Roll Set Point:	-0.018	Pitch Set Point:	-0.037	Yaw Set Point:	-0.032	X_WP:	0.000	Y_WP:	0.000	Y_WP:	0.000	X:	0.009	Y:	0.018	Z:	0.057	yaw:	1.851	yaw rate:	0.250	Roll:	0.302	Pitch:	0.585	Yaw:	3.454	Thrust:	0.000
Time:	1.453	Roll Set Point:	-0.018	Pitch Set Point:	-0.037	Yaw Set Point:	-0.032	X_WP:	0.000	Y_WP:	0.000	Y_WP:	0.000	X:	0.009	Y:	0.018	Z:	0.057	yaw:	1.852	yaw rate:	-0.050	Roll:	0.299	Pitch:	0.588	Yaw:	3.501	Thrust:	0.000
Time:	1.472	Roll Set Point:	-0.018	Pitch Set Point:	-0.037	Yaw Set Point:	-0.032	X_WP:	0.000	Y_WP:	0.000	Y_WP:	0.000	X:	0.009	Y:	0.018	Z:	0.057	yaw:	1.849	yaw rate:	0.335	Roll:	0.292	Pitch:	0.593	Yaw:	3.477	Thrust:	0.000
Time:	1.493	Roll Set Point:	-0.018	Pitch Set Point:	-0.037	Yaw Set Point:	-0.032	X_WP:	0.000	Y_WP:	0.000	Y_WP:	0.000	X:	0.009	Y:	0.018	Z:	0.057	yaw:	1.840	yaw rate:	0.838	Roll:	0.292	Pitch:	0.601	Yaw:	3.411	Thrust:	0.000
Time:	1.513	Roll Set Point:	-0.018	Pitch Set Point:	-0.037	Yaw Set Point:	-0.032	X_WP:	0.000	Y_WP:	0.000	Y_WP:	0.000	X:	0.009	Y:	0.018	Z:	0.057	yaw:	1.843	yaw rate:	-0.324	Roll:	0.310	Pitch:	0.588	Yaw:	3.601	Thrust:	0.000
Time:	1.533	Roll Set Point:	-0.018	Pitch Set Point:	-0.037	Yaw Set Point:	-0.032	X_WP:	0.000	Y_WP:	0.000	Y_WP:	0.000	X:	0.009	Y:	0.018	Z:	0.057	yaw:	1.848	yaw rate:	-0.469	Roll:	0.304	Pitch:	0.594	Yaw:	3.585	Thrust:	0.000
Time:	1.552	Roll Set Point:	-0.018	Pitch Set Point:	-0.037	Yaw Set Point:	-0.032	X_WP:	0.000	Y_WP:	0.000	Y_WP:	0.000	X:	0.009	Y:	0.018	Z:	0.057	yaw:	1.845	yaw rate:	0.336	Roll:	0.271	Pitch:	0.593	Yaw:	3.493	Thrust:	0.000
Time:	1.572	Roll Set Point:	-0.018	Pitch Set Point:	-0.037	Yaw Set Point:	-0.032	X_WP:	0.000	Y_WP:	0.000	Y_WP:	0.000	X:	0.009	Y:	0.018	Z:	0.057	yaw:	1.846	yaw rate:	-0.083	Roll:	0.311	Pitch:	0.590	Yaw:	3.583	Thrust:	0.000
Time:	1.594	Roll Set Point:	-0.018	Pitch Set Point:	-0.037	Yaw Set Point:	-0.032	X_WP:	0.000	Y_WP:	0.000	Y_WP:	0.000	X:	0.009	Y:	0.018	Z:	0.057	yaw:	1.849	yaw rate:	-0.377	Roll:	0.313	Pitch:	0.612	Yaw:	3.713	Thrust:	0.000
Time:	1.612	Roll Set Point:	-0.018	Pitch Set Point:	-0.037	Yaw Set Point:	-0.032	X_WP:	0.000	Y_WP:	0.000	Y_WP:	0.000	X:	0.009	Y:	0.018	Z:	0.057	yaw:	1.857	yaw rate:	-0.791	Roll:	0.290	Pitch:	0.585	Yaw:	3.640	Thrust:	0.000
Time:	1.633	Roll Set Point:	-0.018	Pitch Set Point:	-0.037	Yaw Set Point:	-0.032	X_WP:	0.000	Y_WP:	0.000	Y_WP:	0.000	X:	0.009	Y:	0.018	Z:	0.057	yaw:	1.852	yaw rate:	0.545	Roll:	0.293	Pitch:	0.606	Yaw:	3.562	Thrust:	0.000
Time:	1.653	Roll Set Point:	-0.018	Pitch Set Point:	-0.037	Yaw Set Point:	-0.032	X_WP:	0.000	Y_WP:	0.000	Y_WP:	0.000	X:	0.009	Y:	0.018	Z:	0.057	yaw:	1.843	yaw rate:	0.926	Roll:	0.311	Pitch:	0.585	Yaw:	3.522	Thrust:	0.000
Time:	1.671	Roll Set Point:	-0.018	Pitch Set Point:	-0.037	Yaw Set Point:	-0.032	X_WP:	0.000	Y_WP:	0.000	Y_WP:	0.000	X:	0.009	Y:	0.018	Z:	0.057	yaw:	1.854	yaw rate:	-1.107	Roll:	0.303	Pitch:	0.606	Yaw:	3.731	Thrust:	0.000
Time:	1.692	Roll Set Point:	-0.018	Pitch Set Point:	-0.037	Yaw Set Point:	-0.032	X_WP:	0.000	Y_WP:	0.000	Y_WP:	0.000	X:	0.009	Y:	0.018	Z:	0.057	yaw:	1.842	yaw rate:	1.168	Roll:	0.296	Pitch:	0.606	Yaw:	3.497	Thrust:	0.000
Time:	1.713	Roll Set Point:	-0.018	Pitch Set Point:	-0.037	Yaw Set Point:	-0.032	X_WP:	0.000	Y_WP:	0.000	Y_WP:	0.000	X:	0.009	Y:	0.018	Z:	0.057	yaw:	1.838	yaw rate:	0.381	Roll:	0.306	Pitch:	0.599	Yaw:	3.665	Thrust:	0.000
Time:	1.733	Roll Set Point:	-0.018	Pitch Set Point:	-0.037	Yaw Set Point:	-0.032	X_WP:	0.000	Y_WP:	0.000	Y_WP:	0.000	X:	0.009	Y:	0.018	Z:	0.057	yaw:	1.847	yaw rate:	-0.930	Roll:	0.300	Pitch:	0.601	Yaw:	3.784	Thrust:	0.000
Time:	1.752	Roll Set Point:	-0.018	Pitch Set Point:	-0.037	Yaw Set Point:	-0.032	X_WP:	0.000	Y_WP:	0.000	Y_WP:	0.000	X:	0.009	Y:	0.018	Z:	0.057	yaw:	1.846	yaw rate:	0.097	Roll:	0.300	Pitch:	0.602	Yaw:	3.659	Thrust:	0.000
Time:	1.772	Roll Set Point:	-0.018	Pitch Set Point:	-0.037	Yaw Set Point:	-0.032	X_WP:	0.000	Y_WP:	0.000	Y_WP:	0.000	X:	0.009	Y:	0.018	Z:	0.057	yaw:	1.844	yaw rate:	0.206	Roll:	0.308	Pitch:	0.616	Yaw:	3.626	Thrust:	0.000
Time:	1.794	Roll Set Point:	-0.018	Pitch Set Point:	-0.037	Yaw Set Point:	-0.032	X_WP:	0.000	Y_WP:	0.000	Y_WP:	0.000	X:	0.009	Y:	0.018	Z:	0.057	yaw:	1.844	yaw rate:	-0.000	Roll:	0.312	Pitch:	0.602	Yaw:	3.828	Thrust:	0.000
Time:	1.813	Roll Set Point:	-0.018	Pitch Set Point:	-0.037	Yaw Set Point:	-0.032	X_WP:	0.000	Y_WP:	0.000	Y_WP:	0.000	X:	0.009	Y:	0.018	Z:	0.057	yaw:	1.840	yaw rate:	0.470	Roll:	0.290	Pitch:	0.592	Yaw:	3.598	Thrust:	0.000
Time:	1.832	Roll Set Point:	-0.018	Pitch Set Point:	-0.037	Yaw Set Point:	-0.032	X_WP:	0.000	Y_WP:	0.000	Y_WP:	0.000	X:	0.009	Y:	0.018	Z:	0.057	yaw:	1.840	yaw rate:	-0.063	Roll:	0.313	Pitch:	0.629	Yaw:	3.726	Thrust:	0.000
Time:	1.853	Roll Set Point:	-0.018	Pitch Set Point:	-0.037	Yaw Set Point:	-0.032	X_WP:	0.000	Y_WP:	0.000	Y_WP:	0.000	X:	0.009	Y:	0.018	Z:	0.057	yaw:	1.847	yaw rate:	-0.674	Roll:	0.301	Pitch:	0.603	Yaw:	3.872	Thrust:	0.000
Time:	1.871	Roll Set Point:	-0.018	Pitch Set Point:	-0.037	Yaw Set Point:	-0.032	X_WP:	0.000	Y_WP:	0.000	Y_WP:	0.000	X:	0.009	Y:	0.018	Z:	0.057	yaw:	1.843	yaw rate:	0.396	Roll:	0.314	Pitch:	0.607	Yaw:	3.624	Thrust:	0.000
Time:	1.892	Roll Set Point:	-0.018	Pitch Set Point:	-0.037	Yaw Set Point:	-0.032	X_WP:	0.000	Y_WP:	0.000	Y_WP:	0.000	X:	0.009	Y:	0.018	Z:	0.057	yaw:	1.849	yaw rate:	-0.640	Roll:	0.300	Pitch:	0.604	Yaw:	3.888	Thrust:	0.000
Time:	1.913	Roll Set Point:	-0.018	Pitch Set Point:	-0.037	Yaw Set Point:	-0.032	X_WP:	0.000	Y_WP:	0.000	Y_WP:	0.000	X:	0.009	Y:	0.018	Z:	0.057	yaw:	1.849	yaw rate:	0.007	Roll:	0.309	Pitch:	0.619	Yaw:	3.862	Thrust:	0.000
Time:	1.933	Roll Set Point:	-0.018	Pitch Set Point:	-0.037	Yaw Set Point:	-0.032	X_WP:	0.000	Y_WP:	0.000	Y_WP:	0.000	X:	0.009	Y:	0.018	Z:	0.057	yaw:	1.844	yaw rate:	0.549	Roll:	0.297	Pitch:	0.614	Yaw:	3.669	Thrust:	0.000
Time:	1.951	Roll Set Point:	-0.018	Pitch Set Point:	-0.037	Yaw Set Point:	-0.032	X_WP:	0.000	Y_WP:	0.000	Y_WP:	0.000	X:	0.009	Y:	0.018	Z:	0.057	yaw:	1.851	yaw rate:	-0.749	Roll:	0.320	Pitch:	0.600	Yaw:	3.875	Thrust:	0.000
Time:	1.972	Roll Set Point:	-0.018	Pitch Set Point:	-0.037	Yaw Set Point:	-0.032	X_WP:	0.000	Y_WP:	0.000	Y_WP:	0.000	X:	0.009	Y:	0.018	Z:	0.057	yaw:	1.842	yaw rate:	0.909	Roll:	0.308	Pitch:	0.628	Yaw:	3.782	Thrust:	0.000
Time:	1.994	Roll Set Point:	-0.018	Pitch Set Point:	-0.037	Yaw Set Point:	-0.032	X_WP:	0.000	Y_WP:	0.000	Y_WP:	0.000	X:	0.009	Y:	0.018	Z:	0.057	yaw:	1.847	yaw rate:	-0.432	Roll:	0.307	Pitch:	0.612	Yaw:	3.994	Thrust:	0.000
Time:	2.012	Roll Set Point:	-0.018	Pitch Set Point:	-0.037	Yaw Set Point:	-0.032	X_WP:	0.000	Y_WP:	0.000	Y_WP:	0.000	X:	0.009	Y:	0.018	Z:	0.057	yaw:	1.844	yaw rate:	0.273	Roll:	0.310	Pitch:	0.613	Yaw:	3.676	Thrust:	0.000
Time:	2.032	Roll Set Point:	-0.018	Pitch Set Point:	-0.037	Yaw Set Point:	-0.032	X_WP:	0.000	Y_WP:	0.000	Y_WP:	0.000	X:	0.009	Y:	0.018	Z:	0.057	yaw:	1.843	yaw rate:	0.133	Roll:	0.307	Pitch:	0.616	Yaw:	3.857	Thrust:	0.000
Time:	2.054	Roll Set Point:	-0.018	Pitch Set Point:	-0.037	Yaw Set Point:	-0.032	X_WP:	0.000	Y_WP:	0.000	Y_WP:	0.000	X:	0.009	Y:	0.018	Z:	0.057	yaw:	1.843	yaw rate:	-0.073	Roll:	0.314	Pitch:	0.626	Yaw:	3.958	Thrust:	0.000
Time:	2.071	Roll Set Point:	-0.018	Pitch Set Point:	-0.037	Yaw Set Point:	-0.032	X_WP:	0.000	Y_WP:	0.000	Y_WP:	0.000	X:	0.009	Y:	0.018	Z:	0.057	yaw:	1.848	yaw rate:	-0.443	Roll:	0.303	Pitch:	0.602	Yaw:	3.848	Thrust:	0.000
Time:	2.092	Roll Set Point:	-0.018	Pitch Set Point:	-0.037	Yaw Set Point:	-0.032	X_WP:	0.000	Y_WP:	0.000	Y_WP:	0.000	X:	0.009	Y:	0.018	Z:	0.057	yaw:	1.841	yaw rate:	0.691	Roll:	0.311	Pitch:	0.621	Yaw:	3.838	Thrust:	0.000
Time:	2.113	Roll Set Point:	-0.018	Pitch Set Point:	-0.037	Yaw Set Point:	-0.032	X_WP:	0.000	Y_WP:	0.000	Y_WP:	0.000	X:	0.009	Y:	0.018	Z:	0.057	yaw:	1.847	yaw rate:	-0.603	Roll:	0.324	Pitch:	0.632	Yaw:	4.052	Thrust:	0.000
Time:	2.133	Roll Set Point:	-0.018	Pitch Set Point:	-0.037	Yaw Set Point:	-0.032	X_WP:	0.000	Y_WP:	0.000	Y_WP:	0.000	X:	0.009	Y:	0.018	Z:	0.057	yaw:	1.850	yaw rate:	-0.268	Roll:	0.308	Pitch:	0.620	Yaw:	4.003	Thrust:	0.000
Time:	2.152	Roll Set Point:	-0.018	Pitch Set Point:	-0.037	Yaw Set Point:	-0.032	X_WP:	0.000	Y_WP:	0.000	Y_WP:	0.000	X:	0.009	Y:	0.018	Z:	0.057	yaw:	1.843	yaw rate:	0.622	Roll:	0.299	Pitch:	0.611	Yaw:	3.801	Thrust:	0.000
Time:	2.172	Roll Set Point:	-0.018	Pitch Set Point:	-0.037	Yaw Set Point:	-0.032	X_WP:	0.000	Y_WP:	0.000	Y_WP:	0.000	X:	0.009	Y:	0.018	Z:	0.057	yaw:	1.842	yaw rate:	0.175	Roll:	0.320	Pitch:	0.621	Yaw:	3.872	Thrust:	0.000
Time:	2.197	Roll Set Point:	-0.018	Pitch Set Point:	-0.037	Yaw Set Point:	-0.032	X_WP:	0.000	Y_WP:	0.000	Y_WP:	0.000	X:	0.009	Y:	0.018	Z:	0.057	yaw:	1.848	yaw rate:	-0.659	Roll:	0.321	Pitch:	0.644	Yaw:	4.330	Thrust:	0.000
Time:	2.212	Roll Set Point:	-0.018	Pitch Set Point:	-0.037	Yaw Set Point:	-0.032	X_WP:	0.000	Y_WP:	0.000	Y_WP:	0.000	X:	0.009	Y:	0.018	Z:	0.057	yaw:	1.842	yaw rate:	0.569	Roll:	0.316	Pitch:	0.615	Yaw:	3.664	Thrust:	0.000
Time:	2.232	Roll Set Point:	-0.018	Pitch Set Point:	-0.037	Yaw Set Point:	-0.032	X_WP:	0.000	Y_WP:	0.000	Y_WP:	0.000	X:	0.009	Y:	0.018	Z:	0.057	yaw:	1.847	yaw rate:	-0.420	Roll:	0.305	Pitch:	0.622	Yaw:	4.032	Thrust:	0.000
Time:	2.253	Roll Set Point:	-0.018	Pitch Set Point:	-0.037	Yaw Set Point:	-0.032	X_WP:	0.000	Y_WP:	0.000	Y_WP:	0.000	X:	0.009	Y:	0.018	Z:	0.057	yaw:	1.847	yaw rate:	-0.067	Roll:	0.321	Pitch:	0.618	Yaw:	4.061	Thrust:	0.000
Time:	2.272	Roll Set Point:	-0.018	Pitch Set Point:	-0.037	Yaw Set Point:	-0.032	X_WP:	0.000	Y_WP:	0.000	Y_WP:	0.000	X:	0.009	Y:	0.018	Z:	0.057	yaw:	1.848	yaw rate:	-0.041	Roll:	0.314	Pitch:	0.633	Yaw:	3.936	Thrust:	0.000
Time:	2.293	Roll Set Point:	-0.018	Pitch Set Point:	-0.037	Yaw Set Point:	-0.032	X_WP:	0.000	Y_WP:	0.000	Y_WP:	0.000	X:	0.009	Y:	0.018	Z:	0.057	yaw:	1.840	yaw rate:	0.822	Roll:	0.306	Pitch:	0.629	Yaw:	3.966	Thrust:	0.000
Time:	2.313	Roll Set Point:	-0.018	Pitch Set Point:	-0.037	Yaw Set Point:	-0.032	X_WP:	0.000	Y_WP:	0.000	Y_WP:	0.000	X:	0.009	Y:	0.018	Z:	0.057	yaw:	1.852	yaw rate:	-1.238	Roll:	0.328	Pitch:	0.624	Yaw:	4.265	Thrust:	0.000
Time:	2.333	Roll Set Point:	-0.018	Pitch Set Point:	-0.037	Yaw Set Point:	-0.032	X_WP:	0.000	Y_WP:	0.000	Y_WP:	0.000	X:	0.009	Y:	0.018	Z:	0.057	yaw:	1.848	yaw rate:	0.371	Roll:	0.316	Pitch:	0.640	Yaw:	4.058	Thrust:	0.000
Time:	2.352	Roll Set Point:	-0.018	Pitch Set Point:	-0.037	Yaw Set Point:	-0.032	X_WP:	0.000	Y_WP:	0.000	Y_WP:	0.000	X:	0.009	Y:	0.018	Z:	0.057	yaw:	1.846	yaw rate:	0.263	Roll:	0.307	Pitch:	0.621	Yaw:	3.886	Thrust:	0.000
Time:	2.372	Roll Set Point:	-0.018	Pitch Set Point:	-0.037	Yaw Set Point:	-0.032	X_WP:	0.000	Y_WP:	0.000	Y_WP:	0.000	X:	0.009	Y:	0.018	Z:	0.057	yaw:	1.844	yaw rate:	0.110	Roll:	0.320	Pitch:	0.640	Yaw:	4.150	Thrust:	0.000
Time:	2.394	Roll Set Point:	-0.018	Pitch Set Point:	-0.037	Yaw Set Point:	-0.032	X_WP:	0.000	Y_WP:	0.000	Y_WP:	0.000	X:	0.009	Y:	0.018	Z:	0.057	yaw:	1.847	yaw rate:	-0.298	Roll:	0.324	Pitch:	0.630	Yaw:	4.209	Thrust:	0.000
Time:	2.412	Roll Set Point:	-0.018	Pitch Set Point:	-0.037	Yaw Set Point:	-0.032	X_WP:	0.000	Y_WP:	0.000	Y_WP:	0.000	X:	0.009	Y:	0.018	Z:	0.057	yaw:	1.848	yaw rate:	-0.011	Roll:	0.304	Pitch:	0.629	Yaw:	4.022	Thrust:	0.000
Time:	2.433	Roll Set Point:	-0.018	Pitch Set Point:	-0.037	Yaw Set Point:	-0.032	X_WP:	0.000	Y_WP:	0.000	Y_WP:	0.000	X:	0.009	Y:	0.018	Z:	0.057	yaw:	1.848	yaw rate:	-0.081	Roll:	0.328	Pitch:	0.642	Yaw:	4.189	Thrust:	0.000
Time:	2.453	Roll Set Point:	-0.018	Pitch Set Point:	-0.037	Yaw Set Point:	-0.032	X_WP:	0.000	Y_WP:	0.000	Y_WP:	0.000	X:	0.009	Y:	0.018	Z:	0.057	yaw:	1.845	yaw rate:	0.319	Roll:	0.320	Pitch:	0.627	Yaw:	4.124	Thrust:	0.000
Time:	2.472	Roll Set Point:	-0.018	Pitch Set Point:	-0.037	Yaw Set Point:	-0.032	X_WP:	0.000	Y_WP:	0.000	Y_WP:	0.000	X:	0.009	Y:	0.018	Z:	0.057	yaw:	1.842	yaw rate:	0.330	Roll:	0.324	Pitch:	0.640	Yaw:	3.990	Thrust:	0.000
Time:	2.492	Roll Set Point:	-0.018	Pitch Set Point:	-0.037	Yaw Set Point:	-0.032	X_WP:	0.000	Y_WP:	0.000	Y_WP:	0.000	X:	0.009	Y:	0.018	Z:	0.057	yaw:	1.848	yaw rate:	-0.592	Roll:	0.314	Pitch:	0.640	Yaw:	4.248	Thrust:	0.000
Time:	2.513	Roll Set Point:	-0.018	Pitch Set Point:	-0.037	Yaw Set Point:	-0.032	X_WP:	0.000	Y_WP:	0.000	Y_WP:	0.000	X:	0.009	Y:	0.018	Z:	0.057	yaw:	1.853	yaw rate:	-0.480	Roll:	0.324	Pitch:	0.632	Yaw:	4.316	Thrust:	0.000
Time:	2.533	Roll Set Point:	-0.018	Pitch Set Point:	-0.037	Yaw Set Point:	-0.032	X_WP:	0.000	Y_WP:	0.000	Y_WP:	0.000	X:	0.009	Y:	0.018	Z:	0.057	yaw:	1.848	yaw rate:	0.483	Roll:	0.329	Pitch:	0.645	Yaw:	4.174	Thrust:	0.000
Time:	2.553	Roll Set Point:	-0.018	Pitch Set Point:	-0.037	Yaw Set Point:	-0.032	X_WP:	0.000	Y_WP:	0.000	Y_WP:	0.000	X:	0.009	Y:	0.018	Z:	0.057	yaw:	1.850	yaw rate:	-0.208	Roll:	0.318	Pitch:	0.640	Yaw:	4.167	Thrust:	0.000
Time:	2.572	Roll Set Point:	-0.018	Pitch Set Point:	-0.037	Yaw Set Point:	-0.032	X_WP:	0.000	Y_WP:	0.000	Y_WP:	0.000	X:	0.009	Y:	0.018	Z:	0.057	yaw:	1.846	yaw rate:	0.363	Roll:	0.308	Pitch:	0.639	Yaw:	4.170	Thrust:	0.000
Time:	2.594	Roll Set Point:	-0.018	Pitch Set Point:	-0.037	Yaw Set Point:	-0.032	X_WP:	0.000	Y_WP:	0.000	Y_WP:	0.000	X:	0.009	Y:	0.018	Z:	0.057	yaw:	1.853	yaw rate:	-0.678	Roll:	0.334	Pitch:	0.644	Yaw:	4.410	Thrust:	0.000
Time:	2.613	Roll Set Point:	-0.018	Pitch Set Point:	-0.037	Yaw Set Point:	-0.032	X_WP:	0.000	Y_WP:	0.000	Y_WP:	0.000	X:	0.009	Y:	0.018	Z:	0.057	yaw:	1.845	yaw rate:	0.815	Roll:	0.321	Pitch:	0.653	Yaw:	4.048	Thrust:	0.000
Time:	2.632	Roll Set Point:	-0.018	Pitch Set Point:	-0.037	Yaw Set Point:	-0.032	X_WP:	0.000	Y_WP:	0.000	Y_WP:	0.000	X:	0.009	Y:	0.018	Z:	0.057	yaw:	1.849	yaw rate:	-0.402	Roll:	0.321	Pitch:	0.628	Yaw:	4.278	Thrust:	0.000
Time:	2.653	Roll Set Point:	-0.018	Pitch Set Point:	-0.037	Yaw Set Point:	-0.032	X_WP:	0.000	Y_WP:	0.000	Y_WP:	0.000	X:	0.009	Y:	0.018	Z:	0.057	yaw:	1.836	yaw rate:	1.301	Roll:	0.323	Pitch:	0.657	Yaw:	4.188	Thrust:	0.000
Time:	2.672	Roll Set Point:	-0.018	Pitch Set Point:	-0.037	Yaw Set Point:	-0.032	X_WP:	0.000	Y_WP:	0.000	Y_WP:	0.000	X:	0.009	Y:	0.018	Z:	0.057	yaw:	1.838	yaw rate:	-0.167	Roll:	0.325	Pitch:	0.639	Yaw:	4.212	Thrust:	0.000
Time:	2.692	Roll Set Point:	-0.018	Pitch Set Point:	-0.037	Yaw Set Point:	-0.032	X_WP:	0.000	Y_WP:	0.000	Y_WP:	0.000	X:	0.009	Y:	0.018	Z:	0.057	yaw:	1.852	yaw rate:	-1.405	Roll:	0.329	Pitch:	0.646	Yaw:	4.497	Thrust:	0.000
Time:	2.713	Roll Set Point:	-0.018	Pitch Set Point:	-0.037	Yaw Set Point:	-0.032	X_WP:	0.000	Y_WP:	0.000	Y_WP:	0.000	X:	0.009	Y:	0.018	Z:	0.057	yaw:	1.847	yaw rate:	0.410	Roll:	0.319	Pitch:	0.649	Yaw:	4.258	Thrust:	0.000
Time:	2.732	Roll Set Point:	-0.018	Pitch Set Point:	-0.037	Yaw Set Point:	-0.032	X_WP:	0.000	Y_WP:	0.000	Y_WP:	0.000	X:	0.009	Y:	0.018	Z:	0.057	yaw:	1.843	yaw rate:	0.438	Roll:	0.330	Pitch:	0.646	Yaw:	4.232	Thrust:	0.000
Time:	2.752	Roll Set Point:	-0.018	Pitch Set Point:	-0.037	Yaw Set Point:	-0.032	X_WP:	0.000	Y_WP:	0.000	Y_WP:	0.000	X:	0.009	Y:	0.018	Z:	0.057	yaw:	1.845	yaw rate:	-0.234	Roll:	0.315	Pitch:	0.647	Yaw:	4.367	Thrust:	0.000
Time:	2.773	Roll Set Point:	-0.018	Pitch Set Point:	-0.037	Yaw Set Point:	-0.032	X_WP:	0.000	Y_WP:	0.000	Y_WP:	0.000	X:	0.009	Y:	0.018	Z:	0.057	yaw:	1.849	yaw rate:	-0.317	Roll:	0.331	Pitch:	0.649	Yaw:	4.342	Thrust:	0.000
Time:	2.796	Roll Set Point:	-0.018	Pitch Set Point:	-0.037	Yaw Set Point:	-0.032	X_WP:	0.000	Y_WP:	0.000	Y_WP:	0.000	X:	0.009	Y:	0.018	Z:	0.057	yaw:	1.842	yaw rate:	0.679	Roll:	0.345	Pitch:	0.677	Yaw:	4.653	Thrust:	0.000
Time:	2.812	Roll Set Point:	-0.018	Pitch Set Point:	-0.037	Yaw Set Point:	-0.032	X_WP:	0.000	Y_WP:	0.000	Y_WP:	0.000	X:	0.009	Y:	0.018	Z:	0.057	yaw:	1.849	yaw rate:	-0.747	Roll:	0.304	Pitch:	0.625	Yaw:	4.126	Thrust:	0.000
Time:	2.832	Roll Set Point:	-0.018	Pitch Set Point:	-0.037	Yaw Set Point:	-0.032	X_WP:	0.000	Y_WP:	0.000	Y_WP:	0.000	X:	0.009	Y:	0.018	Z:	0.057	yaw:	1.855	yaw rate:	-0.523	Roll:	0.329	Pitch:	0.655	Yaw:	4.516	Thrust:	0.000
Time:	2.853	Roll Set Point:	-0.018	Pitch Set Point:	-0.037	Yaw Set Point:	-0.032	X_WP:	0.000	Y_WP:	0.000	Y_WP:	0.000	X:	0.009	Y:	0.018	Z:	0.057	yaw:	1.846	yaw rate:	0.903	Roll:	0.338	Pitch:	0.660	Yaw:	4.356	Thrust:	0.000
Time:	2.872	Roll Set Point:	-0.018	Pitch Set Point:	-0.037	Yaw Set Point:	-0.032	X_WP:	0.000	Y_WP:	0.000	Y_WP:	0.000	X:	0.009	Y:	0.018	Z:	0.057	yaw:	1.846	yaw rate:	-0.052	Roll:	0.324	Pitch:	0.650	Yaw:	4.336	Thrust:	0.000
Time:	2.892	Roll Set Point:	-0.018	Pitch Set Point:	-0.037	Yaw Set Point:	-0.032	X_WP:	0.000	Y_WP:	0.000	Y_WP:	0.000	X:	0.009	Y:	0.018	Z:	0.057	yaw:	1.851	yaw rate:	-0.475	Roll:	0.328	Pitch:	0.651	Yaw:	4.450	Thrust:	0.000
Time:	2.912	Roll Set Point:	-0.018	Pitch Set Point:	-0.037	Yaw Set Point:	-0.032	X_WP:	0.000	Y_WP:	0.000	Y_WP:	0.000	X:	0.009	Y:	0.018	Z:	0.057	yaw:	1.844	yaw rate:	0.658	Roll:	0.325	Pitch:	0.658	Yaw:	4.353	Thrust:	0.000
Time:	2.933	Roll Set Point:	-0.018	Pitch Set Point:	-0.037	Yaw Set Point:	-0.032	X_WP:	0.000	Y_WP:	0.000	Y_WP:	0.000	X:	0.009	Y:	0.018	Z:	0.057	yaw:	1.847	yaw rate:	-0.326	Roll:	0.343	Pitch:	0.655	Yaw:	4.542	Thrust:	0.000
Time:	2.951	Roll Set Point:	-0.018	Pitch Set Point:	-0.037	Yaw Set Point:	-0.032	X_WP:	0.000	Y_WP:	0.000	Y_WP:	0.000	X:	0.009	Y:	0.018	Z:	0.057	yaw:	1.845	yaw rate:	0.243	Roll:	0.316	Pitch:	0.663	Yaw:	4.322	Thrust:	0.000
Time:	2.971	Roll Set Point:	-0.018	Pitch Set Point:	-0.037	Yaw Set Point:	-0.032	X_WP:	0.000	Y_WP:	0.000	Y_WP:	0.000	X:	0.009	Y:	0.018	Z:	0.057	yaw:	1.848	yaw rate:	-0.281	Roll:	0.342	Pitch:	0.652	Yaw:	4.507	Thrust:	0.000
Time:	2.994	Roll Set Point:	-0.018	Pitch Set Point:	-0.037	Yaw Set Point:	-0.032	X_WP:	0.000	Y_WP:	0.000	Y_WP:	0.000	X:	0.009	Y:	0.018	Z:	0.057	yaw:	1.857	yaw rate:	-0.875	Roll:	0.332	Pitch:	0.674	Yaw:	4.802	Thrust:	0.000
Time:	3.012	Roll Set Point:	-0.018	Pitch Set Point:	-0.037	Yaw Set Point:	-0.032	X_WP:	0.000	Y_WP:	0.000	Y_WP:	0.000	X:	0.009	Y:	0.018	Z:	0.057	yaw:	1.848	yaw rate:	0.822	Roll:	0.321	Pitch:	0.656	Yaw:	4.255	Thrust:	0.000
Time:	3.033	Roll Set Point:	-0.018	Pitch Set Point:	-0.037	Yaw Set Point:	-0.032	X_WP:	0.000	Y_WP:	0.000	Y_WP:	0.000	X:	0.009	Y:	0.018	Z:	0.057	yaw:	1.849	yaw rate:	-0.022	Roll:	0.351	Pitch:	0.658	Yaw:	4.546	Thrust:	0.000
Time:	3.053	Roll Set Point:	-0.018	Pitch Set Point:	-0.037	Yaw Set Point:	-0.032	X_WP:	0.000	Y_WP:	0.000	Y_WP:	0.000	X:	0.009	Y:	0.018	Z:	0.057	yaw:	1.855	yaw rate:	-0.633	Roll:	0.328	Pitch:	0.672	Yaw:	4.680	Thrust:	0.000
Time:	3.073	Roll Set Point:	-0.018	Pitch Set Point:	-0.037	Yaw Set Point:	-0.032	X_WP:	0.000	Y_WP:	0.000	Y_WP:	0.000	X:	0.009	Y:	0.018	Z:	0.057	yaw:	1.850	yaw rate:	0.516	Roll:	0.321	Pitch:	0.655	Yaw:	4.377	Thrust:	0.000
Time:	3.092	Roll Set Point:	-0.018	Pitch Set Point:	-0.037	Yaw Set Point:	-0.032	X_WP:	0.000	Y_WP:	0.000	Y_WP:	0.000	X:	0.009	Y:	0.018	Z:	0.057	yaw:	1.841	yaw rate:	0.830	Roll:	0.330	Pitch:	0.669	Yaw:	4.440	Thrust:	0.000
Time:	3.113	Roll Set Point:	-0.018	Pitch Set Point:	-0.037	Yaw Set Point:	-0.032	X_WP:	0.000	Y_WP:	0.000	Y_WP:	0.000	X:	0.009	Y:	0.018	Z:	0.057	yaw:	1.845	yaw rate:	-0.376	Roll:	0.353	Pitch:	0.673	Yaw:	4.711	Thrust:	0.000
Time:	3.133	Roll Set Point:	-0.018	Pitch Set Point:	-0.037	Yaw Set Point:	-0.032	X_WP:	0.000	Y_WP:	0.000	Y_WP:	0.000	X:	0.009	Y:	0.018	Z:	0.057	yaw:	1.845	yaw rate:	0.048	Roll:	0.319	Pitch:	0.662	Yaw:	4.577	Thrust:	0.000
Time:	3.153	Roll Set Point:	-0.018	Pitch Set Point:	-0.037	Yaw Set Point:	-0.032	X_WP:	0.000	Y_WP:	0.000	Y_WP:	0.000	X:	0.009	Y:	0.018	Z:	0.057	yaw:	1.840	yaw rate:	0.435	Roll:	0.350	Pitch:	0.668	Yaw:	4.527	Thrust:	0.000
Time:	3.172	Roll Set Point:	-0.018	Pitch Set Point:	-0.037	Yaw Set Point:	-0.032	X_WP:	0.000	Y_WP:	0.000	Y_WP:	0.000	X:	0.009	Y:	0.018	Z:	0.057	yaw:	1.850	yaw rate:	-1.008	Roll:	0.322	Pitch:	0.653	Yaw:	4.563	Thrust:	0.000
Time:	3.197	Roll Set Point:	-0.018	Pitch Set Point:	-0.037	Yaw Set Point:	-0.032	X_WP:	0.000	Y_WP:	0.000	Y_WP:	0.000	X:	0.009	Y:	0.018	Z:	0.057	yaw:	1.848	yaw rate:	0.223	Roll:	0.352	Pitch:	0.711	Yaw:	5.055	Thrust:	0.000
Time:	3.212	Roll Set Point:	-0.018	Pitch Set Point:	-0.037	Yaw Set Point:	-0.032	X_WP:	0.000	Y_WP:	0.000	Y_WP:	0.000	X:	0.009	Y:	0.018	Z:	0.057	yaw:	1.838	yaw rate:	1.022	Roll:	0.323	Pitch:	0.642	Yaw:	3.998	Thrust:	0.000
Time:	3.232	Roll Set Point:	-0.018	Pitch Set Point:	-0.037	Yaw Set Point:	-0.032	X_WP:	0.000	Y_WP:	0.000	Y_WP:	0.000	X:	0.009	Y:	0.018	Z:	0.057	yaw:	1.842	yaw rate:	-0.361	Roll:	0.334	Pitch:	0.675	Yaw:	4.612	Thrust:	0.000
Time:	3.256	Roll Set Point:	-0.018	Pitch Set Point:	-0.037	Yaw Set Point:	-0.032	X_WP:	0.000	Y_WP:	0.000	Y_WP:	0.000	X:	0.009	Y:	0.018	Z:	0.057	yaw:	1.839	yaw rate:	0.234	Roll:	0.343	Pitch:	0.673	Yaw:	4.752	Thrust:	0.000
Time:	3.273	Roll Set Point:	-0.018	Pitch Set Point:	-0.037	Yaw Set Point:	-0.032	X_WP:	0.000	Y_WP:	0.000	Y_WP:	0.000	X:	0.009	Y:	0.018	Z:	0.057	yaw:	1.853	yaw rate:	-1.330	Roll:	0.333	Pitch:	0.658	Yaw:	4.506	Thrust:	0.000
Time:	3.296	Roll Set Point:	-0.018	Pitch Set Point:	-0.037	Yaw Set Point:	-0.032	X_WP:	0.000	Y_WP:	0.000	Y_WP:	0.000	X:	0.009	Y:	0.018	Z:	0.057	yaw:	1.843	yaw rate:	0.916	Roll:	0.354	Pitch:	0.710	Yaw:	4.898	Thrust:	0.000
Time:	3.313	Roll Set Point:	-0.018	Pitch Set Point:	-0.037	Yaw Set Point:	-0.032	X_WP:	0.000	Y_WP:	0.000	Y_WP:	0.000	X:	0.009	Y:	0.018	Z:	0.057	yaw:	1.842	yaw rate:	0.172	Roll:	0.334	Pitch:	0.638	Yaw:	4.233	Thrust:	0.000
Time:	3.332	Roll Set Point:	-0.018	Pitch Set Point:	-0.037	Yaw Set Point:	-0.032	X_WP:	0.000	Y_WP:	0.000	Y_WP:	0.000	X:	0.009	Y:	0.018	Z:	0.057	yaw:	1.849	yaw rate:	-0.730	Roll:	0.327	Pitch:	0.680	Yaw:	4.634	Thrust:	0.000
Time:	3.353	Roll Set Point:	-0.018	Pitch Set Point:	-0.037	Yaw Set Point:	-0.032	X_WP:	0.000	Y_WP:	0.000	Y_WP:	0.000	X:	0.009	Y:	0.018	Z:	0.057	yaw:	1.849	yaw rate:	0.004	Roll:	0.346	Pitch:	0.679	Yaw:	4.648	Thrust:	0.000
Time:	3.372	Roll Set Point:	-0.018	Pitch Set Point:	-0.037	Yaw Set Point:	-0.032	X_WP:	0.000	Y_WP:	0.000	Y_WP:	0.000	X:	0.009	Y:	0.018	Z:	0.057	yaw:	1.843	yaw rate:	0.581	Roll:	0.338	Pitch:	0.679	Yaw:	4.412	Thrust:	0.000
Time:	3.396	Roll Set Point:	-0.018	Pitch Set Point:	-0.037	Yaw Set Point:	-0.032	X_WP:	0.000	Y_WP:	0.000	Y_WP:	0.000	X:	0.009	Y:	0.018	Z:	0.057	yaw:	1.841	yaw rate:	0.209	Roll:	0.352	Pitch:	0.690	Yaw:	4.905	Thrust:	0.000
Time:	3.412	Roll Set Point:	-0.018	Pitch Set Point:	-0.037	Yaw Set Point:	-0.032	X_WP:	0.000	Y_WP:	0.000	Y_WP:	0.000	X:	0.009	Y:	0.018	Z:	0.057	yaw:	1.851	yaw rate:	-1.005	Roll:	0.334	Pitch:	0.661	Yaw:	4.357	Thrust:	0.000
Time:	3.432	Roll Set Point:	-0.018	Pitch Set Point:	-0.037	Yaw Set Point:	-0.032	X_WP:	0.000	Y_WP:	0.000	Y_WP:	0.000	X:	0.009	Y:	0.018	Z:	0.057	yaw:	1.851	yaw rate:	0.036	Roll:	0.338	Pitch:	0.682	Yaw:	4.586	Thrust:	0.000
Time:	3.458	Roll Set Point:	-0.018	Pitch Set Point:	-0.037	Yaw Set Point:	-0.032	X_WP:	0.000	Y_WP:	0.000	Y_WP:	0.000	X:	0.009	Y:	0.018	Z:	0.057	yaw:	1.843	yaw rate:	0.764	Roll:	0.352	Pitch:	0.709	Yaw:	5.004	Thrust:	0.000
Time:	3.473	Roll Set Point:	-0.018	Pitch Set Point:	-0.037	Yaw Set Point:	-0.032	X_WP:	0.000	Y_WP:	0.000	Y_WP:	0.000	X:	0.009	Y:	0.018	Z:	0.057	yaw:	1.839	yaw rate:	0.380	Roll:	0.327	Pitch:	0.663	Yaw:	4.061	Thrust:	0.000
Time:	3.492	Roll Set Point:	-0.018	Pitch Set Point:	-0.037	Yaw Set Point:	-0.032	X_WP:	0.000	Y_WP:	0.000	Y_WP:	0.000	X:	0.009	Y:	0.018	Z:	0.057	yaw:	1.842	yaw rate:	-0.228	Roll:	0.359	Pitch:	0.676	Yaw:	4.519	Thrust:	0.000
Time:	3.513	Roll Set Point:	-0.018	Pitch Set Point:	-0.037	Yaw Set Point:	-0.032	X_WP:	0.000	Y_WP:	0.000	Y_WP:	0.000	X:	0.009	Y:	0.018	Z:	0.057	yaw:	1.849	yaw rate:	-0.740	Roll:	0.335	Pitch:	0.689	Yaw:	4.818	Thrust:	0.000
Time:	3.532	Roll Set Point:	-0.018	Pitch Set Point:	-0.037	Yaw Set Point:	-0.032	X_WP:	0.000	Y_WP:	0.000	Y_WP:	0.000	X:	0.009	Y:	0.018	Z:	0.057	yaw:	1.846	yaw rate:	0.263	Roll:	0.341	Pitch:	0.682	Yaw:	4.447	Thrust:	0.000
Time:	3.553	Roll Set Point:	-0.018	Pitch Set Point:	-0.037	Yaw Set Point:	-0.032	X_WP:	0.000	Y_WP:	0.000	Y_WP:	0.000	X:	0.009	Y:	0.018	Z:	0.057	yaw:	1.852	yaw rate:	-0.571	Roll:	0.354	Pitch:	0.689	Yaw:	4.705	Thrust:	0.000
Time:	3.572	Roll Set Point:	-0.018	Pitch Set Point:	-0.037	Yaw Set Point:	-0.032	X_WP:	0.000	Y_WP:	0.000	Y_WP:	0.000	X:	0.009	Y:	0.018	Z:	0.057	yaw:	1.852	yaw rate:	0.054	Roll:	0.330	Pitch:	0.676	Yaw:	4.434	Thrust:	0.000
Time:	3.593	Roll Set Point:	-0.018	Pitch Set Point:	-0.037	Yaw Set Point:	-0.032	X_WP:	0.000	Y_WP:	0.000	Y_WP:	0.000	X:	0.009	Y:	0.018	Z:	0.057	yaw:	1.838	yaw rate:	1.352	Roll:	0.346	Pitch:	0.694	Yaw:	4.555	Thrust:	0.000
Time:	3.613	Roll Set Point:	-0.018	Pitch Set Point:	-0.037	Yaw Set Point:	-0.032	X_WP:	0.000	Y_WP:	0.000	Y_WP:	0.000	X:	0.009	Y:	0.018	Z:	0.057	yaw:	1.849	yaw rate:	-1.111	Roll:	0.353	Pitch:	0.684	Yaw:	4.720	Thrust:	0.000
Time:	3.632	Roll Set Point:	-0.018	Pitch Set Point:	-0.037	Yaw Set Point:	-0.032	X_WP:	0.000	Y_WP:	0.000	Y_WP:	0.000	X:	0.009	Y:	0.018	Z:	0.057	yaw:	1.852	yaw rate:	-0.309	Roll:	0.346	Pitch:	0.690	Yaw:	4.583	Thrust:	0.000
Time:	3.653	Roll Set Point:	-0.018	Pitch Set Point:	-0.037	Yaw Set Point:	-0.032	X_WP:	0.000	Y_WP:	0.000	Y_WP:	0.000	X:	0.009	Y:	0.018	Z:	0.057	yaw:	1.848	yaw rate:	0.450	Roll:	0.340	Pitch:	0.698	Yaw:	4.584	Thrust:	0.000
Time:	3.673	Roll Set Point:	-0.018	Pitch Set Point:	-0.037	Yaw Set Point:	-0.032	X_WP:	0.000	Y_WP:	0.000	Y_WP:	0.000	X:	0.009	Y:	0.018	Z:	0.057	yaw:	1.852	yaw rate:	-0.438	Roll:	0.360	Pitch:	0.674	Yaw:	4.509	Thrust:	0.000
Time:	3.693	Roll Set Point:	-0.018	Pitch Set Point:	-0.037	Yaw Set Point:	-0.032	X_WP:	0.000	Y_WP:	0.000	Y_WP:	0.000	X:	0.009	Y:	0.018	Z:	0.057	yaw:	1.846	yaw rate:	0.600	Roll:	0.345	Pitch:	0.699	Yaw:	4.586	Thrust:	0.000
Time:	3.713	Roll Set Point:	-0.018	Pitch Set Point:	-0.037	Yaw Set Point:	-0.032	X_WP:	0.000	Y_WP:	0.000	Y_WP:	0.000	X:	0.009	Y:	0.018	Z:	0.057	yaw:	1.850	yaw rate:	-0.373	Roll:	0.344	Pitch:	0.701	Yaw:	4.730	Thrust:	0.000
Time:	3.733	Roll Set Point:	-0.018	Pitch Set Point:	-0.037	Yaw Set Point:	-0.032	X_WP:	0.000	Y_WP:	0.000	Y_WP:	0.000	X:	0.009	Y:	0.018	Z:	0.057	yaw:	1.850	yaw rate:	0.027	Roll:	0.357	Pitch:	0.698	Yaw:	4.534	Thrust:	0.000
Time:	3.753	Roll Set Point:	-0.018	Pitch Set Point:	-0.037	Yaw Set Point:	-0.032	X_WP:	0.000	Y_WP:	0.000	Y_WP:	0.000	X:	0.009	Y:	0.018	Z:	0.057	yaw:	1.847	yaw rate:	0.254	Roll:	0.339	Pitch:	0.687	Yaw:	4.513	Thrust:	0.000
Time:	3.772	Roll Set Point:	-0.018	Pitch Set Point:	-0.037	Yaw Set Point:	-0.032	X_WP:	0.000	Y_WP:	0.000	Y_WP:	0.000	X:	0.009	Y:	0.018	Z:	0.057	yaw:	1.844	yaw rate:	0.258	Roll:	0.349	Pitch:	0.689	Yaw:	4.519	Thrust:	0.000
Time:	3.793	Roll Set Point:	-0.018	Pitch Set Point:	-0.037	Yaw Set Point:	-0.032	X_WP:	0.000	Y_WP:	0.000	Y_WP:	0.000	X:	0.009	Y:	0.018	Z:	0.057	yaw:	1.857	yaw rate:	-1.211	Roll:	0.349	Pitch:	0.704	Yaw:	4.757	Thrust:	0.000
Time:	3.812	Roll Set Point:	-0.018	Pitch Set Point:	-0.037	Yaw Set Point:	-0.032	X_WP:	0.000	Y_WP:	0.000	Y_WP:	0.000	X:	0.009	Y:	0.018	Z:	0.057	yaw:	1.850	yaw rate:	0.669	Roll:	0.354	Pitch:	0.691	Yaw:	4.454	Thrust:	0.000
Time:	3.833	Roll Set Point:	-0.018	Pitch Set Point:	-0.037	Yaw Set Point:	-0.032	X_WP:	0.000	Y_WP:	0.000	Y_WP:	0.000	X:	0.009	Y:	0.018	Z:	0.057	yaw:	1.849	yaw rate:	0.135	Roll:	0.345	Pitch:	0.693	Yaw:	4.624	Thrust:	0.000
Time:	3.853	Roll Set Point:	-0.018	Pitch Set Point:	-0.037	Yaw Set Point:	-0.032	X_WP:	0.000	Y_WP:	0.000	Y_WP:	0.000	X:	0.009	Y:	0.018	Z:	0.057	yaw:	1.843	yaw rate:	0.556	Roll:	0.362	Pitch:	0.716	Yaw:	4.559	Thrust:	0.000
Time:	3.872	Roll Set Point:	-0.018	Pitch Set Point:	-0.037	Yaw Set Point:	-0.032	X_WP:	0.000	Y_WP:	0.000	Y_WP:	0.000	X:	0.009	Y:	0.018	Z:	0.057	yaw:	1.843	yaw rate:	0.001	Roll:	0.340	Pitch:	0.694	Yaw:	4.485	Thrust:	0.000
Time:	3.893	Roll Set Point:	-0.018	Pitch Set Point:	-0.037	Yaw Set Point:	-0.032	X_WP:	0.000	Y_WP:	0.000	Y_WP:	0.000	X:	0.009	Y:	0.018	Z:	0.057	yaw:	1.844	yaw rate:	-0.097	Roll:	0.351	Pitch:	0.693	Yaw:	4.556	Thrust:	0.000
Time:	3.913	Roll Set Point:	-0.018	Pitch Set Point:	-0.037	Yaw Set Point:	-0.032	X_WP:	0.000	Y_WP:	0.000	Y_WP:	0.000	X:	0.009	Y:	0.018	Z:	0.057	yaw:	1.849	yaw rate:	-0.510	Roll:	0.360	Pitch:	0.707	Yaw:	4.732	Thrust:	0.000
Time:	3.933	Roll Set Point:	-0.018	Pitch Set Point:	-0.037	Yaw Set Point:	-0.032	X_WP:	0.000	Y_WP:	0.000	Y_WP:	0.000	X:	0.009	Y:	0.018	Z:	0.057	yaw:	1.847	yaw rate:	0.163	Roll:	0.354	Pitch:	0.716	Yaw:	4.614	Thrust:	0.000
Time:	3.953	Roll Set Point:	-0.018	Pitch Set Point:	-0.037	Yaw Set Point:	-0.032	X_WP:	0.000	Y_WP:	0.000	Y_WP:	0.000	X:	0.009	Y:	0.018	Z:	0.057	yaw:	1.847	yaw rate:	-0.004	Roll:	0.351	Pitch:	0.691	Yaw:	4.522	Thrust:	0.000
Time:	3.972	Roll Set Point:	-0.018	Pitch Set Point:	-0.037	Yaw Set Point:	-0.032	X_WP:	0.000	Y_WP:	0.000	Y_WP:	0.000	X:	0.009	Y:	0.018	Z:	0.057	yaw:	1.850	yaw rate:	-0.264	Roll:	0.346	Pitch:	0.691	Yaw:	4.462	Thrust:	0.000
Time:	3.993	Roll Set Point:	-0.018	Pitch Set Point:	-0.037	Yaw Set Point:	-0.032	X_WP:	0.000	Y_WP:	0.000	Y_WP:	0.000	X:	0.009	Y:	0.018	Z:	0.057	yaw:	1.853	yaw rate:	-0.345	Roll:	0.363	Pitch:	0.722	Yaw:	4.796	Thrust:	0.000
Time:	4.013	Roll Set Point:	-0.018	Pitch Set Point:	-0.037	Yaw Set Point:	-0.032	X_WP:	0.000	Y_WP:	0.000	Y_WP:	0.000	X:	0.009	Y:	0.018	Z:	0.057	yaw:	1.860	yaw rate:	-0.628	Roll:	0.353	Pitch:	0.703	Yaw:	4.611	Thrust:	0.000
Time:	4.033	Roll Set Point:	-0.018	Pitch Set Point:	-0.037	Yaw Set Point:	-0.032	X_WP:	0.000	Y_WP:	0.000	Y_WP:	0.000	X:	0.009	Y:	0.018	Z:	0.057	yaw:	1.851	yaw rate:	0.925	Roll:	0.360	Pitch:	0.706	Yaw:	4.448	Thrust:	0.000
Time:	4.053	Roll Set Point:	-0.018	Pitch Set Point:	-0.037	Yaw Set Point:	-0.032	X_WP:	0.000	Y_WP:	0.000	Y_WP:	0.000	X:	0.009	Y:	0.018	Z:	0.057	yaw:	1.843	yaw rate:	0.777	Roll:	0.341	Pitch:	0.711	Yaw:	4.539	Thrust:	0.000
Time:	4.072	Roll Set Point:	-0.018	Pitch Set Point:	-0.037	Yaw Set Point:	-0.032	X_WP:	0.000	Y_WP:	0.000	Y_WP:	0.000	X:	0.009	Y:	0.018	Z:	0.057	yaw:	1.838	yaw rate:	0.453	Roll:	0.370	Pitch:	0.700	Yaw:	4.371	Thrust:	0.000
Time:	4.093	Roll Set Point:	-0.018	Pitch Set Point:	-0.037	Yaw Set Point:	-0.032	X_WP:	0.000	Y_WP:	0.000	Y_WP:	0.000	X:	0.009	Y:	0.018	Z:	0.057	yaw:	1.846	yaw rate:	-0.734	Roll:	0.343	Pitch:	0.722	Yaw:	4.745	Thrust:	0.000
Time:	4.113	Roll Set Point:	-0.018	Pitch Set Point:	-0.037	Yaw Set Point:	-0.032	X_WP:	0.000	Y_WP:	0.000	Y_WP:	0.000	X:	0.009	Y:	0.018	Z:	0.057	yaw:	1.845	yaw rate:	0.029	Roll:	0.360	Pitch:	0.709	Yaw:	4.672	Thrust:	0.000
Time:	4.134	Roll Set Point:	-0.018	Pitch Set Point:	-0.037	Yaw Set Point:	-0.032	X_WP:	0.000	Y_WP:	0.000	Y_WP:	0.000	X:	0.009	Y:	0.018	Z:	0.057	yaw:	1.854	yaw rate:	-0.867	Roll:	0.380	Pitch:	0.716	Yaw:	4.707	Thrust:	0.000
Time:	4.154	Roll Set Point:	-0.018	Pitch Set Point:	-0.037	Yaw Set Point:	-0.032	X_WP:	0.000	Y_WP:	0.000	Y_WP:	0.000	X:	0.009	Y:	0.018	Z:	0.057	yaw:	1.841	yaw rate:	1.248	Roll:	0.340	Pitch:	0.717	Yaw:	4.421	Thrust:	0.000
Time:	4.173	Roll Set Point:	-0.018	Pitch Set Point:	-0.037	Yaw Set Point:	-0.032	X_WP:	0.000	Y_WP:	0.000	Y_WP:	0.000	X:	0.009	Y:	0.018	Z:	0.057	yaw:	1.848	yaw rate:	-0.651	Roll:	0.355	Pitch:	0.693	Yaw:	4.496	Thrust:	0.000
Time:	4.193	Roll Set Point:	-0.018	Pitch Set Point:	-0.037	Yaw Set Point:	-0.032	X_WP:	0.000	Y_WP:	0.000	Y_WP:	0.000	X:	0.009	Y:	0.018	Z:	0.057	yaw:	1.839	yaw rate:	0.853	Roll:	0.368	Pitch:	0.725	Yaw:	4.652	Thrust:	0.000
Time:	4.212	Roll Set Point:	-0.018	Pitch Set Point:	-0.037	Yaw Set Point:	-0.032	X_WP:	0.000	Y_WP:	0.000	Y_WP:	0.000	X:	0.009	Y:	0.018	Z:	0.057	yaw:	1.847	yaw rate:	-0.783	Roll:	0.354	Pitch:	0.713	Yaw:	4.560	Thrust:	0.000
Time:	4.233	Roll Set Point:	-0.018	Pitch Set Point:	-0.037	Yaw Set Point:	-0.032	X_WP:	0.000	Y_WP:	0.000	Y_WP:	0.000	X:	0.009	Y:	0.018	Z:	0.057	yaw:	1.848	yaw rate:	-0.055	Roll:	0.356	Pitch:	0.714	Yaw:	4.587	Thrust:	0.000
Time:	4.255	Roll Set Point:	-0.018	Pitch Set Point:	-0.037	Yaw Set Point:	-0.032	X_WP:	0.000	Y_WP:	0.000	Y_WP:	0.000	X:	0.009	Y:	0.018	Z:	0.057	yaw:	1.842	yaw rate:	0.624	Roll:	0.373	Pitch:	0.736	Yaw:	4.659	Thrust:	0.000
Time:	4.273	Roll Set Point:	-0.018	Pitch Set Point:	-0.037	Yaw Set Point:	-0.032	X_WP:	0.000	Y_WP:	0.000	Y_WP:	0.000	X:	0.009	Y:	0.018	Z:	0.057	yaw:	1.843	yaw rate:	-0.119	Roll:	0.351	Pitch:	0.714	Yaw:	4.488	Thrust:	0.000
Time:	4.292	Roll Set Point:	-0.018	Pitch Set Point:	-0.037	Yaw Set Point:	-0.032	X_WP:	0.000	Y_WP:	0.000	Y_WP:	0.000	X:	0.009	Y:	0.018	Z:	0.057	yaw:	1.844	yaw rate:	-0.172	Roll:	0.358	Pitch:	0.695	Yaw:	4.532	Thrust:	0.000
Time:	4.313	Roll Set Point:	-0.018	Pitch Set Point:	-0.037	Yaw Set Point:	-0.032	X_WP:	0.000	Y_WP:	0.000	Y_WP:	0.000	X:	0.009	Y:	0.018	Z:	0.057	yaw:	1.850	yaw rate:	-0.579	Roll:	0.363	Pitch:	0.743	Yaw:	4.789	Thrust:	0.000
Time:	4.334	Roll Set Point:	-0.018	Pitch Set Point:	-0.037	Yaw Set Point:	-0.032	X_WP:	0.000	Y_WP:	0.000	Y_WP:	0.000	X:	0.009	Y:	0.018	Z:	0.057	yaw:	1.841	yaw rate:	0.909	Roll:	0.375	Pitch:	0.724	Yaw:	4.511	Thrust:	0.000
Time:	4.353	Roll Set Point:	-0.018	Pitch Set Point:	-0.037	Yaw Set Point:	-0.032	X_WP:	0.000	Y_WP:	0.000	Y_WP:	0.000	X:	0.009	Y:	0.018	Z:	0.057	yaw:	1.854	yaw rate:	-1.280	Roll:	0.351	Pitch:	0.708	Yaw:	4.687	Thrust:	0.000
Time:	4.373	Roll Set Point:	-0.018	Pitch Set Point:	-0.037	Yaw Set Point:	-0.032	X_WP:	0.000	Y_WP:	0.000	Y_WP:	0.000	X:	0.009	Y:	0.018	Z:	0.057	yaw:	1.845	yaw rate:	0.895	Roll:	0.361	Pitch:	0.719	Yaw:	4.288	Thrust:	0.000
Time:	4.395	Roll Set Point:	-0.018	Pitch Set Point:	-0.037	Yaw Set Point:	-0.032	X_WP:	0.000	Y_WP:	0.000	Y_WP:	0.000	X:	0.009	Y:	0.018	Z:	0.057	yaw:	1.842	yaw rate:	0.310	Roll:	0.373	Pitch:	0.744	Yaw:	4.795	Thrust:	0.000
Time:	4.412	Roll Set Point:	-0.018	Pitch Set Point:	-0.037	Yaw Set Point:	-0.032	X_WP:	0.000	Y_WP:	0.000	Y_WP:	0.000	X:	0.009	Y:	0.018	Z:	0.057	yaw:	1.845	yaw rate:	-0.270	Roll:	0.354	Pitch:	0.704	Yaw:	4.421	Thrust:	0.000
Time:	4.433	Roll Set Point:	-0.018	Pitch Set Point:	-0.037	Yaw Set Point:	-0.032	X_WP:	0.000	Y_WP:	0.000	Y_WP:	0.000	X:	0.009	Y:	0.018	Z:	0.057	yaw:	1.851	yaw rate:	-0.665	Roll:	0.368	Pitch:	0.736	Yaw:	4.686	Thrust:	0.000
Time:	4.455	Roll Set Point:	-0.018	Pitch Set Point:	-0.037	Yaw Set Point:	-0.032	X_WP:	0.000	Y_WP:	0.000	Y_WP:	0.000	X:	0.009	Y:	0.018	Z:	0.057	yaw:	1.859	yaw rate:	-0.748	Roll:	0.373	Pitch:	0.742	Yaw:	4.939	Thrust:	0.000
Time:	4.473	Roll Set Point:	-0.018	Pitch Set Point:	-0.037	Yaw Set Point:	-0.032	X_WP:	0.000	Y_WP:	0.000	Y_WP:	0.000	X:	0.009	Y:	0.018	Z:	0.057	yaw:	1.848	yaw rate:	1.080	Roll:	0.353	Pitch:	0.709	Yaw:	4.185	Thrust:	0.000
Time:	4.493	Roll Set Point:	-0.018	Pitch Set Point:	-0.037	Yaw Set Point:	-0.032	X_WP:	0.000	Y_WP:	0.000	Y_WP:	0.000	X:	0.009	Y:	0.018	Z:	0.057	yaw:	1.853	yaw rate:	-0.469	Roll:	0.366	Pitch:	0.722	Yaw:	4.663	Thrust:	0.000
Time:	4.513	Roll Set Point:	-0.018	Pitch Set Point:	-0.037	Yaw Set Point:	-0.032	X_WP:	0.000	Y_WP:	0.000	Y_WP:	0.000	X:	0.009	Y:	0.018	Z:	0.057	yaw:	1.857	yaw rate:	-0.468	Roll:	0.373	Pitch:	0.735	Yaw:	4.629	Thrust:	0.000
Time:	4.534	Roll Set Point:	-0.018	Pitch Set Point:	-0.037	Yaw Set Point:	-0.032	X_WP:	0.000	Y_WP:	0.000	Y_WP:	0.000	X:	0.009	Y:	0.018	Z:	0.057	yaw:	1.855	yaw rate:	0.258	Roll:	0.368	Pitch:	0.727	Yaw:	4.665	Thrust:	0.000
Time:	4.553	Roll Set Point:	-0.018	Pitch Set Point:	-0.037	Yaw Set Point:	-0.032	X_WP:	0.000	Y_WP:	0.000	Y_WP:	0.000	X:	0.009	Y:	0.018	Z:	0.057	yaw:	1.841	yaw rate:	1.354	Roll:	0.363	Pitch:	0.741	Yaw:	4.352	Thrust:	0.000
Time:	4.572	Roll Set Point:	-0.018	Pitch Set Point:	-0.037	Yaw Set Point:	-0.032	X_WP:	0.000	Y_WP:	0.000	Y_WP:	0.000	X:	0.009	Y:	0.018	Z:	0.057	yaw:	1.852	yaw rate:	-1.082	Roll:	0.363	Pitch:	0.723	Yaw:	4.645	Thrust:	0.000
Time:	4.594	Roll Set Point:	-0.018	Pitch Set Point:	-0.037	Yaw Set Point:	-0.032	X_WP:	0.000	Y_WP:	0.000	Y_WP:	0.000	X:	0.009	Y:	0.018	Z:	0.057	yaw:	1.843	yaw rate:	0.931	Roll:	0.367	Pitch:	0.735	Yaw:	4.559	Thrust:	0.000
Time:	4.612	Roll Set Point:	-0.018	Pitch Set Point:	-0.037	Yaw Set Point:	-0.032	X_WP:	0.000	Y_WP:	0.000	Y_WP:	0.000	X:	0.009	Y:	0.018	Z:	0.057	yaw:	1.848	yaw rate:	-0.553	Roll:	0.377	Pitch:	0.725	Yaw:	4.536	Thrust:	0.000
Time:	4.632	Roll Set Point:	-0.018	Pitch Set Point:	-0.037	Yaw Set Point:	-0.032	X_WP:	0.000	Y_WP:	0.000	Y_WP:	0.000	X:	0.009	Y:	0.018	Z:	0.057	yaw:	1.848	yaw rate:	0.039	Roll:	0.362	Pitch:	0.736	Yaw:	4.588	Thrust:	0.000
Time:	4.656	Roll Set Point:	-0.018	Pitch Set Point:	-0.037	Yaw Set Point:	-0.032	X_WP:	0.000	Y_WP:	0.000	Y_WP:	0.000	X:	0.009	Y:	0.018	Z:	0.057	yaw:	1.850	yaw rate:	-0.212	Roll:	0.381	Pitch:	0.757	Yaw:	4.933	Thrust:	0.000
Time:	4.673	Roll Set Point:	-0.018	Pitch Set Point:	-0.037	Yaw Set Point:	-0.032	X_WP:	0.000	Y_WP:	0.000	Y_WP:	0.000	X:	0.009	Y:	0.018	Z:	0.057	yaw:	1.845	yaw rate:	0.461	Roll:	0.349	Pitch:	0.708	Yaw:	4.125	Thrust:	0.000
Time:	4.692	Roll Set Point:	-0.018	Pitch Set Point:	-0.037	Yaw Set Point:	-0.032	X_WP:	0.000	Y_WP:	0.000	Y_WP:	0.000	X:	0.009	Y:	0.018	Z:	0.057	yaw:	1.854	yaw rate:	-0.837	Roll:	0.377	Pitch:	0.734	Yaw:	4.699	Thrust:	0.000
Time:	4.714	Roll Set Point:	-0.018	Pitch Set Point:	-0.037	Yaw Set Point:	-0.032	X_WP:	0.000	Y_WP:	0.000	Y_WP:	0.000	X:	0.009	Y:	0.018	Z:	0.057	yaw:	1.841	yaw rate:	1.274	Roll:	0.382	Pitch:	0.761	Yaw:	4.561	Thrust:	0.000
Time:	4.734	Roll Set Point:	-0.018	Pitch Set Point:	-0.037	Yaw Set Point:	-0.032	X_WP:	0.000	Y_WP:	0.000	Y_WP:	0.000	X:	0.009	Y:	0.018	Z:	0.057	yaw:	1.842	yaw rate:	-0.130	Roll:	0.365	Pitch:	0.745	Yaw:	4.649	Thrust:	0.000
Time:	4.753	Roll Set Point:	-0.018	Pitch Set Point:	-0.037	Yaw Set Point:	-0.032	X_WP:	0.000	Y_WP:	0.000	Y_WP:	0.000	X:	0.009	Y:	0.018	Z:	0.057	yaw:	1.850	yaw rate:	-0.787	Roll:	0.374	Pitch:	0.730	Yaw:	4.599	Thrust:	0.000
Time:	4.775	Roll Set Point:	-0.018	Pitch Set Point:	-0.037	Yaw Set Point:	-0.032	X_WP:	0.000	Y_WP:	0.000	Y_WP:	0.000	X:	0.009	Y:	0.018	Z:	0.057	yaw:	1.847	yaw rate:	0.301	Roll:	0.361	Pitch:	0.727	Yaw:	4.707	Thrust:	0.000
Time:	4.796	Roll Set Point:	-0.018	Pitch Set Point:	-0.037	Yaw Set Point:	-0.032	X_WP:	0.000	Y_WP:	0.000	Y_WP:	0.000	X:	0.009	Y:	0.018	Z:	0.057	yaw:	1.844	yaw rate:	0.303	Roll:	0.386	Pitch:	0.787	Yaw:	4.642	Thrust:	0.000
Time:	4.812	Roll Set Point:	-0.018	Pitch Set Point:	-0.037	Yaw Set Point:	-0.032	X_WP:	0.000	Y_WP:	0.000	Y_WP:	0.000	X:	0.009	Y:	0.018	Z:	0.057	yaw:	1.852	yaw rate:	-0.818	Roll:	0.364	Pitch:	0.697	Yaw:	4.398	Thrust:	0.000
Time:	4.832	Roll Set Point:	-0.018	Pitch Set Point:	-0.037	Yaw Set Point:	-0.032	X_WP:	0.000	Y_WP:	0.000	Y_WP:	0.000	X:	0.009	Y:	0.018	Z:	0.057	yaw:	1.849	yaw rate:	0.342	Roll:	0.377	Pitch:	0.745	Yaw:	4.537	Thrust:	0.000
Time:	4.854	Roll Set Point:	-0.018	Pitch Set Point:	-0.037	Yaw Set Point:	-0.032	X_WP:	0.000	Y_WP:	0.000	Y_WP:	0.000	X:	0.009	Y:	0.018	Z:	0.057	yaw:	1.855	yaw rate:	-0.623	Roll:	0.393	Pitch:	0.757	Yaw:	4.730	Thrust:	0.000
Time:	4.873	Roll Set Point:	-0.018	Pitch Set Point:	-0.037	Yaw Set Point:	-0.032	X_WP:	0.000	Y_WP:	0.000	Y_WP:	0.000	X:	0.009	Y:	0.018	Z:	0.057	yaw:	1.836	yaw rate:	1.933	Roll:	0.334	Pitch:	0.747	Yaw:	4.267	Thrust:	0.000
Time:	4.893	Roll Set Point:	-0.018	Pitch Set Point:	-0.037	Yaw Set Point:	-0.032	X_WP:	0.000	Y_WP:	0.000	Y_WP:	0.000	X:	0.009	Y:	0.018	Z:	0.057	yaw:	1.847	yaw rate:	-1.069	Roll:	0.399	Pitch:	0.736	Yaw:	4.677	Thrust:	0.000
Time:	4.914	Roll Set Point:	-0.018	Pitch Set Point:	-0.037	Yaw Set Point:	-0.032	X_WP:	0.000	Y_WP:	0.000	Y_WP:	0.000	X:	0.009	Y:	0.018	Z:	0.057	yaw:	1.850	yaw rate:	-0.386	Roll:	0.372	Pitch:	0.750	Yaw:	4.721	Thrust:	0.000
Time:	4.934	Roll Set Point:	-0.018	Pitch Set Point:	-0.037	Yaw Set Point:	-0.032	X_WP:	0.000	Y_WP:	0.000	Y_WP:	0.000	X:	0.009	Y:	0.018	Z:	0.057	yaw:	1.850	yaw rate:	0.030	Roll:	0.373	Pitch:	0.754	Yaw:	4.584	Thrust:	0.000
Time:	4.953	Roll Set Point:	-0.018	Pitch Set Point:	-0.037	Yaw Set Point:	-0.032	X_WP:	0.000	Y_WP:	0.000	Y_WP:	0.000	X:	0.009	Y:	0.018	Z:	0.057	yaw:	1.851	yaw rate:	-0.056	Roll:	0.382	Pitch:	0.755	Yaw:	4.566	Thrust:	0.000
Time:	4.973	Roll Set Point:	-0.018	Pitch Set Point:	-0.037	Yaw Set Point:	-0.032	X_WP:	0.000	Y_WP:	0.000	Y_WP:	0.000	X:	0.009	Y:	0.018	Z:	0.057	yaw:	1.842	yaw rate:	0.832	Roll:	0.368	Pitch:	0.733	Yaw:	4.427	Thrust:	0.000
Time:	4.993	Roll Set Point:	-0.018	Pitch Set Point:	-0.037	Yaw Set Point:	-0.032	X_WP:	0.000	Y_WP:	0.000	Y_WP:	0.000	X:	0.009	Y:	0.018	Z:	0.057	yaw:	1.840	yaw rate:	0.196	Roll:	0.369	Pitch:	0.755	Yaw:	4.550	Thrust:	0.000
Time:	5.012	Roll Set Point:	-0.018	Pitch Set Point:	-0.037	Yaw Set Point:	-0.032	X_WP:	0.000	Y_WP:	0.000	Y_WP:	0.000	X:	0.009	Y:	0.018	Z:	0.057	yaw:	1.850	yaw rate:	-0.921	Roll:	0.357	Pitch:	0.745	Yaw:	4.488	Thrust:	0.000
Time:	5.033	Roll Set Point:	-0.018	Pitch Set Point:	-0.037	Yaw Set Point:	-0.032	X_WP:	0.000	Y_WP:	0.000	Y_WP:	0.000	X:	0.009	Y:	0.018	Z:	0.057	yaw:	1.847	yaw rate:	0.207	Roll:	0.384	Pitch:	0.765	Yaw:	4.675	Thrust:	0.000
Time:	5.061	Roll Set Point:	-0.018	Pitch Set Point:	-0.037	Yaw Set Point:	-0.032	X_WP:	0.000	Y_WP:	0.000	Y_WP:	0.000	X:	0.009	Y:	0.018	Z:	0.057	yaw:	1.843	yaw rate:	0.453	Roll:	0.392	Pitch:	0.801	Yaw:	5.238	Thrust:	0.000
Time:	5.073	Roll Set Point:	-0.018	Pitch Set Point:	-0.037	Yaw Set Point:	-0.032	X_WP:	0.000	Y_WP:	0.000	Y_WP:	0.000	X:	0.009	Y:	0.018	Z:	0.057	yaw:	1.855	yaw rate:	-1.158	Roll:	0.367	Pitch:	0.700	Yaw:	3.921	Thrust:	0.000
Time:	5.093	Roll Set Point:	-0.018	Pitch Set Point:	-0.037	Yaw Set Point:	-0.032	X_WP:	0.000	Y_WP:	0.000	Y_WP:	0.000	X:	0.009	Y:	0.018	Z:	0.057	yaw:	1.847	yaw rate:	0.715	Roll:	0.375	Pitch:	0.752	Yaw:	4.530	Thrust:	0.000
Time:	5.114	Roll Set Point:	-0.018	Pitch Set Point:	-0.037	Yaw Set Point:	-0.032	X_WP:	0.000	Y_WP:	0.000	Y_WP:	0.000	X:	0.009	Y:	0.018	Z:	0.057	yaw:	1.844	yaw rate:	0.304	Roll:	0.387	Pitch:	0.775	Yaw:	4.670	Thrust:	0.000
Time:	5.134	Roll Set Point:	-0.018	Pitch Set Point:	-0.037	Yaw Set Point:	-0.032	X_WP:	0.000	Y_WP:	0.000	Y_WP:	0.000	X:	0.009	Y:	0.018	Z:	0.057	yaw:	1.842	yaw rate:	0.196	Roll:	0.380	Pitch:	0.763	Yaw:	4.625	Thrust:	0.000
Time:	5.154	Roll Set Point:	-0.018	Pitch Set Point:	-0.037	Yaw Set Point:	-0.032	X_WP:	0.000	Y_WP:	0.000	Y_WP:	0.000	X:	0.009	Y:	0.018	Z:	0.057	yaw:	1.844	yaw rate:	-0.207	Roll:	0.389	Pitch:	0.756	Yaw:	4.532	Thrust:	0.000
Time:	5.172	Roll Set Point:	-0.018	Pitch Set Point:	-0.037	Yaw Set Point:	-0.032	X_WP:	0.000	Y_WP:	0.000	Y_WP:	0.000	X:	0.009	Y:	0.018	Z:	0.057	yaw:	1.850	yaw rate:	-0.507	Roll:	0.365	Pitch:	0.729	Yaw:	4.399	Thrust:	0.000
Time:	5.196	Roll Set Point:	-0.018	Pitch Set Point:	-0.037	Yaw Set Point:	-0.032	X_WP:	0.000	Y_WP:	0.000	Y_WP:	0.000	X:	0.009	Y:	0.018	Z:	0.057	yaw:	1.844	yaw rate:	0.592	Roll:	0.384	Pitch:	0.780	Yaw:	4.998	Thrust:	0.000
Time:	5.212	Roll Set Point:	-0.018	Pitch Set Point:	-0.037	Yaw Set Point:	-0.032	X_WP:	0.000	Y_WP:	0.000	Y_WP:	0.000	X:	0.009	Y:	0.018	Z:	0.057	yaw:	1.839	yaw rate:	0.485	Roll:	0.369	Pitch:	0.749	Yaw:	4.121	Thrust:	0.000
Time:	5.232	Roll Set Point:	-0.018	Pitch Set Point:	-0.037	Yaw Set Point:	-0.032	X_WP:	0.000	Y_WP:	0.000	Y_WP:	0.000	X:	0.009	Y:	0.018	Z:	0.057	yaw:	1.846	yaw rate:	-0.732	Roll:	0.392	Pitch:	0.753	Yaw:	4.535	Thrust:	0.000
Time:	5.258	Roll Set Point:	-0.018	Pitch Set Point:	-0.037	Yaw Set Point:	-0.032	X_WP:	0.000	Y_WP:	0.000	Y_WP:	0.000	X:	0.009	Y:	0.018	Z:	0.057	yaw:	1.843	yaw rate:	0.280	Roll:	0.390	Pitch:	0.776	Yaw:	5.047	Thrust:	0.000
Time:	5.272	Roll Set Point:	-0.018	Pitch Set Point:	-0.037	Yaw Set Point:	-0.032	X_WP:	0.000	Y_WP:	0.000	Y_WP:	0.000	X:	0.009	Y:	0.018	Z:	0.057	yaw:	1.848	yaw rate:	-0.476	Roll:	0.363	Pitch:	0.752	Yaw:	4.080	Thrust:	0.000
Time:	5.292	Roll Set Point:	-0.018	Pitch Set Point:	-0.037	Yaw Set Point:	-0.032	X_WP:	0.000	Y_WP:	0.000	Y_WP:	0.000	X:	0.009	Y:	0.018	Z:	0.057	yaw:	1.854	yaw rate:	-0.641	Roll:	0.392	Pitch:	0.763	Yaw:	4.625	Thrust:	0.000
Time:	5.313	Roll Set Point:	-0.018	Pitch Set Point:	-0.037	Yaw Set Point:	-0.032	X_WP:	0.000	Y_WP:	0.000	Y_WP:	0.000	X:	0.009	Y:	0.018	Z:	0.057	yaw:	1.843	yaw rate:	1.123	Roll:	0.388	Pitch:	0.778	Yaw:	4.639	Thrust:	0.000
Time:	5.334	Roll Set Point:	-0.018	Pitch Set Point:	-0.037	Yaw Set Point:	-0.032	X_WP:	0.000	Y_WP:	0.000	Y_WP:	0.000	X:	0.009	Y:	0.018	Z:	0.057	yaw:	1.840	yaw rate:	0.327	Roll:	0.393	Pitch:	0.784	Yaw:	4.699	Thrust:	0.000
Time:	5.353	Roll Set Point:	-0.018	Pitch Set Point:	-0.037	Yaw Set Point:	-0.032	X_WP:	0.000	Y_WP:	0.000	Y_WP:	0.000	X:	0.009	Y:	0.018	Z:	0.057	yaw:	1.844	yaw rate:	-0.386	Roll:	0.365	Pitch:	0.746	Yaw:	4.429	Thrust:	0.000
Time:	5.372	Roll Set Point:	-0.018	Pitch Set Point:	-0.037	Yaw Set Point:	-0.032	X_WP:	0.000	Y_WP:	0.000	Y_WP:	0.000	X:	0.009	Y:	0.018	Z:	0.057	yaw:	1.852	yaw rate:	-0.840	Roll:	0.398	Pitch:	0.764	Yaw:	4.463	Thrust:	0.000
Time:	5.393	Roll Set Point:	-0.018	Pitch Set Point:	-0.037	Yaw Set Point:	-0.032	X_WP:	0.000	Y_WP:	0.000	Y_WP:	0.000	X:	0.009	Y:	0.018	Z:	0.057	yaw:	1.842	yaw rate:	1.039	Roll:	0.370	Pitch:	0.773	Yaw:	4.633	Thrust:	0.000
Time:	5.412	Roll Set Point:	-0.018	Pitch Set Point:	-0.037	Yaw Set Point:	-0.032	X_WP:	0.000	Y_WP:	0.000	Y_WP:	0.000	X:	0.009	Y:	0.018	Z:	0.057	yaw:	1.850	yaw rate:	-0.836	Roll:	0.392	Pitch:	0.768	Yaw:	4.544	Thrust:	0.000
