Time:	0.043	Roll Set Point:	-0.040	Pitch Set Point:	1.811	Yaw Set Point:	0.017	X_WP:	0.000	Y_WP:	0.000	Y_WP:	0.750	X:	0.012	Y:	-0.906	Z:	0.403	yaw:	-0.965	yaw rate:	-2.525	Roll:	0.800	Pitch:	-26.256	Yaw:	-1.348	Thrust:	19.101
Time:	0.061	Roll Set Point:	-0.040	Pitch Set Point:	1.811	Yaw Set Point:	0.017	X_WP:	0.000	Y_WP:	0.000	Y_WP:	0.750	X:	0.012	Y:	-0.906	Z:	0.403	yaw:	-0.957	yaw rate:	-0.827	Roll:	0.691	Pitch:	-26.306	Yaw:	-1.227	Thrust:	19.836
Time:	0.082	Roll Set Point:	-0.040	Pitch Set Point:	1.811	Yaw Set Point:	0.017	X_WP:	0.000	Y_WP:	0.000	Y_WP:	0.750	X:	0.012	Y:	-0.906	Z:	0.403	yaw:	-0.953	yaw rate:	-0.368	Roll:	0.735	Pitch:	-26.342	Yaw:	-1.297	Thrust:	20.777
Time:	0.103	Roll Set Point:	-0.040	Pitch Set Point:	1.811	Yaw Set Point:	0.017	X_WP:	0.000	Y_WP:	0.000	Y_WP:	0.750	X:	0.012	Y:	-0.906	Z:	0.403	yaw:	-0.978	yaw rate:	2.470	Roll:	1.114	Pitch:	-26.386	Yaw:	-1.685	Thrust:	21.744
Time:	0.121	Roll Set Point:	-0.040	Pitch Set Point:	1.811	Yaw Set Point:	0.017	X_WP:	0.000	Y_WP:	0.000	Y_WP:	0.750	X:	0.012	Y:	-0.906	Z:	0.403	yaw:	-0.954	yaw rate:	-2.410	Roll:	0.476	Pitch:	-26.459	Yaw:	-1.007	Thrust:	22.207
Time:	0.143	Roll Set Point:	-0.040	Pitch Set Point:	1.811	Yaw Set Point:	0.017	X_WP:	0.000	Y_WP:	0.000	Y_WP:	0.750	X:	0.012	Y:	-0.906	Z:	0.403	yaw:	-0.969	yaw rate:	1.541	Roll:	0.990	Pitch:	-26.460	Yaw:	-1.581	Thrust:	23.481
Time:	0.161	Roll Set Point:	-0.040	Pitch Set Point:	1.811	Yaw Set Point:	0.017	X_WP:	0.000	Y_WP:	0.000	Y_WP:	0.750	X:	0.012	Y:	-0.906	Z:	0.403	yaw:	-0.953	yaw rate:	-1.654	Roll:	0.584	Pitch:	-26.533	Yaw:	-1.130	Thrust:	23.646
Time:	0.181	Roll Set Point:	-0.040	Pitch Set Point:	1.811	Yaw Set Point:	0.017	X_WP:	0.000	Y_WP:	0.000	Y_WP:	0.750	X:	0.012	Y:	-0.906	Z:	0.403	yaw:	-0.955	yaw rate:	0.254	Roll:	0.830	Pitch:	-26.586	Yaw:	-1.414	Thrust:	25.112
Time:	0.201	Roll Set Point:	-0.040	Pitch Set Point:	1.811	Yaw Set Point:	0.017	X_WP:	0.000	Y_WP:	0.000	Y_WP:	0.750	X:	0.012	Y:	-0.906	Z:	0.403	yaw:	-0.968	yaw rate:	1.279	Roll:	1.000	Pitch:	-26.618	Yaw:	-1.571	Thrust:	25.851
Time:	0.221	Roll Set Point:	-0.040	Pitch Set Point:	1.811	Yaw Set Point:	0.017	X_WP:	0.000	Y_WP:	0.000	Y_WP:	0.750	X:	0.012	Y:	-0.906	Z:	0.403	yaw:	-0.988	yaw rate:	2.039	Roll:	1.073	Pitch:	-26.624	Yaw:	-1.710	Thrust:	26.478
Time:	0.242	Roll Set Point:	-0.040	Pitch Set Point:	1.811	Yaw Set Point:	0.017	X_WP:	0.000	Y_WP:	0.000	Y_WP:	0.750	X:	0.012	Y:	-0.906	Z:	0.403	yaw:	-0.957	yaw rate:	-3.125	Roll:	0.406	Pitch:	-26.746	Yaw:	-1.019	Thrust:	27.490
Time:	0.262	Roll Set Point:	-0.041	Pitch Set Point:	1.811	Yaw Set Point:	0.018	X_WP:	0.000	Y_WP:	0.000	Y_WP:	0.750	X:	0.012	Y:	-0.906	Z:	0.403	yaw:	-1.006	yaw rate:	4.900	Roll:	1.480	Pitch:	-26.751	Yaw:	-2.137	Thrust:	28.442
Time:	0.281	Roll Set Point:	-0.040	Pitch Set Point:	1.811	Yaw Set Point:	0.017	X_WP:	0.000	Y_WP:	0.000	Y_WP:	0.750	X:	0.012	Y:	-0.906	Z:	0.403	yaw:	-0.951	yaw rate:	-5.504	Roll:	0.056	Pitch:	-26.797	Yaw:	-0.678	Thrust:	28.948
Time:	0.301	Roll Set Point:	-0.040	Pitch Set Point:	1.811	Yaw Set Point:	0.017	X_WP:	0.000	Y_WP:	0.000	Y_WP:	0.750	X:	0.012	Y:	-0.906	Z:	0.403	yaw:	-0.958	yaw rate:	0.711	Roll:	0.884	Pitch:	-26.822	Yaw:	-1.518	Thrust:	30.034
Time:	0.322	Roll Set Point:	-0.040	Pitch Set Point:	1.811	Yaw Set Point:	0.017	X_WP:	0.000	Y_WP:	0.000	Y_WP:	0.750	X:	0.012	Y:	-0.906	Z:	0.403	yaw:	-0.982	yaw rate:	2.381	Roll:	1.148	Pitch:	-26.960	Yaw:	-1.766	Thrust:	31.366
Time:	0.344	Roll Set Point:	-0.040	Pitch Set Point:	1.811	Yaw Set Point:	0.017	X_WP:	0.000	Y_WP:	0.000	Y_WP:	0.750	X:	0.012	Y:	-0.906	Z:	0.403	yaw:	-0.972	yaw rate:	-0.969	Roll:	0.685	Pitch:	-26.932	Yaw:	-1.354	Thrust:	32.610
Time:	0.362	Roll Set Point:	-0.040	Pitch Set Point:	1.811	Yaw Set Point:	0.017	X_WP:	0.000	Y_WP:	0.000	Y_WP:	0.750	X:	0.012	Y:	-0.906	Z:	0.403	yaw:	-0.968	yaw rate:	-0.416	Roll:	0.754	Pitch:	-26.901	Yaw:	-1.381	Thrust:	30.188
Time:	0.381	Roll Set Point:	-0.040	Pitch Set Point:	1.811	Yaw Set Point:	0.017	X_WP:	0.000	Y_WP:	0.000	Y_WP:	0.750	X:	0.012	Y:	-0.906	Z:	0.403	yaw:	-0.979	yaw rate:	1.133	Roll:	0.980	Pitch:	-27.026	Yaw:	-1.631	Thrust:	33.634
Time:	0.401	Roll Set Point:	-0.040	Pitch Set Point:	1.811	Yaw Set Point:	0.017	X_WP:	0.000	Y_WP:	0.000	Y_WP:	0.750	X:	0.012	Y:	-0.906	Z:	0.403	yaw:	-0.969	yaw rate:	-1.092	Roll:	0.698	Pitch:	-27.014	Yaw:	-1.331	Thrust:	34.137
Time:	0.422	Roll Set Point:	-0.040	Pitch Set Point:	1.811	Yaw Set Point:	0.017	X_WP:	0.000	Y_WP:	0.000	Y_WP:	0.750	X:	0.012	Y:	-0.906	Z:	0.403	yaw:	-0.967	yaw rate:	-0.119	Roll:	0.794	Pitch:	-26.996	Yaw:	-1.469	Thrust:	35.108
Time:	0.443	Roll Set Point:	-0.040	Pitch Set Point:	1.811	Yaw Set Point:	0.017	X_WP:	0.000	Y_WP:	0.000	Y_WP:	0.750	X:	0.012	Y:	-0.906	Z:	0.403	yaw:	-0.990	yaw rate:	2.236	Roll:	1.144	Pitch:	-27.045	Yaw:	-1.804	Thrust:	36.814
Time:	0.461	Roll Set Point:	-0.040	Pitch Set Point:	1.811	Yaw Set Point:	0.017	X_WP:	0.000	Y_WP:	0.000	Y_WP:	0.750	X:	0.012	Y:	-0.906	Z:	0.403	yaw:	-0.991	yaw rate:	0.088	Roll:	0.846	Pitch:	-26.949	Yaw:	-1.528	Thrust:	35.528
Time:	0.482	Roll Set Point:	-0.040	Pitch Set Point:	1.811	Yaw Set Point:	0.017	X_WP:	0.000	Y_WP:	0.000	Y_WP:	0.750	X:	0.012	Y:	-0.906	Z:	0.403	yaw:	-0.983	yaw rate:	-0.729	Roll:	0.742	Pitch:	-27.035	Yaw:	-1.428	Thrust:	37.557
Time:	0.501	Roll Set Point:	-0.040	Pitch Set Point:	1.811	Yaw Set Point:	0.017	X_WP:	0.000	Y_WP:	0.000	Y_WP:	0.750	X:	0.012	Y:	-0.906	Z:	0.403	yaw:	-0.947	yaw rate:	-3.601	Roll:	0.338	Pitch:	-26.993	Yaw:	-0.982	Thrust:	37.568
Time:	0.523	Roll Set Point:	-0.040	Pitch Set Point:	1.811	Yaw Set Point:	0.017	X_WP:	0.000	Y_WP:	0.000	Y_WP:	0.750	X:	0.012	Y:	-0.906	Z:	0.403	yaw:	-0.972	yaw rate:	2.482	Roll:	1.141	Pitch:	-27.072	Yaw:	-1.831	Thrust:	41.179
Time:	0.543	Roll Set Point:	-0.040	Pitch Set Point:	1.811	Yaw Set Point:	0.017	X_WP:	0.000	Y_WP:	0.000	Y_WP:	0.750	X:	0.012	Y:	-0.906	Z:	0.403	yaw:	-0.977	yaw rate:	0.505	Roll:	0.920	Pitch:	-27.001	Yaw:	-1.597	Thrust:	39.516
Time:	0.562	Roll Set Point:	-0.040	Pitch Set Point:	1.811	Yaw Set Point:	0.017	X_WP:	0.000	Y_WP:	0.000	Y_WP:	0.750	X:	0.012	Y:	-0.906	Z:	0.403	yaw:	-0.982	yaw rate:	0.490	Roll:	0.890	Pitch:	-26.956	Yaw:	-1.607	Thrust:	39.926
Time:	0.582	Roll Set Point:	-0.040	Pitch Set Point:	1.811	Yaw Set Point:	0.016	X_WP:	0.000	Y_WP:	0.000	Y_WP:	0.750	X:	0.012	Y:	-0.906	Z:	0.403	yaw:	-0.942	yaw rate:	-3.960	Roll:	0.302	Pitch:	-27.021	Yaw:	-0.976	Thrust:	40.829
Time:	0.601	Roll Set Point:	-0.040	Pitch Set Point:	1.811	Yaw Set Point:	0.017	X_WP:	0.000	Y_WP:	0.000	Y_WP:	0.750	X:	0.012	Y:	-0.906	Z:	0.403	yaw:	-0.974	yaw rate:	3.202	Roll:	1.246	Pitch:	-26.974	Yaw:	-1.975	Thrust:	42.530
Time:	0.621	Roll Set Point:	-0.040	Pitch Set Point:	1.811	Yaw Set Point:	0.017	X_WP:	0.000	Y_WP:	0.000	Y_WP:	0.750	X:	0.012	Y:	-0.906	Z:	0.403	yaw:	-0.979	yaw rate:	0.460	Roll:	0.910	Pitch:	-27.002	Yaw:	-1.623	Thrust:	43.131
Time:	0.643	Roll Set Point:	-0.040	Pitch Set Point:	1.811	Yaw Set Point:	0.017	X_WP:	0.000	Y_WP:	0.000	Y_WP:	0.750	X:	0.012	Y:	-0.906	Z:	0.403	yaw:	-0.991	yaw rate:	1.192	Roll:	1.027	Pitch:	-27.108	Yaw:	-1.749	Thrust:	46.744
Time:	0.661	Roll Set Point:	-0.040	Pitch Set Point:	1.811	Yaw Set Point:	0.017	X_WP:	0.000	Y_WP:	0.000	Y_WP:	0.750	X:	0.012	Y:	-0.906	Z:	0.403	yaw:	-0.961	yaw rate:	-3.008	Roll:	0.374	Pitch:	-26.900	Yaw:	-1.081	Thrust:	41.913
Time:	0.681	Roll Set Point:	-0.039	Pitch Set Point:	1.811	Yaw Set Point:	0.016	X_WP:	0.000	Y_WP:	0.000	Y_WP:	0.750	X:	0.012	Y:	-0.906	Z:	0.403	yaw:	-0.942	yaw rate:	-1.857	Roll:	0.573	Pitch:	-27.008	Yaw:	-1.296	Thrust:	46.202
Time:	0.701	Roll Set Point:	-0.040	Pitch Set Point:	1.811	Yaw Set Point:	0.017	X_WP:	0.000	Y_WP:	0.000	Y_WP:	0.750	X:	0.012	Y:	-0.906	Z:	0.403	yaw:	-0.990	yaw rate:	4.782	Roll:	1.556	Pitch:	-27.021	Yaw:	-2.233	Thrust:	46.520
Time:	0.721	Roll Set Point:	-0.040	Pitch Set Point:	1.811	Yaw Set Point:	0.017	X_WP:	0.000	Y_WP:	0.000	Y_WP:	0.750	X:	0.012	Y:	-0.906	Z:	0.403	yaw:	-0.966	yaw rate:	-2.395	Roll:	0.533	Pitch:	-27.002	Yaw:	-1.267	Thrust:	47.508
Time:	0.741	Roll Set Point:	-0.040	Pitch Set Point:	1.811	Yaw Set Point:	0.017	X_WP:	0.000	Y_WP:	0.000	Y_WP:	0.750	X:	0.012	Y:	-0.906	Z:	0.403	yaw:	-0.954	yaw rate:	-1.200	Roll:	0.678	Pitch:	-26.999	Yaw:	-1.416	Thrust:	48.547
Time:	0.761	Roll Set Point:	-0.040	Pitch Set Point:	1.811	Yaw Set Point:	0.017	X_WP:	0.000	Y_WP:	0.000	Y_WP:	0.750	X:	0.012	Y:	-0.906	Z:	0.403	yaw:	-0.956	yaw rate:	0.173	Roll:	0.880	Pitch:	-27.027	Yaw:	-1.602	Thrust:	49.196
Time:	0.781	Roll Set Point:	-0.040	Pitch Set Point:	1.811	Yaw Set Point:	0.017	X_WP:	0.000	Y_WP:	0.000	Y_WP:	0.750	X:	0.012	Y:	-0.906	Z:	0.403	yaw:	-0.955	yaw rate:	-0.084	Roll:	0.847	Pitch:	-27.005	Yaw:	-1.567	Thrust:	49.312
Time:	0.801	Roll Set Point:	-0.040	Pitch Set Point:	1.811	Yaw Set Point:	0.017	X_WP:	0.000	Y_WP:	0.000	Y_WP:	0.750	X:	0.012	Y:	-0.906	Z:	0.403	yaw:	-0.956	yaw rate:	0.080	Roll:	0.838	Pitch:	-26.983	Yaw:	-1.604	Thrust:	50.983
Time:	0.821	Roll Set Point:	-0.040	Pitch Set Point:	1.811	Yaw Set Point:	0.017	X_WP:	0.000	Y_WP:	0.000	Y_WP:	0.750	X:	0.012	Y:	-0.906	Z:	0.403	yaw:	-0.947	yaw rate:	-0.888	Roll:	0.723	Pitch:	-26.995	Yaw:	-1.473	Thrust:	50.991
Time:	0.841	Roll Set Point:	-0.040	Pitch Set Point:	1.811	Yaw Set Point:	0.017	X_WP:	0.000	Y_WP:	0.000	Y_WP:	0.750	X:	0.012	Y:	-0.906	Z:	0.403	yaw:	-0.969	yaw rate:	2.182	Roll:	1.170	Pitch:	-27.058	Yaw:	-1.909	Thrust:	53.566
Time:	0.861	Roll Set Point:	-0.040	Pitch Set Point:	1.811	Yaw Set Point:	0.017	X_WP:	0.000	Y_WP:	0.000	Y_WP:	0.750	X:	0.012	Y:	-0.906	Z:	0.403	yaw:	-0.979	yaw rate:	0.993	Roll:	0.988	Pitch:	-26.979	Yaw:	-1.773	Thrust:	53.145
Time:	0.881	Roll Set Point:	-0.040	Pitch Set Point:	1.811	Yaw Set Point:	0.016	X_WP:	0.000	Y_WP:	0.000	Y_WP:	0.750	X:	0.012	Y:	-0.906	Z:	0.403	yaw:	-0.944	yaw rate:	-3.472	Roll:	0.353	Pitch:	-26.993	Yaw:	-1.135	Thrust:	53.466
Time:	0.901	Roll Set Point:	-0.040	Pitch Set Point:	1.811	Yaw Set Point:	0.017	X_WP:	0.000	Y_WP:	0.000	Y_WP:	0.750	X:	0.012	Y:	-0.906	Z:	0.403	yaw:	-0.976	yaw rate:	3.235	Roll:	1.339	Pitch:	-26.997	Yaw:	-2.074	Thrust:	55.915
Time:	0.921	Roll Set Point:	-0.040	Pitch Set Point:	1.811	Yaw Set Point:	0.017	X_WP:	0.000	Y_WP:	0.000	Y_WP:	0.750	X:	0.012	Y:	-0.906	Z:	0.403	yaw:	-0.965	yaw rate:	-1.131	Roll:	0.698	Pitch:	-27.025	Yaw:	-1.485	Thrust:	54.910
Time:	0.941	Roll Set Point:	-0.040	Pitch Set Point:	1.811	Yaw Set Point:	0.016	X_WP:	0.000	Y_WP:	0.000	Y_WP:	0.750	X:	0.012	Y:	-0.906	Z:	0.403	yaw:	-0.941	yaw rate:	-2.406	Roll:	0.529	Pitch:	-27.010	Yaw:	-1.309	Thrust:	56.896
Time:	0.961	Roll Set Point:	-0.040	Pitch Set Point:	1.811	Yaw Set Point:	0.017	X_WP:	0.000	Y_WP:	0.000	Y_WP:	0.750	X:	0.012	Y:	-0.906	Z:	0.403	yaw:	-0.971	yaw rate:	3.043	Roll:	1.275	Pitch:	-26.997	Yaw:	-2.065	Thrust:	57.496
Time:	0.984	Roll Set Point:	-0.040	Pitch Set Point:	1.811	Yaw Set Point:	0.017	X_WP:	0.000	Y_WP:	0.000	Y_WP:	0.750	X:	0.012	Y:	-0.906	Z:	0.403	yaw:	-0.993	yaw rate:	2.150	Roll:	1.162	Pitch:	-27.073	Yaw:	-1.992	Thrust:	62.335
Time:	1.002	Roll Set Point:	-0.040	Pitch Set Point:	1.811	Yaw Set Point:	0.017	X_WP:	0.000	Y_WP:	0.000	Y_WP:	0.750	X:	0.012	Y:	-0.906	Z:	0.403	yaw:	-0.986	yaw rate:	-0.651	Roll:	0.769	Pitch:	-26.942	Yaw:	-1.593	Thrust:	54.799
Time:	1.023	Roll Set Point:	-0.040	Pitch Set Point:	1.811	Yaw Set Point:	0.017	X_WP:	0.000	Y_WP:	0.000	Y_WP:	0.750	X:	0.012	Y:	-0.906	Z:	0.403	yaw:	-0.955	yaw rate:	-3.123	Roll:	0.446	Pitch:	-27.025	Yaw:	-1.261	Thrust:	61.247
Time:	1.043	Roll Set Point:	-0.040	Pitch Set Point:	1.811	Yaw Set Point:	0.017	X_WP:	0.000	Y_WP:	0.000	Y_WP:	0.750	X:	0.012	Y:	-0.906	Z:	0.403	yaw:	-0.959	yaw rate:	0.378	Roll:	0.934	Pitch:	-27.065	Yaw:	-1.742	Thrust:	63.073
Time:	1.062	Roll Set Point:	-0.040	Pitch Set Point:	1.811	Yaw Set Point:	0.017	X_WP:	0.000	Y_WP:	0.000	Y_WP:	0.750	X:	0.012	Y:	-0.906	Z:	0.403	yaw:	-0.970	yaw rate:	1.111	Roll:	1.027	Pitch:	-26.951	Yaw:	-1.836	Thrust:	60.682
Time:	1.083	Roll Set Point:	-0.039	Pitch Set Point:	1.811	Yaw Set Point:	0.016	X_WP:	0.000	Y_WP:	0.000	Y_WP:	0.750	X:	0.012	Y:	-0.906	Z:	0.403	yaw:	-0.939	yaw rate:	-3.145	Roll:	0.422	Pitch:	-27.010	Yaw:	-1.235	Thrust:	61.591
Time:	1.102	Roll Set Point:	-0.040	Pitch Set Point:	1.811	Yaw Set Point:	0.017	X_WP:	0.000	Y_WP:	0.000	Y_WP:	0.750	X:	0.012	Y:	-0.906	Z:	0.403	yaw:	-0.981	yaw rate:	4.211	Roll:	1.479	Pitch:	-26.980	Yaw:	-2.278	Thrust:	63.256
Time:	1.122	Roll Set Point:	-0.040	Pitch Set Point:	1.811	Yaw Set Point:	0.017	X_WP:	0.000	Y_WP:	0.000	Y_WP:	0.750	X:	0.012	Y:	-0.906	Z:	0.403	yaw:	-0.999	yaw rate:	1.842	Roll:	1.123	Pitch:	-27.025	Yaw:	-2.002	Thrust:	64.643
Time:	1.143	Roll Set Point:	-0.040	Pitch Set Point:	1.811	Yaw Set Point:	0.017	X_WP:	0.000	Y_WP:	0.000	Y_WP:	0.750	X:	0.012	Y:	-0.906	Z:	0.403	yaw:	-0.962	yaw rate:	-3.757	Roll:	0.337	Pitch:	-26.978	Yaw:	-1.233	Thrust:	63.180
Time:	1.162	Roll Set Point:	-0.040	Pitch Set Point:	1.811	Yaw Set Point:	0.017	X_WP:	0.000	Y_WP:	0.000	Y_WP:	0.750	X:	0.012	Y:	-0.906	Z:	0.403	yaw:	-0.968	yaw rate:	0.670	Roll:	0.990	Pitch:	-27.037	Yaw:	-1.811	Thrust:	67.030
Time:	1.185	Roll Set Point:	-0.040	Pitch Set Point:	1.811	Yaw Set Point:	0.017	X_WP:	0.000	Y_WP:	0.000	Y_WP:	0.750	X:	0.012	Y:	-0.906	Z:	0.403	yaw:	-0.964	yaw rate:	-0.443	Roll:	0.828	Pitch:	-27.093	Yaw:	-1.729	Thrust:	71.589
Time:	1.203	Roll Set Point:	-0.040	Pitch Set Point:	1.811	Yaw Set Point:	0.017	X_WP:	0.000	Y_WP:	0.000	Y_WP:	0.750	X:	0.012	Y:	-0.906	Z:	0.403	yaw:	-0.961	yaw rate:	-0.306	Roll:	0.843	Pitch:	-26.929	Yaw:	-1.653	Thrust:	64.193
Time:	1.222	Roll Set Point:	-0.040	Pitch Set Point:	1.811	Yaw Set Point:	0.017	X_WP:	0.000	Y_WP:	0.000	Y_WP:	0.750	X:	0.012	Y:	-0.906	Z:	0.403	yaw:	-0.979	yaw rate:	1.802	Roll:	1.121	Pitch:	-26.972	Yaw:	-1.994	Thrust:	66.023
Time:	1.243	Roll Set Point:	-0.040	Pitch Set Point:	1.811	Yaw Set Point:	0.017	X_WP:	0.000	Y_WP:	0.000	Y_WP:	0.750	X:	0.012	Y:	-0.906	Z:	0.403	yaw:	-0.970	yaw rate:	-0.866	Roll:	0.790	Pitch:	-27.056	Yaw:	-1.674	Thrust:	70.557
Time:	1.262	Roll Set Point:	-0.040	Pitch Set Point:	1.811	Yaw Set Point:	0.017	X_WP:	0.000	Y_WP:	0.000	Y_WP:	0.750	X:	0.012	Y:	-0.906	Z:	0.403	yaw:	-0.999	yaw rate:	2.851	Roll:	1.299	Pitch:	-26.965	Yaw:	-2.179	Thrust:	67.966
Time:	1.281	Roll Set Point:	-0.039	Pitch Set Point:	1.811	Yaw Set Point:	0.016	X_WP:	0.000	Y_WP:	0.000	Y_WP:	0.750	X:	0.012	Y:	-0.906	Z:	0.403	yaw:	-0.937	yaw rate:	-6.213	Roll:	0.054	Pitch:	-27.009	Yaw:	-0.891	Thrust:	69.876
Time:	1.302	Roll Set Point:	-0.040	Pitch Set Point:	1.811	Yaw Set Point:	0.017	X_WP:	0.000	Y_WP:	0.000	Y_WP:	0.750	X:	0.012	Y:	-0.906	Z:	0.403	yaw:	-0.989	yaw rate:	5.230	Roll:	1.596	Pitch:	-26.957	Yaw:	-2.498	Thrust:	70.318
Time:	1.321	Roll Set Point:	-0.041	Pitch Set Point:	1.811	Yaw Set Point:	0.018	X_WP:	0.000	Y_WP:	0.000	Y_WP:	0.750	X:	0.012	Y:	-0.906	Z:	0.403	yaw:	-1.005	yaw rate:	1.612	Roll:	1.127	Pitch:	-27.036	Yaw:	-2.054	Thrust:	74.092
Time:	1.344	Roll Set Point:	-0.040	Pitch Set Point:	1.811	Yaw Set Point:	0.017	X_WP:	0.000	Y_WP:	0.000	Y_WP:	0.750	X:	0.012	Y:	-0.906	Z:	0.403	yaw:	-0.955	yaw rate:	-4.999	Roll:	0.252	Pitch:	-27.088	Yaw:	-1.235	Thrust:	78.045
Time:	1.360	Roll Set Point:	-0.040	Pitch Set Point:	1.811	Yaw Set Point:	0.017	X_WP:	0.000	Y_WP:	0.000	Y_WP:	0.750	X:	0.012	Y:	-0.906	Z:	0.403	yaw:	-0.991	yaw rate:	3.633	Roll:	1.461	Pitch:	-26.900	Yaw:	-2.326	Thrust:	66.552
Time:	1.382	Roll Set Point:	-0.040	Pitch Set Point:	1.811	Yaw Set Point:	0.017	X_WP:	0.000	Y_WP:	0.000	Y_WP:	0.750	X:	0.012	Y:	-0.906	Z:	0.403	yaw:	-0.996	yaw rate:	0.461	Roll:	0.957	Pitch:	-27.036	Yaw:	-1.924	Thrust:	77.786
Time:	1.402	Roll Set Point:	-0.040	Pitch Set Point:	1.811	Yaw Set Point:	0.017	X_WP:	0.000	Y_WP:	0.000	Y_WP:	0.750	X:	0.012	Y:	-0.906	Z:	0.403	yaw:	-0.969	yaw rate:	-2.691	Roll:	0.529	Pitch:	-27.005	Yaw:	-1.463	Thrust:	75.882
Time:	1.422	Roll Set Point:	-0.040	Pitch Set Point:	1.811	Yaw Set Point:	0.017	X_WP:	0.000	Y_WP:	0.000	Y_WP:	0.750	X:	0.012	Y:	-0.906	Z:	0.403	yaw:	-0.970	yaw rate:	0.086	Roll:	0.903	Pitch:	-26.993	Yaw:	-1.836	Thrust:	75.800
Time:	1.442	Roll Set Point:	-0.041	Pitch Set Point:	1.811	Yaw Set Point:	0.018	X_WP:	0.000	Y_WP:	0.000	Y_WP:	0.750	X:	0.012	Y:	-0.906	Z:	0.403	yaw:	-1.007	yaw rate:	3.685	Roll:	1.414	Pitch:	-27.020	Yaw:	-2.362	Thrust:	78.410
Time:	1.462	Roll Set Point:	-0.040	Pitch Set Point:	1.811	Yaw Set Point:	0.017	X_WP:	0.000	Y_WP:	0.000	Y_WP:	0.750	X:	0.012	Y:	-0.906	Z:	0.403	yaw:	-0.975	yaw rate:	-3.146	Roll:	0.435	Pitch:	-26.942	Yaw:	-1.432	Thrust:	78.347
Time:	1.481	Roll Set Point:	-0.040	Pitch Set Point:	1.811	Yaw Set Point:	0.017	X_WP:	0.000	Y_WP:	0.000	Y_WP:	0.750	X:	0.012	Y:	-0.906	Z:	0.403	yaw:	-0.962	yaw rate:	-1.353	Roll:	0.740	Pitch:	-27.078	Yaw:	-1.645	Thrust:	78.367
Time:	1.501	Roll Set Point:	-0.040	Pitch Set Point:	1.811	Yaw Set Point:	0.016	X_WP:	0.000	Y_WP:	0.000	Y_WP:	0.750	X:	0.012	Y:	-0.906	Z:	0.403	yaw:	-0.945	yaw rate:	-1.702	Roll:	0.647	Pitch:	-26.995	Yaw:	-1.583	Thrust:	79.413
Time:	1.522	Roll Set Point:	-0.040	Pitch Set Point:	1.811	Yaw Set Point:	0.017	X_WP:	0.000	Y_WP:	0.000	Y_WP:	0.750	X:	0.012	Y:	-0.906	Z:	0.403	yaw:	-0.971	yaw rate:	2.615	Roll:	1.261	Pitch:	-27.017	Yaw:	-2.204	Thrust:	82.539
Time:	1.542	Roll Set Point:	-0.040	Pitch Set Point:	1.811	Yaw Set Point:	0.017	X_WP:	0.000	Y_WP:	0.000	Y_WP:	0.750	X:	0.012	Y:	-0.906	Z:	0.403	yaw:	-0.973	yaw rate:	0.221	Roll:	0.936	Pitch:	-26.985	Yaw:	-1.889	Thrust:	80.809
Time:	1.561	Roll Set Point:	-0.040	Pitch Set Point:	1.811	Yaw Set Point:	0.017	X_WP:	0.000	Y_WP:	0.000	Y_WP:	0.750	X:	0.012	Y:	-0.906	Z:	0.403	yaw:	-0.986	yaw rate:	1.302	Roll:	1.104	Pitch:	-27.013	Yaw:	-2.060	Thrust:	82.273
Time:	1.581	Roll Set Point:	-0.040	Pitch Set Point:	1.811	Yaw Set Point:	0.017	X_WP:	0.000	Y_WP:	0.000	Y_WP:	0.750	X:	0.012	Y:	-0.906	Z:	0.403	yaw:	-0.985	yaw rate:	-0.127	Roll:	0.917	Pitch:	-27.016	Yaw:	-1.879	Thrust:	83.250
Time:	1.601	Roll Set Point:	-0.040	Pitch Set Point:	1.811	Yaw Set Point:	0.016	X_WP:	0.000	Y_WP:	0.000	Y_WP:	0.750	X:	0.012	Y:	-0.906	Z:	0.403	yaw:	-0.943	yaw rate:	-4.141	Roll:	0.305	Pitch:	-26.964	Yaw:	-1.287	Thrust:	83.142
Time:	1.622	Roll Set Point:	-0.041	Pitch Set Point:	1.811	Yaw Set Point:	0.017	X_WP:	0.000	Y_WP:	0.000	Y_WP:	0.750	X:	0.012	Y:	-0.906	Z:	0.403	yaw:	-1.003	yaw rate:	5.927	Roll:	1.730	Pitch:	-27.041	Yaw:	-2.704	Thrust:	86.821
Time:	1.642	Roll Set Point:	-0.040	Pitch Set Point:	1.811	Yaw Set Point:	0.017	X_WP:	0.000	Y_WP:	0.000	Y_WP:	0.750	X:	0.012	Y:	-0.906	Z:	0.403	yaw:	-0.966	yaw rate:	-3.700	Roll:	0.377	Pitch:	-27.020	Yaw:	-1.405	Thrust:	85.791
Time:	1.662	Roll Set Point:	-0.040	Pitch Set Point:	1.811	Yaw Set Point:	0.017	X_WP:	0.000	Y_WP:	0.000	Y_WP:	0.750	X:	0.012	Y:	-0.906	Z:	0.403	yaw:	-0.975	yaw rate:	0.941	Roll:	1.059	Pitch:	-26.957	Yaw:	-2.034	Thrust:	83.407
Time:	1.681	Roll Set Point:	-0.039	Pitch Set Point:	1.811	Yaw Set Point:	0.016	X_WP:	0.000	Y_WP:	0.000	Y_WP:	0.750	X:	0.012	Y:	-0.906	Z:	0.403	yaw:	-0.928	yaw rate:	-4.672	Roll:	0.261	Pitch:	-27.037	Yaw:	-1.218	Thrust:	89.558
Time:	1.702	Roll Set Point:	-0.040	Pitch Set Point:	1.811	Yaw Set Point:	0.017	X_WP:	0.000	Y_WP:	0.000	Y_WP:	0.750	X:	0.012	Y:	-0.906	Z:	0.403	yaw:	-0.951	yaw rate:	2.245	Roll:	1.229	Pitch:	-26.998	Yaw:	-2.177	Thrust:	86.767
Time:	1.722	Roll Set Point:	-0.040	Pitch Set Point:	1.811	Yaw Set Point:	0.017	X_WP:	0.000	Y_WP:	0.000	Y_WP:	0.750	X:	0.012	Y:	-0.906	Z:	0.403	yaw:	-0.977	yaw rate:	2.606	Roll:	1.275	Pitch:	-27.022	Yaw:	-2.287	Thrust:	93.000
Time:	1.743	Roll Set Point:	-0.040	Pitch Set Point:	1.811	Yaw Set Point:	0.017	X_WP:	0.000	Y_WP:	0.000	Y_WP:	0.750	X:	0.012	Y:	-0.906	Z:	0.403	yaw:	-0.974	yaw rate:	-0.325	Roll:	0.852	Pitch:	-27.018	Yaw:	-1.917	Thrust:	90.782
Time:	1.762	Roll Set Point:	-0.040	Pitch Set Point:	1.811	Yaw Set Point:	0.017	X_WP:	0.000	Y_WP:	0.000	Y_WP:	0.750	X:	0.012	Y:	-0.906	Z:	0.403	yaw:	-0.980	yaw rate:	0.615	Roll:	1.012	Pitch:	-26.983	Yaw:	-2.000	Thrust:	88.515
Time:	1.781	Roll Set Point:	-0.040	Pitch Set Point:	1.811	Yaw Set Point:	0.017	X_WP:	0.000	Y_WP:	0.000	Y_WP:	0.750	X:	0.012	Y:	-0.906	Z:	0.403	yaw:	-0.978	yaw rate:	-0.167	Roll:	0.898	Pitch:	-27.006	Yaw:	-1.925	Thrust:	90.794
Time:	1.801	Roll Set Point:	-0.040	Pitch Set Point:	1.811	Yaw Set Point:	0.017	X_WP:	0.000	Y_WP:	0.000	Y_WP:	0.750	X:	0.012	Y:	-0.906	Z:	0.403	yaw:	-0.958	yaw rate:	-2.012	Roll:	0.666	Pitch:	-26.998	Yaw:	-1.658	Thrust:	91.376
Time:	1.821	Roll Set Point:	-0.041	Pitch Set Point:	1.811	Yaw Set Point:	0.018	X_WP:	0.000	Y_WP:	0.000	Y_WP:	0.750	X:	0.012	Y:	-0.906	Z:	0.403	yaw:	-1.006	yaw rate:	4.758	Roll:	1.585	Pitch:	-26.995	Yaw:	-2.629	Thrust:	94.110
Time:	1.843	Roll Set Point:	-0.040	Pitch Set Point:	1.811	Yaw Set Point:	0.017	X_WP:	0.000	Y_WP:	0.000	Y_WP:	0.750	X:	0.012	Y:	-0.906	Z:	0.403	yaw:	-0.997	yaw rate:	-0.836	Roll:	0.839	Pitch:	-27.029	Yaw:	-1.932	Thrust:	98.370
Time:	1.862	Roll Set Point:	-0.040	Pitch Set Point:	1.811	Yaw Set Point:	0.017	X_WP:	0.000	Y_WP:	0.000	Y_WP:	0.750	X:	0.012	Y:	-0.906	Z:	0.403	yaw:	-0.986	yaw rate:	-1.102	Roll:	0.782	Pitch:	-26.985	Yaw:	-1.773	Thrust:	87.450
Time:	1.882	Roll Set Point:	-0.039	Pitch Set Point:	1.811	Yaw Set Point:	0.016	X_WP:	0.000	Y_WP:	0.000	Y_WP:	0.750	X:	0.012	Y:	-0.906	Z:	0.403	yaw:	-0.934	yaw rate:	-5.257	Roll:	0.216	Pitch:	-27.028	Yaw:	-1.336	Thrust:	100.000
Time:	1.901	Roll Set Point:	-0.040	Pitch Set Point:	1.811	Yaw Set Point:	0.017	X_WP:	0.000	Y_WP:	0.000	Y_WP:	0.750	X:	0.012	Y:	-0.906	Z:	0.403	yaw:	-0.978	yaw rate:	4.431	Roll:	1.574	Pitch:	-26.982	Yaw:	-2.575	Thrust:	91.530
Time:	1.922	Roll Set Point:	-0.040	Pitch Set Point:	1.811	Yaw Set Point:	0.017	X_WP:	0.000	Y_WP:	0.000	Y_WP:	0.750	X:	0.012	Y:	-0.906	Z:	0.403	yaw:	-0.977	yaw rate:	-0.104	Roll:	0.922	Pitch:	-27.027	Yaw:	-2.007	Thrust:	99.829
Time:	1.943	Roll Set Point:	-0.040	Pitch Set Point:	1.811	Yaw Set Point:	0.017	X_WP:	0.000	Y_WP:	0.000	Y_WP:	0.750	X:	0.012	Y:	-0.906	Z:	0.403	yaw:	-0.981	yaw rate:	0.387	Roll:	1.001	Pitch:	-27.027	Yaw:	-2.101	Thrust:	100.000
Time:	1.961	Roll Set Point:	-0.040	Pitch Set Point:	1.811	Yaw Set Point:	0.017	X_WP:	0.000	Y_WP:	0.000	Y_WP:	0.750	X:	0.012	Y:	-0.906	Z:	0.403	yaw:	-0.964	yaw rate:	-1.690	Roll:	0.680	Pitch:	-26.971	Yaw:	-1.693	Thrust:	93.755
Time:	1.981	Roll Set Point:	-0.040	Pitch Set Point:	1.811	Yaw Set Point:	0.017	X_WP:	0.000	Y_WP:	0.000	Y_WP:	0.750	X:	0.012	Y:	-0.906	Z:	0.403	yaw:	-0.955	yaw rate:	-0.884	Roll:	0.807	Pitch:	-27.016	Yaw:	-1.890	Thrust:	100.000
Time:	2.001	Roll Set Point:	-0.040	Pitch Set Point:	1.811	Yaw Set Point:	0.017	X_WP:	0.000	Y_WP:	0.000	Y_WP:	0.750	X:	0.012	Y:	-0.906	Z:	0.403	yaw:	-0.970	yaw rate:	1.463	Roll:	1.147	Pitch:	-27.013	Yaw:	-2.213	Thrust:	100.000
Time:	2.021	Roll Set Point:	-0.040	Pitch Set Point:	1.811	Yaw Set Point:	0.017	X_WP:	0.000	Y_WP:	0.000	Y_WP:	0.750	X:	0.012	Y:	-0.906	Z:	0.403	yaw:	-0.971	yaw rate:	0.153	Roll:	0.959	Pitch:	-26.977	Yaw:	-2.044	Thrust:	99.096
Time:	2.041	Roll Set Point:	-0.040	Pitch Set Point:	1.811	Yaw Set Point:	0.017	X_WP:	0.000	Y_WP:	0.000	Y_WP:	0.750	X:	0.012	Y:	-0.906	Z:	0.403	yaw:	-0.948	yaw rate:	-2.325	Roll:	0.652	Pitch:	-27.047	Yaw:	-1.706	Thrust:	100.000
Time:	2.061	Roll Set Point:	-0.040	Pitch Set Point:	1.811	Yaw Set Point:	0.017	X_WP:	0.000	Y_WP:	0.000	Y_WP:	0.750	X:	0.012	Y:	-0.906	Z:	0.403	yaw:	-0.973	yaw rate:	2.520	Roll:	1.262	Pitch:	-26.976	Yaw:	-2.369	Thrust:	100.000
Time:	2.082	Roll Set Point:	-0.040	Pitch Set Point:	1.811	Yaw Set Point:	0.016	X_WP:	0.000	Y_WP:	0.000	Y_WP:	0.750	X:	0.012	Y:	-0.906	Z:	0.403	yaw:	-0.941	yaw rate:	-3.255	Roll:	0.501	Pitch:	-27.035	Yaw:	-1.586	Thrust:	100.000
Time:	2.101	Roll Set Point:	-0.040	Pitch Set Point:	1.811	Yaw Set Point:	0.017	X_WP:	0.000	Y_WP:	0.000	Y_WP:	0.750	X:	0.012	Y:	-0.906	Z:	0.403	yaw:	-0.999	yaw rate:	5.824	Roll:	1.768	Pitch:	-26.945	Yaw:	-2.854	Thrust:	100.000
Time:	2.122	Roll Set Point:	-0.040	Pitch Set Point:	1.811	Yaw Set Point:	0.017	X_WP:	0.000	Y_WP:	0.000	Y_WP:	0.750	X:	0.012	Y:	-0.906	Z:	0.403	yaw:	-0.967	yaw rate:	-3.137	Roll:	0.540	Pitch:	-27.030	Yaw:	-1.650	Thrust:	100.000
Time:	2.141	Roll Set Point:	-0.040	Pitch Set Point:	1.811	Yaw Set Point:	0.017	X_WP:	0.000	Y_WP:	0.000	Y_WP:	0.750	X:	0.012	Y:	-0.906	Z:	0.403	yaw:	-0.970	yaw rate:	0.302	Roll:	0.996	Pitch:	-27.037	Yaw:	-2.099	Thrust:	100.000
Time:	2.162	Roll Set Point:	-0.040	Pitch Set Point:	1.811	Yaw Set Point:	0.017	X_WP:	0.000	Y_WP:	0.000	Y_WP:	0.750	X:	0.012	Y:	-0.906	Z:	0.403	yaw:	-0.976	yaw rate:	0.523	Roll:	1.029	Pitch:	-26.995	Yaw:	-2.172	Thrust:	100.000
Time:	2.181	Roll Set Point:	-0.040	Pitch Set Point:	1.811	Yaw Set Point:	0.017	X_WP:	0.000	Y_WP:	0.000	Y_WP:	0.750	X:	0.012	Y:	-0.906	Z:	0.403	yaw:	-0.958	yaw rate:	-1.763	Roll:	0.696	Pitch:	-27.003	Yaw:	-1.798	Thrust:	100.000
Time:	2.201	Roll Set Point:	-0.040	Pitch Set Point:	1.811	Yaw Set Point:	0.017	X_WP:	0.000	Y_WP:	0.000	Y_WP:	0.750	X:	0.012	Y:	-0.906	Z:	0.403	yaw:	-0.958	yaw rate:	0.041	Roll:	0.945	Pitch:	-26.981	Yaw:	-2.048	Thrust:	100.000
Time:	2.221	Roll Set Point:	-0.040	Pitch Set Point:	1.811	Yaw Set Point:	0.017	X_WP:	0.000	Y_WP:	0.000	Y_WP:	0.750	X:	0.012	Y:	-0.906	Z:	0.403	yaw:	-0.973	yaw rate:	1.448	Roll:	1.157	Pitch:	-27.018	Yaw:	-2.288	Thrust:	100.000
Time:	2.241	Roll Set Point:	-0.040	Pitch Set Point:	1.811	Yaw Set Point:	0.017	X_WP:	0.000	Y_WP:	0.000	Y_WP:	0.750	X:	0.012	Y:	-0.906	Z:	0.403	yaw:	-0.962	yaw rate:	-1.139	Roll:	0.797	Pitch:	-27.030	Yaw:	-1.968	Thrust:	100.000
Time:	2.261	Roll Set Point:	-0.040	Pitch Set Point:	1.811	Yaw Set Point:	0.017	X_WP:	0.000	Y_WP:	0.000	Y_WP:	0.750	X:	0.012	Y:	-0.906	Z:	0.403	yaw:	-0.973	yaw rate:	1.097	Roll:	1.080	Pitch:	-26.962	Yaw:	-2.227	Thrust:	100.000
Time:	2.281	Roll Set Point:	-0.040	Pitch Set Point:	1.811	Yaw Set Point:	0.017	X_WP:	0.000	Y_WP:	0.000	Y_WP:	0.750	X:	0.012	Y:	-0.906	Z:	0.403	yaw:	-0.974	yaw rate:	0.175	Roll:	0.994	Pitch:	-27.048	Yaw:	-2.175	Thrust:	100.000
Time:	2.301	Roll Set Point:	-0.040	Pitch Set Point:	1.811	Yaw Set Point:	0.017	X_WP:	0.000	Y_WP:	0.000	Y_WP:	0.750	X:	0.012	Y:	-0.906	Z:	0.403	yaw:	-0.989	yaw rate:	1.434	Roll:	1.184	Pitch:	-26.996	Yaw:	-2.321	Thrust:	100.000
Time:	2.322	Roll Set Point:	-0.040	Pitch Set Point:	1.811	Yaw Set Point:	0.017	X_WP:	0.000	Y_WP:	0.000	Y_WP:	0.750	X:	0.012	Y:	-0.906	Z:	0.403	yaw:	-0.947	yaw rate:	-4.145	Roll:	0.357	Pitch:	-27.009	Yaw:	-1.588	Thrust:	100.000
Time:	2.342	Roll Set Point:	-0.040	Pitch Set Point:	1.811	Yaw Set Point:	0.017	X_WP:	0.000	Y_WP:	0.000	Y_WP:	0.750	X:	0.012	Y:	-0.906	Z:	0.403	yaw:	-0.976	yaw rate:	2.880	Roll:	1.363	Pitch:	-27.035	Yaw:	-2.533	Thrust:	100.000
Time:	2.361	Roll Set Point:	-0.040	Pitch Set Point:	1.811	Yaw Set Point:	0.017	X_WP:	0.000	Y_WP:	0.000	Y_WP:	0.750	X:	0.012	Y:	-0.906	Z:	0.403	yaw:	-0.982	yaw rate:	0.601	Roll:	1.062	Pitch:	-26.987	Yaw:	-2.205	Thrust:	100.000
Time:	2.381	Roll Set Point:	-0.040	Pitch Set Point:	1.811	Yaw Set Point:	0.017	X_WP:	0.000	Y_WP:	0.000	Y_WP:	0.750	X:	0.012	Y:	-0.906	Z:	0.403	yaw:	-0.983	yaw rate:	0.058	Roll:	0.983	Pitch:	-26.990	Yaw:	-2.159	Thrust:	100.000
Time:	2.401	Roll Set Point:	-0.040	Pitch Set Point:	1.811	Yaw Set Point:	0.017	X_WP:	0.000	Y_WP:	0.000	Y_WP:	0.750	X:	0.012	Y:	-0.906	Z:	0.403	yaw:	-0.974	yaw rate:	-0.891	Roll:	0.809	Pitch:	-26.963	Yaw:	-2.024	Thrust:	100.000
Time:	2.421	Roll Set Point:	-0.040	Pitch Set Point:	1.811	Yaw Set Point:	0.017	X_WP:	0.000	Y_WP:	0.000	Y_WP:	0.750	X:	0.012	Y:	-0.906	Z:	0.403	yaw:	-0.994	yaw rate:	2.042	Roll:	1.277	Pitch:	-27.046	Yaw:	-2.477	Thrust:	100.000
Time:	2.443	Roll Set Point:	-0.040	Pitch Set Point:	1.811	Yaw Set Point:	0.017	X_WP:	0.000	Y_WP:	0.000	Y_WP:	0.750	X:	0.012	Y:	-0.906	Z:	0.403	yaw:	-0.985	yaw rate:	-0.858	Roll:	0.880	Pitch:	-27.056	Yaw:	-2.156	Thrust:	100.000
Time:	2.461	Roll Set Point:	-0.040	Pitch Set Point:	1.811	Yaw Set Point:	0.017	X_WP:	0.000	Y_WP:	0.000	Y_WP:	0.750	X:	0.012	Y:	-0.906	Z:	0.403	yaw:	-0.967	yaw rate:	-1.867	Roll:	0.688	Pitch:	-26.934	Yaw:	-1.821	Thrust:	100.000
Time:	2.481	Roll Set Point:	-0.040	Pitch Set Point:	1.811	Yaw Set Point:	0.017	X_WP:	0.000	Y_WP:	0.000	Y_WP:	0.750	X:	0.012	Y:	-0.906	Z:	0.403	yaw:	-0.965	yaw rate:	-0.229	Roll:	0.927	Pitch:	-27.027	Yaw:	-2.146	Thrust:	100.000
Time:	2.501	Roll Set Point:	-0.040	Pitch Set Point:	1.811	Yaw Set Point:	0.017	X_WP:	0.000	Y_WP:	0.000	Y_WP:	0.750	X:	0.012	Y:	-0.906	Z:	0.403	yaw:	-0.967	yaw rate:	0.291	Roll:	1.013	Pitch:	-27.016	Yaw:	-2.227	Thrust:	100.000
Time:	2.521	Roll Set Point:	-0.040	Pitch Set Point:	1.811	Yaw Set Point:	0.017	X_WP:	0.000	Y_WP:	0.000	Y_WP:	0.750	X:	0.012	Y:	-0.906	Z:	0.403	yaw:	-0.992	yaw rate:	2.473	Roll:	1.303	Pitch:	-26.990	Yaw:	-2.547	Thrust:	100.000
Time:	2.544	Roll Set Point:	-0.040	Pitch Set Point:	1.811	Yaw Set Point:	0.017	X_WP:	0.000	Y_WP:	0.000	Y_WP:	0.750	X:	0.012	Y:	-0.906	Z:	0.403	yaw:	-0.953	yaw rate:	-3.952	Roll:	0.496	Pitch:	-27.099	Yaw:	-1.808	Thrust:	100.000
Time:	2.561	Roll Set Point:	-0.040	Pitch Set Point:	1.811	Yaw Set Point:	0.017	X_WP:	0.000	Y_WP:	0.000	Y_WP:	0.750	X:	0.012	Y:	-0.906	Z:	0.403	yaw:	-0.968	yaw rate:	1.523	Roll:	1.182	Pitch:	-26.901	Yaw:	-2.338	Thrust:	100.000
Time:	2.582	Roll Set Point:	-0.040	Pitch Set Point:	1.811	Yaw Set Point:	0.017	X_WP:	0.000	Y_WP:	0.000	Y_WP:	0.750	X:	0.012	Y:	-0.906	Z:	0.403	yaw:	-0.984	yaw rate:	1.613	Roll:	1.219	Pitch:	-27.023	Yaw:	-2.431	Thrust:	100.000
Time:	2.601	Roll Set Point:	-0.039	Pitch Set Point:	1.811	Yaw Set Point:	0.016	X_WP:	0.000	Y_WP:	0.000	Y_WP:	0.750	X:	0.012	Y:	-0.906	Z:	0.403	yaw:	-0.910	yaw rate:	-7.413	Roll:	-0.122	Pitch:	-26.980	Yaw:	-1.200	Thrust:	100.000
Time:	2.621	Roll Set Point:	-0.040	Pitch Set Point:	1.811	Yaw Set Point:	0.016	X_WP:	0.000	Y_WP:	0.000	Y_WP:	0.750	X:	0.012	Y:	-0.906	Z:	0.403	yaw:	-0.945	yaw rate:	3.502	Roll:	1.465	Pitch:	-27.030	Yaw:	-2.644	Thrust:	100.000
Time:	2.642	Roll Set Point:	-0.040	Pitch Set Point:	1.811	Yaw Set Point:	0.017	X_WP:	0.000	Y_WP:	0.000	Y_WP:	0.750	X:	0.012	Y:	-0.906	Z:	0.403	yaw:	-0.985	yaw rate:	3.965	Roll:	1.482	Pitch:	-27.012	Yaw:	-2.786	Thrust:	100.000
Time:	2.662	Roll Set Point:	-0.040	Pitch Set Point:	1.811	Yaw Set Point:	0.017	X_WP:	0.000	Y_WP:	0.000	Y_WP:	0.750	X:	0.012	Y:	-0.906	Z:	0.403	yaw:	-0.982	yaw rate:	-0.262	Roll:	0.986	Pitch:	-27.031	Yaw:	-2.220	Thrust:	100.000
Time:	2.682	Roll Set Point:	-0.040	Pitch Set Point:	1.811	Yaw Set Point:	0.017	X_WP:	0.000	Y_WP:	0.000	Y_WP:	0.750	X:	0.012	Y:	-0.906	Z:	0.403	yaw:	-0.948	yaw rate:	-3.367	Roll:	0.486	Pitch:	-26.964	Yaw:	-1.778	Thrust:	100.000
Time:	2.701	Roll Set Point:	-0.040	Pitch Set Point:	1.811	Yaw Set Point:	0.017	X_WP:	0.000	Y_WP:	0.000	Y_WP:	0.750	X:	0.012	Y:	-0.906	Z:	0.403	yaw:	-0.953	yaw rate:	0.495	Roll:	1.057	Pitch:	-27.007	Yaw:	-2.261	Thrust:	100.000
Time:	2.721	Roll Set Point:	-0.040	Pitch Set Point:	1.811	Yaw Set Point:	0.017	X_WP:	0.000	Y_WP:	0.000	Y_WP:	0.750	X:	0.012	Y:	-0.906	Z:	0.403	yaw:	-0.959	yaw rate:	0.553	Roll:	1.041	Pitch:	-27.019	Yaw:	-2.341	Thrust:	100.000
Time:	2.743	Roll Set Point:	-0.040	Pitch Set Point:	1.811	Yaw Set Point:	0.017	X_WP:	0.000	Y_WP:	0.000	Y_WP:	0.750	X:	0.012	Y:	-0.906	Z:	0.403	yaw:	-0.959	yaw rate:	-0.020	Roll:	1.021	Pitch:	-27.058	Yaw:	-2.327	Thrust:	100.000
Time:	2.761	Roll Set Point:	-0.040	Pitch Set Point:	1.811	Yaw Set Point:	0.017	X_WP:	0.000	Y_WP:	0.000	Y_WP:	0.750	X:	0.012	Y:	-0.906	Z:	0.403	yaw:	-0.957	yaw rate:	-0.195	Roll:	0.919	Pitch:	-26.934	Yaw:	-2.145	Thrust:	100.000
Time:	2.781	Roll Set Point:	-0.040	Pitch Set Point:	1.811	Yaw Set Point:	0.017	X_WP:	0.000	Y_WP:	0.000	Y_WP:	0.750	X:	0.012	Y:	-0.906	Z:	0.403	yaw:	-0.967	yaw rate:	0.999	Roll:	1.126	Pitch:	-26.999	Yaw:	-2.393	Thrust:	100.000
Time:	2.801	Roll Set Point:	-0.040	Pitch Set Point:	1.811	Yaw Set Point:	0.017	X_WP:	0.000	Y_WP:	0.000	Y_WP:	0.750	X:	0.012	Y:	-0.906	Z:	0.403	yaw:	-0.985	yaw rate:	1.864	Roll:	1.250	Pitch:	-26.992	Yaw:	-2.574	Thrust:	100.000
Time:	2.821	Roll Set Point:	-0.040	Pitch Set Point:	1.811	Yaw Set Point:	0.017	X_WP:	0.000	Y_WP:	0.000	Y_WP:	0.750	X:	0.012	Y:	-0.906	Z:	0.403	yaw:	-0.959	yaw rate:	-2.661	Roll:	0.660	Pitch:	-27.038	Yaw:	-1.905	Thrust:	100.000
Time:	2.842	Roll Set Point:	-0.040	Pitch Set Point:	1.811	Yaw Set Point:	0.017	X_WP:	0.000	Y_WP:	0.000	Y_WP:	0.750	X:	0.012	Y:	-0.906	Z:	0.403	yaw:	-0.961	yaw rate:	0.287	Roll:	1.023	Pitch:	-27.028	Yaw:	-2.352	Thrust:	100.000
Time:	2.861	Roll Set Point:	-0.040	Pitch Set Point:	1.811	Yaw Set Point:	0.017	X_WP:	0.000	Y_WP:	0.000	Y_WP:	0.750	X:	0.012	Y:	-0.906	Z:	0.403	yaw:	-0.986	yaw rate:	2.406	Roll:	1.324	Pitch:	-26.946	Yaw:	-2.613	Thrust:	100.000
Time:	2.880	Roll Set Point:	-0.040	Pitch Set Point:	1.811	Yaw Set Point:	0.017	X_WP:	0.000	Y_WP:	0.000	Y_WP:	0.750	X:	0.012	Y:	-0.906	Z:	0.403	yaw:	-0.962	yaw rate:	-2.369	Roll:	0.693	Pitch:	-27.023	Yaw:	-1.988	Thrust:	100.000
Time:	2.900	Roll Set Point:	-0.040	Pitch Set Point:	1.811	Yaw Set Point:	0.017	X_WP:	0.000	Y_WP:	0.000	Y_WP:	0.750	X:	0.012	Y:	-0.906	Z:	0.403	yaw:	-0.985	yaw rate:	2.305	Roll:	1.322	Pitch:	-27.002	Yaw:	-2.645	Thrust:	100.000
Time:	2.921	Roll Set Point:	-0.040	Pitch Set Point:	1.811	Yaw Set Point:	0.017	X_WP:	0.000	Y_WP:	0.000	Y_WP:	0.750	X:	0.012	Y:	-0.906	Z:	0.403	yaw:	-0.954	yaw rate:	-3.049	Roll:	0.623	Pitch:	-27.022	Yaw:	-1.923	Thrust:	100.000
Time:	2.941	Roll Set Point:	-0.040	Pitch Set Point:	1.811	Yaw Set Point:	0.017	X_WP:	0.000	Y_WP:	0.000	Y_WP:	0.750	X:	0.012	Y:	-0.906	Z:	0.403	yaw:	-0.996	yaw rate:	4.112	Roll:	1.536	Pitch:	-27.010	Yaw:	-2.926	Thrust:	100.000
Time:	2.962	Roll Set Point:	-0.040	Pitch Set Point:	1.811	Yaw Set Point:	0.017	X_WP:	0.000	Y_WP:	0.000	Y_WP:	0.750	X:	0.012	Y:	-0.906	Z:	0.403	yaw:	-0.990	yaw rate:	-0.587	Roll:	0.955	Pitch:	-27.032	Yaw:	-2.299	Thrust:	100.000
Time:	2.981	Roll Set Point:	-0.040	Pitch Set Point:	1.811	Yaw Set Point:	0.017	X_WP:	0.000	Y_WP:	0.000	Y_WP:	0.750	X:	0.012	Y:	-0.906	Z:	0.403	yaw:	-0.953	yaw rate:	-3.640	Roll:	0.487	Pitch:	-26.992	Yaw:	-1.848	Thrust:	100.000
Time:	3.001	Roll Set Point:	-0.040	Pitch Set Point:	1.811	Yaw Set Point:	0.017	X_WP:	0.000	Y_WP:	0.000	Y_WP:	0.750	X:	0.012	Y:	-0.906	Z:	0.403	yaw:	-0.973	yaw rate:	1.955	Roll:	1.282	Pitch:	-26.969	Yaw:	-2.587	Thrust:	100.000
Time:	3.021	Roll Set Point:	-0.040	Pitch Set Point:	1.811	Yaw Set Point:	0.017	X_WP:	0.000	Y_WP:	0.000	Y_WP:	0.750	X:	0.012	Y:	-0.906	Z:	0.403	yaw:	-0.963	yaw rate:	-0.976	Roll:	0.879	Pitch:	-27.028	Yaw:	-2.222	Thrust:	100.000
Time:	3.042	Roll Set Point:	-0.040	Pitch Set Point:	1.811	Yaw Set Point:	0.017	X_WP:	0.000	Y_WP:	0.000	Y_WP:	0.750	X:	0.012	Y:	-0.906	Z:	0.403	yaw:	-0.962	yaw rate:	-0.121	Roll:	1.006	Pitch:	-27.008	Yaw:	-2.399	Thrust:	100.000
Time:	3.061	Roll Set Point:	-0.040	Pitch Set Point:	1.811	Yaw Set Point:	0.017	X_WP:	0.000	Y_WP:	0.000	Y_WP:	0.750	X:	0.012	Y:	-0.906	Z:	0.403	yaw:	-0.970	yaw rate:	0.805	Roll:	1.094	Pitch:	-26.984	Yaw:	-2.442	Thrust:	100.000
Time:	3.081	Roll Set Point:	-0.040	Pitch Set Point:	1.811	Yaw Set Point:	0.017	X_WP:	0.000	Y_WP:	0.000	Y_WP:	0.750	X:	0.012	Y:	-0.906	Z:	0.403	yaw:	-0.977	yaw rate:	0.688	Roll:	1.128	Pitch:	-27.018	Yaw:	-2.492	Thrust:	100.000
Time:	3.101	Roll Set Point:	-0.040	Pitch Set Point:	1.811	Yaw Set Point:	0.017	X_WP:	0.000	Y_WP:	0.000	Y_WP:	0.750	X:	0.012	Y:	-0.906	Z:	0.403	yaw:	-0.981	yaw rate:	0.389	Roll:	1.058	Pitch:	-26.971	Yaw:	-2.461	Thrust:	100.000
Time:	3.121	Roll Set Point:	-0.040	Pitch Set Point:	1.811	Yaw Set Point:	0.017	X_WP:	0.000	Y_WP:	0.000	Y_WP:	0.750	X:	0.012	Y:	-0.906	Z:	0.403	yaw:	-0.953	yaw rate:	-2.743	Roll:	0.668	Pitch:	-27.046	Yaw:	-1.999	Thrust:	100.000
Time:	3.141	Roll Set Point:	-0.039	Pitch Set Point:	1.811	Yaw Set Point:	0.016	X_WP:	0.000	Y_WP:	0.000	Y_WP:	0.750	X:	0.012	Y:	-0.906	Z:	0.403	yaw:	-0.942	yaw rate:	-1.159	Roll:	0.832	Pitch:	-27.010	Yaw:	-2.221	Thrust:	100.000
Time:	3.163	Roll Set Point:	-0.040	Pitch Set Point:	1.811	Yaw Set Point:	0.017	X_WP:	0.000	Y_WP:	0.000	Y_WP:	0.750	X:	0.012	Y:	-0.906	Z:	0.403	yaw:	-0.977	yaw rate:	3.520	Roll:	1.484	Pitch:	-27.069	Yaw:	-2.930	Thrust:	100.000
Time:	3.182	Roll Set Point:	-0.040	Pitch Set Point:	1.811	Yaw Set Point:	0.017	X_WP:	0.000	Y_WP:	0.000	Y_WP:	0.750	X:	0.012	Y:	-0.906	Z:	0.403	yaw:	-0.946	yaw rate:	-3.102	Roll:	0.551	Pitch:	-26.962	Yaw:	-1.869	Thrust:	100.000
Time:	3.201	Roll Set Point:	-0.039	Pitch Set Point:	1.811	Yaw Set Point:	0.016	X_WP:	0.000	Y_WP:	0.000	Y_WP:	0.750	X:	0.012	Y:	-0.906	Z:	0.403	yaw:	-0.921	yaw rate:	-2.515	Roll:	0.628	Pitch:	-26.971	Yaw:	-2.006	Thrust:	100.000
Time:	3.221	Roll Set Point:	-0.040	Pitch Set Point:	1.811	Yaw Set Point:	0.017	X_WP:	0.000	Y_WP:	0.000	Y_WP:	0.750	X:	0.012	Y:	-0.906	Z:	0.403	yaw:	-0.998	yaw rate:	7.744	Roll:	2.124	Pitch:	-27.025	Yaw:	-3.483	Thrust:	100.000
Time:	3.242	Roll Set Point:	-0.040	Pitch Set Point:	1.811	Yaw Set Point:	0.017	X_WP:	0.000	Y_WP:	0.000	Y_WP:	0.750	X:	0.012	Y:	-0.906	Z:	0.403	yaw:	-0.996	yaw rate:	-0.231	Roll:	1.019	Pitch:	-27.047	Yaw:	-2.509	Thrust:	100.000
Time:	3.261	Roll Set Point:	-0.040	Pitch Set Point:	1.811	Yaw Set Point:	0.017	X_WP:	0.000	Y_WP:	0.000	Y_WP:	0.750	X:	0.012	Y:	-0.906	Z:	0.403	yaw:	-0.954	yaw rate:	-4.133	Roll:	0.426	Pitch:	-26.963	Yaw:	-1.797	Thrust:	100.000
Time:	3.281	Roll Set Point:	-0.040	Pitch Set Point:	1.811	Yaw Set Point:	0.017	X_WP:	0.000	Y_WP:	0.000	Y_WP:	0.750	X:	0.012	Y:	-0.906	Z:	0.403	yaw:	-0.977	yaw rate:	2.270	Roll:	1.320	Pitch:	-27.007	Yaw:	-2.753	Thrust:	100.000
Time:	3.301	Roll Set Point:	-0.040	Pitch Set Point:	1.811	Yaw Set Point:	0.017	X_WP:	0.000	Y_WP:	0.000	Y_WP:	0.750	X:	0.012	Y:	-0.906	Z:	0.403	yaw:	-0.964	yaw rate:	-1.302	Roll:	0.861	Pitch:	-27.004	Yaw:	-2.268	Thrust:	100.000
Time:	3.321	Roll Set Point:	-0.040	Pitch Set Point:	1.811	Yaw Set Point:	0.017	X_WP:	0.000	Y_WP:	0.000	Y_WP:	0.750	X:	0.012	Y:	-0.906	Z:	0.403	yaw:	-0.948	yaw rate:	-1.608	Roll:	0.775	Pitch:	-26.980	Yaw:	-2.227	Thrust:	100.000
Time:	3.342	Roll Set Point:	-0.040	Pitch Set Point:	1.811	Yaw Set Point:	0.017	X_WP:	0.000	Y_WP:	0.000	Y_WP:	0.750	X:	0.012	Y:	-0.906	Z:	0.403	yaw:	-0.946	yaw rate:	-0.162	Roll:	1.008	Pitch:	-27.040	Yaw:	-2.477	Thrust:	100.000
Time:	3.361	Roll Set Point:	-0.040	Pitch Set Point:	1.811	Yaw Set Point:	0.017	X_WP:	0.000	Y_WP:	0.000	Y_WP:	0.750	X:	0.012	Y:	-0.906	Z:	0.403	yaw:	-0.965	yaw rate:	1.878	Roll:	1.295	Pitch:	-27.000	Yaw:	-2.668	Thrust:	100.000
Time:	3.381	Roll Set Point:	-0.040	Pitch Set Point:	1.811	Yaw Set Point:	0.017	X_WP:	0.000	Y_WP:	0.000	Y_WP:	0.750	X:	0.012	Y:	-0.906	Z:	0.403	yaw:	-0.963	yaw rate:	-0.270	Roll:	0.987	Pitch:	-27.008	Yaw:	-2.452	Thrust:	100.000
Time:	3.401	Roll Set Point:	-0.040	Pitch Set Point:	1.811	Yaw Set Point:	0.017	X_WP:	0.000	Y_WP:	0.000	Y_WP:	0.750	X:	0.012	Y:	-0.906	Z:	0.403	yaw:	-0.969	yaw rate:	0.602	Roll:	1.114	Pitch:	-26.981	Yaw:	-2.563	Thrust:	100.000
Time:	3.422	Roll Set Point:	-0.040	Pitch Set Point:	1.811	Yaw Set Point:	0.017	X_WP:	0.000	Y_WP:	0.000	Y_WP:	0.750	X:	0.012	Y:	-0.906	Z:	0.403	yaw:	-0.955	yaw rate:	-1.391	Roll:	0.853	Pitch:	-27.045	Yaw:	-2.331	Thrust:	100.000
Time:	3.442	Roll Set Point:	-0.040	Pitch Set Point:	1.811	Yaw Set Point:	0.017	X_WP:	0.000	Y_WP:	0.000	Y_WP:	0.750	X:	0.012	Y:	-0.906	Z:	0.403	yaw:	-0.973	yaw rate:	1.807	Roll:	1.294	Pitch:	-26.970	Yaw:	-2.694	Thrust:	100.000
Time:	3.461	Roll Set Point:	-0.040	Pitch Set Point:	1.811	Yaw Set Point:	0.017	X_WP:	0.000	Y_WP:	0.000	Y_WP:	0.750	X:	0.012	Y:	-0.906	Z:	0.403	yaw:	-0.961	yaw rate:	-1.168	Roll:	0.868	Pitch:	-27.030	Yaw:	-2.378	Thrust:	100.000
Time:	3.481	Roll Set Point:	-0.040	Pitch Set Point:	1.811	Yaw Set Point:	0.017	X_WP:	0.000	Y_WP:	0.000	Y_WP:	0.750	X:	0.012	Y:	-0.906	Z:	0.403	yaw:	-0.965	yaw rate:	0.398	Roll:	1.086	Pitch:	-26.984	Yaw:	-2.545	Thrust:	100.000
Time:	3.501	Roll Set Point:	-0.040	Pitch Set Point:	1.811	Yaw Set Point:	0.017	X_WP:	0.000	Y_WP:	0.000	Y_WP:	0.750	X:	0.012	Y:	-0.906	Z:	0.403	yaw:	-0.958	yaw rate:	-0.661	Roll:	0.943	Pitch:	-27.021	Yaw:	-2.432	Thrust:	100.000
Time:	3.521	Roll Set Point:	-0.040	Pitch Set Point:	1.811	Yaw Set Point:	0.017	X_WP:	0.000	Y_WP:	0.000	Y_WP:	0.750	X:	0.012	Y:	-0.906	Z:	0.403	yaw:	-0.976	yaw rate:	1.799	Roll:	1.279	Pitch:	-26.980	Yaw:	-2.761	Thrust:	100.000
Time:	3.541	Roll Set Point:	-0.040	Pitch Set Point:	1.811	Yaw Set Point:	0.017	X_WP:	0.000	Y_WP:	0.000	Y_WP:	0.750	X:	0.012	Y:	-0.906	Z:	0.403	yaw:	-0.959	yaw rate:	-1.740	Roll:	0.806	Pitch:	-27.016	Yaw:	-2.347	Thrust:	100.000
Time:	3.561	Roll Set Point:	-0.040	Pitch Set Point:	1.811	Yaw Set Point:	0.017	X_WP:	0.000	Y_WP:	0.000	Y_WP:	0.750	X:	0.012	Y:	-0.906	Z:	0.403	yaw:	-1.000	yaw rate:	4.082	Roll:	1.599	Pitch:	-27.003	Yaw:	-3.106	Thrust:	100.000
Time:	3.581	Roll Set Point:	-0.040	Pitch Set Point:	1.811	Yaw Set Point:	0.017	X_WP:	0.000	Y_WP:	0.000	Y_WP:	0.750	X:	0.012	Y:	-0.906	Z:	0.403	yaw:	-0.946	yaw rate:	-5.336	Roll:	0.303	Pitch:	-27.012	Yaw:	-1.799	Thrust:	100.000
Time:	3.601	Roll Set Point:	-0.040	Pitch Set Point:	1.811	Yaw Set Point:	0.017	X_WP:	0.000	Y_WP:	0.000	Y_WP:	0.750	X:	0.012	Y:	-0.906	Z:	0.403	yaw:	-0.965	yaw rate:	1.850	Roll:	1.296	Pitch:	-26.992	Yaw:	-2.818	Thrust:	100.000
Time:	3.621	Roll Set Point:	-0.040	Pitch Set Point:	1.811	Yaw Set Point:	0.017	X_WP:	0.000	Y_WP:	0.000	Y_WP:	0.750	X:	0.012	Y:	-0.906	Z:	0.403	yaw:	-0.980	yaw rate:	1.492	Roll:	1.252	Pitch:	-27.012	Yaw:	-2.776	Thrust:	100.000
Time:	3.641	Roll Set Point:	-0.040	Pitch Set Point:	1.811	Yaw Set Point:	0.017	X_WP:	0.000	Y_WP:	0.000	Y_WP:	0.750	X:	0.012	Y:	-0.906	Z:	0.403	yaw:	-0.958	yaw rate:	-2.193	Roll:	0.759	Pitch:	-27.031	Yaw:	-2.285	Thrust:	100.000
Time:	3.661	Roll Set Point:	-0.040	Pitch Set Point:	1.811	Yaw Set Point:	0.017	X_WP:	0.000	Y_WP:	0.000	Y_WP:	0.750	X:	0.012	Y:	-0.906	Z:	0.403	yaw:	-0.963	yaw rate:	0.512	Roll:	1.110	Pitch:	-26.983	Yaw:	-2.613	Thrust:	100.000
Time:	3.681	Roll Set Point:	-0.040	Pitch Set Point:	1.811	Yaw Set Point:	0.017	X_WP:	0.000	Y_WP:	0.000	Y_WP:	0.750	X:	0.012	Y:	-0.906	Z:	0.403	yaw:	-0.968	yaw rate:	0.447	Roll:	1.109	Pitch:	-27.000	Yaw:	-2.651	Thrust:	100.000
Time:	3.700	Roll Set Point:	-0.040	Pitch Set Point:	1.811	Yaw Set Point:	0.017	X_WP:	0.000	Y_WP:	0.000	Y_WP:	0.750	X:	0.012	Y:	-0.906	Z:	0.403	yaw:	-0.950	yaw rate:	-1.764	Roll:	0.801	Pitch:	-26.988	Yaw:	-2.274	Thrust:	100.000
Time:	3.721	Roll Set Point:	-0.040	Pitch Set Point:	1.811	Yaw Set Point:	0.017	X_WP:	0.000	Y_WP:	0.000	Y_WP:	0.750	X:	0.012	Y:	-0.906	Z:	0.403	yaw:	-0.970	yaw rate:	2.055	Roll:	1.336	Pitch:	-27.013	Yaw:	-2.885	Thrust:	100.000
Time:	3.741	Roll Set Point:	-0.040	Pitch Set Point:	1.811	Yaw Set Point:	0.017	X_WP:	0.000	Y_WP:	0.000	Y_WP:	0.750	X:	0.012	Y:	-0.906	Z:	0.403	yaw:	-0.966	yaw rate:	-0.419	Roll:	1.003	Pitch:	-27.024	Yaw:	-2.557	Thrust:	100.000
Time:	3.762	Roll Set Point:	-0.040	Pitch Set Point:	1.811	Yaw Set Point:	0.017	X_WP:	0.000	Y_WP:	0.000	Y_WP:	0.750	X:	0.012	Y:	-0.906	Z:	0.403	yaw:	-0.992	yaw rate:	2.580	Roll:	1.417	Pitch:	-27.006	Yaw:	-3.016	Thrust:	100.000
Time:	3.781	Roll Set Point:	-0.040	Pitch Set Point:	1.811	Yaw Set Point:	0.017	X_WP:	0.000	Y_WP:	0.000	Y_WP:	0.750	X:	0.012	Y:	-0.906	Z:	0.403	yaw:	-0.959	yaw rate:	-3.346	Roll:	0.568	Pitch:	-26.975	Yaw:	-2.111	Thrust:	100.000
Time:	3.801	Roll Set Point:	-0.040	Pitch Set Point:	1.811	Yaw Set Point:	0.016	X_WP:	0.000	Y_WP:	0.000	Y_WP:	0.750	X:	0.012	Y:	-0.906	Z:	0.403	yaw:	-0.945	yaw rate:	-1.344	Roll:	0.868	Pitch:	-27.021	Yaw:	-2.379	Thrust:	100.000
Time:	3.822	Roll Set Point:	-0.041	Pitch Set Point:	1.811	Yaw Set Point:	0.018	X_WP:	0.000	Y_WP:	0.000	Y_WP:	0.750	X:	0.012	Y:	-0.906	Z:	0.403	yaw:	-1.003	yaw rate:	5.753	Roll:	1.860	Pitch:	-27.030	Yaw:	-3.462	Thrust:	100.000
Time:	3.841	Roll Set Point:	-0.040	Pitch Set Point:	1.811	Yaw Set Point:	0.017	X_WP:	0.000	Y_WP:	0.000	Y_WP:	0.750	X:	0.012	Y:	-0.906	Z:	0.403	yaw:	-0.975	yaw rate:	-2.809	Roll:	0.660	Pitch:	-26.982	Yaw:	-2.203	Thrust:	100.000
Time:	3.861	Roll Set Point:	-0.039	Pitch Set Point:	1.811	Yaw Set Point:	0.016	X_WP:	0.000	Y_WP:	0.000	Y_WP:	0.750	X:	0.012	Y:	-0.906	Z:	0.403	yaw:	-0.936	yaw rate:	-3.867	Roll:	0.534	Pitch:	-27.019	Yaw:	-2.106	Thrust:	100.000
Time:	3.881	Roll Set Point:	-0.040	Pitch Set Point:	1.811	Yaw Set Point:	0.017	X_WP:	0.000	Y_WP:	0.000	Y_WP:	0.750	X:	0.012	Y:	-0.906	Z:	0.403	yaw:	-0.955	yaw rate:	1.928	Roll:	1.324	Pitch:	-27.026	Yaw:	-2.914	Thrust:	100.000
Time:	3.901	Roll Set Point:	-0.040	Pitch Set Point:	1.811	Yaw Set Point:	0.017	X_WP:	0.000	Y_WP:	0.000	Y_WP:	0.750	X:	0.012	Y:	-0.906	Z:	0.403	yaw:	-0.962	yaw rate:	0.702	Roll:	1.157	Pitch:	-26.985	Yaw:	-2.717	Thrust:	100.000
Time:	3.922	Roll Set Point:	-0.040	Pitch Set Point:	1.811	Yaw Set Point:	0.017	X_WP:	0.000	Y_WP:	0.000	Y_WP:	0.750	X:	0.012	Y:	-0.906	Z:	0.403	yaw:	-0.985	yaw rate:	2.297	Roll:	1.396	Pitch:	-27.021	Yaw:	-3.035	Thrust:	100.000
Time:	3.941	Roll Set Point:	-0.040	Pitch Set Point:	1.811	Yaw Set Point:	0.016	X_WP:	0.000	Y_WP:	0.000	Y_WP:	0.750	X:	0.012	Y:	-0.906	Z:	0.403	yaw:	-0.944	yaw rate:	-4.121	Roll:	0.432	Pitch:	-26.994	Yaw:	-2.036	Thrust:	100.000
Time:	3.961	Roll Set Point:	-0.040	Pitch Set Point:	1.811	Yaw Set Point:	0.017	X_WP:	0.000	Y_WP:	0.000	Y_WP:	0.750	X:	0.012	Y:	-0.906	Z:	0.403	yaw:	-0.979	yaw rate:	3.469	Roll:	1.558	Pitch:	-27.010	Yaw:	-3.133	Thrust:	100.000
Time:	3.981	Roll Set Point:	-0.041	Pitch Set Point:	1.811	Yaw Set Point:	0.018	X_WP:	0.000	Y_WP:	0.000	Y_WP:	0.750	X:	0.012	Y:	-0.906	Z:	0.403	yaw:	-1.009	yaw rate:	3.019	Roll:	1.501	Pitch:	-26.994	Yaw:	-3.140	Thrust:	100.000
Time:	4.001	Roll Set Point:	-0.040	Pitch Set Point:	1.811	Yaw Set Point:	0.017	X_WP:	0.000	Y_WP:	0.000	Y_WP:	0.750	X:	0.012	Y:	-0.906	Z:	0.403	yaw:	-0.959	yaw rate:	-5.020	Roll:	0.358	Pitch:	-26.975	Yaw:	-1.948	Thrust:	100.000
Time:	4.022	Roll Set Point:	-0.040	Pitch Set Point:	1.811	Yaw Set Point:	0.017	X_WP:	0.000	Y_WP:	0.000	Y_WP:	0.750	X:	0.012	Y:	-0.906	Z:	0.403	yaw:	-0.978	yaw rate:	1.974	Roll:	1.346	Pitch:	-27.044	Yaw:	-3.038	Thrust:	100.000
Time:	4.043	Roll Set Point:	-0.040	Pitch Set Point:	1.811	Yaw Set Point:	0.017	X_WP:	0.000	Y_WP:	0.000	Y_WP:	0.750	X:	0.012	Y:	-0.906	Z:	0.403	yaw:	-0.970	yaw rate:	-0.852	Roll:	0.989	Pitch:	-27.068	Yaw:	-2.678	Thrust:	100.000
Time:	4.061	Roll Set Point:	-0.040	Pitch Set Point:	1.811	Yaw Set Point:	0.017	X_WP:	0.000	Y_WP:	0.000	Y_WP:	0.750	X:	0.012	Y:	-0.906	Z:	0.403	yaw:	-0.975	yaw rate:	0.519	Roll:	1.132	Pitch:	-26.922	Yaw:	-2.684	Thrust:	100.000
Time:	4.081	Roll Set Point:	-0.040	Pitch Set Point:	1.811	Yaw Set Point:	0.017	X_WP:	0.000	Y_WP:	0.000	Y_WP:	0.750	X:	0.012	Y:	-0.906	Z:	0.403	yaw:	-0.958	yaw rate:	-1.704	Roll:	0.819	Pitch:	-27.003	Yaw:	-2.498	Thrust:	100.000
Time:	4.101	Roll Set Point:	-0.041	Pitch Set Point:	1.811	Yaw Set Point:	0.018	X_WP:	0.000	Y_WP:	0.000	Y_WP:	0.750	X:	0.012	Y:	-0.906	Z:	0.403	yaw:	-1.006	yaw rate:	4.747	Roll:	1.767	Pitch:	-27.027	Yaw:	-3.383	Thrust:	100.000
Time:	4.122	Roll Set Point:	-0.040	Pitch Set Point:	1.811	Yaw Set Point:	0.017	X_WP:	0.000	Y_WP:	0.000	Y_WP:	0.750	X:	0.012	Y:	-0.906	Z:	0.403	yaw:	-0.960	yaw rate:	-4.593	Roll:	0.481	Pitch:	-27.045	Yaw:	-2.223	Thrust:	100.000
Time:	4.141	Roll Set Point:	-0.040	Pitch Set Point:	1.811	Yaw Set Point:	0.017	X_WP:	0.000	Y_WP:	0.000	Y_WP:	0.750	X:	0.012	Y:	-0.906	Z:	0.403	yaw:	-0.967	yaw rate:	0.748	Roll:	1.161	Pitch:	-26.942	Yaw:	-2.741	Thrust:	100.000
Time:	4.161	Roll Set Point:	-0.041	Pitch Set Point:	1.811	Yaw Set Point:	0.018	X_WP:	0.000	Y_WP:	0.000	Y_WP:	0.750	X:	0.012	Y:	-0.906	Z:	0.403	yaw:	-1.014	yaw rate:	4.707	Roll:	1.757	Pitch:	-27.043	Yaw:	-3.460	Thrust:	100.000
Time:	4.181	Roll Set Point:	-0.040	Pitch Set Point:	1.811	Yaw Set Point:	0.017	X_WP:	0.000	Y_WP:	0.000	Y_WP:	0.750	X:	0.012	Y:	-0.906	Z:	0.403	yaw:	-0.960	yaw rate:	-5.444	Roll:	0.320	Pitch:	-26.990	Yaw:	-1.992	Thrust:	100.000
Time:	4.201	Roll Set Point:	-0.040	Pitch Set Point:	1.811	Yaw Set Point:	0.017	X_WP:	0.000	Y_WP:	0.000	Y_WP:	0.750	X:	0.012	Y:	-0.906	Z:	0.403	yaw:	-0.970	yaw rate:	1.034	Roll:	1.239	Pitch:	-26.993	Yaw:	-2.877	Thrust:	100.000
Time:	4.221	Roll Set Point:	-0.040	Pitch Set Point:	1.811	Yaw Set Point:	0.017	X_WP:	0.000	Y_WP:	0.000	Y_WP:	0.750	X:	0.012	Y:	-0.906	Z:	0.403	yaw:	-0.953	yaw rate:	-1.718	Roll:	0.837	Pitch:	-27.016	Yaw:	-2.524	Thrust:	100.000
Time:	4.243	Roll Set Point:	-0.040	Pitch Set Point:	1.811	Yaw Set Point:	0.017	X_WP:	0.000	Y_WP:	0.000	Y_WP:	0.750	X:	0.012	Y:	-0.906	Z:	0.403	yaw:	-0.988	yaw rate:	3.474	Roll:	1.575	Pitch:	-27.047	Yaw:	-3.339	Thrust:	100.000
Time:	4.262	Roll Set Point:	-0.040	Pitch Set Point:	1.811	Yaw Set Point:	0.016	X_WP:	0.000	Y_WP:	0.000	Y_WP:	0.750	X:	0.012	Y:	-0.906	Z:	0.403	yaw:	-0.943	yaw rate:	-4.470	Roll:	0.459	Pitch:	-27.009	Yaw:	-2.061	Thrust:	100.000
Time:	4.281	Roll Set Point:	-0.040	Pitch Set Point:	1.811	Yaw Set Point:	0.017	X_WP:	0.000	Y_WP:	0.000	Y_WP:	0.750	X:	0.012	Y:	-0.906	Z:	0.403	yaw:	-0.950	yaw rate:	0.747	Roll:	1.171	Pitch:	-26.966	Yaw:	-2.847	Thrust:	100.000
Time:	4.303	Roll Set Point:	-0.040	Pitch Set Point:	1.811	Yaw Set Point:	0.017	X_WP:	0.000	Y_WP:	0.000	Y_WP:	0.750	X:	0.012	Y:	-0.906	Z:	0.403	yaw:	-0.951	yaw rate:	0.090	Roll:	1.118	Pitch:	-27.057	Yaw:	-2.857	Thrust:	100.000
Time:	4.323	Roll Set Point:	-0.040	Pitch Set Point:	1.811	Yaw Set Point:	0.017	X_WP:	0.000	Y_WP:	0.000	Y_WP:	0.750	X:	0.012	Y:	-0.906	Z:	0.403	yaw:	-0.959	yaw rate:	0.788	Roll:	1.192	Pitch:	-26.996	Yaw:	-2.893	Thrust:	100.000
Time:	4.343	Roll Set Point:	-0.040	Pitch Set Point:	1.811	Yaw Set Point:	0.017	X_WP:	0.000	Y_WP:	0.000	Y_WP:	0.750	X:	0.012	Y:	-0.906	Z:	0.403	yaw:	-0.974	yaw rate:	1.436	Roll:	1.315	Pitch:	-27.013	Yaw:	-2.974	Thrust:	100.000
Time:	4.362	Roll Set Point:	-0.040	Pitch Set Point:	1.811	Yaw Set Point:	0.017	X_WP:	0.000	Y_WP:	0.000	Y_WP:	0.750	X:	0.012	Y:	-0.906	Z:	0.403	yaw:	-0.965	yaw rate:	-0.855	Roll:	0.964	Pitch:	-27.006	Yaw:	-2.700	Thrust:	100.000
Time:	4.383	Roll Set Point:	-0.040	Pitch Set Point:	1.811	Yaw Set Point:	0.017	X_WP:	0.000	Y_WP:	0.000	Y_WP:	0.750	X:	0.012	Y:	-0.906	Z:	0.403	yaw:	-0.967	yaw rate:	0.241	Roll:	1.148	Pitch:	-27.018	Yaw:	-2.926	Thrust:	100.000
Time:	4.401	Roll Set Point:	-0.040	Pitch Set Point:	1.811	Yaw Set Point:	0.017	X_WP:	0.000	Y_WP:	0.000	Y_WP:	0.750	X:	0.012	Y:	-0.906	Z:	0.403	yaw:	-0.981	yaw rate:	1.322	Roll:	1.259	Pitch:	-26.943	Yaw:	-2.891	Thrust:	100.000
Time:	4.422	Roll Set Point:	-0.040	Pitch Set Point:	1.811	Yaw Set Point:	0.017	X_WP:	0.000	Y_WP:	0.000	Y_WP:	0.750	X:	0.012	Y:	-0.906	Z:	0.403	yaw:	-0.974	yaw rate:	-0.612	Roll:	1.068	Pitch:	-27.049	Yaw:	-2.846	Thrust:	100.000
Time:	4.441	Roll Set Point:	-0.039	Pitch Set Point:	1.811	Yaw Set Point:	0.016	X_WP:	0.000	Y_WP:	0.000	Y_WP:	0.750	X:	0.012	Y:	-0.906	Z:	0.403	yaw:	-0.929	yaw rate:	-4.555	Roll:	0.450	Pitch:	-26.980	Yaw:	-2.089	Thrust:	100.000
Time:	4.463	Roll Set Point:	-0.040	Pitch Set Point:	1.811	Yaw Set Point:	0.017	X_WP:	0.000	Y_WP:	0.000	Y_WP:	0.750	X:	0.012	Y:	-0.906	Z:	0.403	yaw:	-0.947	yaw rate:	1.841	Roll:	1.339	Pitch:	-27.023	Yaw:	-3.126	Thrust:	100.000
Time:	4.482	Roll Set Point:	-0.040	Pitch Set Point:	1.811	Yaw Set Point:	0.017	X_WP:	0.000	Y_WP:	0.000	Y_WP:	0.750	X:	0.012	Y:	-0.906	Z:	0.403	yaw:	-0.981	yaw rate:	3.360	Roll:	1.599	Pitch:	-27.010	Yaw:	-3.288	Thrust:	100.000
Time:	4.501	Roll Set Point:	-0.040	Pitch Set Point:	1.811	Yaw Set Point:	0.017	X_WP:	0.000	Y_WP:	0.000	Y_WP:	0.750	X:	0.012	Y:	-0.906	Z:	0.403	yaw:	-0.996	yaw rate:	1.472	Roll:	1.321	Pitch:	-26.968	Yaw:	-3.030	Thrust:	100.000
Time:	4.523	Roll Set Point:	-0.040	Pitch Set Point:	1.811	Yaw Set Point:	0.017	X_WP:	0.000	Y_WP:	0.000	Y_WP:	0.750	X:	0.012	Y:	-0.906	Z:	0.403	yaw:	-0.961	yaw rate:	-3.420	Roll:	0.655	Pitch:	-27.045	Yaw:	-2.560	Thrust:	100.000
Time:	4.543	Roll Set Point:	-0.040	Pitch Set Point:	1.811	Yaw Set Point:	0.017	X_WP:	0.000	Y_WP:	0.000	Y_WP:	0.750	X:	0.012	Y:	-0.906	Z:	0.403	yaw:	-0.977	yaw rate:	1.519	Roll:	1.318	Pitch:	-27.038	Yaw:	-3.124	Thrust:	100.000
Time:	4.562	Roll Set Point:	-0.040	Pitch Set Point:	1.811	Yaw Set Point:	0.017	X_WP:	0.000	Y_WP:	0.000	Y_WP:	0.750	X:	0.012	Y:	-0.906	Z:	0.403	yaw:	-0.995	yaw rate:	1.789	Roll:	1.381	Pitch:	-26.967	Yaw:	-3.058	Thrust:	100.000
Time:	4.581	Roll Set Point:	-0.040	Pitch Set Point:	1.811	Yaw Set Point:	0.017	X_WP:	0.000	Y_WP:	0.000	Y_WP:	0.750	X:	0.012	Y:	-0.906	Z:	0.403	yaw:	-0.947	yaw rate:	-4.762	Roll:	0.429	Pitch:	-26.988	Yaw:	-2.193	Thrust:	100.000
Time:	4.600	Roll Set Point:	-0.040	Pitch Set Point:	1.811	Yaw Set Point:	0.017	X_WP:	0.000	Y_WP:	0.000	Y_WP:	0.750	X:	0.012	Y:	-0.906	Z:	0.403	yaw:	-0.963	yaw rate:	1.641	Roll:	1.332	Pitch:	-26.967	Yaw:	-3.035	Thrust:	100.000
Time:	4.621	Roll Set Point:	-0.040	Pitch Set Point:	1.811	Yaw Set Point:	0.017	X_WP:	0.000	Y_WP:	0.000	Y_WP:	0.750	X:	0.012	Y:	-0.906	Z:	0.403	yaw:	-0.982	yaw rate:	1.856	Roll:	1.391	Pitch:	-27.045	Yaw:	-3.199	Thrust:	100.000
Time:	4.651	Roll Set Point:	-0.040	Pitch Set Point:	1.811	Yaw Set Point:	0.017	X_WP:	0.000	Y_WP:	0.000	Y_WP:	0.750	X:	0.012	Y:	-0.906	Z:	0.403	yaw:	-0.987	yaw rate:	0.553	Roll:	1.325	Pitch:	-27.351	Yaw:	-3.771	Thrust:	100.000
Time:	4.663	Roll Set Point:	-0.040	Pitch Set Point:	1.811	Yaw Set Point:	0.017	X_WP:	0.000	Y_WP:	0.000	Y_WP:	0.750	X:	0.012	Y:	-0.906	Z:	0.403	yaw:	-0.980	yaw rate:	-0.773	Roll:	0.816	Pitch:	-26.683	Yaw:	-2.093	Thrust:	100.000
Time:	4.682	Roll Set Point:	-0.041	Pitch Set Point:	1.811	Yaw Set Point:	0.018	X_WP:	0.000	Y_WP:	0.000	Y_WP:	0.750	X:	0.012	Y:	-0.906	Z:	0.403	yaw:	-1.015	yaw rate:	3.503	Roll:	1.637	Pitch:	-26.998	Yaw:	-3.424	Thrust:	100.000
Time:	4.701	Roll Set Point:	-0.040	Pitch Set Point:	1.811	Yaw Set Point:	0.017	X_WP:	0.000	Y_WP:	0.000	Y_WP:	0.750	X:	0.012	Y:	-0.906	Z:	0.403	yaw:	-0.959	yaw rate:	-5.615	Roll:	0.292	Pitch:	-26.958	Yaw:	-2.068	Thrust:	100.000
Time:	4.722	Roll Set Point:	-0.040	Pitch Set Point:	1.811	Yaw Set Point:	0.017	X_WP:	0.000	Y_WP:	0.000	Y_WP:	0.750	X:	0.012	Y:	-0.906	Z:	0.403	yaw:	-0.952	yaw rate:	-0.695	Roll:	1.023	Pitch:	-27.056	Yaw:	-2.867	Thrust:	100.000
Time:	4.743	Roll Set Point:	-0.040	Pitch Set Point:	1.811	Yaw Set Point:	0.017	X_WP:	0.000	Y_WP:	0.000	Y_WP:	0.750	X:	0.012	Y:	-0.906	Z:	0.403	yaw:	-0.957	yaw rate:	0.550	Roll:	1.207	Pitch:	-27.045	Yaw:	-3.066	Thrust:	100.000
Time:	4.764	Roll Set Point:	-0.040	Pitch Set Point:	1.811	Yaw Set Point:	0.017	X_WP:	0.000	Y_WP:	0.000	Y_WP:	0.750	X:	0.012	Y:	-0.906	Z:	0.403	yaw:	-0.986	yaw rate:	2.930	Roll:	1.562	Pitch:	-26.967	Yaw:	-3.405	Thrust:	100.000
Time:	4.781	Roll Set Point:	-0.040	Pitch Set Point:	1.811	Yaw Set Point:	0.017	X_WP:	0.000	Y_WP:	0.000	Y_WP:	0.750	X:	0.012	Y:	-0.906	Z:	0.403	yaw:	-0.951	yaw rate:	-3.545	Roll:	0.621	Pitch:	-26.970	Yaw:	-2.196	Thrust:	100.000
Time:	4.801	Roll Set Point:	-0.040	Pitch Set Point:	1.811	Yaw Set Point:	0.017	X_WP:	0.000	Y_WP:	0.000	Y_WP:	0.750	X:	0.012	Y:	-0.906	Z:	0.403	yaw:	-0.964	yaw rate:	1.304	Roll:	1.294	Pitch:	-27.011	Yaw:	-3.131	Thrust:	100.000
Time:	4.821	Roll Set Point:	-0.040	Pitch Set Point:	1.811	Yaw Set Point:	0.017	X_WP:	0.000	Y_WP:	0.000	Y_WP:	0.750	X:	0.012	Y:	-0.906	Z:	0.403	yaw:	-0.956	yaw rate:	-0.828	Roll:	1.030	Pitch:	-27.037	Yaw:	-2.852	Thrust:	100.000
Time:	4.842	Roll Set Point:	-0.040	Pitch Set Point:	1.811	Yaw Set Point:	0.017	X_WP:	0.000	Y_WP:	0.000	Y_WP:	0.750	X:	0.012	Y:	-0.906	Z:	0.403	yaw:	-0.959	yaw rate:	0.354	Roll:	1.146	Pitch:	-26.983	Yaw:	-3.028	Thrust:	100.000
Time:	4.861	Roll Set Point:	-0.040	Pitch Set Point:	1.811	Yaw Set Point:	0.017	X_WP:	0.000	Y_WP:	0.000	Y_WP:	0.750	X:	0.012	Y:	-0.906	Z:	0.403	yaw:	-0.976	yaw rate:	1.665	Roll:	1.376	Pitch:	-27.000	Yaw:	-3.198	Thrust:	100.000
Time:	4.881	Roll Set Point:	-0.040	Pitch Set Point:	1.811	Yaw Set Point:	0.017	X_WP:	0.000	Y_WP:	0.000	Y_WP:	0.750	X:	0.012	Y:	-0.906	Z:	0.403	yaw:	-0.956	yaw rate:	-2.034	Roll:	0.852	Pitch:	-26.999	Yaw:	-2.712	Thrust:	100.000
Time:	4.901	Roll Set Point:	-0.040	Pitch Set Point:	1.811	Yaw Set Point:	0.017	X_WP:	0.000	Y_WP:	0.000	Y_WP:	0.750	X:	0.012	Y:	-0.906	Z:	0.403	yaw:	-0.989	yaw rate:	3.322	Roll:	1.618	Pitch:	-27.029	Yaw:	-3.450	Thrust:	100.000
Time:	4.921	Roll Set Point:	-0.040	Pitch Set Point:	1.811	Yaw Set Point:	0.017	X_WP:	0.000	Y_WP:	0.000	Y_WP:	0.750	X:	0.012	Y:	-0.906	Z:	0.403	yaw:	-0.954	yaw rate:	-3.509	Roll:	0.619	Pitch:	-26.988	Yaw:	-2.536	Thrust:	100.000
Time:	4.941	Roll Set Point:	-0.040	Pitch Set Point:	1.811	Yaw Set Point:	0.017	X_WP:	0.000	Y_WP:	0.000	Y_WP:	0.750	X:	0.012	Y:	-0.906	Z:	0.403	yaw:	-0.965	yaw rate:	1.156	Roll:	1.313	Pitch:	-27.028	Yaw:	-3.160	Thrust:	100.000
Time:	4.961	Roll Set Point:	-0.040	Pitch Set Point:	1.811	Yaw Set Point:	0.017	X_WP:	0.000	Y_WP:	0.000	Y_WP:	0.750	X:	0.012	Y:	-0.906	Z:	0.403	yaw:	-0.987	yaw rate:	2.129	Roll:	1.430	Pitch:	-26.968	Yaw:	-3.279	Thrust:	100.000
Time:	4.981	Roll Set Point:	-0.040	Pitch Set Point:	1.811	Yaw Set Point:	0.017	X_WP:	0.000	Y_WP:	0.000	Y_WP:	0.750	X:	0.012	Y:	-0.906	Z:	0.403	yaw:	-0.973	yaw rate:	-1.329	Roll:	0.966	Pitch:	-27.011	Yaw:	-2.860	Thrust:	100.000
Time:	5.001	Roll Set Point:	-0.040	Pitch Set Point:	1.811	Yaw Set Point:	0.017	X_WP:	0.000	Y_WP:	0.000	Y_WP:	0.750	X:	0.012	Y:	-0.906	Z:	0.403	yaw:	-0.972	yaw rate:	-0.115	Roll:	1.124	Pitch:	-27.004	Yaw:	-3.003	Thrust:	100.000
Time:	5.022	Roll Set Point:	-0.040	Pitch Set Point:	1.811	Yaw Set Point:	0.017	X_WP:	0.000	Y_WP:	0.000	Y_WP:	0.750	X:	0.012	Y:	-0.906	Z:	0.403	yaw:	-0.987	yaw rate:	1.503	Roll:	1.364	Pitch:	-27.007	Yaw:	-3.318	Thrust:	100.000
Time:	5.044	Roll Set Point:	-0.040	Pitch Set Point:	1.811	Yaw Set Point:	0.017	X_WP:	0.000	Y_WP:	0.000	Y_WP:	0.750	X:	0.012	Y:	-0.906	Z:	0.403	yaw:	-0.962	yaw rate:	-2.483	Roll:	0.849	Pitch:	-27.078	Yaw:	-2.926	Thrust:	100.000
Time:	5.062	Roll Set Point:	-0.040	Pitch Set Point:	1.811	Yaw Set Point:	0.017	X_WP:	0.000	Y_WP:	0.000	Y_WP:	0.750	X:	0.012	Y:	-0.906	Z:	0.403	yaw:	-0.964	yaw rate:	0.177	Roll:	1.133	Pitch:	-26.952	Yaw:	-2.924	Thrust:	100.000
Time:	5.082	Roll Set Point:	-0.040	Pitch Set Point:	1.811	Yaw Set Point:	0.017	X_WP:	0.000	Y_WP:	0.000	Y_WP:	0.750	X:	0.012	Y:	-0.906	Z:	0.403	yaw:	-0.968	yaw rate:	0.417	Roll:	1.244	Pitch:	-27.028	Yaw:	-3.108	Thrust:	100.000
Time:	5.102	Roll Set Point:	-0.040	Pitch Set Point:	1.811	Yaw Set Point:	0.017	X_WP:	0.000	Y_WP:	0.000	Y_WP:	0.750	X:	0.012	Y:	-0.906	Z:	0.403	yaw:	-0.982	yaw rate:	1.422	Roll:	1.315	Pitch:	-26.965	Yaw:	-3.200	Thrust:	100.000
Time:	5.123	Roll Set Point:	-0.040	Pitch Set Point:	1.811	Yaw Set Point:	0.017	X_WP:	0.000	Y_WP:	0.000	Y_WP:	0.750	X:	0.012	Y:	-0.906	Z:	0.403	yaw:	-0.993	yaw rate:	1.048	Roll:	1.326	Pitch:	-27.063	Yaw:	-3.435	Thrust:	100.000
Time:	5.143	Roll Set Point:	-0.040	Pitch Set Point:	1.811	Yaw Set Point:	0.017	X_WP:	0.000	Y_WP:	0.000	Y_WP:	0.750	X:	0.012	Y:	-0.906	Z:	0.403	yaw:	-0.979	yaw rate:	-1.349	Roll:	0.954	Pitch:	-26.970	Yaw:	-2.843	Thrust:	100.000
Time:	5.162	Roll Set Point:	-0.040	Pitch Set Point:	1.811	Yaw Set Point:	0.017	X_WP:	0.000	Y_WP:	0.000	Y_WP:	0.750	X:	0.012	Y:	-0.906	Z:	0.403	yaw:	-0.975	yaw rate:	-0.429	Roll:	1.091	Pitch:	-26.997	Yaw:	-2.909	Thrust:	100.000
Time:	5.182	Roll Set Point:	-0.040	Pitch Set Point:	1.811	Yaw Set Point:	0.017	X_WP:	0.000	Y_WP:	0.000	Y_WP:	0.750	X:	0.012	Y:	-0.906	Z:	0.403	yaw:	-0.975	yaw rate:	-0.060	Roll:	1.162	Pitch:	-26.995	Yaw:	-3.098	Thrust:	100.000
Time:	5.201	Roll Set Point:	-0.040	Pitch Set Point:	1.811	Yaw Set Point:	0.017	X_WP:	0.000	Y_WP:	0.000	Y_WP:	0.750	X:	0.012	Y:	-0.906	Z:	0.403	yaw:	-0.965	yaw rate:	-0.943	Roll:	1.022	Pitch:	-27.012	Yaw:	-2.935	Thrust:	100.000
Time:	5.221	Roll Set Point:	-0.040	Pitch Set Point:	1.811	Yaw Set Point:	0.017	X_WP:	0.000	Y_WP:	0.000	Y_WP:	0.750	X:	0.012	Y:	-0.906	Z:	0.403	yaw:	-0.959	yaw rate:	-0.654	Roll:	1.069	Pitch:	-27.019	Yaw:	-3.051	Thrust:	100.000
Time:	5.241	Roll Set Point:	-0.040	Pitch Set Point:	1.811	Yaw Set Point:	0.017	X_WP:	0.000	Y_WP:	0.000	Y_WP:	0.750	X:	0.012	Y:	-0.906	Z:	0.403	yaw:	-0.971	yaw rate:	1.253	Roll:	1.307	Pitch:	-26.947	Yaw:	-3.250	Thrust:	100.000
Time:	5.262	Roll Set Point:	-0.040	Pitch Set Point:	1.811	Yaw Set Point:	0.017	X_WP:	0.000	Y_WP:	0.000	Y_WP:	0.750	X:	0.012	Y:	-0.906	Z:	0.403	yaw:	-0.946	yaw rate:	-2.466	Roll:	0.852	Pitch:	-27.062	Yaw:	-2.777	Thrust:	100.000
Time:	5.282	Roll Set Point:	-0.040	Pitch Set Point:	1.811	Yaw Set Point:	0.017	X_WP:	0.000	Y_WP:	0.000	Y_WP:	0.750	X:	0.012	Y:	-0.906	Z:	0.403	yaw:	-0.987	yaw rate:	4.008	Roll:	1.718	Pitch:	-26.986	Yaw:	-3.675	Thrust:	100.000
Time:	5.301	Roll Set Point:	-0.040	Pitch Set Point:	1.811	Yaw Set Point:	0.017	X_WP:	0.000	Y_WP:	0.000	Y_WP:	0.750	X:	0.012	Y:	-0.906	Z:	0.403	yaw:	-0.981	yaw rate:	-0.538	Roll:	1.109	Pitch:	-27.017	Yaw:	-3.069	Thrust:	100.000
Time:	5.322	Roll Set Point:	-0.040	Pitch Set Point:	1.811	Yaw Set Point:	0.016	X_WP:	0.000	Y_WP:	0.000	Y_WP:	0.750	X:	0.012	Y:	-0.906	Z:	0.403	yaw:	-0.941	yaw rate:	-3.978	Roll:	0.592	Pitch:	-27.014	Yaw:	-2.600	Thrust:	100.000
