Time:	0.031	Roll Set Point:	-0.063	Pitch Set Point:	-0.036	Yaw Set Point:	-0.008	X_WP:	0.000	Y_WP:	0.000	Y_WP:	-0.100	X:	0.031	Y:	0.018	Z:	0.048	yaw:	0.464	yaw rate:	1.994	Roll:	0.783	Pitch:	0.442	Yaw:	0.648	Thrust:	0.000
Time:	0.042	Roll Set Point:	-0.063	Pitch Set Point:	-0.036	Yaw Set Point:	-0.008	X_WP:	0.000	Y_WP:	0.000	Y_WP:	-0.100	X:	0.031	Y:	0.018	Z:	0.048	yaw:	0.454	yaw rate:	0.966	Roll:	0.789	Pitch:	0.442	Yaw:	0.417	Thrust:	0.000
Time:	0.053	Roll Set Point:	-0.063	Pitch Set Point:	-0.036	Yaw Set Point:	-0.008	X_WP:	0.000	Y_WP:	0.000	Y_WP:	-0.100	X:	0.031	Y:	0.018	Z:	0.048	yaw:	0.464	yaw rate:	-0.933	Roll:	0.781	Pitch:	0.447	Yaw:	0.883	Thrust:	0.000
Time:	0.064	Roll Set Point:	-0.062	Pitch Set Point:	-0.036	Yaw Set Point:	-0.008	X_WP:	0.000	Y_WP:	0.000	Y_WP:	-0.100	X:	0.031	Y:	0.018	Z:	0.048	yaw:	0.433	yaw rate:	3.104	Roll:	0.766	Pitch:	0.460	Yaw:	-0.122	Thrust:	0.000
Time:	0.079	Roll Set Point:	-0.062	Pitch Set Point:	-0.036	Yaw Set Point:	-0.007	X_WP:	0.000	Y_WP:	0.000	Y_WP:	-0.100	X:	0.031	Y:	0.018	Z:	0.048	yaw:	0.424	yaw rate:	0.916	Roll:	0.788	Pitch:	0.434	Yaw:	0.436	Thrust:	0.000
Time:	0.092	Roll Set Point:	-0.063	Pitch Set Point:	-0.036	Yaw Set Point:	-0.008	X_WP:	0.000	Y_WP:	0.000	Y_WP:	-0.100	X:	0.031	Y:	0.018	Z:	0.048	yaw:	0.479	yaw rate:	-5.508	Roll:	0.794	Pitch:	0.428	Yaw:	1.703	Thrust:	0.000
Time:	0.104	Roll Set Point:	-0.063	Pitch Set Point:	-0.036	Yaw Set Point:	-0.008	X_WP:	0.000	Y_WP:	0.000	Y_WP:	-0.100	X:	0.031	Y:	0.018	Z:	0.048	yaw:	0.483	yaw rate:	-0.445	Roll:	0.781	Pitch:	0.451	Yaw:	0.787	Thrust:	0.000
Time:	0.115	Roll Set Point:	-0.062	Pitch Set Point:	-0.036	Yaw Set Point:	-0.008	X_WP:	0.000	Y_WP:	0.000	Y_WP:	-0.100	X:	0.031	Y:	0.018	Z:	0.048	yaw:	0.459	yaw rate:	2.437	Roll:	0.776	Pitch:	0.445	Yaw:	0.074	Thrust:	0.000
Time:	0.125	Roll Set Point:	-0.062	Pitch Set Point:	-0.036	Yaw Set Point:	-0.008	X_WP:	0.000	Y_WP:	0.000	Y_WP:	-0.100	X:	0.031	Y:	0.018	Z:	0.048	yaw:	0.439	yaw rate:	-0.985	Roll:	0.782	Pitch:	0.464	Yaw:	0.133	Thrust:	0.000
Time:	0.139	Roll Set Point:	-0.062	Pitch Set Point:	-0.036	Yaw Set Point:	-0.008	X_WP:	0.000	Y_WP:	0.000	Y_WP:	-0.100	X:	0.031	Y:	0.018	Z:	0.048	yaw:	0.465	yaw rate:	-2.655	Roll:	0.785	Pitch:	0.431	Yaw:	1.182	Thrust:	0.000
Time:	0.156	Roll Set Point:	-0.063	Pitch Set Point:	-0.036	Yaw Set Point:	-0.008	X_WP:	0.000	Y_WP:	0.000	Y_WP:	-0.100	X:	0.031	Y:	0.018	Z:	0.048	yaw:	0.475	yaw rate:	-1.000	Roll:	0.788	Pitch:	0.441	Yaw:	0.849	Thrust:	0.000
Time:	0.166	Roll Set Point:	-0.063	Pitch Set Point:	-0.036	Yaw Set Point:	-0.008	X_WP:	0.000	Y_WP:	0.000	Y_WP:	-0.100	X:	0.031	Y:	0.018	Z:	0.048	yaw:	0.469	yaw rate:	0.650	Roll:	0.788	Pitch:	0.437	Yaw:	0.511	Thrust:	0.000
Time:	0.176	Roll Set Point:	-0.063	Pitch Set Point:	-0.036	Yaw Set Point:	-0.008	X_WP:	0.000	Y_WP:	0.000	Y_WP:	-0.100	X:	0.031	Y:	0.018	Z:	0.048	yaw:	0.480	yaw rate:	-1.090	Roll:	0.787	Pitch:	0.449	Yaw:	0.967	Thrust:	0.000
Time:	0.188	Roll Set Point:	-0.063	Pitch Set Point:	-0.036	Yaw Set Point:	-0.008	X_WP:	0.000	Y_WP:	0.000	Y_WP:	-0.100	X:	0.031	Y:	0.018	Z:	0.048	yaw:	0.452	yaw rate:	2.823	Roll:	0.791	Pitch:	0.449	Yaw:	-0.003	Thrust:	0.000
Time:	0.200	Roll Set Point:	-0.063	Pitch Set Point:	-0.036	Yaw Set Point:	-0.008	X_WP:	0.000	Y_WP:	0.000	Y_WP:	-0.100	X:	0.031	Y:	0.018	Z:	0.048	yaw:	0.469	yaw rate:	-1.779	Roll:	0.783	Pitch:	0.433	Yaw:	1.072	Thrust:	0.000
Time:	0.219	Roll Set Point:	-0.062	Pitch Set Point:	-0.036	Yaw Set Point:	-0.008	X_WP:	0.000	Y_WP:	0.000	Y_WP:	-0.100	X:	0.031	Y:	0.018	Z:	0.048	yaw:	0.437	yaw rate:	3.226	Roll:	0.777	Pitch:	0.451	Yaw:	0.187	Thrust:	0.000
Time:	0.230	Roll Set Point:	-0.062	Pitch Set Point:	-0.036	Yaw Set Point:	-0.008	X_WP:	0.000	Y_WP:	0.000	Y_WP:	-0.100	X:	0.031	Y:	0.018	Z:	0.048	yaw:	0.449	yaw rate:	-1.204	Roll:	0.785	Pitch:	0.443	Yaw:	0.919	Thrust:	0.000
Time:	0.240	Roll Set Point:	-0.062	Pitch Set Point:	-0.036	Yaw Set Point:	-0.008	X_WP:	0.000	Y_WP:	0.000	Y_WP:	-0.100	X:	0.031	Y:	0.018	Z:	0.048	yaw:	0.464	yaw rate:	-1.470	Roll:	0.778	Pitch:	0.438	Yaw:	1.042	Thrust:	0.000
Time:	0.251	Roll Set Point:	-0.062	Pitch Set Point:	-0.036	Yaw Set Point:	-0.008	X_WP:	0.000	Y_WP:	0.000	Y_WP:	-0.100	X:	0.031	Y:	0.018	Z:	0.048	yaw:	0.467	yaw rate:	-0.343	Roll:	0.792	Pitch:	0.427	Yaw:	0.768	Thrust:	0.000
Time:	0.262	Roll Set Point:	-0.063	Pitch Set Point:	-0.036	Yaw Set Point:	-0.008	X_WP:	0.000	Y_WP:	0.000	Y_WP:	-0.100	X:	0.031	Y:	0.018	Z:	0.048	yaw:	0.467	yaw rate:	0.021	Roll:	0.796	Pitch:	0.454	Yaw:	0.679	Thrust:	0.000
Time:	0.279	Roll Set Point:	-0.063	Pitch Set Point:	-0.036	Yaw Set Point:	-0.008	X_WP:	0.000	Y_WP:	0.000	Y_WP:	-0.100	X:	0.031	Y:	0.018	Z:	0.048	yaw:	0.436	yaw rate:	3.066	Roll:	0.778	Pitch:	0.454	Yaw:	0.174	Thrust:	0.000
Time:	0.291	Roll Set Point:	-0.062	Pitch Set Point:	-0.036	Yaw Set Point:	-0.008	X_WP:	0.000	Y_WP:	0.000	Y_WP:	-0.100	X:	0.031	Y:	0.018	Z:	0.048	yaw:	0.435	yaw rate:	0.420	Roll:	0.782	Pitch:	0.444	Yaw:	0.627	Thrust:	0.000
Time:	0.302	Roll Set Point:	-0.062	Pitch Set Point:	-0.036	Yaw Set Point:	-0.008	X_WP:	0.000	Y_WP:	0.000	Y_WP:	-0.100	X:	0.031	Y:	0.018	Z:	0.048	yaw:	0.456	yaw rate:	-2.106	Roll:	0.786	Pitch:	0.424	Yaw:	1.177	Thrust:	0.000
Time:	0.313	Roll Set Point:	-0.063	Pitch Set Point:	-0.036	Yaw Set Point:	-0.008	X_WP:	0.000	Y_WP:	0.000	Y_WP:	-0.100	X:	0.031	Y:	0.018	Z:	0.048	yaw:	0.466	yaw rate:	-0.962	Roll:	0.809	Pitch:	0.446	Yaw:	0.927	Thrust:	0.000
Time:	0.324	Roll Set Point:	-0.063	Pitch Set Point:	-0.036	Yaw Set Point:	-0.008	X_WP:	0.000	Y_WP:	0.000	Y_WP:	-0.100	X:	0.031	Y:	0.018	Z:	0.048	yaw:	0.455	yaw rate:	1.063	Roll:	0.771	Pitch:	0.445	Yaw:	0.429	Thrust:	0.000
Time:	0.335	Roll Set Point:	-0.063	Pitch Set Point:	-0.036	Yaw Set Point:	-0.008	X_WP:	0.000	Y_WP:	0.000	Y_WP:	-0.100	X:	0.031	Y:	0.018	Z:	0.048	yaw:	0.437	yaw rate:	1.841	Roll:	0.789	Pitch:	0.456	Yaw:	0.238	Thrust:	0.000
Time:	0.355	Roll Set Point:	-0.063	Pitch Set Point:	-0.036	Yaw Set Point:	-0.008	X_WP:	0.000	Y_WP:	0.000	Y_WP:	-0.100	X:	0.031	Y:	0.018	Z:	0.048	yaw:	0.432	yaw rate:	0.464	Roll:	0.785	Pitch:	0.446	Yaw:	0.626	Thrust:	0.000
Time:	0.366	Roll Set Point:	-0.063	Pitch Set Point:	-0.036	Yaw Set Point:	-0.008	X_WP:	0.000	Y_WP:	0.000	Y_WP:	-0.100	X:	0.031	Y:	0.018	Z:	0.048	yaw:	0.477	yaw rate:	-2.503	Roll:	0.799	Pitch:	0.432	Yaw:	1.771	Thrust:	0.000
Time:	0.377	Roll Set Point:	-0.062	Pitch Set Point:	-0.036	Yaw Set Point:	-0.008	X_WP:	0.000	Y_WP:	0.000	Y_WP:	-0.100	X:	0.031	Y:	0.018	Z:	0.048	yaw:	0.461	yaw rate:	1.537	Roll:	0.771	Pitch:	0.445	Yaw:	0.324	Thrust:	0.000
Time:	0.388	Roll Set Point:	-0.063	Pitch Set Point:	-0.036	Yaw Set Point:	-0.008	X_WP:	0.000	Y_WP:	0.000	Y_WP:	-0.100	X:	0.031	Y:	0.018	Z:	0.048	yaw:	0.473	yaw rate:	-1.196	Roll:	0.789	Pitch:	0.434	Yaw:	0.997	Thrust:	0.000
Time:	0.402	Roll Set Point:	-0.062	Pitch Set Point:	-0.036	Yaw Set Point:	-0.008	X_WP:	0.000	Y_WP:	0.000	Y_WP:	-0.100	X:	0.031	Y:	0.018	Z:	0.048	yaw:	0.433	yaw rate:	3.991	Roll:	0.781	Pitch:	0.466	Yaw:	-0.103	Thrust:	0.000
Time:	0.423	Roll Set Point:	-0.062	Pitch Set Point:	-0.036	Yaw Set Point:	-0.008	X_WP:	0.000	Y_WP:	0.000	Y_WP:	-0.100	X:	0.031	Y:	0.018	Z:	0.048	yaw:	0.441	yaw rate:	-0.707	Roll:	0.782	Pitch:	0.439	Yaw:	0.807	Thrust:	0.000
Time:	0.435	Roll Set Point:	-0.063	Pitch Set Point:	-0.036	Yaw Set Point:	-0.008	X_WP:	0.000	Y_WP:	0.000	Y_WP:	-0.100	X:	0.031	Y:	0.018	Z:	0.048	yaw:	0.466	yaw rate:	-3.301	Roll:	0.812	Pitch:	0.448	Yaw:	1.272	Thrust:	0.000
Time:	0.446	Roll Set Point:	-0.062	Pitch Set Point:	-0.036	Yaw Set Point:	-0.008	X_WP:	0.000	Y_WP:	0.000	Y_WP:	-0.100	X:	0.031	Y:	0.018	Z:	0.048	yaw:	0.463	yaw rate:	0.238	Roll:	0.771	Pitch:	0.434	Yaw:	0.653	Thrust:	0.000
Time:	0.456	Roll Set Point:	-0.062	Pitch Set Point:	-0.036	Yaw Set Point:	-0.008	X_WP:	0.000	Y_WP:	0.000	Y_WP:	-0.100	X:	0.031	Y:	0.018	Z:	0.048	yaw:	0.446	yaw rate:	1.726	Roll:	0.780	Pitch:	0.444	Yaw:	0.226	Thrust:	0.000
Time:	0.468	Roll Set Point:	-0.062	Pitch Set Point:	-0.036	Yaw Set Point:	-0.008	X_WP:	0.000	Y_WP:	0.000	Y_WP:	-0.100	X:	0.031	Y:	0.018	Z:	0.048	yaw:	0.463	yaw rate:	-1.714	Roll:	0.784	Pitch:	0.457	Yaw:	1.099	Thrust:	0.000
Time:	0.488	Roll Set Point:	-0.062	Pitch Set Point:	-0.036	Yaw Set Point:	-0.008	X_WP:	0.000	Y_WP:	0.000	Y_WP:	-0.100	X:	0.031	Y:	0.018	Z:	0.048	yaw:	0.476	yaw rate:	-1.236	Roll:	0.792	Pitch:	0.436	Yaw:	0.939	Thrust:	0.000
Time:	0.500	Roll Set Point:	-0.062	Pitch Set Point:	-0.036	Yaw Set Point:	-0.008	X_WP:	0.000	Y_WP:	0.000	Y_WP:	-0.100	X:	0.031	Y:	0.018	Z:	0.048	yaw:	0.455	yaw rate:	2.010	Roll:	0.782	Pitch:	0.447	Yaw:	0.242	Thrust:	0.000
Time:	0.511	Roll Set Point:	-0.062	Pitch Set Point:	-0.036	Yaw Set Point:	-0.008	X_WP:	0.000	Y_WP:	0.000	Y_WP:	-0.100	X:	0.031	Y:	0.018	Z:	0.048	yaw:	0.442	yaw rate:	1.356	Roll:	0.786	Pitch:	0.464	Yaw:	0.355	Thrust:	0.000
Time:	0.522	Roll Set Point:	-0.062	Pitch Set Point:	-0.036	Yaw Set Point:	-0.008	X_WP:	0.000	Y_WP:	0.000	Y_WP:	-0.100	X:	0.031	Y:	0.018	Z:	0.048	yaw:	0.457	yaw rate:	-1.468	Roll:	0.797	Pitch:	0.434	Yaw:	1.051	Thrust:	0.000
Time:	0.533	Roll Set Point:	-0.062	Pitch Set Point:	-0.036	Yaw Set Point:	-0.008	X_WP:	0.000	Y_WP:	0.000	Y_WP:	-0.100	X:	0.031	Y:	0.018	Z:	0.048	yaw:	0.453	yaw rate:	0.331	Roll:	0.775	Pitch:	0.442	Yaw:	0.625	Thrust:	0.000
Time:	0.553	Roll Set Point:	-0.063	Pitch Set Point:	-0.036	Yaw Set Point:	-0.008	X_WP:	0.000	Y_WP:	0.000	Y_WP:	-0.100	X:	0.031	Y:	0.018	Z:	0.048	yaw:	0.435	yaw rate:	1.862	Roll:	0.797	Pitch:	0.449	Yaw:	0.485	Thrust:	0.000
Time:	0.565	Roll Set Point:	-0.063	Pitch Set Point:	-0.036	Yaw Set Point:	-0.008	X_WP:	0.000	Y_WP:	0.000	Y_WP:	-0.100	X:	0.031	Y:	0.018	Z:	0.048	yaw:	0.466	yaw rate:	1.738	Roll:	0.790	Pitch:	0.444	Yaw:	1.400	Thrust:	0.000
Time:	0.576	Roll Set Point:	-0.062	Pitch Set Point:	-0.036	Yaw Set Point:	-0.008	X_WP:	0.000	Y_WP:	0.000	Y_WP:	-0.100	X:	0.031	Y:	0.018	Z:	0.048	yaw:	0.438	yaw rate:	2.767	Roll:	0.774	Pitch:	0.443	Yaw:	0.037	Thrust:	0.000
Time:	0.587	Roll Set Point:	-0.062	Pitch Set Point:	-0.036	Yaw Set Point:	-0.008	X_WP:	0.000	Y_WP:	0.000	Y_WP:	-0.100	X:	0.031	Y:	0.018	Z:	0.048	yaw:	0.449	yaw rate:	-1.098	Roll:	0.784	Pitch:	0.435	Yaw:	0.963	Thrust:	0.000
Time:	0.599	Roll Set Point:	-0.062	Pitch Set Point:	-0.036	Yaw Set Point:	-0.008	X_WP:	0.000	Y_WP:	0.000	Y_WP:	-0.100	X:	0.031	Y:	0.018	Z:	0.048	yaw:	0.443	yaw rate:	0.556	Roll:	0.786	Pitch:	0.458	Yaw:	0.566	Thrust:	0.000
Time:	0.616	Roll Set Point:	-0.062	Pitch Set Point:	-0.036	Yaw Set Point:	-0.007	X_WP:	0.000	Y_WP:	0.000	Y_WP:	-0.100	X:	0.031	Y:	0.018	Z:	0.048	yaw:	0.424	yaw rate:	1.971	Roll:	0.794	Pitch:	0.450	Yaw:	0.272	Thrust:	0.000
Time:	0.629	Roll Set Point:	-0.063	Pitch Set Point:	-0.036	Yaw Set Point:	-0.007	X_WP:	0.000	Y_WP:	0.000	Y_WP:	-0.100	X:	0.031	Y:	0.018	Z:	0.048	yaw:	0.429	yaw rate:	-0.571	Roll:	0.794	Pitch:	0.449	Yaw:	0.820	Thrust:	0.000
Time:	0.640	Roll Set Point:	-0.062	Pitch Set Point:	-0.036	Yaw Set Point:	-0.008	X_WP:	0.000	Y_WP:	0.000	Y_WP:	-0.100	X:	0.031	Y:	0.018	Z:	0.048	yaw:	0.461	yaw rate:	-3.200	Roll:	0.778	Pitch:	0.426	Yaw:	1.519	Thrust:	0.000
Time:	0.651	Roll Set Point:	-0.062	Pitch Set Point:	-0.036	Yaw Set Point:	-0.008	X_WP:	0.000	Y_WP:	0.000	Y_WP:	-0.100	X:	0.031	Y:	0.018	Z:	0.048	yaw:	0.470	yaw rate:	-0.834	Roll:	0.791	Pitch:	0.450	Yaw:	0.945	Thrust:	0.000
Time:	0.662	Roll Set Point:	-0.063	Pitch Set Point:	-0.036	Yaw Set Point:	-0.008	X_WP:	0.000	Y_WP:	0.000	Y_WP:	-0.100	X:	0.031	Y:	0.018	Z:	0.048	yaw:	0.455	yaw rate:	1.428	Roll:	0.795	Pitch:	0.448	Yaw:	0.405	Thrust:	0.000
Time:	0.674	Roll Set Point:	-0.063	Pitch Set Point:	-0.036	Yaw Set Point:	-0.008	X_WP:	0.000	Y_WP:	0.000	Y_WP:	-0.100	X:	0.031	Y:	0.018	Z:	0.048	yaw:	0.442	yaw rate:	1.320	Roll:	0.788	Pitch:	0.452	Yaw:	0.412	Thrust:	0.000
Time:	0.689	Roll Set Point:	-0.062	Pitch Set Point:	-0.036	Yaw Set Point:	-0.008	X_WP:	0.000	Y_WP:	0.000	Y_WP:	-0.100	X:	0.031	Y:	0.018	Z:	0.048	yaw:	0.449	yaw rate:	-0.636	Roll:	0.782	Pitch:	0.443	Yaw:	0.861	Thrust:	0.000
Time:	0.699	Roll Set Point:	-0.063	Pitch Set Point:	-0.036	Yaw Set Point:	-0.007	X_WP:	0.000	Y_WP:	0.000	Y_WP:	-0.100	X:	0.031	Y:	0.018	Z:	0.048	yaw:	0.414	yaw rate:	3.175	Roll:	0.794	Pitch:	0.453	Yaw:	-0.161	Thrust:	0.000
Time:	0.710	Roll Set Point:	-0.062	Pitch Set Point:	-0.036	Yaw Set Point:	-0.008	X_WP:	0.000	Y_WP:	0.000	Y_WP:	-0.100	X:	0.031	Y:	0.018	Z:	0.048	yaw:	0.458	yaw rate:	-4.477	Roll:	0.788	Pitch:	0.423	Yaw:	1.828	Thrust:	0.000
Time:	0.720	Roll Set Point:	-0.063	Pitch Set Point:	-0.036	Yaw Set Point:	-0.008	X_WP:	0.000	Y_WP:	0.000	Y_WP:	-0.100	X:	0.031	Y:	0.018	Z:	0.048	yaw:	0.455	yaw rate:	0.345	Roll:	0.791	Pitch:	0.451	Yaw:	0.632	Thrust:	0.000
Time:	0.735	Roll Set Point:	-0.062	Pitch Set Point:	-0.036	Yaw Set Point:	-0.008	X_WP:	0.000	Y_WP:	0.000	Y_WP:	-0.100	X:	0.031	Y:	0.018	Z:	0.048	yaw:	0.442	yaw rate:	1.263	Roll:	0.786	Pitch:	0.457	Yaw:	0.519	Thrust:	0.000
Time:	0.755	Roll Set Point:	-0.062	Pitch Set Point:	-0.036	Yaw Set Point:	-0.008	X_WP:	0.000	Y_WP:	0.000	Y_WP:	-0.100	X:	0.031	Y:	0.018	Z:	0.048	yaw:	0.432	yaw rate:	1.004	Roll:	0.789	Pitch:	0.448	Yaw:	0.661	Thrust:	0.000
Time:	0.766	Roll Set Point:	-0.063	Pitch Set Point:	-0.036	Yaw Set Point:	-0.008	X_WP:	0.000	Y_WP:	0.000	Y_WP:	-0.100	X:	0.031	Y:	0.018	Z:	0.048	yaw:	0.464	yaw rate:	-3.274	Roll:	0.804	Pitch:	0.433	Yaw:	1.539	Thrust:	0.000
Time:	0.777	Roll Set Point:	-0.063	Pitch Set Point:	-0.036	Yaw Set Point:	-0.008	X_WP:	0.000	Y_WP:	0.000	Y_WP:	-0.100	X:	0.031	Y:	0.018	Z:	0.048	yaw:	0.473	yaw rate:	-0.914	Roll:	0.794	Pitch:	0.441	Yaw:	0.976	Thrust:	0.000
Time:	0.789	Roll Set Point:	-0.063	Pitch Set Point:	-0.036	Yaw Set Point:	-0.008	X_WP:	0.000	Y_WP:	0.000	Y_WP:	-0.100	X:	0.031	Y:	0.018	Z:	0.048	yaw:	0.484	yaw rate:	-1.092	Roll:	0.789	Pitch:	0.435	Yaw:	1.034	Thrust:	0.000
Time:	0.801	Roll Set Point:	-0.062	Pitch Set Point:	-0.036	Yaw Set Point:	-0.009	X_WP:	0.000	Y_WP:	0.000	Y_WP:	-0.100	X:	0.031	Y:	0.018	Z:	0.048	yaw:	0.491	yaw rate:	-0.642	Roll:	0.783	Pitch:	0.449	Yaw:	0.940	Thrust:	0.000
Time:	0.822	Roll Set Point:	-0.062	Pitch Set Point:	-0.036	Yaw Set Point:	-0.008	X_WP:	0.000	Y_WP:	0.000	Y_WP:	-0.100	X:	0.031	Y:	0.018	Z:	0.048	yaw:	0.440	yaw rate:	5.047	Roll:	0.790	Pitch:	0.461	Yaw:	0.196	Thrust:	0.000
Time:	0.833	Roll Set Point:	-0.063	Pitch Set Point:	-0.036	Yaw Set Point:	-0.008	X_WP:	0.000	Y_WP:	0.000	Y_WP:	-0.100	X:	0.031	Y:	0.018	Z:	0.048	yaw:	0.436	yaw rate:	2.269	Roll:	0.800	Pitch:	0.444	Yaw:	0.627	Thrust:	0.000
Time:	0.844	Roll Set Point:	-0.062	Pitch Set Point:	-0.036	Yaw Set Point:	-0.008	X_WP:	0.000	Y_WP:	0.000	Y_WP:	-0.100	X:	0.031	Y:	0.018	Z:	0.048	yaw:	0.449	yaw rate:	-1.244	Roll:	0.775	Pitch:	0.446	Yaw:	1.043	Thrust:	0.000
Time:	0.855	Roll Set Point:	-0.063	Pitch Set Point:	-0.036	Yaw Set Point:	-0.008	X_WP:	0.000	Y_WP:	0.000	Y_WP:	-0.100	X:	0.031	Y:	0.018	Z:	0.048	yaw:	0.464	yaw rate:	-1.494	Roll:	0.807	Pitch:	0.438	Yaw:	1.110	Thrust:	0.000
Time:	0.868	Roll Set Point:	-0.063	Pitch Set Point:	-0.036	Yaw Set Point:	-0.008	X_WP:	0.000	Y_WP:	0.000	Y_WP:	-0.100	X:	0.031	Y:	0.018	Z:	0.048	yaw:	0.465	yaw rate:	-0.182	Roll:	0.790	Pitch:	0.440	Yaw:	0.821	Thrust:	0.000
Time:	0.888	Roll Set Point:	-0.062	Pitch Set Point:	-0.036	Yaw Set Point:	-0.007	X_WP:	0.000	Y_WP:	0.000	Y_WP:	-0.100	X:	0.031	Y:	0.018	Z:	0.048	yaw:	0.418	yaw rate:	4.784	Roll:	0.784	Pitch:	0.457	Yaw:	0.181	Thrust:	0.000
Time:	0.899	Roll Set Point:	-0.062	Pitch Set Point:	-0.036	Yaw Set Point:	-0.008	X_WP:	0.000	Y_WP:	0.000	Y_WP:	-0.100	X:	0.031	Y:	0.018	Z:	0.048	yaw:	0.447	yaw rate:	1.761	Roll:	0.794	Pitch:	0.443	Yaw:	1.478	Thrust:	0.000
Time:	0.910	Roll Set Point:	-0.062	Pitch Set Point:	-0.036	Yaw Set Point:	-0.008	X_WP:	0.000	Y_WP:	0.000	Y_WP:	-0.100	X:	0.031	Y:	0.018	Z:	0.048	yaw:	0.448	yaw rate:	-0.016	Roll:	0.787	Pitch:	0.449	Yaw:	0.755	Thrust:	0.000
Time:	0.921	Roll Set Point:	-0.063	Pitch Set Point:	-0.036	Yaw Set Point:	-0.008	X_WP:	0.000	Y_WP:	0.000	Y_WP:	-0.100	X:	0.031	Y:	0.018	Z:	0.048	yaw:	0.485	yaw rate:	-3.763	Roll:	0.815	Pitch:	0.433	Yaw:	1.707	Thrust:	0.000
Time:	0.935	Roll Set Point:	-0.063	Pitch Set Point:	-0.036	Yaw Set Point:	-0.008	X_WP:	0.000	Y_WP:	0.000	Y_WP:	-0.100	X:	0.031	Y:	0.018	Z:	0.048	yaw:	0.470	yaw rate:	1.531	Roll:	0.782	Pitch:	0.455	Yaw:	0.495	Thrust:	0.000
Time:	0.955	Roll Set Point:	-0.063	Pitch Set Point:	-0.036	Yaw Set Point:	-0.008	X_WP:	0.000	Y_WP:	0.000	Y_WP:	-0.100	X:	0.031	Y:	0.018	Z:	0.048	yaw:	0.450	yaw rate:	1.982	Roll:	0.793	Pitch:	0.451	Yaw:	0.611	Thrust:	0.000
Time:	0.965	Roll Set Point:	-0.063	Pitch Set Point:	-0.036	Yaw Set Point:	-0.007	X_WP:	0.000	Y_WP:	0.000	Y_WP:	-0.100	X:	0.031	Y:	0.018	Z:	0.048	yaw:	0.424	yaw rate:	7.565	Roll:	0.790	Pitch:	0.462	Yaw:	0.081	Thrust:	0.000
Time:	0.975	Roll Set Point:	-0.063	Pitch Set Point:	-0.036	Yaw Set Point:	-0.008	X_WP:	0.000	Y_WP:	0.000	Y_WP:	-0.100	X:	0.031	Y:	0.018	Z:	0.048	yaw:	0.477	yaw rate:	-5.275	Roll:	0.793	Pitch:	0.418	Yaw:	2.160	Thrust:	0.000
Time:	0.986	Roll Set Point:	-0.063	Pitch Set Point:	-0.036	Yaw Set Point:	-0.008	X_WP:	0.000	Y_WP:	0.000	Y_WP:	-0.100	X:	0.031	Y:	0.018	Z:	0.048	yaw:	0.450	yaw rate:	2.675	Roll:	0.786	Pitch:	0.458	Yaw:	0.127	Thrust:	0.000
Time:	0.998	Roll Set Point:	-0.063	Pitch Set Point:	-0.036	Yaw Set Point:	-0.008	X_WP:	0.000	Y_WP:	0.000	Y_WP:	-0.100	X:	0.031	Y:	0.018	Z:	0.048	yaw:	0.458	yaw rate:	-0.733	Roll:	0.794	Pitch:	0.439	Yaw:	0.944	Thrust:	0.000
Time:	1.021	Roll Set Point:	-0.063	Pitch Set Point:	-0.036	Yaw Set Point:	-0.008	X_WP:	0.000	Y_WP:	0.000	Y_WP:	-0.100	X:	0.031	Y:	0.018	Z:	0.048	yaw:	0.458	yaw rate:	-0.031	Roll:	0.790	Pitch:	0.453	Yaw:	0.919	Thrust:	0.000
Time:	1.031	Roll Set Point:	-0.062	Pitch Set Point:	-0.036	Yaw Set Point:	-0.008	X_WP:	0.000	Y_WP:	0.000	Y_WP:	-0.100	X:	0.031	Y:	0.018	Z:	0.048	yaw:	0.457	yaw rate:	0.107	Roll:	0.797	Pitch:	0.452	Yaw:	0.742	Thrust:	0.000
Time:	1.043	Roll Set Point:	-0.063	Pitch Set Point:	-0.036	Yaw Set Point:	-0.008	X_WP:	0.000	Y_WP:	0.000	Y_WP:	-0.100	X:	0.031	Y:	0.018	Z:	0.048	yaw:	0.463	yaw rate:	-0.577	Roll:	0.803	Pitch:	0.435	Yaw:	0.922	Thrust:	0.000
Time:	1.054	Roll Set Point:	-0.063	Pitch Set Point:	-0.036	Yaw Set Point:	-0.008	X_WP:	0.000	Y_WP:	0.000	Y_WP:	-0.100	X:	0.031	Y:	0.018	Z:	0.048	yaw:	0.443	yaw rate:	2.020	Roll:	0.778	Pitch:	0.460	Yaw:	0.266	Thrust:	0.000
Time:	1.068	Roll Set Point:	-0.063	Pitch Set Point:	-0.036	Yaw Set Point:	-0.008	X_WP:	0.000	Y_WP:	0.000	Y_WP:	-0.100	X:	0.031	Y:	0.018	Z:	0.048	yaw:	0.465	yaw rate:	-2.193	Roll:	0.795	Pitch:	0.442	Yaw:	1.238	Thrust:	0.000
Time:	1.088	Roll Set Point:	-0.063	Pitch Set Point:	-0.036	Yaw Set Point:	-0.008	X_WP:	0.000	Y_WP:	0.000	Y_WP:	-0.100	X:	0.031	Y:	0.018	Z:	0.048	yaw:	0.459	yaw rate:	0.569	Roll:	0.799	Pitch:	0.447	Yaw:	0.829	Thrust:	0.000
Time:	1.099	Roll Set Point:	-0.062	Pitch Set Point:	-0.036	Yaw Set Point:	-0.008	X_WP:	0.000	Y_WP:	0.000	Y_WP:	-0.100	X:	0.031	Y:	0.018	Z:	0.048	yaw:	0.448	yaw rate:	0.354	Roll:	0.786	Pitch:	0.458	Yaw:	0.494	Thrust:	0.000
Time:	1.109	Roll Set Point:	-0.062	Pitch Set Point:	-0.036	Yaw Set Point:	-0.007	X_WP:	0.000	Y_WP:	0.000	Y_WP:	-0.100	X:	0.031	Y:	0.018	Z:	0.048	yaw:	0.420	yaw rate:	2.837	Roll:	0.784	Pitch:	0.458	Yaw:	0.029	Thrust:	0.000
Time:	1.120	Roll Set Point:	-0.062	Pitch Set Point:	-0.036	Yaw Set Point:	-0.008	X_WP:	0.000	Y_WP:	0.000	Y_WP:	-0.100	X:	0.031	Y:	0.018	Z:	0.048	yaw:	0.450	yaw rate:	-2.988	Roll:	0.796	Pitch:	0.441	Yaw:	1.526	Thrust:	0.000
Time:	1.132	Roll Set Point:	-0.063	Pitch Set Point:	-0.036	Yaw Set Point:	-0.008	X_WP:	0.000	Y_WP:	0.000	Y_WP:	-0.100	X:	0.031	Y:	0.018	Z:	0.048	yaw:	0.434	yaw rate:	1.562	Roll:	0.798	Pitch:	0.456	Yaw:	0.430	Thrust:	0.000
Time:	1.153	Roll Set Point:	-0.063	Pitch Set Point:	-0.036	Yaw Set Point:	-0.008	X_WP:	0.000	Y_WP:	0.000	Y_WP:	-0.100	X:	0.031	Y:	0.018	Z:	0.048	yaw:	0.470	yaw rate:	-3.564	Roll:	0.795	Pitch:	0.438	Yaw:	1.401	Thrust:	0.000
Time:	1.166	Roll Set Point:	-0.062	Pitch Set Point:	-0.036	Yaw Set Point:	-0.008	X_WP:	0.000	Y_WP:	0.000	Y_WP:	-0.100	X:	0.031	Y:	0.018	Z:	0.048	yaw:	0.465	yaw rate:	0.597	Roll:	0.797	Pitch:	0.453	Yaw:	0.745	Thrust:	0.000
Time:	1.177	Roll Set Point:	-0.062	Pitch Set Point:	-0.036	Yaw Set Point:	-0.008	X_WP:	0.000	Y_WP:	0.000	Y_WP:	-0.100	X:	0.031	Y:	0.018	Z:	0.048	yaw:	0.464	yaw rate:	0.090	Roll:	0.792	Pitch:	0.447	Yaw:	0.798	Thrust:	0.000
Time:	1.187	Roll Set Point:	-0.063	Pitch Set Point:	-0.036	Yaw Set Point:	-0.008	X_WP:	0.000	Y_WP:	0.000	Y_WP:	-0.100	X:	0.031	Y:	0.018	Z:	0.048	yaw:	0.467	yaw rate:	-0.361	Roll:	0.801	Pitch:	0.452	Yaw:	0.890	Thrust:	0.000
Time:	1.201	Roll Set Point:	-0.063	Pitch Set Point:	-0.036	Yaw Set Point:	-0.008	X_WP:	0.000	Y_WP:	0.000	Y_WP:	-0.100	X:	0.031	Y:	0.018	Z:	0.048	yaw:	0.483	yaw rate:	-1.561	Roll:	0.793	Pitch:	0.444	Yaw:	1.171	Thrust:	0.000
Time:	1.223	Roll Set Point:	-0.063	Pitch Set Point:	-0.036	Yaw Set Point:	-0.009	X_WP:	0.000	Y_WP:	0.000	Y_WP:	-0.100	X:	0.031	Y:	0.018	Z:	0.048	yaw:	0.499	yaw rate:	-1.580	Roll:	0.802	Pitch:	0.438	Yaw:	1.206	Thrust:	0.000
Time:	1.235	Roll Set Point:	-0.063	Pitch Set Point:	-0.036	Yaw Set Point:	-0.008	X_WP:	0.000	Y_WP:	0.000	Y_WP:	-0.100	X:	0.031	Y:	0.018	Z:	0.048	yaw:	0.461	yaw rate:	3.248	Roll:	0.788	Pitch:	0.473	Yaw:	-0.038	Thrust:	0.000
Time:	1.246	Roll Set Point:	-0.063	Pitch Set Point:	-0.036	Yaw Set Point:	-0.007	X_WP:	0.000	Y_WP:	0.000	Y_WP:	-0.100	X:	0.031	Y:	0.018	Z:	0.048	yaw:	0.424	yaw rate:	3.705	Roll:	0.794	Pitch:	0.467	Yaw:	-0.124	Thrust:	0.000
Time:	1.256	Roll Set Point:	-0.063	Pitch Set Point:	-0.036	Yaw Set Point:	-0.008	X_WP:	0.000	Y_WP:	0.000	Y_WP:	-0.100	X:	0.031	Y:	0.018	Z:	0.048	yaw:	0.435	yaw rate:	-1.109	Roll:	0.785	Pitch:	0.444	Yaw:	1.044	Thrust:	0.000
Time:	1.266	Roll Set Point:	-0.063	Pitch Set Point:	-0.036	Yaw Set Point:	-0.008	X_WP:	0.000	Y_WP:	0.000	Y_WP:	-0.100	X:	0.031	Y:	0.018	Z:	0.048	yaw:	0.466	yaw rate:	-3.020	Roll:	0.797	Pitch:	0.435	Yaw:	1.576	Thrust:	0.000
Time:	1.286	Roll Set Point:	-0.063	Pitch Set Point:	-0.036	Yaw Set Point:	-0.009	X_WP:	0.000	Y_WP:	0.000	Y_WP:	-0.100	X:	0.031	Y:	0.018	Z:	0.048	yaw:	0.506	yaw rate:	-3.997	Roll:	0.806	Pitch:	0.441	Yaw:	1.536	Thrust:	0.000
Time:	1.298	Roll Set Point:	-0.063	Pitch Set Point:	-0.036	Yaw Set Point:	-0.008	X_WP:	0.000	Y_WP:	0.000	Y_WP:	-0.100	X:	0.031	Y:	0.018	Z:	0.048	yaw:	0.446	yaw rate:	6.182	Roll:	0.786	Pitch:	0.468	Yaw:	-0.594	Thrust:	0.000
Time:	1.309	Roll Set Point:	-0.063	Pitch Set Point:	-0.036	Yaw Set Point:	-0.008	X_WP:	0.000	Y_WP:	0.000	Y_WP:	-0.100	X:	0.031	Y:	0.018	Z:	0.048	yaw:	0.446	yaw rate:	0.014	Roll:	0.808	Pitch:	0.444	Yaw:	0.799	Thrust:	0.000
Time:	1.320	Roll Set Point:	-0.062	Pitch Set Point:	-0.036	Yaw Set Point:	-0.007	X_WP:	0.000	Y_WP:	0.000	Y_WP:	-0.100	X:	0.031	Y:	0.018	Z:	0.048	yaw:	0.425	yaw rate:	2.075	Roll:	0.767	Pitch:	0.458	Yaw:	0.258	Thrust:	0.000
Time:	1.332	Roll Set Point:	-0.063	Pitch Set Point:	-0.036	Yaw Set Point:	-0.008	X_WP:	0.000	Y_WP:	0.000	Y_WP:	-0.100	X:	0.031	Y:	0.018	Z:	0.048	yaw:	0.466	yaw rate:	-4.137	Roll:	0.805	Pitch:	0.436	Yaw:	1.744	Thrust:	0.000
Time:	1.353	Roll Set Point:	-0.063	Pitch Set Point:	-0.036	Yaw Set Point:	-0.009	X_WP:	0.000	Y_WP:	0.000	Y_WP:	-0.100	X:	0.031	Y:	0.018	Z:	0.048	yaw:	0.501	yaw rate:	-3.432	Roll:	0.803	Pitch:	0.442	Yaw:	1.471	Thrust:	0.000
Time:	1.364	Roll Set Point:	-0.063	Pitch Set Point:	-0.036	Yaw Set Point:	-0.008	X_WP:	0.000	Y_WP:	0.000	Y_WP:	-0.100	X:	0.031	Y:	0.018	Z:	0.048	yaw:	0.486	yaw rate:	-0.373	Roll:	0.798	Pitch:	0.467	Yaw:	0.538	Thrust:	0.000
Time:	1.375	Roll Set Point:	-0.063	Pitch Set Point:	-0.036	Yaw Set Point:	-0.007	X_WP:	0.000	Y_WP:	0.000	Y_WP:	-0.100	X:	0.031	Y:	0.018	Z:	0.048	yaw:	0.428	yaw rate:	5.838	Roll:	0.776	Pitch:	0.462	Yaw:	-0.596	Thrust:	0.000
Time:	1.385	Roll Set Point:	-0.063	Pitch Set Point:	-0.036	Yaw Set Point:	-0.007	X_WP:	0.000	Y_WP:	0.000	Y_WP:	-0.100	X:	0.031	Y:	0.018	Z:	0.048	yaw:	0.423	yaw rate:	0.466	Roll:	0.808	Pitch:	0.454	Yaw:	0.650	Thrust:	0.000
Time:	1.397	Roll Set Point:	-0.063	Pitch Set Point:	-0.036	Yaw Set Point:	-0.008	X_WP:	0.000	Y_WP:	0.000	Y_WP:	-0.100	X:	0.031	Y:	0.018	Z:	0.048	yaw:	0.463	yaw rate:	-3.968	Roll:	0.797	Pitch:	0.430	Yaw:	1.713	Thrust:	0.000
Time:	1.421	Roll Set Point:	-0.062	Pitch Set Point:	-0.036	Yaw Set Point:	-0.008	X_WP:	0.000	Y_WP:	0.000	Y_WP:	-0.100	X:	0.031	Y:	0.018	Z:	0.048	yaw:	0.454	yaw rate:	0.823	Roll:	0.791	Pitch:	0.455	Yaw:	0.941	Thrust:	0.000
Time:	1.432	Roll Set Point:	-0.063	Pitch Set Point:	-0.036	Yaw Set Point:	-0.008	X_WP:	0.000	Y_WP:	0.000	Y_WP:	-0.100	X:	0.031	Y:	0.018	Z:	0.048	yaw:	0.462	yaw rate:	0.185	Roll:	0.811	Pitch:	0.450	Yaw:	1.021	Thrust:	0.000
Time:	1.443	Roll Set Point:	-0.062	Pitch Set Point:	-0.036	Yaw Set Point:	-0.008	X_WP:	0.000	Y_WP:	0.000	Y_WP:	-0.100	X:	0.031	Y:	0.018	Z:	0.048	yaw:	0.475	yaw rate:	-1.261	Roll:	0.781	Pitch:	0.429	Yaw:	1.158	Thrust:	0.000
Time:	1.453	Roll Set Point:	-0.063	Pitch Set Point:	-0.036	Yaw Set Point:	-0.008	X_WP:	0.000	Y_WP:	0.000	Y_WP:	-0.100	X:	0.031	Y:	0.018	Z:	0.048	yaw:	0.466	yaw rate:	0.897	Roll:	0.815	Pitch:	0.465	Yaw:	0.614	Thrust:	0.000
Time:	1.466	Roll Set Point:	-0.063	Pitch Set Point:	-0.036	Yaw Set Point:	-0.008	X_WP:	0.000	Y_WP:	0.000	Y_WP:	-0.100	X:	0.031	Y:	0.018	Z:	0.048	yaw:	0.448	yaw rate:	1.779	Roll:	0.781	Pitch:	0.449	Yaw:	0.451	Thrust:	0.000
Time:	1.488	Roll Set Point:	-0.063	Pitch Set Point:	-0.036	Yaw Set Point:	-0.008	X_WP:	0.000	Y_WP:	0.000	Y_WP:	-0.100	X:	0.031	Y:	0.018	Z:	0.048	yaw:	0.460	yaw rate:	-1.198	Roll:	0.792	Pitch:	0.449	Yaw:	1.174	Thrust:	0.000
Time:	1.498	Roll Set Point:	-0.062	Pitch Set Point:	-0.036	Yaw Set Point:	-0.008	X_WP:	0.000	Y_WP:	0.000	Y_WP:	-0.100	X:	0.031	Y:	0.018	Z:	0.048	yaw:	0.441	yaw rate:	-0.324	Roll:	0.802	Pitch:	0.455	Yaw:	0.371	Thrust:	0.000
Time:	1.510	Roll Set Point:	-0.063	Pitch Set Point:	-0.036	Yaw Set Point:	-0.008	X_WP:	0.000	Y_WP:	0.000	Y_WP:	-0.100	X:	0.031	Y:	0.018	Z:	0.048	yaw:	0.459	yaw rate:	-1.811	Roll:	0.804	Pitch:	0.453	Yaw:	1.261	Thrust:	0.000
Time:	1.521	Roll Set Point:	-0.063	Pitch Set Point:	-0.036	Yaw Set Point:	-0.008	X_WP:	0.000	Y_WP:	0.000	Y_WP:	-0.100	X:	0.031	Y:	0.018	Z:	0.048	yaw:	0.476	yaw rate:	-1.704	Roll:	0.795	Pitch:	0.438	Yaw:	1.275	Thrust:	0.000
Time:	1.535	Roll Set Point:	-0.063	Pitch Set Point:	-0.036	Yaw Set Point:	-0.008	X_WP:	0.000	Y_WP:	0.000	Y_WP:	-0.100	X:	0.031	Y:	0.018	Z:	0.048	yaw:	0.465	yaw rate:	1.093	Roll:	0.800	Pitch:	0.447	Yaw:	0.688	Thrust:	0.000
Time:	1.555	Roll Set Point:	-0.063	Pitch Set Point:	-0.036	Yaw Set Point:	-0.008	X_WP:	0.000	Y_WP:	0.000	Y_WP:	-0.100	X:	0.031	Y:	0.018	Z:	0.048	yaw:	0.456	yaw rate:	0.964	Roll:	0.807	Pitch:	0.466	Yaw:	0.896	Thrust:	0.000
Time:	1.566	Roll Set Point:	-0.063	Pitch Set Point:	-0.036	Yaw Set Point:	-0.008	X_WP:	0.000	Y_WP:	0.000	Y_WP:	-0.100	X:	0.031	Y:	0.018	Z:	0.048	yaw:	0.466	yaw rate:	1.369	Roll:	0.788	Pitch:	0.433	Yaw:	1.089	Thrust:	0.000
Time:	1.577	Roll Set Point:	-0.063	Pitch Set Point:	-0.036	Yaw Set Point:	-0.008	X_WP:	0.000	Y_WP:	0.000	Y_WP:	-0.100	X:	0.031	Y:	0.018	Z:	0.048	yaw:	0.477	yaw rate:	-1.152	Roll:	0.800	Pitch:	0.447	Yaw:	1.146	Thrust:	0.000
Time:	1.589	Roll Set Point:	-0.063	Pitch Set Point:	-0.036	Yaw Set Point:	-0.008	X_WP:	0.000	Y_WP:	0.000	Y_WP:	-0.100	X:	0.031	Y:	0.018	Z:	0.048	yaw:	0.467	yaw rate:	1.033	Roll:	0.790	Pitch:	0.461	Yaw:	0.641	Thrust:	0.000
Time:	1.600	Roll Set Point:	-0.063	Pitch Set Point:	-0.036	Yaw Set Point:	-0.008	X_WP:	0.000	Y_WP:	0.000	Y_WP:	-0.100	X:	0.031	Y:	0.018	Z:	0.048	yaw:	0.443	yaw rate:	2.363	Roll:	0.789	Pitch:	0.453	Yaw:	0.270	Thrust:	0.000
Time:	1.622	Roll Set Point:	-0.063	Pitch Set Point:	-0.036	Yaw Set Point:	-0.008	X_WP:	0.000	Y_WP:	0.000	Y_WP:	-0.100	X:	0.031	Y:	0.018	Z:	0.048	yaw:	0.473	yaw rate:	-3.029	Roll:	0.808	Pitch:	0.446	Yaw:	1.450	Thrust:	0.000
Time:	1.634	Roll Set Point:	-0.063	Pitch Set Point:	-0.036	Yaw Set Point:	-0.008	X_WP:	0.000	Y_WP:	0.000	Y_WP:	-0.100	X:	0.031	Y:	0.018	Z:	0.048	yaw:	0.443	yaw rate:	0.535	Roll:	0.794	Pitch:	0.475	Yaw:	0.174	Thrust:	0.000
Time:	1.645	Roll Set Point:	-0.063	Pitch Set Point:	-0.036	Yaw Set Point:	-0.009	X_WP:	0.000	Y_WP:	0.000	Y_WP:	-0.100	X:	0.031	Y:	0.018	Z:	0.048	yaw:	0.501	yaw rate:	-5.796	Roll:	0.806	Pitch:	0.431	Yaw:	2.321	Thrust:	0.000
Time:	1.656	Roll Set Point:	-0.063	Pitch Set Point:	-0.036	Yaw Set Point:	-0.008	X_WP:	0.000	Y_WP:	0.000	Y_WP:	-0.100	X:	0.031	Y:	0.018	Z:	0.048	yaw:	0.460	yaw rate:	4.054	Roll:	0.790	Pitch:	0.452	Yaw:	-0.182	Thrust:	0.000
Time:	1.668	Roll Set Point:	-0.063	Pitch Set Point:	-0.036	Yaw Set Point:	-0.008	X_WP:	0.000	Y_WP:	0.000	Y_WP:	-0.100	X:	0.031	Y:	0.018	Z:	0.048	yaw:	0.444	yaw rate:	1.598	Roll:	0.798	Pitch:	0.461	Yaw:	0.558	Thrust:	0.000
Time:	1.689	Roll Set Point:	-0.062	Pitch Set Point:	-0.036	Yaw Set Point:	-0.008	X_WP:	0.000	Y_WP:	0.000	Y_WP:	-0.100	X:	0.031	Y:	0.018	Z:	0.048	yaw:	0.443	yaw rate:	0.194	Roll:	0.796	Pitch:	0.443	Yaw:	1.009	Thrust:	0.000
Time:	1.700	Roll Set Point:	-0.062	Pitch Set Point:	-0.036	Yaw Set Point:	-0.008	X_WP:	0.000	Y_WP:	0.000	Y_WP:	-0.100	X:	0.031	Y:	0.018	Z:	0.048	yaw:	0.455	yaw rate:	-0.232	Roll:	0.800	Pitch:	0.459	Yaw:	1.165	Thrust:	0.000
Time:	1.712	Roll Set Point:	-0.062	Pitch Set Point:	-0.036	Yaw Set Point:	-0.008	X_WP:	0.000	Y_WP:	0.000	Y_WP:	-0.100	X:	0.031	Y:	0.018	Z:	0.048	yaw:	0.463	yaw rate:	-0.766	Roll:	0.794	Pitch:	0.441	Yaw:	1.057	Thrust:	0.000
Time:	1.723	Roll Set Point:	-0.063	Pitch Set Point:	-0.036	Yaw Set Point:	-0.009	X_WP:	0.000	Y_WP:	0.000	Y_WP:	-0.100	X:	0.031	Y:	0.018	Z:	0.048	yaw:	0.501	yaw rate:	-3.793	Roll:	0.812	Pitch:	0.437	Yaw:	1.799	Thrust:	0.000
Time:	1.740	Roll Set Point:	-0.063	Pitch Set Point:	-0.036	Yaw Set Point:	-0.008	X_WP:	0.000	Y_WP:	0.000	Y_WP:	-0.100	X:	0.031	Y:	0.018	Z:	0.048	yaw:	0.440	yaw rate:	6.115	Roll:	0.796	Pitch:	0.479	Yaw:	-0.007	Thrust:	0.000
Time:	1.757	Roll Set Point:	-0.063	Pitch Set Point:	-0.036	Yaw Set Point:	-0.008	X_WP:	0.000	Y_WP:	0.000	Y_WP:	-0.100	X:	0.031	Y:	0.018	Z:	0.048	yaw:	0.463	yaw rate:	-2.307	Roll:	0.805	Pitch:	0.442	Yaw:	1.359	Thrust:	0.000
Time:	1.768	Roll Set Point:	-0.063	Pitch Set Point:	-0.036	Yaw Set Point:	-0.008	X_WP:	0.000	Y_WP:	0.000	Y_WP:	-0.100	X:	0.031	Y:	0.018	Z:	0.048	yaw:	0.468	yaw rate:	-2.549	Roll:	0.812	Pitch:	0.449	Yaw:	1.012	Thrust:	0.000
Time:	1.788	Roll Set Point:	-0.063	Pitch Set Point:	-0.036	Yaw Set Point:	-0.008	X_WP:	0.000	Y_WP:	0.000	Y_WP:	-0.100	X:	0.031	Y:	0.018	Z:	0.048	yaw:	0.443	yaw rate:	2.518	Roll:	0.798	Pitch:	0.461	Yaw:	0.718	Thrust:	0.000
Time:	1.801	Roll Set Point:	-0.062	Pitch Set Point:	-0.036	Yaw Set Point:	-0.008	X_WP:	0.000	Y_WP:	0.000	Y_WP:	-0.100	X:	0.031	Y:	0.018	Z:	0.048	yaw:	0.460	yaw rate:	-1.728	Roll:	0.792	Pitch:	0.445	Yaw:	1.268	Thrust:	0.000
Time:	1.821	Roll Set Point:	-0.063	Pitch Set Point:	-0.036	Yaw Set Point:	-0.008	X_WP:	0.000	Y_WP:	0.000	Y_WP:	-0.100	X:	0.031	Y:	0.018	Z:	0.048	yaw:	0.450	yaw rate:	1.043	Roll:	0.812	Pitch:	0.457	Yaw:	0.899	Thrust:	0.000
Time:	1.832	Roll Set Point:	-0.063	Pitch Set Point:	-0.036	Yaw Set Point:	-0.008	X_WP:	0.000	Y_WP:	0.000	Y_WP:	-0.100	X:	0.031	Y:	0.018	Z:	0.048	yaw:	0.461	yaw rate:	-2.842	Roll:	0.801	Pitch:	0.456	Yaw:	1.147	Thrust:	0.000
Time:	1.842	Roll Set Point:	-0.063	Pitch Set Point:	-0.036	Yaw Set Point:	-0.008	X_WP:	0.000	Y_WP:	0.000	Y_WP:	-0.100	X:	0.031	Y:	0.018	Z:	0.048	yaw:	0.469	yaw rate:	-0.842	Roll:	0.798	Pitch:	0.441	Yaw:	1.096	Thrust:	0.000
Time:	1.853	Roll Set Point:	-0.062	Pitch Set Point:	-0.036	Yaw Set Point:	-0.009	X_WP:	0.000	Y_WP:	0.000	Y_WP:	-0.100	X:	0.031	Y:	0.018	Z:	0.048	yaw:	0.506	yaw rate:	-3.657	Roll:	0.784	Pitch:	0.433	Yaw:	1.826	Thrust:	0.000
Time:	1.864	Roll Set Point:	-0.062	Pitch Set Point:	-0.036	Yaw Set Point:	-0.008	X_WP:	0.000	Y_WP:	0.000	Y_WP:	-0.100	X:	0.031	Y:	0.018	Z:	0.048	yaw:	0.450	yaw rate:	5.563	Roll:	0.791	Pitch:	0.476	Yaw:	-0.437	Thrust:	0.000
Time:	1.887	Roll Set Point:	-0.063	Pitch Set Point:	-0.036	Yaw Set Point:	-0.007	X_WP:	0.000	Y_WP:	0.000	Y_WP:	-0.100	X:	0.031	Y:	0.018	Z:	0.048	yaw:	0.430	yaw rate:	2.038	Roll:	0.801	Pitch:	0.454	Yaw:	0.842	Thrust:	0.000
Time:	1.900	Roll Set Point:	-0.062	Pitch Set Point:	-0.036	Yaw Set Point:	-0.007	X_WP:	0.000	Y_WP:	0.000	Y_WP:	-0.100	X:	0.031	Y:	0.018	Z:	0.048	yaw:	0.421	yaw rate:	0.893	Roll:	0.809	Pitch:	0.463	Yaw:	0.723	Thrust:	0.000
Time:	1.910	Roll Set Point:	-0.063	Pitch Set Point:	-0.036	Yaw Set Point:	-0.008	X_WP:	0.000	Y_WP:	0.000	Y_WP:	-0.100	X:	0.031	Y:	0.018	Z:	0.048	yaw:	0.459	yaw rate:	-0.801	Roll:	0.827	Pitch:	0.432	Yaw:	1.813	Thrust:	0.000
Time:	1.920	Roll Set Point:	-0.062	Pitch Set Point:	-0.036	Yaw Set Point:	-0.008	X_WP:	0.000	Y_WP:	0.000	Y_WP:	-0.100	X:	0.031	Y:	0.018	Z:	0.048	yaw:	0.478	yaw rate:	-1.933	Roll:	0.773	Pitch:	0.442	Yaw:	1.402	Thrust:	0.000
Time:	1.934	Roll Set Point:	-0.062	Pitch Set Point:	-0.036	Yaw Set Point:	-0.008	X_WP:	0.000	Y_WP:	0.000	Y_WP:	-0.100	X:	0.031	Y:	0.018	Z:	0.048	yaw:	0.467	yaw rate:	1.114	Roll:	0.799	Pitch:	0.461	Yaw:	0.769	Thrust:	0.000
Time:	1.955	Roll Set Point:	-0.063	Pitch Set Point:	-0.036	Yaw Set Point:	-0.008	X_WP:	0.000	Y_WP:	0.000	Y_WP:	-0.100	X:	0.031	Y:	0.018	Z:	0.048	yaw:	0.451	yaw rate:	1.588	Roll:	0.812	Pitch:	0.463	Yaw:	0.889	Thrust:	0.000
Time:	1.966	Roll Set Point:	-0.063	Pitch Set Point:	-0.036	Yaw Set Point:	-0.008	X_WP:	0.000	Y_WP:	0.000	Y_WP:	-0.100	X:	0.031	Y:	0.018	Z:	0.048	yaw:	0.466	yaw rate:	-4.557	Roll:	0.801	Pitch:	0.446	Yaw:	1.267	Thrust:	0.000
Time:	1.977	Roll Set Point:	-0.063	Pitch Set Point:	-0.036	Yaw Set Point:	-0.009	X_WP:	0.000	Y_WP:	0.000	Y_WP:	-0.100	X:	0.031	Y:	0.018	Z:	0.048	yaw:	0.506	yaw rate:	-3.928	Roll:	0.804	Pitch:	0.418	Yaw:	1.899	Thrust:	0.000
Time:	1.989	Roll Set Point:	-0.063	Pitch Set Point:	-0.036	Yaw Set Point:	-0.008	X_WP:	0.000	Y_WP:	0.000	Y_WP:	-0.100	X:	0.031	Y:	0.018	Z:	0.048	yaw:	0.465	yaw rate:	4.028	Roll:	0.791	Pitch:	0.473	Yaw:	0.064	Thrust:	0.000
Time:	2.002	Roll Set Point:	-0.062	Pitch Set Point:	-0.036	Yaw Set Point:	-0.008	X_WP:	0.000	Y_WP:	0.000	Y_WP:	-0.100	X:	0.031	Y:	0.018	Z:	0.048	yaw:	0.480	yaw rate:	-1.490	Roll:	0.797	Pitch:	0.456	Yaw:	1.282	Thrust:	0.000
Time:	2.022	Roll Set Point:	-0.063	Pitch Set Point:	-0.036	Yaw Set Point:	-0.008	X_WP:	0.000	Y_WP:	0.000	Y_WP:	-0.100	X:	0.031	Y:	0.018	Z:	0.048	yaw:	0.458	yaw rate:	2.176	Roll:	0.811	Pitch:	0.454	Yaw:	0.824	Thrust:	0.000
Time:	2.032	Roll Set Point:	-0.063	Pitch Set Point:	-0.036	Yaw Set Point:	-0.008	X_WP:	0.000	Y_WP:	0.000	Y_WP:	-0.100	X:	0.031	Y:	0.018	Z:	0.048	yaw:	0.449	yaw rate:	0.946	Roll:	0.802	Pitch:	0.463	Yaw:	0.669	Thrust:	0.000
Time:	2.044	Roll Set Point:	-0.063	Pitch Set Point:	-0.036	Yaw Set Point:	-0.008	X_WP:	0.000	Y_WP:	0.000	Y_WP:	-0.100	X:	0.031	Y:	0.018	Z:	0.048	yaw:	0.482	yaw rate:	-3.398	Roll:	0.797	Pitch:	0.430	Yaw:	1.692	Thrust:	0.000
Time:	2.054	Roll Set Point:	-0.063	Pitch Set Point:	-0.036	Yaw Set Point:	-0.008	X_WP:	0.000	Y_WP:	0.000	Y_WP:	-0.100	X:	0.031	Y:	0.018	Z:	0.048	yaw:	0.476	yaw rate:	0.586	Roll:	0.800	Pitch:	0.460	Yaw:	0.758	Thrust:	0.000
Time:	2.066	Roll Set Point:	-0.062	Pitch Set Point:	-0.036	Yaw Set Point:	-0.008	X_WP:	0.000	Y_WP:	0.000	Y_WP:	-0.100	X:	0.031	Y:	0.018	Z:	0.048	yaw:	0.450	yaw rate:	2.591	Roll:	0.781	Pitch:	0.456	Yaw:	0.362	Thrust:	0.000
Time:	2.088	Roll Set Point:	-0.062	Pitch Set Point:	-0.036	Yaw Set Point:	-0.007	X_WP:	0.000	Y_WP:	0.000	Y_WP:	-0.100	X:	0.031	Y:	0.018	Z:	0.048	yaw:	0.429	yaw rate:	2.058	Roll:	0.812	Pitch:	0.467	Yaw:	0.888	Thrust:	0.000
Time:	2.099	Roll Set Point:	-0.063	Pitch Set Point:	-0.036	Yaw Set Point:	-0.008	X_WP:	0.000	Y_WP:	0.000	Y_WP:	-0.100	X:	0.031	Y:	0.018	Z:	0.048	yaw:	0.487	yaw rate:	-5.925	Roll:	0.813	Pitch:	0.424	Yaw:	2.275	Thrust:	0.000
Time:	2.110	Roll Set Point:	-0.063	Pitch Set Point:	-0.036	Yaw Set Point:	-0.008	X_WP:	0.000	Y_WP:	0.000	Y_WP:	-0.100	X:	0.031	Y:	0.018	Z:	0.048	yaw:	0.477	yaw rate:	0.945	Roll:	0.802	Pitch:	0.466	Yaw:	0.706	Thrust:	0.000
Time:	2.120	Roll Set Point:	-0.062	Pitch Set Point:	-0.036	Yaw Set Point:	-0.008	X_WP:	0.000	Y_WP:	0.000	Y_WP:	-0.100	X:	0.031	Y:	0.018	Z:	0.048	yaw:	0.479	yaw rate:	-0.198	Roll:	0.785	Pitch:	0.443	Yaw:	0.976	Thrust:	0.000
Time:	2.131	Roll Set Point:	-0.062	Pitch Set Point:	-0.036	Yaw Set Point:	-0.008	X_WP:	0.000	Y_WP:	0.000	Y_WP:	-0.100	X:	0.031	Y:	0.018	Z:	0.048	yaw:	0.459	yaw rate:	2.025	Roll:	0.788	Pitch:	0.465	Yaw:	0.368	Thrust:	0.000
Time:	2.142	Roll Set Point:	-0.063	Pitch Set Point:	-0.036	Yaw Set Point:	-0.008	X_WP:	0.000	Y_WP:	0.000	Y_WP:	-0.100	X:	0.031	Y:	0.018	Z:	0.048	yaw:	0.444	yaw rate:	1.460	Roll:	0.810	Pitch:	0.458	Yaw:	0.612	Thrust:	0.000
Time:	2.156	Roll Set Point:	-0.062	Pitch Set Point:	-0.036	Yaw Set Point:	-0.008	X_WP:	0.000	Y_WP:	0.000	Y_WP:	-0.100	X:	0.031	Y:	0.018	Z:	0.048	yaw:	0.435	yaw rate:	0.955	Roll:	0.798	Pitch:	0.451	Yaw:	0.772	Thrust:	0.000
Time:	2.166	Roll Set Point:	-0.063	Pitch Set Point:	-0.036	Yaw Set Point:	-0.008	X_WP:	0.000	Y_WP:	0.000	Y_WP:	-0.100	X:	0.031	Y:	0.018	Z:	0.048	yaw:	0.445	yaw rate:	-1.058	Roll:	0.804	Pitch:	0.450	Yaw:	1.159	Thrust:	0.000
Time:	2.177	Roll Set Point:	-0.062	Pitch Set Point:	-0.036	Yaw Set Point:	-0.008	X_WP:	0.000	Y_WP:	0.000	Y_WP:	-0.100	X:	0.031	Y:	0.018	Z:	0.048	yaw:	0.465	yaw rate:	-1.992	Roll:	0.792	Pitch:	0.432	Yaw:	1.418	Thrust:	0.000
Time:	2.187	Roll Set Point:	-0.062	Pitch Set Point:	-0.036	Yaw Set Point:	-0.008	X_WP:	0.000	Y_WP:	0.000	Y_WP:	-0.100	X:	0.031	Y:	0.018	Z:	0.048	yaw:	0.432	yaw rate:	3.285	Roll:	0.792	Pitch:	0.468	Yaw:	0.011	Thrust:	0.000
Time:	2.202	Roll Set Point:	-0.062	Pitch Set Point:	-0.036	Yaw Set Point:	-0.008	X_WP:	0.000	Y_WP:	0.000	Y_WP:	-0.100	X:	0.031	Y:	0.018	Z:	0.048	yaw:	0.439	yaw rate:	-0.639	Roll:	0.793	Pitch:	0.456	Yaw:	1.122	Thrust:	0.000
Time:	2.222	Roll Set Point:	-0.062	Pitch Set Point:	-0.036	Yaw Set Point:	-0.008	X_WP:	0.000	Y_WP:	0.000	Y_WP:	-0.100	X:	0.031	Y:	0.018	Z:	0.048	yaw:	0.475	yaw rate:	-3.670	Roll:	0.820	Pitch:	0.454	Yaw:	1.678	Thrust:	0.000
Time:	2.233	Roll Set Point:	-0.063	Pitch Set Point:	-0.036	Yaw Set Point:	-0.008	X_WP:	0.000	Y_WP:	0.000	Y_WP:	-0.100	X:	0.031	Y:	0.018	Z:	0.048	yaw:	0.439	yaw rate:	-1.163	Roll:	0.807	Pitch:	0.460	Yaw:	0.011	Thrust:	0.000
Time:	2.245	Roll Set Point:	-0.063	Pitch Set Point:	-0.036	Yaw Set Point:	-0.008	X_WP:	0.000	Y_WP:	0.000	Y_WP:	-0.100	X:	0.031	Y:	0.018	Z:	0.048	yaw:	0.471	yaw rate:	-3.228	Roll:	0.803	Pitch:	0.449	Yaw:	1.677	Thrust:	0.000
Time:	2.256	Roll Set Point:	-0.062	Pitch Set Point:	-0.036	Yaw Set Point:	-0.008	X_WP:	0.000	Y_WP:	0.000	Y_WP:	-0.100	X:	0.031	Y:	0.018	Z:	0.048	yaw:	0.434	yaw rate:	3.765	Roll:	0.781	Pitch:	0.458	Yaw:	0.009	Thrust:	0.000
Time:	2.274	Roll Set Point:	-0.063	Pitch Set Point:	-0.036	Yaw Set Point:	-0.008	X_WP:	0.000	Y_WP:	0.000	Y_WP:	-0.100	X:	0.031	Y:	0.018	Z:	0.048	yaw:	0.449	yaw rate:	-1.550	Roll:	0.809	Pitch:	0.448	Yaw:	1.331	Thrust:	0.000
Time:	2.292	Roll Set Point:	-0.063	Pitch Set Point:	-0.036	Yaw Set Point:	-0.008	X_WP:	0.000	Y_WP:	0.000	Y_WP:	-0.100	X:	0.031	Y:	0.018	Z:	0.048	yaw:	0.450	yaw rate:	0.427	Roll:	0.818	Pitch:	0.466	Yaw:	1.163	Thrust:	0.000
Time:	2.303	Roll Set Point:	-0.062	Pitch Set Point:	-0.036	Yaw Set Point:	-0.008	X_WP:	0.000	Y_WP:	0.000	Y_WP:	-0.100	X:	0.031	Y:	0.018	Z:	0.048	yaw:	0.446	yaw rate:	0.455	Roll:	0.786	Pitch:	0.444	Yaw:	0.800	Thrust:	0.000
Time:	2.314	Roll Set Point:	-0.063	Pitch Set Point:	-0.036	Yaw Set Point:	-0.008	X_WP:	0.000	Y_WP:	0.000	Y_WP:	-0.100	X:	0.031	Y:	0.018	Z:	0.048	yaw:	0.463	yaw rate:	-1.770	Roll:	0.807	Pitch:	0.453	Yaw:	1.373	Thrust:	0.000
Time:	2.324	Roll Set Point:	-0.063	Pitch Set Point:	-0.036	Yaw Set Point:	-0.008	X_WP:	0.000	Y_WP:	0.000	Y_WP:	-0.100	X:	0.031	Y:	0.018	Z:	0.048	yaw:	0.451	yaw rate:	1.206	Roll:	0.801	Pitch:	0.461	Yaw:	0.600	Thrust:	0.000
Time:	2.338	Roll Set Point:	-0.062	Pitch Set Point:	-0.036	Yaw Set Point:	-0.008	X_WP:	0.000	Y_WP:	0.000	Y_WP:	-0.100	X:	0.031	Y:	0.018	Z:	0.048	yaw:	0.451	yaw rate:	-0.016	Roll:	0.787	Pitch:	0.443	Yaw:	1.000	Thrust:	0.000
Time:	2.354	Roll Set Point:	-0.062	Pitch Set Point:	-0.036	Yaw Set Point:	-0.008	X_WP:	0.000	Y_WP:	0.000	Y_WP:	-0.100	X:	0.031	Y:	0.018	Z:	0.048	yaw:	0.464	yaw rate:	-0.516	Roll:	0.812	Pitch:	0.456	Yaw:	1.334	Thrust:	0.000
Time:	2.365	Roll Set Point:	-0.062	Pitch Set Point:	-0.036	Yaw Set Point:	-0.008	X_WP:	0.000	Y_WP:	0.000	Y_WP:	-0.100	X:	0.031	Y:	0.018	Z:	0.048	yaw:	0.462	yaw rate:	0.205	Roll:	0.799	Pitch:	0.454	Yaw:	0.893	Thrust:	0.000
Time:	2.376	Roll Set Point:	-0.063	Pitch Set Point:	-0.036	Yaw Set Point:	-0.008	X_WP:	0.000	Y_WP:	0.000	Y_WP:	-0.100	X:	0.031	Y:	0.018	Z:	0.048	yaw:	0.477	yaw rate:	-1.476	Roll:	0.822	Pitch:	0.448	Yaw:	1.331	Thrust:	0.000
Time:	2.386	Roll Set Point:	-0.063	Pitch Set Point:	-0.036	Yaw Set Point:	-0.008	X_WP:	0.000	Y_WP:	0.000	Y_WP:	-0.100	X:	0.031	Y:	0.018	Z:	0.048	yaw:	0.485	yaw rate:	-0.794	Roll:	0.782	Pitch:	0.444	Yaw:	1.176	Thrust:	0.000
Time:	2.398	Roll Set Point:	-0.063	Pitch Set Point:	-0.036	Yaw Set Point:	-0.008	X_WP:	0.000	Y_WP:	0.000	Y_WP:	-0.100	X:	0.031	Y:	0.018	Z:	0.048	yaw:	0.464	yaw rate:	2.113	Roll:	0.797	Pitch:	0.464	Yaw:	0.536	Thrust:	0.000
Time:	2.420	Roll Set Point:	-0.062	Pitch Set Point:	-0.036	Yaw Set Point:	-0.008	X_WP:	0.000	Y_WP:	0.000	Y_WP:	-0.100	X:	0.031	Y:	0.018	Z:	0.048	yaw:	0.451	yaw rate:	1.290	Roll:	0.805	Pitch:	0.460	Yaw:	1.065	Thrust:	0.000
Time:	2.431	Roll Set Point:	-0.063	Pitch Set Point:	-0.036	Yaw Set Point:	-0.008	X_WP:	0.000	Y_WP:	0.000	Y_WP:	-0.100	X:	0.031	Y:	0.018	Z:	0.048	yaw:	0.461	yaw rate:	2.512	Roll:	0.811	Pitch:	0.458	Yaw:	1.220	Thrust:	0.000
Time:	2.442	Roll Set Point:	-0.063	Pitch Set Point:	-0.036	Yaw Set Point:	-0.009	X_WP:	0.000	Y_WP:	0.000	Y_WP:	-0.100	X:	0.031	Y:	0.018	Z:	0.048	yaw:	0.490	yaw rate:	-2.869	Roll:	0.799	Pitch:	0.431	Yaw:	1.706	Thrust:	0.000
Time:	2.453	Roll Set Point:	-0.062	Pitch Set Point:	-0.036	Yaw Set Point:	-0.008	X_WP:	0.000	Y_WP:	0.000	Y_WP:	-0.100	X:	0.031	Y:	0.018	Z:	0.048	yaw:	0.433	yaw rate:	5.697	Roll:	0.788	Pitch:	0.480	Yaw:	-0.458	Thrust:	0.000
Time:	2.464	Roll Set Point:	-0.062	Pitch Set Point:	-0.036	Yaw Set Point:	-0.007	X_WP:	0.000	Y_WP:	0.000	Y_WP:	-0.100	X:	0.031	Y:	0.018	Z:	0.048	yaw:	0.421	yaw rate:	1.224	Roll:	0.789	Pitch:	0.455	Yaw:	0.595	Thrust:	0.000
Time:	2.485	Roll Set Point:	-0.062	Pitch Set Point:	-0.036	Yaw Set Point:	-0.008	X_WP:	0.000	Y_WP:	0.000	Y_WP:	-0.100	X:	0.031	Y:	0.018	Z:	0.048	yaw:	0.464	yaw rate:	-4.391	Roll:	0.804	Pitch:	0.438	Yaw:	1.918	Thrust:	0.000
Time:	2.498	Roll Set Point:	-0.063	Pitch Set Point:	-0.036	Yaw Set Point:	-0.008	X_WP:	0.000	Y_WP:	0.000	Y_WP:	-0.100	X:	0.031	Y:	0.018	Z:	0.048	yaw:	0.451	yaw rate:	1.327	Roll:	0.824	Pitch:	0.472	Yaw:	1.140	Thrust:	0.000
Time:	2.509	Roll Set Point:	-0.063	Pitch Set Point:	-0.036	Yaw Set Point:	-0.008	X_WP:	0.000	Y_WP:	0.000	Y_WP:	-0.100	X:	0.031	Y:	0.018	Z:	0.048	yaw:	0.455	yaw rate:	3.575	Roll:	0.793	Pitch:	0.435	Yaw:	1.055	Thrust:	0.000
Time:	2.519	Roll Set Point:	-0.062	Pitch Set Point:	-0.036	Yaw Set Point:	-0.008	X_WP:	0.000	Y_WP:	0.000	Y_WP:	-0.100	X:	0.031	Y:	0.018	Z:	0.048	yaw:	0.438	yaw rate:	1.750	Roll:	0.780	Pitch:	0.464	Yaw:	0.461	Thrust:	0.000
Time:	2.530	Roll Set Point:	-0.063	Pitch Set Point:	-0.036	Yaw Set Point:	-0.008	X_WP:	0.000	Y_WP:	0.000	Y_WP:	-0.100	X:	0.031	Y:	0.018	Z:	0.048	yaw:	0.447	yaw rate:	-0.920	Roll:	0.811	Pitch:	0.444	Yaw:	1.178	Thrust:	0.000
Time:	2.542	Roll Set Point:	-0.063	Pitch Set Point:	-0.036	Yaw Set Point:	-0.008	X_WP:	0.000	Y_WP:	0.000	Y_WP:	-0.100	X:	0.031	Y:	0.018	Z:	0.048	yaw:	0.476	yaw rate:	-2.877	Roll:	0.804	Pitch:	0.449	Yaw:	1.670	Thrust:	0.000
Time:	2.556	Roll Set Point:	-0.063	Pitch Set Point:	-0.036	Yaw Set Point:	-0.008	X_WP:	0.000	Y_WP:	0.000	Y_WP:	-0.100	X:	0.031	Y:	0.018	Z:	0.048	yaw:	0.460	yaw rate:	1.540	Roll:	0.810	Pitch:	0.459	Yaw:	0.788	Thrust:	0.000
Time:	2.566	Roll Set Point:	-0.062	Pitch Set Point:	-0.036	Yaw Set Point:	-0.008	X_WP:	0.000	Y_WP:	0.000	Y_WP:	-0.100	X:	0.031	Y:	0.018	Z:	0.048	yaw:	0.460	yaw rate:	-0.006	Roll:	0.772	Pitch:	0.450	Yaw:	0.971	Thrust:	0.000
Time:	2.577	Roll Set Point:	-0.063	Pitch Set Point:	-0.036	Yaw Set Point:	-0.008	X_WP:	0.000	Y_WP:	0.000	Y_WP:	-0.100	X:	0.031	Y:	0.018	Z:	0.048	yaw:	0.472	yaw rate:	-1.148	Roll:	0.814	Pitch:	0.442	Yaw:	1.274	Thrust:	0.000
Time:	2.588	Roll Set Point:	-0.062	Pitch Set Point:	-0.036	Yaw Set Point:	-0.008	X_WP:	0.000	Y_WP:	0.000	Y_WP:	-0.100	X:	0.031	Y:	0.018	Z:	0.048	yaw:	0.447	yaw rate:	2.529	Roll:	0.779	Pitch:	0.470	Yaw:	0.332	Thrust:	0.000
Time:	2.601	Roll Set Point:	-0.062	Pitch Set Point:	-0.036	Yaw Set Point:	-0.008	X_WP:	0.000	Y_WP:	0.000	Y_WP:	-0.100	X:	0.031	Y:	0.018	Z:	0.048	yaw:	0.442	yaw rate:	0.472	Roll:	0.811	Pitch:	0.464	Yaw:	0.932	Thrust:	0.000
Time:	2.621	Roll Set Point:	-0.062	Pitch Set Point:	-0.036	Yaw Set Point:	-0.008	X_WP:	0.000	Y_WP:	0.000	Y_WP:	-0.100	X:	0.031	Y:	0.018	Z:	0.048	yaw:	0.449	yaw rate:	-0.683	Roll:	0.814	Pitch:	0.460	Yaw:	1.365	Thrust:	0.000
Time:	2.632	Roll Set Point:	-0.063	Pitch Set Point:	-0.036	Yaw Set Point:	-0.009	X_WP:	0.000	Y_WP:	0.000	Y_WP:	-0.100	X:	0.031	Y:	0.018	Z:	0.048	yaw:	0.498	yaw rate:	-4.567	Roll:	0.804	Pitch:	0.428	Yaw:	2.248	Thrust:	0.000
Time:	2.643	Roll Set Point:	-0.063	Pitch Set Point:	-0.036	Yaw Set Point:	-0.008	X_WP:	0.000	Y_WP:	0.000	Y_WP:	-0.100	X:	0.031	Y:	0.018	Z:	0.048	yaw:	0.474	yaw rate:	2.354	Roll:	0.797	Pitch:	0.456	Yaw:	0.455	Thrust:	0.000
Time:	2.654	Roll Set Point:	-0.062	Pitch Set Point:	-0.036	Yaw Set Point:	-0.008	X_WP:	0.000	Y_WP:	0.000	Y_WP:	-0.100	X:	0.031	Y:	0.018	Z:	0.048	yaw:	0.433	yaw rate:	4.192	Roll:	0.793	Pitch:	0.480	Yaw:	-0.035	Thrust:	0.000
Time:	2.668	Roll Set Point:	-0.062	Pitch Set Point:	-0.036	Yaw Set Point:	-0.007	X_WP:	0.000	Y_WP:	0.000	Y_WP:	-0.100	X:	0.031	Y:	0.018	Z:	0.048	yaw:	0.417	yaw rate:	1.538	Roll:	0.797	Pitch:	0.464	Yaw:	0.666	Thrust:	0.000
Time:	2.688	Roll Set Point:	-0.063	Pitch Set Point:	-0.036	Yaw Set Point:	-0.008	X_WP:	0.000	Y_WP:	0.000	Y_WP:	-0.100	X:	0.031	Y:	0.018	Z:	0.048	yaw:	0.438	yaw rate:	-2.036	Roll:	0.816	Pitch:	0.453	Yaw:	1.546	Thrust:	0.000
Time:	2.700	Roll Set Point:	-0.062	Pitch Set Point:	-0.036	Yaw Set Point:	-0.009	X_WP:	0.000	Y_WP:	0.000	Y_WP:	-0.100	X:	0.031	Y:	0.018	Z:	0.048	yaw:	0.491	yaw rate:	-5.364	Roll:	0.798	Pitch:	0.445	Yaw:	2.244	Thrust:	0.000
Time:	2.710	Roll Set Point:	-0.063	Pitch Set Point:	-0.036	Yaw Set Point:	-0.008	X_WP:	0.000	Y_WP:	0.000	Y_WP:	-0.100	X:	0.031	Y:	0.018	Z:	0.048	yaw:	0.464	yaw rate:	2.714	Roll:	0.803	Pitch:	0.458	Yaw:	0.318	Thrust:	0.000
Time:	2.721	Roll Set Point:	-0.063	Pitch Set Point:	-0.036	Yaw Set Point:	-0.008	X_WP:	0.000	Y_WP:	0.000	Y_WP:	-0.100	X:	0.031	Y:	0.018	Z:	0.048	yaw:	0.443	yaw rate:	2.110	Roll:	0.798	Pitch:	0.461	Yaw:	0.440	Thrust:	0.000
Time:	2.733	Roll Set Point:	-0.062	Pitch Set Point:	-0.036	Yaw Set Point:	-0.008	X_WP:	0.000	Y_WP:	0.000	Y_WP:	-0.100	X:	0.031	Y:	0.018	Z:	0.048	yaw:	0.459	yaw rate:	1.340	Roll:	0.796	Pitch:	0.456	Yaw:	1.382	Thrust:	0.000
Time:	2.752	Roll Set Point:	-0.062	Pitch Set Point:	-0.036	Yaw Set Point:	-0.007	X_WP:	0.000	Y_WP:	0.000	Y_WP:	-0.100	X:	0.031	Y:	0.018	Z:	0.048	yaw:	0.427	yaw rate:	3.163	Roll:	0.807	Pitch:	0.464	Yaw:	0.790	Thrust:	0.000
Time:	2.763	Roll Set Point:	-0.063	Pitch Set Point:	-0.036	Yaw Set Point:	-0.008	X_WP:	0.000	Y_WP:	0.000	Y_WP:	-0.100	X:	0.031	Y:	0.018	Z:	0.048	yaw:	0.445	yaw rate:	-1.827	Roll:	0.811	Pitch:	0.454	Yaw:	1.423	Thrust:	0.000
Time:	2.774	Roll Set Point:	-0.063	Pitch Set Point:	-0.036	Yaw Set Point:	-0.008	X_WP:	0.000	Y_WP:	0.000	Y_WP:	-0.100	X:	0.031	Y:	0.018	Z:	0.048	yaw:	0.471	yaw rate:	-2.565	Roll:	0.793	Pitch:	0.447	Yaw:	1.639	Thrust:	0.000
Time:	2.784	Roll Set Point:	-0.063	Pitch Set Point:	-0.036	Yaw Set Point:	-0.008	X_WP:	0.000	Y_WP:	0.000	Y_WP:	-0.100	X:	0.031	Y:	0.018	Z:	0.048	yaw:	0.474	yaw rate:	-0.257	Roll:	0.800	Pitch:	0.446	Yaw:	1.067	Thrust:	0.000
Time:	2.794	Roll Set Point:	-0.063	Pitch Set Point:	-0.036	Yaw Set Point:	-0.008	X_WP:	0.000	Y_WP:	0.000	Y_WP:	-0.100	X:	0.031	Y:	0.018	Z:	0.048	yaw:	0.453	yaw rate:	2.089	Roll:	0.800	Pitch:	0.474	Yaw:	0.426	Thrust:	0.000
Time:	2.810	Roll Set Point:	-0.062	Pitch Set Point:	-0.036	Yaw Set Point:	-0.008	X_WP:	0.000	Y_WP:	0.000	Y_WP:	-0.100	X:	0.031	Y:	0.018	Z:	0.048	yaw:	0.431	yaw rate:	2.190	Roll:	0.795	Pitch:	0.458	Yaw:	0.790	Thrust:	0.000
Time:	2.823	Roll Set Point:	-0.063	Pitch Set Point:	-0.036	Yaw Set Point:	-0.008	X_WP:	0.000	Y_WP:	0.000	Y_WP:	-0.100	X:	0.031	Y:	0.018	Z:	0.048	yaw:	0.456	yaw rate:	-2.519	Roll:	0.804	Pitch:	0.454	Yaw:	1.590	Thrust:	0.000
Time:	2.834	Roll Set Point:	-0.062	Pitch Set Point:	-0.036	Yaw Set Point:	-0.008	X_WP:	0.000	Y_WP:	0.000	Y_WP:	-0.100	X:	0.031	Y:	0.018	Z:	0.048	yaw:	0.464	yaw rate:	-0.785	Roll:	0.797	Pitch:	0.434	Yaw:	1.196	Thrust:	0.000
Time:	2.845	Roll Set Point:	-0.063	Pitch Set Point:	-0.036	Yaw Set Point:	-0.008	X_WP:	0.000	Y_WP:	0.000	Y_WP:	-0.100	X:	0.031	Y:	0.018	Z:	0.048	yaw:	0.482	yaw rate:	-1.842	Roll:	0.814	Pitch:	0.455	Yaw:	1.488	Thrust:	0.000
Time:	2.856	Roll Set Point:	-0.063	Pitch Set Point:	-0.036	Yaw Set Point:	-0.008	X_WP:	0.000	Y_WP:	0.000	Y_WP:	-0.100	X:	0.031	Y:	0.018	Z:	0.048	yaw:	0.475	yaw rate:	0.695	Roll:	0.798	Pitch:	0.461	Yaw:	0.899	Thrust:	0.000
Time:	2.868	Roll Set Point:	-0.063	Pitch Set Point:	-0.036	Yaw Set Point:	-0.008	X_WP:	0.000	Y_WP:	0.000	Y_WP:	-0.100	X:	0.031	Y:	0.018	Z:	0.048	yaw:	0.458	yaw rate:	1.738	Roll:	0.797	Pitch:	0.462	Yaw:	0.679	Thrust:	0.000
Time:	2.890	Roll Set Point:	-0.062	Pitch Set Point:	-0.036	Yaw Set Point:	-0.007	X_WP:	0.000	Y_WP:	0.000	Y_WP:	-0.100	X:	0.031	Y:	0.018	Z:	0.048	yaw:	0.427	yaw rate:	3.118	Roll:	0.806	Pitch:	0.467	Yaw:	0.997	Thrust:	0.000
Time:	2.901	Roll Set Point:	-0.062	Pitch Set Point:	-0.036	Yaw Set Point:	-0.008	X_WP:	0.000	Y_WP:	0.000	Y_WP:	-0.100	X:	0.031	Y:	0.018	Z:	0.048	yaw:	0.464	yaw rate:	-4.140	Roll:	0.802	Pitch:	0.442	Yaw:	1.930	Thrust:	0.000
Time:	2.912	Roll Set Point:	-0.063	Pitch Set Point:	-0.036	Yaw Set Point:	-0.008	X_WP:	0.000	Y_WP:	0.000	Y_WP:	-0.100	X:	0.031	Y:	0.018	Z:	0.048	yaw:	0.475	yaw rate:	-1.051	Roll:	0.805	Pitch:	0.452	Yaw:	1.307	Thrust:	0.000
Time:	2.923	Roll Set Point:	-0.063	Pitch Set Point:	-0.036	Yaw Set Point:	-0.008	X_WP:	0.000	Y_WP:	0.000	Y_WP:	-0.100	X:	0.031	Y:	0.018	Z:	0.048	yaw:	0.466	yaw rate:	0.896	Roll:	0.805	Pitch:	0.463	Yaw:	0.816	Thrust:	0.000
Time:	2.934	Roll Set Point:	-0.062	Pitch Set Point:	-0.036	Yaw Set Point:	-0.008	X_WP:	0.000	Y_WP:	0.000	Y_WP:	-0.100	X:	0.031	Y:	0.018	Z:	0.048	yaw:	0.450	yaw rate:	1.642	Roll:	0.783	Pitch:	0.461	Yaw:	0.667	Thrust:	0.000
Time:	2.955	Roll Set Point:	-0.063	Pitch Set Point:	-0.036	Yaw Set Point:	-0.008	X_WP:	0.000	Y_WP:	0.000	Y_WP:	-0.100	X:	0.031	Y:	0.018	Z:	0.048	yaw:	0.460	yaw rate:	-1.075	Roll:	0.816	Pitch:	0.464	Yaw:	1.514	Thrust:	0.000
Time:	2.966	Roll Set Point:	-0.062	Pitch Set Point:	-0.036	Yaw Set Point:	-0.008	X_WP:	0.000	Y_WP:	0.000	Y_WP:	-0.100	X:	0.031	Y:	0.018	Z:	0.048	yaw:	0.460	yaw rate:	0.051	Roll:	0.792	Pitch:	0.459	Yaw:	1.033	Thrust:	0.000
Time:	2.977	Roll Set Point:	-0.062	Pitch Set Point:	-0.036	Yaw Set Point:	-0.008	X_WP:	0.000	Y_WP:	0.000	Y_WP:	-0.100	X:	0.031	Y:	0.018	Z:	0.048	yaw:	0.468	yaw rate:	-0.781	Roll:	0.800	Pitch:	0.442	Yaw:	1.232	Thrust:	0.000
Time:	2.988	Roll Set Point:	-0.063	Pitch Set Point:	-0.036	Yaw Set Point:	-0.008	X_WP:	0.000	Y_WP:	0.000	Y_WP:	-0.100	X:	0.031	Y:	0.018	Z:	0.048	yaw:	0.464	yaw rate:	0.329	Roll:	0.808	Pitch:	0.446	Yaw:	0.949	Thrust:	0.000
Time:	3.000	Roll Set Point:	-0.063	Pitch Set Point:	-0.036	Yaw Set Point:	-0.008	X_WP:	0.000	Y_WP:	0.000	Y_WP:	-0.100	X:	0.031	Y:	0.018	Z:	0.048	yaw:	0.467	yaw rate:	-0.226	Roll:	0.797	Pitch:	0.463	Yaw:	1.138	Thrust:	0.000
Time:	3.020	Roll Set Point:	-0.063	Pitch Set Point:	-0.036	Yaw Set Point:	-0.008	X_WP:	0.000	Y_WP:	0.000	Y_WP:	1.000	X:	0.031	Y:	0.018	Z:	0.048	yaw:	0.457	yaw rate:	0.916	Roll:	0.813	Pitch:	0.472	Yaw:	1.274	Thrust:	100.000
Time:	3.031	Roll Set Point:	-0.062	Pitch Set Point:	-0.036	Yaw Set Point:	-0.008	X_WP:	0.000	Y_WP:	0.000	Y_WP:	1.000	X:	0.031	Y:	0.018	Z:	0.048	yaw:	0.443	yaw rate:	0.916	Roll:	0.777	Pitch:	0.460	Yaw:	0.682	Thrust:	53.416
Time:	3.043	Roll Set Point:	-0.063	Pitch Set Point:	-0.036	Yaw Set Point:	-0.008	X_WP:	0.000	Y_WP:	0.000	Y_WP:	1.000	X:	0.031	Y:	0.018	Z:	0.048	yaw:	0.473	yaw rate:	-3.015	Roll:	0.822	Pitch:	0.447	Yaw:	1.787	Thrust:	54.462
Time:	3.054	Roll Set Point:	-0.063	Pitch Set Point:	-0.036	Yaw Set Point:	-0.008	X_WP:	0.000	Y_WP:	0.000	Y_WP:	1.000	X:	0.031	Y:	0.018	Z:	0.048	yaw:	0.478	yaw rate:	-0.486	Roll:	0.799	Pitch:	0.446	Yaw:	1.219	Thrust:	55.937
Time:	3.066	Roll Set Point:	-0.062	Pitch Set Point:	-0.036	Yaw Set Point:	-0.005	X_WP:	0.000	Y_WP:	0.000	Y_WP:	1.000	X:	0.031	Y:	0.018	Z:	0.048	yaw:	0.300	yaw rate:	17.818	Roll:	0.725	Pitch:	0.532	Yaw:	-2.925	Thrust:	56.736
Time:	3.091	Roll Set Point:	-0.063	Pitch Set Point:	-0.036	Yaw Set Point:	-0.008	X_WP:	0.000	Y_WP:	0.000	Y_WP:	1.000	X:	0.031	Y:	0.018	Z:	0.048	yaw:	0.457	yaw rate:	-15.739	Roll:	0.854	Pitch:	0.437	Yaw:	3.244	Thrust:	65.023
Time:	3.102	Roll Set Point:	-0.063	Pitch Set Point:	-0.036	Yaw Set Point:	-0.008	X_WP:	0.000	Y_WP:	0.000	Y_WP:	1.000	X:	0.031	Y:	0.018	Z:	0.048	yaw:	0.471	yaw rate:	-1.330	Roll:	0.807	Pitch:	0.433	Yaw:	1.392	Thrust:	60.578
Time:	3.113	Roll Set Point:	-0.063	Pitch Set Point:	-0.035	Yaw Set Point:	-0.011	X_WP:	0.000	Y_WP:	0.000	Y_WP:	1.000	X:	0.031	Y:	0.018	Z:	0.048	yaw:	0.627	yaw rate:	8.325	Roll:	0.833	Pitch:	0.341	Yaw:	4.995	Thrust:	61.187
Time:	3.130	Roll Set Point:	-0.062	Pitch Set Point:	-0.036	Yaw Set Point:	-0.006	X_WP:	0.000	Y_WP:	0.000	Y_WP:	1.000	X:	0.031	Y:	0.018	Z:	0.048	yaw:	0.332	yaw rate:	29.465	Roll:	0.719	Pitch:	0.586	Yaw:	-3.416	Thrust:	62.840
Time:	3.152	Roll Set Point:	-0.062	Pitch Set Point:	-0.035	Yaw Set Point:	-0.012	X_WP:	0.000	Y_WP:	0.000	Y_WP:	1.000	X:	0.031	Y:	0.018	Z:	0.048	yaw:	0.668	yaw rate:	-33.612	Roll:	0.820	Pitch:	0.356	Yaw:	5.899	Thrust:	75.737
Time:	3.164	Roll Set Point:	-0.063	Pitch Set Point:	-0.036	Yaw Set Point:	-0.010	X_WP:	0.000	Y_WP:	0.000	Y_WP:	1.000	X:	0.031	Y:	0.018	Z:	0.048	yaw:	0.561	yaw rate:	-7.054	Roll:	0.833	Pitch:	0.526	Yaw:	-0.990	Thrust:	69.370
Time:	3.174	Roll Set Point:	-0.062	Pitch Set Point:	-0.036	Yaw Set Point:	-0.013	X_WP:	0.000	Y_WP:	0.000	Y_WP:	1.000	X:	0.031	Y:	0.018	Z:	0.048	yaw:	0.773	yaw rate:	-21.242	Roll:	0.700	Pitch:	0.424	Yaw:	6.776	Thrust:	65.515
Time:	3.185	Roll Set Point:	-0.063	Pitch Set Point:	-0.035	Yaw Set Point:	-0.011	X_WP:	0.000	Y_WP:	0.000	Y_WP:	1.000	X:	0.031	Y:	0.018	Z:	0.048	yaw:	0.640	yaw rate:	13.342	Roll:	0.944	Pitch:	0.452	Yaw:	-2.099	Thrust:	66.344
Time:	3.195	Roll Set Point:	-0.063	Pitch Set Point:	-0.035	Yaw Set Point:	-0.015	X_WP:	0.000	Y_WP:	0.000	Y_WP:	1.000	X:	0.031	Y:	0.018	Z:	0.048	yaw:	0.871	yaw rate:	-23.077	Roll:	0.864	Pitch:	0.397	Yaw:	7.634	Thrust:	66.433
Time:	3.216	Roll Set Point:	-0.063	Pitch Set Point:	-0.035	Yaw Set Point:	-0.016	X_WP:	0.000	Y_WP:	0.000	Y_WP:	1.000	X:	0.031	Y:	0.018	Z:	0.048	yaw:	0.908	yaw rate:	-3.798	Roll:	0.840	Pitch:	0.386	Yaw:	2.575	Thrust:	86.214
Time:	3.228	Roll Set Point:	-0.063	Pitch Set Point:	-0.035	Yaw Set Point:	-0.018	X_WP:	0.000	Y_WP:	0.000	Y_WP:	1.000	X:	0.032	Y:	0.018	Z:	0.048	yaw:	1.024	yaw rate:	-9.405	Roll:	0.902	Pitch:	0.448	Yaw:	4.409	Thrust:	71.199
Time:	3.239	Roll Set Point:	-0.063	Pitch Set Point:	-0.035	Yaw Set Point:	-0.011	X_WP:	0.000	Y_WP:	0.000	Y_WP:	1.000	X:	0.031	Y:	0.018	Z:	0.049	yaw:	0.658	yaw rate:	36.550	Roll:	0.532	Pitch:	0.625	Yaw:	-7.332	Thrust:	68.855
Time:	3.250	Roll Set Point:	-0.063	Pitch Set Point:	-0.035	Yaw Set Point:	-0.014	X_WP:	0.000	Y_WP:	0.000	Y_WP:	1.000	X:	0.032	Y:	0.018	Z:	0.049	yaw:	0.780	yaw rate:	-12.215	Roll:	1.095	Pitch:	0.328	Yaw:	4.542	Thrust:	72.413
Time:	3.261	Roll Set Point:	-0.064	Pitch Set Point:	-0.035	Yaw Set Point:	-0.017	X_WP:	0.000	Y_WP:	0.000	Y_WP:	1.000	X:	0.032	Y:	0.018	Z:	0.050	yaw:	0.993	yaw rate:	-21.247	Roll:	0.893	Pitch:	0.480	Yaw:	7.000	Thrust:	70.338
Time:	3.276	Roll Set Point:	-0.063	Pitch Set Point:	-0.035	Yaw Set Point:	-0.018	X_WP:	0.000	Y_WP:	0.000	Y_WP:	1.000	X:	0.032	Y:	0.018	Z:	0.051	yaw:	1.022	yaw rate:	-2.916	Roll:	0.755	Pitch:	0.364	Yaw:	2.546	Thrust:	80.022
Time:	3.290	Roll Set Point:	-0.064	Pitch Set Point:	-0.036	Yaw Set Point:	-0.013	X_WP:	0.000	Y_WP:	0.000	Y_WP:	1.000	X:	0.032	Y:	0.018	Z:	0.056	yaw:	0.742	yaw rate:	27.280	Roll:	0.970	Pitch:	0.787	Yaw:	-3.603	Thrust:	68.364
Time:	3.302	Roll Set Point:	-0.064	Pitch Set Point:	-0.036	Yaw Set Point:	-0.020	X_WP:	0.000	Y_WP:	0.000	Y_WP:	1.000	X:	0.032	Y:	0.018	Z:	0.058	yaw:	1.173	yaw rate:	-43.041	Roll:	0.993	Pitch:	0.348	Yaw:	12.015	Thrust:	70.660
Time:	3.313	Roll Set Point:	-0.065	Pitch Set Point:	-0.037	Yaw Set Point:	-0.022	X_WP:	0.000	Y_WP:	0.000	Y_WP:	1.000	X:	0.032	Y:	0.019	Z:	0.061	yaw:	1.250	yaw rate:	-7.750	Roll:	0.877	Pitch:	0.591	Yaw:	3.990	Thrust:	66.905
Time:	3.324	Roll Set Point:	-0.065	Pitch Set Point:	-0.037	Yaw Set Point:	-0.023	X_WP:	0.000	Y_WP:	0.000	Y_WP:	1.000	X:	0.032	Y:	0.019	Z:	0.064	yaw:	1.312	yaw rate:	-6.184	Roll:	0.851	Pitch:	0.659	Yaw:	3.717	Thrust:	67.263
Time:	3.341	Roll Set Point:	-0.065	Pitch Set Point:	-0.038	Yaw Set Point:	-0.021	X_WP:	0.000	Y_WP:	0.000	Y_WP:	1.000	X:	0.032	Y:	0.019	Z:	0.068	yaw:	1.217	yaw rate:	9.473	Roll:	0.852	Pitch:	0.620	Yaw:	0.842	Thrust:	85.340
Time:	3.356	Roll Set Point:	-0.064	Pitch Set Point:	-0.038	Yaw Set Point:	-0.020	X_WP:	0.000	Y_WP:	0.000	Y_WP:	1.000	X:	0.032	Y:	0.019	Z:	0.071	yaw:	1.172	yaw rate:	4.579	Roll:	0.792	Pitch:	0.600	Yaw:	1.534	Thrust:	87.129
Time:	3.368	Roll Set Point:	-0.065	Pitch Set Point:	-0.041	Yaw Set Point:	-0.023	X_WP:	0.000	Y_WP:	0.000	Y_WP:	1.000	X:	0.032	Y:	0.021	Z:	0.085	yaw:	1.329	yaw rate:	-7.654	Roll:	0.963	Pitch:	1.136	Yaw:	5.721	Thrust:	33.922
Time:	3.380	Roll Set Point:	-0.064	Pitch Set Point:	-0.042	Yaw Set Point:	-0.024	X_WP:	0.000	Y_WP:	0.000	Y_WP:	1.000	X:	0.032	Y:	0.021	Z:	0.090	yaw:	1.355	yaw rate:	-2.529	Roll:	0.705	Pitch:	0.818	Yaw:	2.972	Thrust:	64.545
Time:	3.392	Roll Set Point:	-0.065	Pitch Set Point:	-0.042	Yaw Set Point:	-0.028	X_WP:	0.000	Y_WP:	0.000	Y_WP:	1.000	X:	0.032	Y:	0.022	Z:	0.096	yaw:	1.620	yaw rate:	-26.528	Roll:	0.916	Pitch:	0.661	Yaw:	8.541	Thrust:	65.150
Time:	3.409	Roll Set Point:	-0.064	Pitch Set Point:	-0.043	Yaw Set Point:	-0.030	X_WP:	0.000	Y_WP:	0.000	Y_WP:	1.000	X:	0.032	Y:	0.022	Z:	0.102	yaw:	1.745	yaw rate:	-12.485	Roll:	0.758	Pitch:	0.826	Yaw:	5.155	Thrust:	88.964
Time:	3.423	Roll Set Point:	-0.065	Pitch Set Point:	-0.046	Yaw Set Point:	-0.038	X_WP:	0.000	Y_WP:	0.000	Y_WP:	1.000	X:	0.032	Y:	0.023	Z:	0.114	yaw:	2.166	yaw rate:	-11.085	Roll:	0.928	Pitch:	0.988	Yaw:	11.624	Thrust:	57.455
Time:	3.435	Roll Set Point:	-0.064	Pitch Set Point:	-0.046	Yaw Set Point:	-0.049	X_WP:	0.000	Y_WP:	0.000	Y_WP:	1.000	X:	0.032	Y:	0.024	Z:	0.121	yaw:	2.805	yaw rate:	-63.900	Roll:	0.876	Pitch:	0.604	Yaw:	18.308	Thrust:	63.416
Time:	3.446	Roll Set Point:	-0.064	Pitch Set Point:	-0.048	Yaw Set Point:	-0.042	X_WP:	0.000	Y_WP:	0.000	Y_WP:	1.000	X:	0.032	Y:	0.024	Z:	0.128	yaw:	2.407	yaw rate:	39.720	Roll:	0.704	Pitch:	1.096	Yaw:	-5.121	Thrust:	62.239
Time:	3.457	Roll Set Point:	-0.064	Pitch Set Point:	-0.049	Yaw Set Point:	-0.043	X_WP:	0.000	Y_WP:	0.000	Y_WP:	1.000	X:	0.031	Y:	0.025	Z:	0.134	yaw:	2.465	yaw rate:	-5.748	Roll:	0.782	Pitch:	0.963	Yaw:	5.302	Thrust:	63.454
Time:	3.472	Roll Set Point:	-0.064	Pitch Set Point:	-0.050	Yaw Set Point:	-0.047	X_WP:	0.000	Y_WP:	0.000	Y_WP:	1.000	X:	0.032	Y:	0.026	Z:	0.142	yaw:	2.668	yaw rate:	-20.334	Roll:	0.985	Pitch:	1.055	Yaw:	8.415	Thrust:	66.000
Time:	3.491	Roll Set Point:	-0.065	Pitch Set Point:	-0.051	Yaw Set Point:	-0.049	X_WP:	0.000	Y_WP:	0.000	Y_WP:	1.000	X:	0.032	Y:	0.026	Z:	0.149	yaw:	2.786	yaw rate:	-11.791	Roll:	0.906	Pitch:	0.789	Yaw:	6.446	Thrust:	100.000
Time:	3.503	Roll Set Point:	-0.064	Pitch Set Point:	-0.057	Yaw Set Point:	-0.046	X_WP:	0.000	Y_WP:	0.000	Y_WP:	1.000	X:	0.031	Y:	0.029	Z:	0.172	yaw:	2.645	yaw rate:	3.371	Roll:	0.682	Pitch:	2.206	Yaw:	1.365	Thrust:	6.714
Time:	3.514	Roll Set Point:	-0.064	Pitch Set Point:	-0.058	Yaw Set Point:	-0.054	X_WP:	0.000	Y_WP:	0.000	Y_WP:	1.000	X:	0.031	Y:	0.030	Z:	0.179	yaw:	3.082	yaw rate:	-43.711	Roll:	0.943	Pitch:	1.030	Yaw:	14.826	Thrust:	61.693
Time:	3.525	Roll Set Point:	-0.064	Pitch Set Point:	-0.059	Yaw Set Point:	-0.052	X_WP:	0.000	Y_WP:	0.000	Y_WP:	1.000	X:	0.031	Y:	0.030	Z:	0.187	yaw:	2.964	yaw rate:	11.835	Roll:	0.832	Pitch:	1.213	Yaw:	1.967	Thrust:	57.093
Time:	3.543	Roll Set Point:	-0.064	Pitch Set Point:	-0.061	Yaw Set Point:	-0.057	X_WP:	0.000	Y_WP:	0.000	Y_WP:	1.000	X:	0.031	Y:	0.031	Z:	0.196	yaw:	3.244	yaw rate:	-28.044	Roll:	0.820	Pitch:	1.115	Yaw:	9.858	Thrust:	92.394
