Time:	0.040	Roll Set Point:	-0.048	Pitch Set Point:	-0.019	Yaw Set Point:	0.068	X_WP:	0.000	Y_WP:	0.000	Y_WP:	0.000	X:	0.024	Y:	0.009	Z:	0.057	yaw:	-3.886	yaw rate:	14.253	Roll:	0.682	Pitch:	0.296	Yaw:	-5.425	Thrust:	0.000
Time:	0.060	Roll Set Point:	-0.048	Pitch Set Point:	-0.019	Yaw Set Point:	0.068	X_WP:	0.000	Y_WP:	0.000	Y_WP:	0.000	X:	0.024	Y:	0.009	Z:	0.057	yaw:	-3.890	yaw rate:	0.482	Roll:	0.699	Pitch:	0.297	Yaw:	-5.524	Thrust:	0.000
Time:	0.080	Roll Set Point:	-0.048	Pitch Set Point:	-0.019	Yaw Set Point:	0.065	X_WP:	0.000	Y_WP:	0.000	Y_WP:	0.000	X:	0.024	Y:	0.009	Z:	0.057	yaw:	-3.744	yaw rate:	-14.688	Roll:	0.621	Pitch:	0.197	Yaw:	-3.315	Thrust:	0.000
Time:	0.105	Roll Set Point:	-0.048	Pitch Set Point:	-0.019	Yaw Set Point:	0.068	X_WP:	0.000	Y_WP:	0.000	Y_WP:	0.000	X:	0.024	Y:	0.009	Z:	0.057	yaw:	-3.890	yaw rate:	14.676	Roll:	0.725	Pitch:	0.373	Yaw:	-7.036	Thrust:	0.000
Time:	0.120	Roll Set Point:	-0.048	Pitch Set Point:	-0.019	Yaw Set Point:	0.065	X_WP:	0.000	Y_WP:	0.000	Y_WP:	0.000	X:	0.024	Y:	0.009	Z:	0.057	yaw:	-3.746	yaw rate:	-14.457	Roll:	0.635	Pitch:	0.192	Yaw:	-2.884	Thrust:	0.000
Time:	0.140	Roll Set Point:	-0.048	Pitch Set Point:	-0.019	Yaw Set Point:	0.068	X_WP:	0.000	Y_WP:	0.000	Y_WP:	0.000	X:	0.024	Y:	0.009	Z:	0.057	yaw:	-3.884	yaw rate:	13.836	Roll:	0.722	Pitch:	0.376	Yaw:	-7.363	Thrust:	0.000
Time:	0.163	Roll Set Point:	-0.048	Pitch Set Point:	-0.019	Yaw Set Point:	0.065	X_WP:	0.000	Y_WP:	0.000	Y_WP:	0.000	X:	0.024	Y:	0.009	Z:	0.057	yaw:	-3.739	yaw rate:	-14.471	Roll:	0.651	Pitch:	0.211	Yaw:	-3.677	Thrust:	0.000
Time:	0.180	Roll Set Point:	-0.048	Pitch Set Point:	-0.019	Yaw Set Point:	0.065	X_WP:	0.000	Y_WP:	0.000	Y_WP:	0.000	X:	0.024	Y:	0.009	Z:	0.057	yaw:	-3.739	yaw rate:	-0.033	Roll:	0.689	Pitch:	0.287	Yaw:	-5.386	Thrust:	0.000
Time:	0.200	Roll Set Point:	-0.048	Pitch Set Point:	-0.019	Yaw Set Point:	0.065	X_WP:	0.000	Y_WP:	0.000	Y_WP:	0.000	X:	0.024	Y:	0.009	Z:	0.057	yaw:	-3.742	yaw rate:	0.252	Roll:	0.689	Pitch:	0.307	Yaw:	-5.466	Thrust:	0.000
Time:	0.220	Roll Set Point:	-0.048	Pitch Set Point:	-0.019	Yaw Set Point:	0.068	X_WP:	0.000	Y_WP:	0.000	Y_WP:	0.000	X:	0.024	Y:	0.009	Z:	0.057	yaw:	-3.896	yaw rate:	15.412	Roll:	0.732	Pitch:	0.390	Yaw:	-7.616	Thrust:	0.000
Time:	0.240	Roll Set Point:	-0.048	Pitch Set Point:	-0.019	Yaw Set Point:	0.068	X_WP:	0.000	Y_WP:	0.000	Y_WP:	0.000	X:	0.024	Y:	0.009	Z:	0.057	yaw:	-3.888	yaw rate:	-0.730	Roll:	0.704	Pitch:	0.300	Yaw:	-5.592	Thrust:	0.000
Time:	0.260	Roll Set Point:	-0.048	Pitch Set Point:	-0.019	Yaw Set Point:	0.065	X_WP:	0.000	Y_WP:	0.000	Y_WP:	0.000	X:	0.024	Y:	0.009	Z:	0.057	yaw:	-3.744	yaw rate:	-14.417	Roll:	0.644	Pitch:	0.199	Yaw:	-3.526	Thrust:	0.000
Time:	0.280	Roll Set Point:	-0.048	Pitch Set Point:	-0.019	Yaw Set Point:	0.065	X_WP:	0.000	Y_WP:	0.000	Y_WP:	0.000	X:	0.024	Y:	0.009	Z:	0.057	yaw:	-3.742	yaw rate:	-0.191	Roll:	0.689	Pitch:	0.298	Yaw:	-5.533	Thrust:	0.000
Time:	0.302	Roll Set Point:	-0.048	Pitch Set Point:	-0.019	Yaw Set Point:	0.065	X_WP:	0.000	Y_WP:	0.000	Y_WP:	0.000	X:	0.024	Y:	0.009	Z:	0.057	yaw:	-3.737	yaw rate:	-0.488	Roll:	0.706	Pitch:	0.300	Yaw:	-5.532	Thrust:	0.000
Time:	0.320	Roll Set Point:	-0.048	Pitch Set Point:	-0.019	Yaw Set Point:	0.065	X_WP:	0.000	Y_WP:	0.000	Y_WP:	0.000	X:	0.024	Y:	0.009	Z:	0.057	yaw:	-3.738	yaw rate:	0.086	Roll:	0.688	Pitch:	0.302	Yaw:	-5.578	Thrust:	0.000
Time:	0.340	Roll Set Point:	-0.048	Pitch Set Point:	-0.019	Yaw Set Point:	0.068	X_WP:	0.000	Y_WP:	0.000	Y_WP:	0.000	X:	0.024	Y:	0.009	Z:	0.057	yaw:	-3.883	yaw rate:	14.457	Roll:	0.750	Pitch:	0.388	Yaw:	-7.780	Thrust:	0.000
Time:	0.361	Roll Set Point:	-0.048	Pitch Set Point:	-0.019	Yaw Set Point:	0.068	X_WP:	0.000	Y_WP:	0.000	Y_WP:	0.000	X:	0.024	Y:	0.009	Z:	0.057	yaw:	-3.886	yaw rate:	0.323	Roll:	0.690	Pitch:	0.306	Yaw:	-5.904	Thrust:	0.000
Time:	0.380	Roll Set Point:	-0.048	Pitch Set Point:	-0.019	Yaw Set Point:	0.065	X_WP:	0.000	Y_WP:	0.000	Y_WP:	0.000	X:	0.024	Y:	0.009	Z:	0.057	yaw:	-3.743	yaw rate:	-14.338	Roll:	0.673	Pitch:	0.218	Yaw:	-3.836	Thrust:	0.000
Time:	0.400	Roll Set Point:	-0.048	Pitch Set Point:	-0.019	Yaw Set Point:	0.065	X_WP:	0.000	Y_WP:	0.000	Y_WP:	0.000	X:	0.024	Y:	0.009	Z:	0.057	yaw:	-3.742	yaw rate:	-0.047	Roll:	0.687	Pitch:	0.303	Yaw:	-5.701	Thrust:	0.000
Time:	0.420	Roll Set Point:	-0.048	Pitch Set Point:	-0.019	Yaw Set Point:	0.068	X_WP:	0.000	Y_WP:	0.000	Y_WP:	0.000	X:	0.024	Y:	0.009	Z:	0.057	yaw:	-3.887	yaw rate:	14.492	Roll:	0.758	Pitch:	0.402	Yaw:	-7.819	Thrust:	0.000
Time:	0.440	Roll Set Point:	-0.048	Pitch Set Point:	-0.019	Yaw Set Point:	0.065	X_WP:	0.000	Y_WP:	0.000	Y_WP:	0.000	X:	0.024	Y:	0.009	Z:	0.057	yaw:	-3.742	yaw rate:	-14.517	Roll:	0.660	Pitch:	0.202	Yaw:	-3.805	Thrust:	0.000
Time:	0.461	Roll Set Point:	-0.048	Pitch Set Point:	-0.019	Yaw Set Point:	0.065	X_WP:	0.000	Y_WP:	0.000	Y_WP:	0.000	X:	0.024	Y:	0.009	Z:	0.057	yaw:	-3.741	yaw rate:	-0.135	Roll:	0.701	Pitch:	0.312	Yaw:	-5.781	Thrust:	0.000
Time:	0.480	Roll Set Point:	-0.048	Pitch Set Point:	-0.019	Yaw Set Point:	0.068	X_WP:	0.000	Y_WP:	0.000	Y_WP:	0.000	X:	0.024	Y:	0.009	Z:	0.057	yaw:	-3.888	yaw rate:	14.717	Roll:	0.756	Pitch:	0.391	Yaw:	-8.001	Thrust:	0.000
Time:	0.503	Roll Set Point:	-0.048	Pitch Set Point:	-0.019	Yaw Set Point:	0.065	X_WP:	0.000	Y_WP:	0.000	Y_WP:	0.000	X:	0.024	Y:	0.009	Z:	0.057	yaw:	-3.741	yaw rate:	-14.639	Roll:	0.670	Pitch:	0.231	Yaw:	-4.165	Thrust:	0.000
Time:	0.520	Roll Set Point:	-0.048	Pitch Set Point:	-0.019	Yaw Set Point:	0.065	X_WP:	0.000	Y_WP:	0.000	Y_WP:	0.000	X:	0.024	Y:	0.009	Z:	0.057	yaw:	-3.745	yaw rate:	0.322	Roll:	0.699	Pitch:	0.301	Yaw:	-5.856	Thrust:	0.000
Time:	0.540	Roll Set Point:	-0.048	Pitch Set Point:	-0.019	Yaw Set Point:	0.068	X_WP:	0.000	Y_WP:	0.000	Y_WP:	0.000	X:	0.024	Y:	0.009	Z:	0.057	yaw:	-3.892	yaw rate:	14.754	Roll:	0.763	Pitch:	0.409	Yaw:	-8.059	Thrust:	0.000
Time:	0.561	Roll Set Point:	-0.048	Pitch Set Point:	-0.019	Yaw Set Point:	0.065	X_WP:	0.000	Y_WP:	0.000	Y_WP:	0.000	X:	0.024	Y:	0.009	Z:	0.057	yaw:	-3.742	yaw rate:	-14.984	Roll:	0.662	Pitch:	0.212	Yaw:	-4.095	Thrust:	0.000
Time:	0.580	Roll Set Point:	-0.048	Pitch Set Point:	-0.019	Yaw Set Point:	0.065	X_WP:	0.000	Y_WP:	0.000	Y_WP:	0.000	X:	0.024	Y:	0.009	Z:	0.057	yaw:	-3.747	yaw rate:	0.505	Roll:	0.711	Pitch:	0.308	Yaw:	-5.991	Thrust:	0.000
Time:	0.600	Roll Set Point:	-0.048	Pitch Set Point:	-0.019	Yaw Set Point:	0.068	X_WP:	0.000	Y_WP:	0.000	Y_WP:	0.000	X:	0.024	Y:	0.009	Z:	0.057	yaw:	-3.886	yaw rate:	13.867	Roll:	0.760	Pitch:	0.403	Yaw:	-7.991	Thrust:	0.000
Time:	0.620	Roll Set Point:	-0.048	Pitch Set Point:	-0.019	Yaw Set Point:	0.068	X_WP:	0.000	Y_WP:	0.000	Y_WP:	0.000	X:	0.024	Y:	0.009	Z:	0.057	yaw:	-3.887	yaw rate:	0.059	Roll:	0.712	Pitch:	0.307	Yaw:	-6.213	Thrust:	0.000
Time:	0.640	Roll Set Point:	-0.048	Pitch Set Point:	-0.019	Yaw Set Point:	0.065	X_WP:	0.000	Y_WP:	0.000	Y_WP:	0.000	X:	0.024	Y:	0.009	Z:	0.057	yaw:	-3.735	yaw rate:	-15.206	Roll:	0.674	Pitch:	0.218	Yaw:	-3.963	Thrust:	0.000
Time:	0.660	Roll Set Point:	-0.048	Pitch Set Point:	-0.019	Yaw Set Point:	0.065	X_WP:	0.000	Y_WP:	0.000	Y_WP:	0.000	X:	0.024	Y:	0.009	Z:	0.057	yaw:	-3.737	yaw rate:	0.217	Roll:	0.710	Pitch:	0.304	Yaw:	-6.040	Thrust:	0.000
Time:	0.679	Roll Set Point:	-0.048	Pitch Set Point:	-0.019	Yaw Set Point:	0.068	X_WP:	0.000	Y_WP:	0.000	Y_WP:	0.000	X:	0.024	Y:	0.009	Z:	0.057	yaw:	-3.887	yaw rate:	15.056	Roll:	0.766	Pitch:	0.403	Yaw:	-8.243	Thrust:	0.000
Time:	0.701	Roll Set Point:	-0.048	Pitch Set Point:	-0.019	Yaw Set Point:	0.065	X_WP:	0.000	Y_WP:	0.000	Y_WP:	0.000	X:	0.024	Y:	0.009	Z:	0.057	yaw:	-3.742	yaw rate:	-14.516	Roll:	0.690	Pitch:	0.237	Yaw:	-4.496	Thrust:	0.000
Time:	0.720	Roll Set Point:	-0.048	Pitch Set Point:	-0.019	Yaw Set Point:	0.065	X_WP:	0.000	Y_WP:	0.000	Y_WP:	0.000	X:	0.024	Y:	0.009	Z:	0.057	yaw:	-3.747	yaw rate:	0.462	Roll:	0.716	Pitch:	0.298	Yaw:	-6.143	Thrust:	0.000
Time:	0.740	Roll Set Point:	-0.048	Pitch Set Point:	-0.019	Yaw Set Point:	0.065	X_WP:	0.000	Y_WP:	0.000	Y_WP:	0.000	X:	0.024	Y:	0.009	Z:	0.057	yaw:	-3.741	yaw rate:	-0.563	Roll:	0.720	Pitch:	0.322	Yaw:	-6.055	Thrust:	0.000
Time:	0.760	Roll Set Point:	-0.048	Pitch Set Point:	-0.019	Yaw Set Point:	0.065	X_WP:	0.000	Y_WP:	0.000	Y_WP:	0.000	X:	0.024	Y:	0.009	Z:	0.057	yaw:	-3.744	yaw rate:	0.332	Roll:	0.734	Pitch:	0.304	Yaw:	-6.258	Thrust:	0.000
Time:	0.780	Roll Set Point:	-0.048	Pitch Set Point:	-0.019	Yaw Set Point:	0.065	X_WP:	0.000	Y_WP:	0.000	Y_WP:	0.000	X:	0.024	Y:	0.009	Z:	0.057	yaw:	-3.738	yaw rate:	-0.665	Roll:	0.722	Pitch:	0.311	Yaw:	-6.036	Thrust:	0.000
Time:	0.800	Roll Set Point:	-0.048	Pitch Set Point:	-0.019	Yaw Set Point:	0.065	X_WP:	0.000	Y_WP:	0.000	Y_WP:	0.000	X:	0.024	Y:	0.009	Z:	0.057	yaw:	-3.736	yaw rate:	-0.137	Roll:	0.707	Pitch:	0.307	Yaw:	-6.255	Thrust:	0.000
Time:	0.820	Roll Set Point:	-0.048	Pitch Set Point:	-0.019	Yaw Set Point:	0.065	X_WP:	0.000	Y_WP:	0.000	Y_WP:	0.000	X:	0.024	Y:	0.009	Z:	0.057	yaw:	-3.741	yaw rate:	0.502	Roll:	0.739	Pitch:	0.325	Yaw:	-6.344	Thrust:	0.000
Time:	0.840	Roll Set Point:	-0.048	Pitch Set Point:	-0.019	Yaw Set Point:	0.068	X_WP:	0.000	Y_WP:	0.000	Y_WP:	0.000	X:	0.024	Y:	0.009	Z:	0.057	yaw:	-3.889	yaw rate:	14.773	Roll:	0.770	Pitch:	0.396	Yaw:	-8.457	Thrust:	0.000
Time:	0.860	Roll Set Point:	-0.048	Pitch Set Point:	-0.019	Yaw Set Point:	0.065	X_WP:	0.000	Y_WP:	0.000	Y_WP:	0.000	X:	0.024	Y:	0.009	Z:	0.057	yaw:	-3.744	yaw rate:	-14.504	Roll:	0.683	Pitch:	0.234	Yaw:	-4.431	Thrust:	0.000
Time:	0.880	Roll Set Point:	-0.048	Pitch Set Point:	-0.019	Yaw Set Point:	0.065	X_WP:	0.000	Y_WP:	0.000	Y_WP:	0.000	X:	0.024	Y:	0.009	Z:	0.057	yaw:	-3.742	yaw rate:	-0.182	Roll:	0.734	Pitch:	0.308	Yaw:	-6.313	Thrust:	0.000
Time:	0.903	Roll Set Point:	-0.048	Pitch Set Point:	-0.019	Yaw Set Point:	0.065	X_WP:	0.000	Y_WP:	0.000	Y_WP:	0.000	X:	0.024	Y:	0.009	Z:	0.057	yaw:	-3.742	yaw rate:	-0.003	Roll:	0.731	Pitch:	0.321	Yaw:	-6.539	Thrust:	0.000
Time:	0.920	Roll Set Point:	-0.047	Pitch Set Point:	-0.019	Yaw Set Point:	0.066	X_WP:	0.000	Y_WP:	0.000	Y_WP:	0.000	X:	0.024	Y:	0.009	Z:	0.057	yaw:	-3.801	yaw rate:	5.862	Roll:	0.699	Pitch:	0.403	Yaw:	-7.198	Thrust:	0.000
Time:	0.940	Roll Set Point:	-0.048	Pitch Set Point:	-0.019	Yaw Set Point:	0.068	X_WP:	0.000	Y_WP:	0.000	Y_WP:	0.000	X:	0.024	Y:	0.009	Z:	0.057	yaw:	-3.886	yaw rate:	8.554	Roll:	0.800	Pitch:	0.329	Yaw:	-7.743	Thrust:	0.000
Time:	0.960	Roll Set Point:	-0.048	Pitch Set Point:	-0.019	Yaw Set Point:	0.065	X_WP:	0.000	Y_WP:	0.000	Y_WP:	0.000	X:	0.024	Y:	0.009	Z:	0.057	yaw:	-3.737	yaw rate:	-14.952	Roll:	0.700	Pitch:	0.237	Yaw:	-4.576	Thrust:	0.000
Time:	0.980	Roll Set Point:	-0.048	Pitch Set Point:	-0.019	Yaw Set Point:	0.065	X_WP:	0.000	Y_WP:	0.000	Y_WP:	0.000	X:	0.024	Y:	0.009	Z:	0.057	yaw:	-3.749	yaw rate:	1.163	Roll:	0.728	Pitch:	0.319	Yaw:	-6.634	Thrust:	0.000
Time:	1.000	Roll Set Point:	-0.048	Pitch Set Point:	-0.019	Yaw Set Point:	0.065	X_WP:	0.000	Y_WP:	0.000	Y_WP:	0.000	X:	0.024	Y:	0.009	Z:	0.057	yaw:	-3.752	yaw rate:	0.354	Roll:	0.742	Pitch:	0.317	Yaw:	-6.502	Thrust:	0.000
Time:	1.020	Roll Set Point:	-0.048	Pitch Set Point:	-0.019	Yaw Set Point:	0.065	X_WP:	0.000	Y_WP:	0.000	Y_WP:	0.000	X:	0.024	Y:	0.009	Z:	0.057	yaw:	-3.744	yaw rate:	-0.827	Roll:	0.737	Pitch:	0.316	Yaw:	-6.466	Thrust:	0.000
Time:	1.040	Roll Set Point:	-0.048	Pitch Set Point:	-0.019	Yaw Set Point:	0.068	X_WP:	0.000	Y_WP:	0.000	Y_WP:	0.000	X:	0.024	Y:	0.009	Z:	0.057	yaw:	-3.889	yaw rate:	14.493	Roll:	0.795	Pitch:	0.415	Yaw:	-8.668	Thrust:	0.000
Time:	1.060	Roll Set Point:	-0.048	Pitch Set Point:	-0.019	Yaw Set Point:	0.065	X_WP:	0.000	Y_WP:	0.000	Y_WP:	0.000	X:	0.024	Y:	0.009	Z:	0.057	yaw:	-3.742	yaw rate:	-14.656	Roll:	0.682	Pitch:	0.219	Yaw:	-4.688	Thrust:	0.000
Time:	1.079	Roll Set Point:	-0.048	Pitch Set Point:	-0.019	Yaw Set Point:	0.065	X_WP:	0.000	Y_WP:	0.000	Y_WP:	0.000	X:	0.024	Y:	0.009	Z:	0.057	yaw:	-3.742	yaw rate:	-0.062	Roll:	0.745	Pitch:	0.321	Yaw:	-6.536	Thrust:	0.000
Time:	1.106	Roll Set Point:	-0.048	Pitch Set Point:	-0.019	Yaw Set Point:	0.068	X_WP:	0.000	Y_WP:	0.000	Y_WP:	0.000	X:	0.024	Y:	0.009	Z:	0.057	yaw:	-3.883	yaw rate:	14.162	Roll:	0.788	Pitch:	0.392	Yaw:	-8.674	Thrust:	0.000
Time:	1.120	Roll Set Point:	-0.048	Pitch Set Point:	-0.019	Yaw Set Point:	0.065	X_WP:	0.000	Y_WP:	0.000	Y_WP:	0.000	X:	0.024	Y:	0.009	Z:	0.057	yaw:	-3.736	yaw rate:	-14.696	Roll:	0.667	Pitch:	0.218	Yaw:	-3.748	Thrust:	0.000
Time:	1.140	Roll Set Point:	-0.048	Pitch Set Point:	-0.019	Yaw Set Point:	0.068	X_WP:	0.000	Y_WP:	0.000	Y_WP:	0.000	X:	0.024	Y:	0.009	Z:	0.057	yaw:	-3.884	yaw rate:	14.754	Roll:	0.807	Pitch:	0.411	Yaw:	-8.842	Thrust:	0.000
Time:	1.161	Roll Set Point:	-0.048	Pitch Set Point:	-0.019	Yaw Set Point:	0.068	X_WP:	0.000	Y_WP:	0.000	Y_WP:	0.000	X:	0.024	Y:	0.009	Z:	0.057	yaw:	-3.882	yaw rate:	-0.148	Roll:	0.748	Pitch:	0.325	Yaw:	-6.910	Thrust:	0.000
Time:	1.189	Roll Set Point:	-0.048	Pitch Set Point:	-0.019	Yaw Set Point:	0.065	X_WP:	0.000	Y_WP:	0.000	Y_WP:	0.000	X:	0.024	Y:	0.009	Z:	0.057	yaw:	-3.740	yaw rate:	-14.246	Roll:	0.747	Pitch:	0.276	Yaw:	-6.147	Thrust:	0.000
Time:	1.200	Roll Set Point:	-0.048	Pitch Set Point:	-0.019	Yaw Set Point:	0.068	X_WP:	0.000	Y_WP:	0.000	Y_WP:	0.000	X:	0.024	Y:	0.009	Z:	0.057	yaw:	-3.887	yaw rate:	14.740	Roll:	0.790	Pitch:	0.470	Yaw:	-9.768	Thrust:	0.000
Time:	1.220	Roll Set Point:	-0.048	Pitch Set Point:	-0.019	Yaw Set Point:	0.068	X_WP:	0.000	Y_WP:	0.000	Y_WP:	0.000	X:	0.024	Y:	0.009	Z:	0.057	yaw:	-3.885	yaw rate:	-0.172	Roll:	0.755	Pitch:	0.330	Yaw:	-6.976	Thrust:	0.000
Time:	1.240	Roll Set Point:	-0.048	Pitch Set Point:	-0.019	Yaw Set Point:	0.068	X_WP:	0.000	Y_WP:	0.000	Y_WP:	0.000	X:	0.024	Y:	0.009	Z:	0.057	yaw:	-3.888	yaw rate:	0.257	Roll:	0.750	Pitch:	0.321	Yaw:	-7.022	Thrust:	0.000
Time:	1.260	Roll Set Point:	-0.048	Pitch Set Point:	-0.019	Yaw Set Point:	0.068	X_WP:	0.000	Y_WP:	0.000	Y_WP:	0.000	X:	0.024	Y:	0.009	Z:	0.057	yaw:	-3.882	yaw rate:	-0.608	Roll:	0.763	Pitch:	0.325	Yaw:	-6.966	Thrust:	0.000
Time:	1.279	Roll Set Point:	-0.048	Pitch Set Point:	-0.019	Yaw Set Point:	0.068	X_WP:	0.000	Y_WP:	0.000	Y_WP:	0.000	X:	0.024	Y:	0.009	Z:	0.057	yaw:	-3.887	yaw rate:	0.517	Roll:	0.750	Pitch:	0.331	Yaw:	-7.088	Thrust:	0.000
Time:	1.306	Roll Set Point:	-0.048	Pitch Set Point:	-0.019	Yaw Set Point:	0.068	X_WP:	0.000	Y_WP:	0.000	Y_WP:	0.000	X:	0.024	Y:	0.009	Z:	0.057	yaw:	-3.887	yaw rate:	-0.028	Roll:	0.768	Pitch:	0.341	Yaw:	-7.649	Thrust:	0.000
Time:	1.320	Roll Set Point:	-0.048	Pitch Set Point:	-0.019	Yaw Set Point:	0.065	X_WP:	0.000	Y_WP:	0.000	Y_WP:	0.000	X:	0.024	Y:	0.009	Z:	0.057	yaw:	-3.741	yaw rate:	-14.573	Roll:	0.685	Pitch:	0.191	Yaw:	-3.821	Thrust:	0.000
Time:	1.340	Roll Set Point:	-0.048	Pitch Set Point:	-0.019	Yaw Set Point:	0.065	X_WP:	0.000	Y_WP:	0.000	Y_WP:	0.000	X:	0.024	Y:	0.009	Z:	0.057	yaw:	-3.740	yaw rate:	-0.093	Roll:	0.762	Pitch:	0.324	Yaw:	-6.882	Thrust:	0.000
Time:	1.360	Roll Set Point:	-0.048	Pitch Set Point:	-0.019	Yaw Set Point:	0.065	X_WP:	0.000	Y_WP:	0.000	Y_WP:	0.000	X:	0.024	Y:	0.009	Z:	0.057	yaw:	-3.744	yaw rate:	0.359	Roll:	0.759	Pitch:	0.326	Yaw:	-7.032	Thrust:	0.000
Time:	1.380	Roll Set Point:	-0.048	Pitch Set Point:	-0.019	Yaw Set Point:	0.068	X_WP:	0.000	Y_WP:	0.000	Y_WP:	0.000	X:	0.024	Y:	0.009	Z:	0.057	yaw:	-3.894	yaw rate:	15.026	Roll:	0.807	Pitch:	0.422	Yaw:	-9.189	Thrust:	0.000
Time:	1.400	Roll Set Point:	-0.048	Pitch Set Point:	-0.019	Yaw Set Point:	0.065	X_WP:	0.000	Y_WP:	0.000	Y_WP:	0.000	X:	0.024	Y:	0.009	Z:	0.057	yaw:	-3.741	yaw rate:	-15.323	Roll:	0.717	Pitch:	0.241	Yaw:	-5.150	Thrust:	0.000
Time:	1.421	Roll Set Point:	-0.048	Pitch Set Point:	-0.019	Yaw Set Point:	0.065	X_WP:	0.000	Y_WP:	0.000	Y_WP:	0.000	X:	0.024	Y:	0.009	Z:	0.057	yaw:	-3.745	yaw rate:	0.419	Roll:	0.751	Pitch:	0.325	Yaw:	-7.200	Thrust:	0.000
Time:	1.440	Roll Set Point:	-0.048	Pitch Set Point:	-0.019	Yaw Set Point:	0.065	X_WP:	0.000	Y_WP:	0.000	Y_WP:	0.000	X:	0.024	Y:	0.009	Z:	0.057	yaw:	-3.739	yaw rate:	-0.614	Roll:	0.762	Pitch:	0.336	Yaw:	-6.907	Thrust:	0.000
Time:	1.460	Roll Set Point:	-0.048	Pitch Set Point:	-0.019	Yaw Set Point:	0.068	X_WP:	0.000	Y_WP:	0.000	Y_WP:	0.000	X:	0.024	Y:	0.009	Z:	0.057	yaw:	-3.888	yaw rate:	14.925	Roll:	0.814	Pitch:	0.411	Yaw:	-9.266	Thrust:	0.000
Time:	1.480	Roll Set Point:	-0.048	Pitch Set Point:	-0.019	Yaw Set Point:	0.068	X_WP:	0.000	Y_WP:	0.000	Y_WP:	0.000	X:	0.024	Y:	0.009	Z:	0.057	yaw:	-3.894	yaw rate:	0.563	Roll:	0.760	Pitch:	0.334	Yaw:	-7.351	Thrust:	0.000
Time:	1.500	Roll Set Point:	-0.048	Pitch Set Point:	-0.019	Yaw Set Point:	0.068	X_WP:	0.000	Y_WP:	0.000	Y_WP:	0.000	X:	0.024	Y:	0.009	Z:	0.057	yaw:	-3.891	yaw rate:	-0.271	Roll:	0.768	Pitch:	0.336	Yaw:	-7.392	Thrust:	0.000
Time:	1.519	Roll Set Point:	-0.048	Pitch Set Point:	-0.019	Yaw Set Point:	0.068	X_WP:	0.000	Y_WP:	0.000	Y_WP:	0.000	X:	0.024	Y:	0.009	Z:	0.057	yaw:	-3.890	yaw rate:	-0.135	Roll:	0.771	Pitch:	0.337	Yaw:	-7.300	Thrust:	0.000
Time:	1.539	Roll Set Point:	-0.048	Pitch Set Point:	-0.019	Yaw Set Point:	0.068	X_WP:	0.000	Y_WP:	0.000	Y_WP:	0.000	X:	0.024	Y:	0.009	Z:	0.057	yaw:	-3.881	yaw rate:	-0.834	Roll:	0.774	Pitch:	0.331	Yaw:	-7.369	Thrust:	0.000
Time:	1.560	Roll Set Point:	-0.048	Pitch Set Point:	-0.019	Yaw Set Point:	0.065	X_WP:	0.000	Y_WP:	0.000	Y_WP:	0.000	X:	0.024	Y:	0.009	Z:	0.057	yaw:	-3.742	yaw rate:	-13.896	Roll:	0.715	Pitch:	0.245	Yaw:	-5.543	Thrust:	0.000
Time:	1.579	Roll Set Point:	-0.048	Pitch Set Point:	-0.019	Yaw Set Point:	0.065	X_WP:	0.000	Y_WP:	0.000	Y_WP:	0.000	X:	0.024	Y:	0.009	Z:	0.057	yaw:	-3.739	yaw rate:	-0.378	Roll:	0.779	Pitch:	0.330	Yaw:	-7.125	Thrust:	0.000
Time:	1.599	Roll Set Point:	-0.048	Pitch Set Point:	-0.019	Yaw Set Point:	0.068	X_WP:	0.000	Y_WP:	0.000	Y_WP:	0.000	X:	0.024	Y:	0.009	Z:	0.057	yaw:	-3.881	yaw rate:	14.248	Roll:	0.822	Pitch:	0.419	Yaw:	-9.357	Thrust:	0.000
Time:	1.621	Roll Set Point:	-0.048	Pitch Set Point:	-0.019	Yaw Set Point:	0.068	X_WP:	0.000	Y_WP:	0.000	Y_WP:	0.000	X:	0.024	Y:	0.009	Z:	0.057	yaw:	-3.902	yaw rate:	2.052	Roll:	0.781	Pitch:	0.355	Yaw:	-7.888	Thrust:	0.000
Time:	1.641	Roll Set Point:	-0.048	Pitch Set Point:	-0.019	Yaw Set Point:	0.068	X_WP:	0.000	Y_WP:	0.000	Y_WP:	0.000	X:	0.024	Y:	0.009	Z:	0.057	yaw:	-3.897	yaw rate:	-0.425	Roll:	0.764	Pitch:	0.326	Yaw:	-7.575	Thrust:	0.000
Time:	1.660	Roll Set Point:	-0.048	Pitch Set Point:	-0.019	Yaw Set Point:	0.065	X_WP:	0.000	Y_WP:	0.000	Y_WP:	0.000	X:	0.024	Y:	0.009	Z:	0.057	yaw:	-3.741	yaw rate:	-15.616	Roll:	0.737	Pitch:	0.242	Yaw:	-4.925	Thrust:	0.000
Time:	1.680	Roll Set Point:	-0.048	Pitch Set Point:	-0.019	Yaw Set Point:	0.068	X_WP:	0.000	Y_WP:	0.000	Y_WP:	0.000	X:	0.024	Y:	0.009	Z:	0.057	yaw:	-3.888	yaw rate:	14.724	Roll:	0.816	Pitch:	0.418	Yaw:	-9.535	Thrust:	0.000
Time:	1.700	Roll Set Point:	-0.048	Pitch Set Point:	-0.019	Yaw Set Point:	0.065	X_WP:	0.000	Y_WP:	0.000	Y_WP:	0.000	X:	0.024	Y:	0.009	Z:	0.057	yaw:	-3.744	yaw rate:	-14.469	Roll:	0.734	Pitch:	0.256	Yaw:	-5.662	Thrust:	0.000
Time:	1.720	Roll Set Point:	-0.048	Pitch Set Point:	-0.019	Yaw Set Point:	0.065	X_WP:	0.000	Y_WP:	0.000	Y_WP:	0.000	X:	0.024	Y:	0.009	Z:	0.057	yaw:	-3.733	yaw rate:	-1.060	Roll:	0.775	Pitch:	0.336	Yaw:	-7.358	Thrust:	0.000
Time:	1.740	Roll Set Point:	-0.048	Pitch Set Point:	-0.019	Yaw Set Point:	0.068	X_WP:	0.000	Y_WP:	0.000	Y_WP:	0.000	X:	0.024	Y:	0.009	Z:	0.057	yaw:	-3.889	yaw rate:	15.549	Roll:	0.826	Pitch:	0.423	Yaw:	-9.718	Thrust:	0.000
Time:	1.760	Roll Set Point:	-0.048	Pitch Set Point:	-0.019	Yaw Set Point:	0.065	X_WP:	0.000	Y_WP:	0.000	Y_WP:	0.000	X:	0.024	Y:	0.009	Z:	0.057	yaw:	-3.742	yaw rate:	-14.659	Roll:	0.733	Pitch:	0.258	Yaw:	-5.837	Thrust:	0.000
Time:	1.779	Roll Set Point:	-0.048	Pitch Set Point:	-0.019	Yaw Set Point:	0.068	X_WP:	0.000	Y_WP:	0.000	Y_WP:	0.000	X:	0.024	Y:	0.009	Z:	0.057	yaw:	-3.890	yaw rate:	14.783	Roll:	0.847	Pitch:	0.435	Yaw:	-9.661	Thrust:	0.000
Time:	1.800	Roll Set Point:	-0.048	Pitch Set Point:	-0.019	Yaw Set Point:	0.068	X_WP:	0.000	Y_WP:	0.000	Y_WP:	0.000	X:	0.024	Y:	0.009	Z:	0.057	yaw:	-3.890	yaw rate:	0.001	Roll:	0.784	Pitch:	0.344	Yaw:	-7.829	Thrust:	0.000
Time:	1.820	Roll Set Point:	-0.048	Pitch Set Point:	-0.019	Yaw Set Point:	0.065	X_WP:	0.000	Y_WP:	0.000	Y_WP:	0.000	X:	0.024	Y:	0.009	Z:	0.057	yaw:	-3.741	yaw rate:	-14.923	Roll:	0.744	Pitch:	0.254	Yaw:	-5.833	Thrust:	0.000
Time:	1.841	Roll Set Point:	-0.048	Pitch Set Point:	-0.019	Yaw Set Point:	0.068	X_WP:	0.000	Y_WP:	0.000	Y_WP:	0.000	X:	0.024	Y:	0.009	Z:	0.057	yaw:	-3.887	yaw rate:	14.625	Roll:	0.839	Pitch:	0.429	Yaw:	-9.735	Thrust:	0.000
Time:	1.860	Roll Set Point:	-0.048	Pitch Set Point:	-0.019	Yaw Set Point:	0.068	X_WP:	0.000	Y_WP:	0.000	Y_WP:	0.000	X:	0.024	Y:	0.009	Z:	0.057	yaw:	-3.885	yaw rate:	-0.143	Roll:	0.766	Pitch:	0.337	Yaw:	-7.650	Thrust:	0.000
Time:	1.880	Roll Set Point:	-0.047	Pitch Set Point:	-0.019	Yaw Set Point:	0.066	X_WP:	0.000	Y_WP:	0.000	Y_WP:	0.000	X:	0.024	Y:	0.009	Z:	0.057	yaw:	-3.808	yaw rate:	-7.735	Roll:	0.717	Pitch:	0.328	Yaw:	-6.713	Thrust:	0.000
Time:	1.900	Roll Set Point:	-0.048	Pitch Set Point:	-0.019	Yaw Set Point:	0.065	X_WP:	0.000	Y_WP:	0.000	Y_WP:	0.000	X:	0.024	Y:	0.009	Z:	0.057	yaw:	-3.741	yaw rate:	-6.716	Roll:	0.820	Pitch:	0.270	Yaw:	-7.007	Thrust:	0.000
Time:	1.920	Roll Set Point:	-0.048	Pitch Set Point:	-0.019	Yaw Set Point:	0.065	X_WP:	0.000	Y_WP:	0.000	Y_WP:	0.000	X:	0.024	Y:	0.009	Z:	0.057	yaw:	-3.744	yaw rate:	0.282	Roll:	0.791	Pitch:	0.345	Yaw:	-7.707	Thrust:	0.000
Time:	1.940	Roll Set Point:	-0.048	Pitch Set Point:	-0.019	Yaw Set Point:	0.065	X_WP:	0.000	Y_WP:	0.000	Y_WP:	0.000	X:	0.024	Y:	0.009	Z:	0.057	yaw:	-3.740	yaw rate:	-0.354	Roll:	0.796	Pitch:	0.333	Yaw:	-7.719	Thrust:	0.000
Time:	1.960	Roll Set Point:	-0.048	Pitch Set Point:	-0.019	Yaw Set Point:	0.065	X_WP:	0.000	Y_WP:	0.000	Y_WP:	0.000	X:	0.024	Y:	0.009	Z:	0.057	yaw:	-3.745	yaw rate:	0.511	Roll:	0.799	Pitch:	0.351	Yaw:	-7.932	Thrust:	0.000
Time:	1.979	Roll Set Point:	-0.048	Pitch Set Point:	-0.019	Yaw Set Point:	0.068	X_WP:	0.000	Y_WP:	0.000	Y_WP:	0.000	X:	0.024	Y:	0.009	Z:	0.057	yaw:	-3.886	yaw rate:	14.057	Roll:	0.841	Pitch:	0.440	Yaw:	-9.801	Thrust:	0.000
Time:	2.000	Roll Set Point:	-0.048	Pitch Set Point:	-0.019	Yaw Set Point:	0.065	X_WP:	0.000	Y_WP:	0.000	Y_WP:	0.000	X:	0.024	Y:	0.009	Z:	0.057	yaw:	-3.740	yaw rate:	-14.619	Roll:	0.741	Pitch:	0.257	Yaw:	-6.095	Thrust:	0.000
Time:	2.020	Roll Set Point:	-0.048	Pitch Set Point:	-0.019	Yaw Set Point:	0.065	X_WP:	0.000	Y_WP:	0.000	Y_WP:	0.000	X:	0.024	Y:	0.009	Z:	0.057	yaw:	-3.743	yaw rate:	0.300	Roll:	0.797	Pitch:	0.339	Yaw:	-7.976	Thrust:	0.000
Time:	2.041	Roll Set Point:	-0.048	Pitch Set Point:	-0.019	Yaw Set Point:	0.068	X_WP:	0.000	Y_WP:	0.000	Y_WP:	0.000	X:	0.024	Y:	0.009	Z:	0.057	yaw:	-3.889	yaw rate:	14.593	Roll:	0.859	Pitch:	0.442	Yaw:	-10.041	Thrust:	0.000
Time:	2.060	Roll Set Point:	-0.048	Pitch Set Point:	-0.019	Yaw Set Point:	0.068	X_WP:	0.000	Y_WP:	0.000	Y_WP:	0.000	X:	0.024	Y:	0.009	Z:	0.057	yaw:	-3.888	yaw rate:	-0.117	Roll:	0.798	Pitch:	0.338	Yaw:	-7.843	Thrust:	0.000
Time:	2.079	Roll Set Point:	-0.048	Pitch Set Point:	-0.019	Yaw Set Point:	0.068	X_WP:	0.000	Y_WP:	0.000	Y_WP:	0.000	X:	0.024	Y:	0.009	Z:	0.057	yaw:	-3.886	yaw rate:	-0.114	Roll:	0.787	Pitch:	0.343	Yaw:	-8.017	Thrust:	0.000
Time:	2.101	Roll Set Point:	-0.048	Pitch Set Point:	-0.019	Yaw Set Point:	0.068	X_WP:	0.000	Y_WP:	0.000	Y_WP:	0.000	X:	0.024	Y:	0.009	Z:	0.057	yaw:	-3.891	yaw rate:	0.414	Roll:	0.811	Pitch:	0.358	Yaw:	-8.445	Thrust:	0.000
Time:	2.120	Roll Set Point:	-0.048	Pitch Set Point:	-0.019	Yaw Set Point:	0.068	X_WP:	0.000	Y_WP:	0.000	Y_WP:	0.000	X:	0.024	Y:	0.009	Z:	0.057	yaw:	-3.888	yaw rate:	-0.224	Roll:	0.804	Pitch:	0.341	Yaw:	-8.030	Thrust:	0.000
Time:	2.142	Roll Set Point:	-0.048	Pitch Set Point:	-0.019	Yaw Set Point:	0.067	X_WP:	0.000	Y_WP:	0.000	Y_WP:	0.000	X:	0.024	Y:	0.009	Z:	0.057	yaw:	-3.810	yaw rate:	-7.782	Roll:	0.752	Pitch:	0.346	Yaw:	-7.595	Thrust:	0.000
Time:	2.160	Roll Set Point:	-0.048	Pitch Set Point:	-0.019	Yaw Set Point:	0.068	X_WP:	0.000	Y_WP:	0.000	Y_WP:	0.000	X:	0.024	Y:	0.009	Z:	0.057	yaw:	-3.890	yaw rate:	7.938	Roll:	0.874	Pitch:	0.358	Yaw:	-9.126	Thrust:	0.000
Time:	2.180	Roll Set Point:	-0.048	Pitch Set Point:	-0.019	Yaw Set Point:	0.065	X_WP:	0.000	Y_WP:	0.000	Y_WP:	0.000	X:	0.024	Y:	0.009	Z:	0.057	yaw:	-3.739	yaw rate:	-15.034	Roll:	0.748	Pitch:	0.250	Yaw:	-5.873	Thrust:	0.000
Time:	2.200	Roll Set Point:	-0.048	Pitch Set Point:	-0.019	Yaw Set Point:	0.065	X_WP:	0.000	Y_WP:	0.000	Y_WP:	0.000	X:	0.024	Y:	0.009	Z:	0.057	yaw:	-3.733	yaw rate:	-0.698	Roll:	0.827	Pitch:	0.357	Yaw:	-8.004	Thrust:	0.000
Time:	2.221	Roll Set Point:	-0.047	Pitch Set Point:	-0.019	Yaw Set Point:	0.066	X_WP:	0.000	Y_WP:	0.000	Y_WP:	0.000	X:	0.024	Y:	0.009	Z:	0.057	yaw:	-3.805	yaw rate:	7.296	Roll:	0.773	Pitch:	0.422	Yaw:	-9.327	Thrust:	0.000
Time:	2.242	Roll Set Point:	-0.048	Pitch Set Point:	-0.019	Yaw Set Point:	0.065	X_WP:	0.000	Y_WP:	0.000	Y_WP:	0.000	X:	0.024	Y:	0.009	Z:	0.057	yaw:	-3.742	yaw rate:	-6.313	Roll:	0.848	Pitch:	0.283	Yaw:	-7.436	Thrust:	0.000
Time:	2.260	Roll Set Point:	-0.048	Pitch Set Point:	-0.019	Yaw Set Point:	0.068	X_WP:	0.000	Y_WP:	0.000	Y_WP:	0.000	X:	0.024	Y:	0.009	Z:	0.057	yaw:	-3.889	yaw rate:	14.664	Roll:	0.845	Pitch:	0.439	Yaw:	-10.198	Thrust:	0.000
Time:	2.280	Roll Set Point:	-0.048	Pitch Set Point:	-0.019	Yaw Set Point:	0.065	X_WP:	0.000	Y_WP:	0.000	Y_WP:	0.000	X:	0.024	Y:	0.009	Z:	0.057	yaw:	-3.738	yaw rate:	-15.092	Roll:	0.770	Pitch:	0.271	Yaw:	-6.202	Thrust:	0.000
Time:	2.300	Roll Set Point:	-0.048	Pitch Set Point:	-0.019	Yaw Set Point:	0.065	X_WP:	0.000	Y_WP:	0.000	Y_WP:	0.000	X:	0.024	Y:	0.009	Z:	0.057	yaw:	-3.743	yaw rate:	0.532	Roll:	0.817	Pitch:	0.352	Yaw:	-8.467	Thrust:	0.000
Time:	2.320	Roll Set Point:	-0.048	Pitch Set Point:	-0.019	Yaw Set Point:	0.066	X_WP:	0.000	Y_WP:	0.000	Y_WP:	0.000	X:	0.024	Y:	0.009	Z:	0.057	yaw:	-3.806	yaw rate:	6.288	Roll:	0.798	Pitch:	0.423	Yaw:	-9.130	Thrust:	0.000
Time:	2.340	Roll Set Point:	-0.048	Pitch Set Point:	-0.019	Yaw Set Point:	0.068	X_WP:	0.000	Y_WP:	0.000	Y_WP:	0.000	X:	0.024	Y:	0.009	Z:	0.057	yaw:	-3.890	yaw rate:	8.336	Roll:	0.882	Pitch:	0.369	Yaw:	-9.608	Thrust:	0.000
Time:	2.361	Roll Set Point:	-0.048	Pitch Set Point:	-0.019	Yaw Set Point:	0.068	X_WP:	0.000	Y_WP:	0.000	Y_WP:	0.000	X:	0.024	Y:	0.009	Z:	0.057	yaw:	-3.885	yaw rate:	-0.486	Roll:	0.819	Pitch:	0.355	Yaw:	-8.547	Thrust:	0.000
Time:	2.379	Roll Set Point:	-0.048	Pitch Set Point:	-0.019	Yaw Set Point:	0.068	X_WP:	0.000	Y_WP:	0.000	Y_WP:	0.000	X:	0.024	Y:	0.009	Z:	0.057	yaw:	-3.884	yaw rate:	-0.112	Roll:	0.802	Pitch:	0.359	Yaw:	-8.296	Thrust:	0.000
Time:	2.400	Roll Set Point:	-0.048	Pitch Set Point:	-0.019	Yaw Set Point:	0.066	X_WP:	0.000	Y_WP:	0.000	Y_WP:	0.000	X:	0.024	Y:	0.009	Z:	0.057	yaw:	-3.803	yaw rate:	-8.060	Roll:	0.771	Pitch:	0.344	Yaw:	-7.493	Thrust:	0.000
Time:	2.420	Roll Set Point:	-0.048	Pitch Set Point:	-0.019	Yaw Set Point:	0.065	X_WP:	0.000	Y_WP:	0.000	Y_WP:	0.000	X:	0.024	Y:	0.009	Z:	0.057	yaw:	-3.737	yaw rate:	-6.560	Roll:	0.844	Pitch:	0.276	Yaw:	-7.637	Thrust:	0.000
Time:	2.442	Roll Set Point:	-0.048	Pitch Set Point:	-0.019	Yaw Set Point:	0.065	X_WP:	0.000	Y_WP:	0.000	Y_WP:	0.000	X:	0.024	Y:	0.009	Z:	0.057	yaw:	-3.744	yaw rate:	0.623	Roll:	0.809	Pitch:	0.355	Yaw:	-8.745	Thrust:	0.000
Time:	2.459	Roll Set Point:	-0.048	Pitch Set Point:	-0.019	Yaw Set Point:	0.065	X_WP:	0.000	Y_WP:	0.000	Y_WP:	0.000	X:	0.024	Y:	0.009	Z:	0.057	yaw:	-3.742	yaw rate:	-0.138	Roll:	0.829	Pitch:	0.355	Yaw:	-8.053	Thrust:	0.000
Time:	2.479	Roll Set Point:	-0.048	Pitch Set Point:	-0.019	Yaw Set Point:	0.068	X_WP:	0.000	Y_WP:	0.000	Y_WP:	0.000	X:	0.024	Y:	0.009	Z:	0.057	yaw:	-3.886	yaw rate:	14.336	Roll:	0.872	Pitch:	0.441	Yaw:	-10.511	Thrust:	0.000
Time:	2.501	Roll Set Point:	-0.048	Pitch Set Point:	-0.019	Yaw Set Point:	0.068	X_WP:	0.000	Y_WP:	0.000	Y_WP:	0.000	X:	0.024	Y:	0.009	Z:	0.057	yaw:	-3.884	yaw rate:	-0.200	Roll:	0.827	Pitch:	0.368	Yaw:	-8.870	Thrust:	0.000
Time:	2.520	Roll Set Point:	-0.048	Pitch Set Point:	-0.019	Yaw Set Point:	0.065	X_WP:	0.000	Y_WP:	0.000	Y_WP:	0.000	X:	0.024	Y:	0.009	Z:	0.057	yaw:	-3.745	yaw rate:	-13.853	Roll:	0.774	Pitch:	0.264	Yaw:	-6.599	Thrust:	0.000
Time:	2.540	Roll Set Point:	-0.048	Pitch Set Point:	-0.019	Yaw Set Point:	0.065	X_WP:	0.000	Y_WP:	0.000	Y_WP:	0.000	X:	0.024	Y:	0.009	Z:	0.057	yaw:	-3.731	yaw rate:	-1.374	Roll:	0.833	Pitch:	0.346	Yaw:	-8.367	Thrust:	0.000
Time:	2.560	Roll Set Point:	-0.048	Pitch Set Point:	-0.019	Yaw Set Point:	0.065	X_WP:	0.000	Y_WP:	0.000	Y_WP:	0.000	X:	0.024	Y:	0.009	Z:	0.057	yaw:	-3.740	yaw rate:	0.847	Roll:	0.823	Pitch:	0.368	Yaw:	-8.789	Thrust:	0.000
Time:	2.579	Roll Set Point:	-0.048	Pitch Set Point:	-0.019	Yaw Set Point:	0.065	X_WP:	0.000	Y_WP:	0.000	Y_WP:	0.000	X:	0.024	Y:	0.009	Z:	0.057	yaw:	-3.737	yaw rate:	-0.329	Roll:	0.839	Pitch:	0.354	Yaw:	-8.250	Thrust:	0.000
Time:	2.600	Roll Set Point:	-0.048	Pitch Set Point:	-0.019	Yaw Set Point:	0.065	X_WP:	0.000	Y_WP:	0.000	Y_WP:	0.000	X:	0.024	Y:	0.009	Z:	0.057	yaw:	-3.742	yaw rate:	0.542	Roll:	0.831	Pitch:	0.361	Yaw:	-8.823	Thrust:	0.000
Time:	2.620	Roll Set Point:	-0.048	Pitch Set Point:	-0.019	Yaw Set Point:	0.065	X_WP:	0.000	Y_WP:	0.000	Y_WP:	0.000	X:	0.024	Y:	0.009	Z:	0.057	yaw:	-3.736	yaw rate:	-0.644	Roll:	0.826	Pitch:	0.360	Yaw:	-8.650	Thrust:	0.000
Time:	2.642	Roll Set Point:	-0.048	Pitch Set Point:	-0.019	Yaw Set Point:	0.068	X_WP:	0.000	Y_WP:	0.000	Y_WP:	0.000	X:	0.024	Y:	0.009	Z:	0.057	yaw:	-3.888	yaw rate:	15.223	Roll:	0.899	Pitch:	0.451	Yaw:	-11.002	Thrust:	0.000
Time:	2.660	Roll Set Point:	-0.048	Pitch Set Point:	-0.019	Yaw Set Point:	0.065	X_WP:	0.000	Y_WP:	0.000	Y_WP:	0.000	X:	0.024	Y:	0.009	Z:	0.057	yaw:	-3.741	yaw rate:	-14.709	Roll:	0.765	Pitch:	0.256	Yaw:	-6.225	Thrust:	0.000
Time:	2.680	Roll Set Point:	-0.048	Pitch Set Point:	-0.019	Yaw Set Point:	0.068	X_WP:	0.000	Y_WP:	0.000	Y_WP:	0.000	X:	0.024	Y:	0.009	Z:	0.057	yaw:	-3.888	yaw rate:	14.783	Roll:	0.881	Pitch:	0.444	Yaw:	-10.897	Thrust:	0.000
Time:	2.700	Roll Set Point:	-0.048	Pitch Set Point:	-0.019	Yaw Set Point:	0.065	X_WP:	0.000	Y_WP:	0.000	Y_WP:	0.000	X:	0.024	Y:	0.009	Z:	0.057	yaw:	-3.744	yaw rate:	-14.482	Roll:	0.787	Pitch:	0.273	Yaw:	-7.016	Thrust:	0.000
Time:	2.720	Roll Set Point:	-0.048	Pitch Set Point:	-0.019	Yaw Set Point:	0.068	X_WP:	0.000	Y_WP:	0.000	Y_WP:	0.000	X:	0.024	Y:	0.009	Z:	0.057	yaw:	-3.889	yaw rate:	14.543	Roll:	0.893	Pitch:	0.460	Yaw:	-10.848	Thrust:	0.000
Time:	2.740	Roll Set Point:	-0.048	Pitch Set Point:	-0.019	Yaw Set Point:	0.068	X_WP:	0.000	Y_WP:	0.000	Y_WP:	0.000	X:	0.024	Y:	0.009	Z:	0.057	yaw:	-3.883	yaw rate:	-0.599	Roll:	0.835	Pitch:	0.363	Yaw:	-8.949	Thrust:	0.000
Time:	2.766	Roll Set Point:	-0.048	Pitch Set Point:	-0.019	Yaw Set Point:	0.065	X_WP:	0.000	Y_WP:	0.000	Y_WP:	0.000	X:	0.024	Y:	0.009	Z:	0.057	yaw:	-3.737	yaw rate:	-14.653	Roll:	0.823	Pitch:	0.292	Yaw:	-8.004	Thrust:	0.000
Time:	2.779	Roll Set Point:	-0.048	Pitch Set Point:	-0.019	Yaw Set Point:	0.065	X_WP:	0.000	Y_WP:	0.000	Y_WP:	0.000	X:	0.024	Y:	0.009	Z:	0.057	yaw:	-3.748	yaw rate:	1.126	Roll:	0.814	Pitch:	0.353	Yaw:	-8.124	Thrust:	0.000
Time:	2.800	Roll Set Point:	-0.048	Pitch Set Point:	-0.019	Yaw Set Point:	0.068	X_WP:	0.000	Y_WP:	0.000	Y_WP:	0.000	X:	0.024	Y:	0.009	Z:	0.057	yaw:	-3.890	yaw rate:	14.233	Roll:	0.891	Pitch:	0.460	Yaw:	-11.040	Thrust:	0.000
Time:	2.820	Roll Set Point:	-0.048	Pitch Set Point:	-0.019	Yaw Set Point:	0.069	X_WP:	0.000	Y_WP:	0.000	Y_WP:	0.000	X:	0.024	Y:	0.009	Z:	0.057	yaw:	-3.950	yaw rate:	6.025	Roll:	0.833	Pitch:	0.433	Yaw:	-10.079	Thrust:	0.000
Time:	2.841	Roll Set Point:	-0.048	Pitch Set Point:	-0.019	Yaw Set Point:	0.068	X_WP:	0.000	Y_WP:	0.000	Y_WP:	0.000	X:	0.024	Y:	0.009	Z:	0.057	yaw:	-3.884	yaw rate:	-6.593	Roll:	0.881	Pitch:	0.308	Yaw:	-8.528	Thrust:	0.000
Time:	2.860	Roll Set Point:	-0.048	Pitch Set Point:	-0.019	Yaw Set Point:	0.065	X_WP:	0.000	Y_WP:	0.000	Y_WP:	0.000	X:	0.024	Y:	0.009	Z:	0.057	yaw:	-3.741	yaw rate:	-14.331	Roll:	0.783	Pitch:	0.260	Yaw:	-6.550	Thrust:	0.000
Time:	2.880	Roll Set Point:	-0.048	Pitch Set Point:	-0.019	Yaw Set Point:	0.065	X_WP:	0.000	Y_WP:	0.000	Y_WP:	0.000	X:	0.024	Y:	0.009	Z:	0.057	yaw:	-3.745	yaw rate:	0.358	Roll:	0.845	Pitch:	0.371	Yaw:	-9.079	Thrust:	0.000
Time:	2.901	Roll Set Point:	-0.048	Pitch Set Point:	-0.019	Yaw Set Point:	0.068	X_WP:	0.000	Y_WP:	0.000	Y_WP:	0.000	X:	0.024	Y:	0.009	Z:	0.057	yaw:	-3.888	yaw rate:	14.312	Roll:	0.896	Pitch:	0.453	Yaw:	-11.201	Thrust:	0.000
Time:	2.920	Roll Set Point:	-0.048	Pitch Set Point:	-0.019	Yaw Set Point:	0.068	X_WP:	0.000	Y_WP:	0.000	Y_WP:	0.000	X:	0.024	Y:	0.009	Z:	0.057	yaw:	-3.890	yaw rate:	0.182	Roll:	0.840	Pitch:	0.358	Yaw:	-9.049	Thrust:	0.000
Time:	2.940	Roll Set Point:	-0.048	Pitch Set Point:	-0.019	Yaw Set Point:	0.065	X_WP:	0.000	Y_WP:	0.000	Y_WP:	0.000	X:	0.024	Y:	0.009	Z:	0.057	yaw:	-3.739	yaw rate:	-15.048	Roll:	0.820	Pitch:	0.287	Yaw:	-7.322	Thrust:	0.000
Time:	2.965	Roll Set Point:	-0.048	Pitch Set Point:	-0.019	Yaw Set Point:	0.068	X_WP:	0.000	Y_WP:	0.000	Y_WP:	0.000	X:	0.024	Y:	0.009	Z:	0.057	yaw:	-3.890	yaw rate:	15.065	Roll:	0.910	Pitch:	0.458	Yaw:	-11.762	Thrust:	0.000
Time:	2.979	Roll Set Point:	-0.048	Pitch Set Point:	-0.019	Yaw Set Point:	0.065	X_WP:	0.000	Y_WP:	0.000	Y_WP:	0.000	X:	0.024	Y:	0.009	Z:	0.057	yaw:	-3.741	yaw rate:	-14.866	Roll:	0.777	Pitch:	0.241	Yaw:	-5.398	Thrust:	0.000
Time:	3.000	Roll Set Point:	-0.048	Pitch Set Point:	-0.019	Yaw Set Point:	0.065	X_WP:	0.000	Y_WP:	0.000	Y_WP:	0.000	X:	0.024	Y:	0.009	Z:	0.057	yaw:	-3.734	yaw rate:	-0.681	Roll:	0.847	Pitch:	0.363	Yaw:	-9.180	Thrust:	0.000
Time:	3.020	Roll Set Point:	-0.048	Pitch Set Point:	-0.019	Yaw Set Point:	0.065	X_WP:	0.000	Y_WP:	0.000	Y_WP:	0.000	X:	0.024	Y:	0.009	Z:	0.057	yaw:	-3.741	yaw rate:	0.634	Roll:	0.871	Pitch:	0.382	Yaw:	-9.398	Thrust:	0.000
Time:	3.042	Roll Set Point:	-0.048	Pitch Set Point:	-0.019	Yaw Set Point:	0.065	X_WP:	0.000	Y_WP:	0.000	Y_WP:	0.000	X:	0.024	Y:	0.009	Z:	0.057	yaw:	-3.743	yaw rate:	0.232	Roll:	0.867	Pitch:	0.376	Yaw:	-9.557	Thrust:	0.000
Time:	3.060	Roll Set Point:	-0.048	Pitch Set Point:	-0.019	Yaw Set Point:	0.065	X_WP:	0.000	Y_WP:	0.000	Y_WP:	0.000	X:	0.024	Y:	0.009	Z:	0.057	yaw:	-3.743	yaw rate:	0.017	Roll:	0.840	Pitch:	0.356	Yaw:	-8.745	Thrust:	0.000
Time:	3.080	Roll Set Point:	-0.048	Pitch Set Point:	-0.019	Yaw Set Point:	0.068	X_WP:	0.000	Y_WP:	0.000	Y_WP:	0.000	X:	0.024	Y:	0.009	Z:	0.057	yaw:	-3.895	yaw rate:	15.151	Roll:	0.901	Pitch:	0.469	Yaw:	-11.370	Thrust:	0.000
Time:	3.102	Roll Set Point:	-0.048	Pitch Set Point:	-0.019	Yaw Set Point:	0.068	X_WP:	0.000	Y_WP:	0.000	Y_WP:	0.000	X:	0.024	Y:	0.009	Z:	0.057	yaw:	-3.891	yaw rate:	-0.392	Roll:	0.875	Pitch:	0.372	Yaw:	-9.814	Thrust:	0.000
Time:	3.120	Roll Set Point:	-0.048	Pitch Set Point:	-0.019	Yaw Set Point:	0.067	X_WP:	0.000	Y_WP:	0.000	Y_WP:	0.000	X:	0.024	Y:	0.009	Z:	0.057	yaw:	-3.812	yaw rate:	-7.913	Roll:	0.781	Pitch:	0.366	Yaw:	-7.930	Thrust:	0.000
Time:	3.141	Roll Set Point:	-0.048	Pitch Set Point:	-0.019	Yaw Set Point:	0.065	X_WP:	0.000	Y_WP:	0.000	Y_WP:	0.000	X:	0.024	Y:	0.009	Z:	0.057	yaw:	-3.742	yaw rate:	-6.999	Roll:	0.884	Pitch:	0.290	Yaw:	-8.423	Thrust:	0.000
Time:	3.160	Roll Set Point:	-0.048	Pitch Set Point:	-0.019	Yaw Set Point:	0.065	X_WP:	0.000	Y_WP:	0.000	Y_WP:	0.000	X:	0.024	Y:	0.009	Z:	0.057	yaw:	-3.739	yaw rate:	-0.250	Roll:	0.868	Pitch:	0.373	Yaw:	-9.081	Thrust:	0.000
Time:	3.180	Roll Set Point:	-0.048	Pitch Set Point:	-0.019	Yaw Set Point:	0.068	X_WP:	0.000	Y_WP:	0.000	Y_WP:	0.000	X:	0.024	Y:	0.009	Z:	0.057	yaw:	-3.883	yaw rate:	14.405	Roll:	0.905	Pitch:	0.469	Yaw:	-11.221	Thrust:	0.000
Time:	3.200	Roll Set Point:	-0.048	Pitch Set Point:	-0.019	Yaw Set Point:	0.068	X_WP:	0.000	Y_WP:	0.000	Y_WP:	0.000	X:	0.024	Y:	0.009	Z:	0.057	yaw:	-3.884	yaw rate:	0.116	Roll:	0.875	Pitch:	0.376	Yaw:	-9.618	Thrust:	0.000
Time:	3.220	Roll Set Point:	-0.048	Pitch Set Point:	-0.019	Yaw Set Point:	0.065	X_WP:	0.000	Y_WP:	0.000	Y_WP:	0.000	X:	0.024	Y:	0.009	Z:	0.057	yaw:	-3.741	yaw rate:	-14.345	Roll:	0.824	Pitch:	0.284	Yaw:	-7.383	Thrust:	0.000
Time:	3.242	Roll Set Point:	-0.048	Pitch Set Point:	-0.019	Yaw Set Point:	0.065	X_WP:	0.000	Y_WP:	0.000	Y_WP:	0.000	X:	0.024	Y:	0.009	Z:	0.057	yaw:	-3.742	yaw rate:	0.120	Roll:	0.888	Pitch:	0.387	Yaw:	-9.614	Thrust:	0.000
Time:	3.260	Roll Set Point:	-0.048	Pitch Set Point:	-0.019	Yaw Set Point:	0.065	X_WP:	0.000	Y_WP:	0.000	Y_WP:	0.000	X:	0.024	Y:	0.009	Z:	0.057	yaw:	-3.740	yaw rate:	-0.254	Roll:	0.835	Pitch:	0.360	Yaw:	-8.800	Thrust:	0.000
Time:	3.280	Roll Set Point:	-0.048	Pitch Set Point:	-0.019	Yaw Set Point:	0.066	X_WP:	0.000	Y_WP:	0.000	Y_WP:	0.000	X:	0.024	Y:	0.009	Z:	0.057	yaw:	-3.805	yaw rate:	6.546	Roll:	0.856	Pitch:	0.460	Yaw:	-10.153	Thrust:	0.000
Time:	3.300	Roll Set Point:	-0.048	Pitch Set Point:	-0.019	Yaw Set Point:	0.065	X_WP:	0.000	Y_WP:	0.000	Y_WP:	0.000	X:	0.024	Y:	0.009	Z:	0.057	yaw:	-3.736	yaw rate:	-6.914	Roll:	0.892	Pitch:	0.294	Yaw:	-8.331	Thrust:	0.000
Time:	3.320	Roll Set Point:	-0.048	Pitch Set Point:	-0.019	Yaw Set Point:	0.065	X_WP:	0.000	Y_WP:	0.000	Y_WP:	0.000	X:	0.024	Y:	0.009	Z:	0.057	yaw:	-3.743	yaw rate:	0.758	Roll:	0.883	Pitch:	0.382	Yaw:	-9.326	Thrust:	0.000
Time:	3.340	Roll Set Point:	-0.048	Pitch Set Point:	-0.019	Yaw Set Point:	0.068	X_WP:	0.000	Y_WP:	0.000	Y_WP:	0.000	X:	0.024	Y:	0.009	Z:	0.057	yaw:	-3.889	yaw rate:	14.508	Roll:	0.923	Pitch:	0.468	Yaw:	-11.326	Thrust:	0.000
Time:	3.362	Roll Set Point:	-0.048	Pitch Set Point:	-0.019	Yaw Set Point:	0.065	X_WP:	0.000	Y_WP:	0.000	Y_WP:	0.000	X:	0.024	Y:	0.009	Z:	0.057	yaw:	-3.748	yaw rate:	-14.071	Roll:	0.835	Pitch:	0.304	Yaw:	-7.879	Thrust:	0.000
Time:	3.380	Roll Set Point:	-0.048	Pitch Set Point:	-0.019	Yaw Set Point:	0.065	X_WP:	0.000	Y_WP:	0.000	Y_WP:	0.000	X:	0.024	Y:	0.009	Z:	0.057	yaw:	-3.751	yaw rate:	0.314	Roll:	0.880	Pitch:	0.373	Yaw:	-8.960	Thrust:	0.000
Time:	3.401	Roll Set Point:	-0.048	Pitch Set Point:	-0.019	Yaw Set Point:	0.068	X_WP:	0.000	Y_WP:	0.000	Y_WP:	0.000	X:	0.024	Y:	0.009	Z:	0.057	yaw:	-3.881	yaw rate:	12.968	Roll:	0.924	Pitch:	0.463	Yaw:	-11.181	Thrust:	0.000
Time:	3.420	Roll Set Point:	-0.048	Pitch Set Point:	-0.019	Yaw Set Point:	0.065	X_WP:	0.000	Y_WP:	0.000	Y_WP:	0.000	X:	0.024	Y:	0.009	Z:	0.057	yaw:	-3.740	yaw rate:	-14.114	Roll:	0.824	Pitch:	0.286	Yaw:	-7.271	Thrust:	0.000
Time:	3.441	Roll Set Point:	-0.048	Pitch Set Point:	-0.019	Yaw Set Point:	0.068	X_WP:	0.000	Y_WP:	0.000	Y_WP:	0.000	X:	0.024	Y:	0.009	Z:	0.057	yaw:	-3.889	yaw rate:	14.937	Roll:	0.934	Pitch:	0.476	Yaw:	-11.451	Thrust:	0.000
Time:	3.460	Roll Set Point:	-0.048	Pitch Set Point:	-0.019	Yaw Set Point:	0.068	X_WP:	0.000	Y_WP:	0.000	Y_WP:	0.000	X:	0.024	Y:	0.009	Z:	0.057	yaw:	-3.886	yaw rate:	-0.306	Roll:	0.866	Pitch:	0.367	Yaw:	-9.208	Thrust:	0.000
Time:	3.492	Roll Set Point:	-0.048	Pitch Set Point:	-0.019	Yaw Set Point:	0.068	X_WP:	0.000	Y_WP:	0.000	Y_WP:	0.000	X:	0.024	Y:	0.009	Z:	0.057	yaw:	-3.885	yaw rate:	-0.081	Roll:	0.985	Pitch:	0.433	Yaw:	-11.657	Thrust:	0.000
Time:	3.506	Roll Set Point:	-0.048	Pitch Set Point:	-0.019	Yaw Set Point:	0.068	X_WP:	0.000	Y_WP:	0.000	Y_WP:	0.000	X:	0.024	Y:	0.009	Z:	0.057	yaw:	-3.892	yaw rate:	0.655	Roll:	0.824	Pitch:	0.360	Yaw:	-8.277	Thrust:	0.000
Time:	3.520	Roll Set Point:	-0.048	Pitch Set Point:	-0.019	Yaw Set Point:	0.065	X_WP:	0.000	Y_WP:	0.000	Y_WP:	0.000	X:	0.024	Y:	0.009	Z:	0.057	yaw:	-3.747	yaw rate:	-14.504	Roll:	0.795	Pitch:	0.250	Yaw:	-5.333	Thrust:	0.000
Time:	3.543	Roll Set Point:	-0.048	Pitch Set Point:	-0.019	Yaw Set Point:	0.069	X_WP:	0.000	Y_WP:	0.000	Y_WP:	0.000	X:	0.024	Y:	0.009	Z:	0.057	yaw:	-3.957	yaw rate:	21.018	Roll:	0.939	Pitch:	0.542	Yaw:	-12.563	Thrust:	0.000
Time:	3.562	Roll Set Point:	-0.048	Pitch Set Point:	-0.019	Yaw Set Point:	0.066	X_WP:	0.000	Y_WP:	0.000	Y_WP:	0.000	X:	0.024	Y:	0.009	Z:	0.057	yaw:	-3.802	yaw rate:	-15.482	Roll:	0.833	Pitch:	0.278	Yaw:	-6.848	Thrust:	0.000
Time:	3.580	Roll Set Point:	-0.048	Pitch Set Point:	-0.019	Yaw Set Point:	0.065	X_WP:	0.000	Y_WP:	0.000	Y_WP:	0.000	X:	0.024	Y:	0.009	Z:	0.057	yaw:	-3.740	yaw rate:	-6.170	Roll:	0.886	Pitch:	0.288	Yaw:	-8.019	Thrust:	0.000
Time:	3.600	Roll Set Point:	-0.048	Pitch Set Point:	-0.019	Yaw Set Point:	0.065	X_WP:	0.000	Y_WP:	0.000	Y_WP:	0.000	X:	0.024	Y:	0.009	Z:	0.057	yaw:	-3.732	yaw rate:	-0.787	Roll:	0.896	Pitch:	0.388	Yaw:	-9.114	Thrust:	0.000
Time:	3.621	Roll Set Point:	-0.048	Pitch Set Point:	-0.019	Yaw Set Point:	0.065	X_WP:	0.000	Y_WP:	0.000	Y_WP:	0.000	X:	0.024	Y:	0.009	Z:	0.057	yaw:	-3.738	yaw rate:	0.576	Roll:	0.899	Pitch:	0.386	Yaw:	-9.391	Thrust:	0.000
Time:	3.642	Roll Set Point:	-0.048	Pitch Set Point:	-0.019	Yaw Set Point:	0.068	X_WP:	0.000	Y_WP:	0.000	Y_WP:	0.000	X:	0.024	Y:	0.009	Z:	0.057	yaw:	-3.893	yaw rate:	15.538	Roll:	0.944	Pitch:	0.482	Yaw:	-11.583	Thrust:	0.000
Time:	3.660	Roll Set Point:	-0.048	Pitch Set Point:	-0.019	Yaw Set Point:	0.065	X_WP:	0.000	Y_WP:	0.000	Y_WP:	0.000	X:	0.024	Y:	0.009	Z:	0.057	yaw:	-3.737	yaw rate:	-15.653	Roll:	0.814	Pitch:	0.277	Yaw:	-6.711	Thrust:	0.000
Time:	3.680	Roll Set Point:	-0.048	Pitch Set Point:	-0.019	Yaw Set Point:	0.069	X_WP:	0.000	Y_WP:	0.000	Y_WP:	0.000	X:	0.024	Y:	0.009	Z:	0.057	yaw:	-3.964	yaw rate:	22.689	Roll:	0.924	Pitch:	0.571	Yaw:	-12.486	Thrust:	0.000
Time:	3.700	Roll Set Point:	-0.048	Pitch Set Point:	-0.019	Yaw Set Point:	0.065	X_WP:	0.000	Y_WP:	0.000	Y_WP:	0.000	X:	0.024	Y:	0.009	Z:	0.057	yaw:	-3.746	yaw rate:	-21.804	Roll:	0.866	Pitch:	0.236	Yaw:	-6.399	Thrust:	0.000
Time:	3.720	Roll Set Point:	-0.048	Pitch Set Point:	-0.019	Yaw Set Point:	0.065	X_WP:	0.000	Y_WP:	0.000	Y_WP:	0.000	X:	0.024	Y:	0.009	Z:	0.057	yaw:	-3.734	yaw rate:	-1.214	Roll:	0.911	Pitch:	0.379	Yaw:	-9.053	Thrust:	0.000
Time:	3.740	Roll Set Point:	-0.048	Pitch Set Point:	-0.019	Yaw Set Point:	0.068	X_WP:	0.000	Y_WP:	0.000	Y_WP:	0.000	X:	0.024	Y:	0.009	Z:	0.057	yaw:	-3.894	yaw rate:	16.058	Roll:	0.944	Pitch:	0.488	Yaw:	-11.524	Thrust:	0.000
Time:	3.763	Roll Set Point:	-0.048	Pitch Set Point:	-0.019	Yaw Set Point:	0.068	X_WP:	0.000	Y_WP:	0.000	Y_WP:	0.000	X:	0.024	Y:	0.009	Z:	0.057	yaw:	-3.899	yaw rate:	0.439	Roll:	0.906	Pitch:	0.400	Yaw:	-10.045	Thrust:	0.000
Time:	3.780	Roll Set Point:	-0.048	Pitch Set Point:	-0.019	Yaw Set Point:	0.068	X_WP:	0.000	Y_WP:	0.000	Y_WP:	0.000	X:	0.024	Y:	0.009	Z:	0.057	yaw:	-3.886	yaw rate:	-1.216	Roll:	0.881	Pitch:	0.379	Yaw:	-8.538	Thrust:	0.000
Time:	3.800	Roll Set Point:	-0.048	Pitch Set Point:	-0.019	Yaw Set Point:	0.068	X_WP:	0.000	Y_WP:	0.000	Y_WP:	0.000	X:	0.024	Y:	0.009	Z:	0.057	yaw:	-3.892	yaw rate:	0.585	Roll:	0.897	Pitch:	0.392	Yaw:	-9.653	Thrust:	0.000
Time:	3.821	Roll Set Point:	-0.048	Pitch Set Point:	-0.019	Yaw Set Point:	0.065	X_WP:	0.000	Y_WP:	0.000	Y_WP:	0.000	X:	0.024	Y:	0.009	Z:	0.057	yaw:	-3.737	yaw rate:	-15.571	Roll:	0.866	Pitch:	0.307	Yaw:	-7.377	Thrust:	0.000
Time:	3.840	Roll Set Point:	-0.048	Pitch Set Point:	-0.019	Yaw Set Point:	0.065	X_WP:	0.000	Y_WP:	0.000	Y_WP:	0.000	X:	0.024	Y:	0.009	Z:	0.057	yaw:	-3.742	yaw rate:	0.543	Roll:	0.908	Pitch:	0.386	Yaw:	-9.250	Thrust:	0.000
Time:	3.860	Roll Set Point:	-0.048	Pitch Set Point:	-0.019	Yaw Set Point:	0.068	X_WP:	0.000	Y_WP:	0.000	Y_WP:	0.000	X:	0.024	Y:	0.009	Z:	0.057	yaw:	-3.880	yaw rate:	13.780	Roll:	0.941	Pitch:	0.477	Yaw:	-11.087	Thrust:	0.000
Time:	3.880	Roll Set Point:	-0.048	Pitch Set Point:	-0.019	Yaw Set Point:	0.068	X_WP:	0.000	Y_WP:	0.000	Y_WP:	0.000	X:	0.024	Y:	0.009	Z:	0.057	yaw:	-3.885	yaw rate:	0.543	Roll:	0.908	Pitch:	0.396	Yaw:	-9.516	Thrust:	0.000
Time:	3.902	Roll Set Point:	-0.048	Pitch Set Point:	-0.019	Yaw Set Point:	0.065	X_WP:	0.000	Y_WP:	0.000	Y_WP:	0.000	X:	0.024	Y:	0.009	Z:	0.057	yaw:	-3.745	yaw rate:	-14.017	Roll:	0.889	Pitch:	0.328	Yaw:	-7.989	Thrust:	0.000
Time:	3.920	Roll Set Point:	-0.048	Pitch Set Point:	-0.019	Yaw Set Point:	0.065	X_WP:	0.000	Y_WP:	0.000	Y_WP:	0.000	X:	0.024	Y:	0.009	Z:	0.057	yaw:	-3.739	yaw rate:	-0.560	Roll:	0.894	Pitch:	0.380	Yaw:	-8.855	Thrust:	0.000
Time:	3.940	Roll Set Point:	-0.048	Pitch Set Point:	-0.019	Yaw Set Point:	0.065	X_WP:	0.000	Y_WP:	0.000	Y_WP:	0.000	X:	0.024	Y:	0.009	Z:	0.057	yaw:	-3.737	yaw rate:	-0.266	Roll:	0.901	Pitch:	0.384	Yaw:	-9.317	Thrust:	0.000
Time:	3.962	Roll Set Point:	-0.048	Pitch Set Point:	-0.019	Yaw Set Point:	0.065	X_WP:	0.000	Y_WP:	0.000	Y_WP:	0.000	X:	0.024	Y:	0.009	Z:	0.057	yaw:	-3.741	yaw rate:	0.455	Roll:	0.931	Pitch:	0.403	Yaw:	-9.507	Thrust:	0.000
Time:	3.980	Roll Set Point:	-0.048	Pitch Set Point:	-0.019	Yaw Set Point:	0.065	X_WP:	0.000	Y_WP:	0.000	Y_WP:	0.000	X:	0.024	Y:	0.009	Z:	0.057	yaw:	-3.745	yaw rate:	0.343	Roll:	0.898	Pitch:	0.397	Yaw:	-9.043	Thrust:	0.000
Time:	4.000	Roll Set Point:	-0.048	Pitch Set Point:	-0.019	Yaw Set Point:	0.065	X_WP:	0.000	Y_WP:	0.000	Y_WP:	0.000	X:	0.024	Y:	0.009	Z:	0.057	yaw:	-3.739	yaw rate:	-0.543	Roll:	0.902	Pitch:	0.380	Yaw:	-8.971	Thrust:	0.000
Time:	4.021	Roll Set Point:	-0.048	Pitch Set Point:	-0.019	Yaw Set Point:	0.065	X_WP:	0.000	Y_WP:	0.000	Y_WP:	0.000	X:	0.024	Y:	0.009	Z:	0.057	yaw:	-3.749	yaw rate:	0.919	Roll:	0.935	Pitch:	0.408	Yaw:	-9.540	Thrust:	0.000
Time:	4.040	Roll Set Point:	-0.048	Pitch Set Point:	-0.019	Yaw Set Point:	0.068	X_WP:	0.000	Y_WP:	0.000	Y_WP:	0.000	X:	0.024	Y:	0.009	Z:	0.057	yaw:	-3.890	yaw rate:	14.124	Roll:	0.963	Pitch:	0.483	Yaw:	-11.236	Thrust:	0.000
Time:	4.059	Roll Set Point:	-0.048	Pitch Set Point:	-0.019	Yaw Set Point:	0.065	X_WP:	0.000	Y_WP:	0.000	Y_WP:	0.000	X:	0.024	Y:	0.009	Z:	0.057	yaw:	-3.743	yaw rate:	-14.678	Roll:	0.851	Pitch:	0.300	Yaw:	-7.167	Thrust:	0.000
Time:	4.080	Roll Set Point:	-0.048	Pitch Set Point:	-0.019	Yaw Set Point:	0.065	X_WP:	0.000	Y_WP:	0.000	Y_WP:	0.000	X:	0.024	Y:	0.009	Z:	0.057	yaw:	-3.745	yaw rate:	0.217	Roll:	0.925	Pitch:	0.392	Yaw:	-9.324	Thrust:	0.000
Time:	4.103	Roll Set Point:	-0.048	Pitch Set Point:	-0.019	Yaw Set Point:	0.068	X_WP:	0.000	Y_WP:	0.000	Y_WP:	0.000	X:	0.024	Y:	0.009	Z:	0.057	yaw:	-3.881	yaw rate:	13.572	Roll:	0.981	Pitch:	0.487	Yaw:	-11.511	Thrust:	0.000
Time:	4.119	Roll Set Point:	-0.048	Pitch Set Point:	-0.019	Yaw Set Point:	0.065	X_WP:	0.000	Y_WP:	0.000	Y_WP:	0.000	X:	0.024	Y:	0.009	Z:	0.057	yaw:	-3.741	yaw rate:	-13.950	Roll:	0.846	Pitch:	0.294	Yaw:	-6.450	Thrust:	0.000
Time:	4.140	Roll Set Point:	-0.048	Pitch Set Point:	-0.019	Yaw Set Point:	0.068	X_WP:	0.000	Y_WP:	0.000	Y_WP:	0.000	X:	0.024	Y:	0.009	Z:	0.057	yaw:	-3.886	yaw rate:	14.411	Roll:	0.978	Pitch:	0.490	Yaw:	-11.424	Thrust:	0.000
Time:	4.161	Roll Set Point:	-0.048	Pitch Set Point:	-0.019	Yaw Set Point:	0.065	X_WP:	0.000	Y_WP:	0.000	Y_WP:	0.000	X:	0.024	Y:	0.009	Z:	0.057	yaw:	-3.740	yaw rate:	-14.575	Roll:	0.878	Pitch:	0.297	Yaw:	-7.358	Thrust:	0.000
Time:	4.179	Roll Set Point:	-0.048	Pitch Set Point:	-0.019	Yaw Set Point:	0.065	X_WP:	0.000	Y_WP:	0.000	Y_WP:	0.000	X:	0.024	Y:	0.009	Z:	0.057	yaw:	-3.744	yaw rate:	0.386	Roll:	0.908	Pitch:	0.401	Yaw:	-8.997	Thrust:	0.000
Time:	4.200	Roll Set Point:	-0.048	Pitch Set Point:	-0.019	Yaw Set Point:	0.068	X_WP:	0.000	Y_WP:	0.000	Y_WP:	0.000	X:	0.024	Y:	0.009	Z:	0.057	yaw:	-3.890	yaw rate:	14.640	Roll:	0.971	Pitch:	0.487	Yaw:	-11.419	Thrust:	0.000
Time:	4.221	Roll Set Point:	-0.048	Pitch Set Point:	-0.019	Yaw Set Point:	0.065	X_WP:	0.000	Y_WP:	0.000	Y_WP:	0.000	X:	0.024	Y:	0.009	Z:	0.057	yaw:	-3.740	yaw rate:	-14.977	Roll:	0.884	Pitch:	0.315	Yaw:	-7.380	Thrust:	0.000
Time:	4.241	Roll Set Point:	-0.048	Pitch Set Point:	-0.019	Yaw Set Point:	0.068	X_WP:	0.000	Y_WP:	0.000	Y_WP:	0.000	X:	0.024	Y:	0.009	Z:	0.057	yaw:	-3.884	yaw rate:	14.394	Roll:	0.995	Pitch:	0.494	Yaw:	-11.428	Thrust:	0.000
Time:	4.259	Roll Set Point:	-0.048	Pitch Set Point:	-0.019	Yaw Set Point:	0.065	X_WP:	0.000	Y_WP:	0.000	Y_WP:	0.000	X:	0.024	Y:	0.009	Z:	0.057	yaw:	-3.740	yaw rate:	-14.460	Roll:	0.867	Pitch:	0.302	Yaw:	-6.777	Thrust:	0.000
Time:	4.280	Roll Set Point:	-0.048	Pitch Set Point:	-0.019	Yaw Set Point:	0.068	X_WP:	0.000	Y_WP:	0.000	Y_WP:	0.000	X:	0.024	Y:	0.009	Z:	0.057	yaw:	-3.883	yaw rate:	14.342	Roll:	0.957	Pitch:	0.491	Yaw:	-11.338	Thrust:	0.000
Time:	4.301	Roll Set Point:	-0.048	Pitch Set Point:	-0.019	Yaw Set Point:	0.068	X_WP:	0.000	Y_WP:	0.000	Y_WP:	0.000	X:	0.024	Y:	0.009	Z:	0.057	yaw:	-3.888	yaw rate:	0.494	Roll:	0.962	Pitch:	0.410	Yaw:	-9.804	Thrust:	0.000
Time:	4.320	Roll Set Point:	-0.048	Pitch Set Point:	-0.019	Yaw Set Point:	0.065	X_WP:	0.000	Y_WP:	0.000	Y_WP:	0.000	X:	0.024	Y:	0.009	Z:	0.057	yaw:	-3.738	yaw rate:	-14.958	Roll:	0.871	Pitch:	0.295	Yaw:	-6.719	Thrust:	0.000
Time:	4.340	Roll Set Point:	-0.048	Pitch Set Point:	-0.019	Yaw Set Point:	0.065	X_WP:	0.000	Y_WP:	0.000	Y_WP:	0.000	X:	0.024	Y:	0.009	Z:	0.057	yaw:	-3.740	yaw rate:	0.145	Roll:	0.933	Pitch:	0.413	Yaw:	-9.371	Thrust:	0.000
Time:	4.359	Roll Set Point:	-0.048	Pitch Set Point:	-0.019	Yaw Set Point:	0.068	X_WP:	0.000	Y_WP:	0.000	Y_WP:	0.000	X:	0.024	Y:	0.009	Z:	0.057	yaw:	-3.884	yaw rate:	14.442	Roll:	0.973	Pitch:	0.492	Yaw:	-11.225	Thrust:	0.000
Time:	4.380	Roll Set Point:	-0.048	Pitch Set Point:	-0.019	Yaw Set Point:	0.065	X_WP:	0.000	Y_WP:	0.000	Y_WP:	0.000	X:	0.024	Y:	0.009	Z:	0.057	yaw:	-3.742	yaw rate:	-14.230	Roll:	0.893	Pitch:	0.306	Yaw:	-7.239	Thrust:	0.000
Time:	4.400	Roll Set Point:	-0.048	Pitch Set Point:	-0.019	Yaw Set Point:	0.068	X_WP:	0.000	Y_WP:	0.000	Y_WP:	0.000	X:	0.024	Y:	0.009	Z:	0.057	yaw:	-3.897	yaw rate:	15.522	Roll:	0.978	Pitch:	0.501	Yaw:	-11.561	Thrust:	0.000
Time:	4.420	Roll Set Point:	-0.048	Pitch Set Point:	-0.019	Yaw Set Point:	0.068	X_WP:	0.000	Y_WP:	0.000	Y_WP:	0.000	X:	0.024	Y:	0.009	Z:	0.057	yaw:	-3.886	yaw rate:	-1.131	Roll:	0.949	Pitch:	0.406	Yaw:	-9.322	Thrust:	0.000
Time:	4.441	Roll Set Point:	-0.048	Pitch Set Point:	-0.019	Yaw Set Point:	0.065	X_WP:	0.000	Y_WP:	0.000	Y_WP:	0.000	X:	0.024	Y:	0.009	Z:	0.057	yaw:	-3.740	yaw rate:	-14.614	Roll:	0.915	Pitch:	0.331	Yaw:	-7.626	Thrust:	0.000
Time:	4.460	Roll Set Point:	-0.048	Pitch Set Point:	-0.019	Yaw Set Point:	0.065	X_WP:	0.000	Y_WP:	0.000	Y_WP:	0.000	X:	0.024	Y:	0.009	Z:	0.057	yaw:	-3.743	yaw rate:	0.288	Roll:	0.914	Pitch:	0.387	Yaw:	-8.993	Thrust:	0.000
Time:	4.479	Roll Set Point:	-0.048	Pitch Set Point:	-0.019	Yaw Set Point:	0.068	X_WP:	0.000	Y_WP:	0.000	Y_WP:	0.000	X:	0.024	Y:	0.009	Z:	0.057	yaw:	-3.895	yaw rate:	15.189	Roll:	0.980	Pitch:	0.506	Yaw:	-11.366	Thrust:	0.000
Time:	4.501	Roll Set Point:	-0.048	Pitch Set Point:	-0.019	Yaw Set Point:	0.068	X_WP:	0.000	Y_WP:	0.000	Y_WP:	0.000	X:	0.024	Y:	0.009	Z:	0.057	yaw:	-3.890	yaw rate:	-0.500	Roll:	0.964	Pitch:	0.425	Yaw:	-9.648	Thrust:	0.000
Time:	4.520	Roll Set Point:	-0.048	Pitch Set Point:	-0.019	Yaw Set Point:	0.068	X_WP:	0.000	Y_WP:	0.000	Y_WP:	0.000	X:	0.024	Y:	0.009	Z:	0.057	yaw:	-3.890	yaw rate:	0.016	Roll:	0.940	Pitch:	0.397	Yaw:	-9.243	Thrust:	0.000
Time:	4.540	Roll Set Point:	-0.048	Pitch Set Point:	-0.019	Yaw Set Point:	0.065	X_WP:	0.000	Y_WP:	0.000	Y_WP:	0.000	X:	0.024	Y:	0.009	Z:	0.057	yaw:	-3.745	yaw rate:	-14.465	Roll:	0.902	Pitch:	0.320	Yaw:	-7.420	Thrust:	0.000
Time:	4.561	Roll Set Point:	-0.048	Pitch Set Point:	-0.019	Yaw Set Point:	0.068	X_WP:	0.000	Y_WP:	0.000	Y_WP:	0.000	X:	0.024	Y:	0.009	Z:	0.057	yaw:	-3.880	yaw rate:	13.509	Roll:	0.990	Pitch:	0.501	Yaw:	-11.253	Thrust:	0.000
Time:	4.580	Roll Set Point:	-0.048	Pitch Set Point:	-0.019	Yaw Set Point:	0.068	X_WP:	0.000	Y_WP:	0.000	Y_WP:	0.000	X:	0.024	Y:	0.009	Z:	0.057	yaw:	-3.883	yaw rate:	0.272	Roll:	0.960	Pitch:	0.406	Yaw:	-9.313	Thrust:	0.000
Time:	4.600	Roll Set Point:	-0.048	Pitch Set Point:	-0.019	Yaw Set Point:	0.068	X_WP:	0.000	Y_WP:	0.000	Y_WP:	0.000	X:	0.024	Y:	0.009	Z:	0.057	yaw:	-3.888	yaw rate:	0.564	Roll:	0.939	Pitch:	0.413	Yaw:	-9.430	Thrust:	0.000
Time:	4.621	Roll Set Point:	-0.048	Pitch Set Point:	-0.019	Yaw Set Point:	0.068	X_WP:	0.000	Y_WP:	0.000	Y_WP:	0.000	X:	0.024	Y:	0.009	Z:	0.057	yaw:	-3.888	yaw rate:	-0.089	Roll:	0.958	Pitch:	0.417	Yaw:	-9.652	Thrust:	0.000
Time:	4.641	Roll Set Point:	-0.048	Pitch Set Point:	-0.019	Yaw Set Point:	0.068	X_WP:	0.000	Y_WP:	0.000	Y_WP:	0.000	X:	0.024	Y:	0.009	Z:	0.057	yaw:	-3.885	yaw rate:	-0.246	Roll:	0.953	Pitch:	0.413	Yaw:	-9.422	Thrust:	0.000
Time:	4.659	Roll Set Point:	-0.048	Pitch Set Point:	-0.019	Yaw Set Point:	0.068	X_WP:	0.000	Y_WP:	0.000	Y_WP:	0.000	X:	0.024	Y:	0.009	Z:	0.057	yaw:	-3.885	yaw rate:	0.015	Roll:	0.953	Pitch:	0.405	Yaw:	-9.151	Thrust:	0.000
Time:	4.680	Roll Set Point:	-0.048	Pitch Set Point:	-0.019	Yaw Set Point:	0.065	X_WP:	0.000	Y_WP:	0.000	Y_WP:	0.000	X:	0.024	Y:	0.009	Z:	0.057	yaw:	-3.747	yaw rate:	-13.851	Roll:	0.879	Pitch:	0.317	Yaw:	-7.534	Thrust:	0.000
Time:	4.702	Roll Set Point:	-0.048	Pitch Set Point:	-0.019	Yaw Set Point:	0.068	X_WP:	0.000	Y_WP:	0.000	Y_WP:	0.000	X:	0.024	Y:	0.009	Z:	0.057	yaw:	-3.889	yaw rate:	14.272	Roll:	1.035	Pitch:	0.507	Yaw:	-11.483	Thrust:	0.000
Time:	4.720	Roll Set Point:	-0.048	Pitch Set Point:	-0.019	Yaw Set Point:	0.065	X_WP:	0.000	Y_WP:	0.000	Y_WP:	0.000	X:	0.024	Y:	0.009	Z:	0.057	yaw:	-3.740	yaw rate:	-14.997	Roll:	0.878	Pitch:	0.301	Yaw:	-6.817	Thrust:	0.000
Time:	4.740	Roll Set Point:	-0.048	Pitch Set Point:	-0.019	Yaw Set Point:	0.068	X_WP:	0.000	Y_WP:	0.000	Y_WP:	0.000	X:	0.024	Y:	0.009	Z:	0.057	yaw:	-3.885	yaw rate:	14.571	Roll:	1.017	Pitch:	0.509	Yaw:	-11.352	Thrust:	0.000
Time:	4.760	Roll Set Point:	-0.048	Pitch Set Point:	-0.019	Yaw Set Point:	0.065	X_WP:	0.000	Y_WP:	0.000	Y_WP:	0.000	X:	0.024	Y:	0.009	Z:	0.057	yaw:	-3.748	yaw rate:	-13.711	Roll:	0.913	Pitch:	0.315	Yaw:	-7.241	Thrust:	0.000
Time:	4.782	Roll Set Point:	-0.048	Pitch Set Point:	-0.019	Yaw Set Point:	0.065	X_WP:	0.000	Y_WP:	0.000	Y_WP:	0.000	X:	0.024	Y:	0.009	Z:	0.057	yaw:	-3.739	yaw rate:	-0.873	Roll:	0.936	Pitch:	0.411	Yaw:	-9.686	Thrust:	0.000
Time:	4.800	Roll Set Point:	-0.048	Pitch Set Point:	-0.019	Yaw Set Point:	0.068	X_WP:	0.000	Y_WP:	0.000	Y_WP:	0.000	X:	0.024	Y:	0.009	Z:	0.057	yaw:	-3.888	yaw rate:	14.875	Roll:	1.018	Pitch:	0.514	Yaw:	-11.127	Thrust:	0.000
Time:	4.821	Roll Set Point:	-0.048	Pitch Set Point:	-0.019	Yaw Set Point:	0.068	X_WP:	0.000	Y_WP:	0.000	Y_WP:	0.000	X:	0.024	Y:	0.009	Z:	0.057	yaw:	-3.891	yaw rate:	0.319	Roll:	0.982	Pitch:	0.425	Yaw:	-9.675	Thrust:	0.000
Time:	4.840	Roll Set Point:	-0.048	Pitch Set Point:	-0.019	Yaw Set Point:	0.065	X_WP:	0.000	Y_WP:	0.000	Y_WP:	0.000	X:	0.024	Y:	0.009	Z:	0.057	yaw:	-3.738	yaw rate:	-15.297	Roll:	0.919	Pitch:	0.310	Yaw:	-7.094	Thrust:	0.000
Time:	4.859	Roll Set Point:	-0.048	Pitch Set Point:	-0.019	Yaw Set Point:	0.065	X_WP:	0.000	Y_WP:	0.000	Y_WP:	0.000	X:	0.024	Y:	0.009	Z:	0.057	yaw:	-3.742	yaw rate:	0.369	Roll:	0.949	Pitch:	0.427	Yaw:	-9.201	Thrust:	0.000
Time:	4.879	Roll Set Point:	-0.048	Pitch Set Point:	-0.019	Yaw Set Point:	0.068	X_WP:	0.000	Y_WP:	0.000	Y_WP:	0.000	X:	0.024	Y:	0.009	Z:	0.057	yaw:	-3.885	yaw rate:	14.302	Roll:	0.998	Pitch:	0.497	Yaw:	-11.233	Thrust:	0.000
Time:	4.904	Roll Set Point:	-0.048	Pitch Set Point:	-0.019	Yaw Set Point:	0.065	X_WP:	0.000	Y_WP:	0.000	Y_WP:	0.000	X:	0.024	Y:	0.009	Z:	0.057	yaw:	-3.743	yaw rate:	-14.248	Roll:	0.975	Pitch:	0.369	Yaw:	-8.667	Thrust:	0.000
Time:	4.920	Roll Set Point:	-0.048	Pitch Set Point:	-0.019	Yaw Set Point:	0.065	X_WP:	0.000	Y_WP:	0.000	Y_WP:	0.000	X:	0.024	Y:	0.009	Z:	0.057	yaw:	-3.739	yaw rate:	-0.353	Roll:	0.942	Pitch:	0.410	Yaw:	-8.471	Thrust:	0.000
Time:	4.940	Roll Set Point:	-0.048	Pitch Set Point:	-0.019	Yaw Set Point:	0.068	X_WP:	0.000	Y_WP:	0.000	Y_WP:	0.000	X:	0.024	Y:	0.009	Z:	0.057	yaw:	-3.889	yaw rate:	15.003	Roll:	1.006	Pitch:	0.505	Yaw:	-11.356	Thrust:	0.000
Time:	4.959	Roll Set Point:	-0.048	Pitch Set Point:	-0.019	Yaw Set Point:	0.068	X_WP:	0.000	Y_WP:	0.000	Y_WP:	0.000	X:	0.024	Y:	0.009	Z:	0.057	yaw:	-3.883	yaw rate:	-0.639	Roll:	0.957	Pitch:	0.414	Yaw:	-9.274	Thrust:	0.000
Time:	4.979	Roll Set Point:	-0.048	Pitch Set Point:	-0.019	Yaw Set Point:	0.068	X_WP:	0.000	Y_WP:	0.000	Y_WP:	0.000	X:	0.024	Y:	0.009	Z:	0.057	yaw:	-3.883	yaw rate:	0.068	Roll:	0.980	Pitch:	0.416	Yaw:	-9.354	Thrust:	0.000
Time:	5.000	Roll Set Point:	-0.048	Pitch Set Point:	-0.019	Yaw Set Point:	0.068	X_WP:	0.000	Y_WP:	0.000	Y_WP:	0.000	X:	0.024	Y:	0.009	Z:	0.057	yaw:	-3.886	yaw rate:	0.246	Roll:	0.984	Pitch:	0.432	Yaw:	-9.536	Thrust:	0.000
Time:	5.020	Roll Set Point:	1.699	Pitch Set Point:	0.095	Yaw Set Point:	0.065	X_WP:	1.750	Y_WP:	0.000	Y_WP:	0.000	X:	0.024	Y:	0.009	Z:	0.057	yaw:	-3.739	yaw rate:	-14.675	Roll:	-30.000	Pitch:	-30.000	Yaw:	-7.411	Thrust:	0.000
Time:	5.041	Roll Set Point:	1.698	Pitch Set Point:	0.100	Yaw Set Point:	0.068	X_WP:	1.750	Y_WP:	0.000	Y_WP:	0.000	X:	0.024	Y:	0.009	Z:	0.057	yaw:	-3.887	yaw rate:	14.805	Roll:	-30.000	Pitch:	-6.792	Yaw:	-11.404	Thrust:	0.000
Time:	5.060	Roll Set Point:	1.699	Pitch Set Point:	0.095	Yaw Set Point:	0.065	X_WP:	1.750	Y_WP:	0.000	Y_WP:	0.000	X:	0.024	Y:	0.009	Z:	0.057	yaw:	-3.740	yaw rate:	-14.738	Roll:	-30.000	Pitch:	0.987	Yaw:	-7.175	Thrust:	0.000
Time:	5.081	Roll Set Point:	1.698	Pitch Set Point:	0.100	Yaw Set Point:	0.068	X_WP:	1.750	Y_WP:	0.000	Y_WP:	0.000	X:	0.024	Y:	0.009	Z:	0.057	yaw:	-3.884	yaw rate:	14.439	Roll:	-30.000	Pitch:	-6.486	Yaw:	-11.323	Thrust:	0.000
Time:	5.104	Roll Set Point:	1.699	Pitch Set Point:	0.095	Yaw Set Point:	0.065	X_WP:	1.750	Y_WP:	0.000	Y_WP:	0.000	X:	0.024	Y:	0.009	Z:	0.057	yaw:	-3.739	yaw rate:	-14.498	Roll:	-30.000	Pitch:	0.502	Yaw:	-8.192	Thrust:	0.000
Time:	5.120	Roll Set Point:	1.698	Pitch Set Point:	0.100	Yaw Set Point:	0.068	X_WP:	1.750	Y_WP:	0.000	Y_WP:	0.000	X:	0.024	Y:	0.009	Z:	0.057	yaw:	-3.888	yaw rate:	14.833	Roll:	-30.000	Pitch:	-7.231	Yaw:	-11.115	Thrust:	0.000
Time:	5.141	Roll Set Point:	1.699	Pitch Set Point:	0.095	Yaw Set Point:	0.065	X_WP:	1.750	Y_WP:	0.000	Y_WP:	0.000	X:	0.024	Y:	0.009	Z:	0.057	yaw:	-3.735	yaw rate:	-15.268	Roll:	-30.000	Pitch:	0.903	Yaw:	-7.297	Thrust:	0.000
Time:	5.161	Roll Set Point:	1.699	Pitch Set Point:	0.096	Yaw Set Point:	0.065	X_WP:	1.750	Y_WP:	0.000	Y_WP:	0.000	X:	0.024	Y:	0.009	Z:	0.057	yaw:	-3.745	yaw rate:	1.048	Roll:	-30.000	Pitch:	-3.213	Yaw:	-9.380	Thrust:	0.000
Time:	5.180	Roll Set Point:	1.699	Pitch Set Point:	0.095	Yaw Set Point:	0.065	X_WP:	1.750	Y_WP:	0.000	Y_WP:	0.000	X:	0.024	Y:	0.009	Z:	0.057	yaw:	-3.740	yaw rate:	-0.546	Roll:	-30.000	Pitch:	-2.791	Yaw:	-9.084	Thrust:	0.000
Time:	5.200	Roll Set Point:	1.699	Pitch Set Point:	0.095	Yaw Set Point:	0.065	X_WP:	1.750	Y_WP:	0.000	Y_WP:	0.000	X:	0.024	Y:	0.009	Z:	0.057	yaw:	-3.736	yaw rate:	-0.363	Roll:	-30.000	Pitch:	-2.848	Yaw:	-9.098	Thrust:	0.000
Time:	5.222	Roll Set Point:	1.698	Pitch Set Point:	0.100	Yaw Set Point:	0.068	X_WP:	1.750	Y_WP:	0.000	Y_WP:	0.000	X:	0.024	Y:	0.009	Z:	0.057	yaw:	-3.877	yaw rate:	14.106	Roll:	-30.000	Pitch:	-6.482	Yaw:	-11.416	Thrust:	0.000
Time:	5.241	Roll Set Point:	1.699	Pitch Set Point:	0.096	Yaw Set Point:	0.065	X_WP:	1.750	Y_WP:	0.000	Y_WP:	0.000	X:	0.024	Y:	0.009	Z:	0.057	yaw:	-3.743	yaw rate:	-13.424	Roll:	-30.000	Pitch:	0.441	Yaw:	-7.201	Thrust:	0.000
Time:	5.261	Roll Set Point:	1.698	Pitch Set Point:	0.100	Yaw Set Point:	0.068	X_WP:	1.750	Y_WP:	0.000	Y_WP:	0.000	X:	0.024	Y:	0.009	Z:	0.057	yaw:	-3.889	yaw rate:	14.572	Roll:	-30.000	Pitch:	-6.831	Yaw:	-11.309	Thrust:	0.000
Time:	5.280	Roll Set Point:	1.699	Pitch Set Point:	0.096	Yaw Set Point:	0.065	X_WP:	1.750	Y_WP:	0.000	Y_WP:	0.000	X:	0.024	Y:	0.009	Z:	0.057	yaw:	-3.741	yaw rate:	-14.729	Roll:	-30.000	Pitch:	0.948	Yaw:	-7.013	Thrust:	0.000
Time:	5.305	Roll Set Point:	1.699	Pitch Set Point:	0.096	Yaw Set Point:	0.065	X_WP:	1.750	Y_WP:	0.000	Y_WP:	0.000	X:	0.024	Y:	0.009	Z:	0.057	yaw:	-3.741	yaw rate:	-0.029	Roll:	-30.000	Pitch:	-2.945	Yaw:	-10.207	Thrust:	0.000
Time:	5.321	Roll Set Point:	1.699	Pitch Set Point:	0.096	Yaw Set Point:	0.065	X_WP:	1.750	Y_WP:	0.000	Y_WP:	0.000	X:	0.024	Y:	0.009	Z:	0.057	yaw:	-3.742	yaw rate:	0.037	Roll:	-30.000	Pitch:	-2.987	Yaw:	-8.462	Thrust:	0.000
Time:	5.341	Roll Set Point:	1.698	Pitch Set Point:	0.100	Yaw Set Point:	0.068	X_WP:	1.750	Y_WP:	0.000	Y_WP:	0.000	X:	0.024	Y:	0.009	Z:	0.057	yaw:	-3.897	yaw rate:	15.516	Roll:	-30.000	Pitch:	-6.975	Yaw:	-11.559	Thrust:	0.000
Time:	5.366	Roll Set Point:	1.698	Pitch Set Point:	0.100	Yaw Set Point:	0.068	X_WP:	1.750	Y_WP:	0.000	Y_WP:	0.000	X:	0.024	Y:	0.009	Z:	0.057	yaw:	-3.886	yaw rate:	-1.042	Roll:	-30.000	Pitch:	-2.836	Yaw:	-9.820	Thrust:	0.000
Time:	5.381	Roll Set Point:	1.698	Pitch Set Point:	0.100	Yaw Set Point:	0.068	X_WP:	1.750	Y_WP:	0.000	Y_WP:	0.000	X:	0.024	Y:	0.009	Z:	0.057	yaw:	-3.894	yaw rate:	0.761	Roll:	-30.000	Pitch:	-3.326	Yaw:	-8.812	Thrust:	0.000
