Time:	0.050	Roll Set Point:	-1.174	Pitch Set Point:	0.118	Yaw Set Point:	-0.344	X_WP:	-0.910	Y_WP:	-0.164	Y_WP:	1.000	X:	0.128	Y:	0.040	Z:	0.056	yaw:	19.726	yaw rate:	2.521	Roll:	30.000	Pitch:	-4.586	Yaw:	27.543	Thrust:	51.905
Time:	0.060	Roll Set Point:	-1.175	Pitch Set Point:	0.123	Yaw Set Point:	-0.347	X_WP:	-0.912	Y_WP:	-0.161	Y_WP:	1.000	X:	0.128	Y:	0.040	Z:	0.056	yaw:	19.860	yaw rate:	-13.384	Roll:	30.000	Pitch:	-12.741	Yaw:	30.957	Thrust:	53.150
Time:	0.079	Roll Set Point:	-1.178	Pitch Set Point:	0.111	Yaw Set Point:	-0.332	X_WP:	-0.915	Y_WP:	-0.159	Y_WP:	1.000	X:	0.128	Y:	0.040	Z:	0.056	yaw:	19.045	yaw rate:	81.501	Roll:	30.000	Pitch:	6.751	Yaw:	14.962	Thrust:	56.052
Time:	0.099	Roll Set Point:	-1.178	Pitch Set Point:	0.128	Yaw Set Point:	-0.345	X_WP:	-0.917	Y_WP:	-0.156	Y_WP:	1.000	X:	0.128	Y:	0.040	Z:	0.056	yaw:	19.770	yaw rate:	-72.518	Roll:	30.000	Pitch:	-18.693	Yaw:	37.235	Thrust:	58.670
Time:	0.118	Roll Set Point:	-1.179	Pitch Set Point:	0.135	Yaw Set Point:	-0.348	X_WP:	-0.920	Y_WP:	-0.154	Y_WP:	1.000	X:	0.128	Y:	0.040	Z:	0.056	yaw:	19.944	yaw rate:	-17.363	Roll:	30.000	Pitch:	-10.840	Yaw:	30.727	Thrust:	60.938
Time:	0.139	Roll Set Point:	-1.182	Pitch Set Point:	0.119	Yaw Set Point:	-0.331	X_WP:	-0.922	Y_WP:	-0.151	Y_WP:	1.000	X:	0.128	Y:	0.040	Z:	0.056	yaw:	18.937	yaw rate:	100.741	Roll:	30.000	Pitch:	8.424	Yaw:	14.179	Thrust:	62.857
Time:	0.161	Roll Set Point:	-1.183	Pitch Set Point:	0.124	Yaw Set Point:	-0.332	X_WP:	-0.923	Y_WP:	-0.148	Y_WP:	1.000	X:	0.128	Y:	0.041	Z:	0.056	yaw:	19.038	yaw rate:	-10.120	Roll:	30.000	Pitch:	-9.209	Yaw:	28.685	Thrust:	65.861
Time:	0.179	Roll Set Point:	-1.182	Pitch Set Point:	0.136	Yaw Set Point:	-0.340	X_WP:	-0.925	Y_WP:	-0.145	Y_WP:	1.000	X:	0.128	Y:	0.041	Z:	0.057	yaw:	19.498	yaw rate:	-46.056	Roll:	30.000	Pitch:	-14.874	Yaw:	34.600	Thrust:	67.728
Time:	0.198	Roll Set Point:	-1.179	Pitch Set Point:	0.156	Yaw Set Point:	-0.357	X_WP:	-0.926	Y_WP:	-0.143	Y_WP:	1.000	X:	0.128	Y:	0.041	Z:	0.057	yaw:	20.475	yaw rate:	-97.650	Roll:	28.271	Pitch:	-23.976	Yaw:	43.085	Thrust:	68.089
Time:	0.224	Roll Set Point:	-1.181	Pitch Set Point:	0.145	Yaw Set Point:	-0.344	X_WP:	-0.927	Y_WP:	-0.140	Y_WP:	1.000	X:	0.127	Y:	0.041	Z:	0.057	yaw:	19.703	yaw rate:	77.200	Roll:	30.000	Pitch:	2.089	Yaw:	21.081	Thrust:	77.098
Time:	0.246	Roll Set Point:	-1.182	Pitch Set Point:	0.133	Yaw Set Point:	-0.328	X_WP:	-0.929	Y_WP:	-0.136	Y_WP:	1.000	X:	0.126	Y:	0.040	Z:	0.059	yaw:	18.820	yaw rate:	88.271	Roll:	30.000	Pitch:	4.850	Yaw:	17.589	Thrust:	73.295
Time:	0.258	Roll Set Point:	-1.179	Pitch Set Point:	0.135	Yaw Set Point:	-0.328	X_WP:	-0.930	Y_WP:	-0.134	Y_WP:	1.000	X:	0.125	Y:	0.040	Z:	0.061	yaw:	18.778	yaw rate:	4.225	Roll:	29.295	Pitch:	-7.531	Yaw:	26.136	Thrust:	57.410
Time:	0.280	Roll Set Point:	-1.179	Pitch Set Point:	0.109	Yaw Set Point:	-0.300	X_WP:	-0.930	Y_WP:	-0.131	Y_WP:	1.000	X:	0.122	Y:	0.039	Z:	0.066	yaw:	17.183	yaw rate:	159.525	Roll:	30.000	Pitch:	16.899	Yaw:	6.218	Thrust:	71.297
Time:	0.298	Roll Set Point:	-1.171	Pitch Set Point:	0.110	Yaw Set Point:	-0.298	X_WP:	-0.931	Y_WP:	-0.128	Y_WP:	1.000	X:	0.119	Y:	0.039	Z:	0.071	yaw:	17.082	yaw rate:	10.060	Roll:	27.470	Pitch:	-4.834	Yaw:	24.163	Thrust:	67.434
Time:	0.319	Roll Set Point:	-1.163	Pitch Set Point:	0.075	Yaw Set Point:	-0.264	X_WP:	-0.931	Y_WP:	-0.126	Y_WP:	1.000	X:	0.113	Y:	0.038	Z:	0.077	yaw:	15.106	yaw rate:	197.555	Roll:	29.986	Pitch:	25.104	Yaw:	-3.255	Thrust:	68.793
Time:	0.337	Roll Set Point:	-1.151	Pitch Set Point:	0.053	Yaw Set Point:	-0.240	X_WP:	-0.931	Y_WP:	-0.123	Y_WP:	1.000	X:	0.106	Y:	0.038	Z:	0.082	yaw:	13.734	yaw rate:	137.239	Roll:	26.089	Pitch:	18.804	Yaw:	1.677	Thrust:	68.259
Time:	0.359	Roll Set Point:	-1.134	Pitch Set Point:	0.018	Yaw Set Point:	-0.205	X_WP:	-0.932	Y_WP:	-0.120	Y_WP:	1.000	X:	0.096	Y:	0.037	Z:	0.087	yaw:	11.743	yaw rate:	199.127	Roll:	25.460	Pitch:	25.748	Yaw:	-5.223	Thrust:	79.701
Time:	0.379	Roll Set Point:	-1.112	Pitch Set Point:	0.007	Yaw Set Point:	-0.193	X_WP:	-0.932	Y_WP:	-0.118	Y_WP:	1.000	X:	0.085	Y:	0.037	Z:	0.092	yaw:	11.071	yaw rate:	67.219	Roll:	21.788	Pitch:	7.990	Yaw:	8.964	Thrust:	79.710
Time:	0.399	Roll Set Point:	-1.084	Pitch Set Point:	0.023	Yaw Set Point:	-0.208	X_WP:	-0.933	Y_WP:	-0.115	Y_WP:	1.000	X:	0.071	Y:	0.036	Z:	0.095	yaw:	11.934	yaw rate:	-86.325	Roll:	17.363	Pitch:	-16.636	Yaw:	30.577	Thrust:	78.812
Time:	0.419	Roll Set Point:	-1.052	Pitch Set Point:	0.040	Yaw Set Point:	-0.224	X_WP:	-0.934	Y_WP:	-0.112	Y_WP:	1.000	X:	0.055	Y:	0.036	Z:	0.098	yaw:	12.807	yaw rate:	-87.267	Roll:	15.504	Pitch:	-15.203	Yaw:	31.052	Thrust:	86.499
Time:	0.444	Roll Set Point:	-1.012	Pitch Set Point:	0.072	Yaw Set Point:	-0.256	X_WP:	-0.934	Y_WP:	-0.109	Y_WP:	1.000	X:	0.037	Y:	0.035	Z:	0.101	yaw:	14.690	yaw rate:	-188.371	Roll:	13.108	Pitch:	-25.021	Yaw:	42.589	Thrust:	99.170
Time:	0.459	Roll Set Point:	-0.970	Pitch Set Point:	0.075	Yaw Set Point:	-0.258	X_WP:	-0.935	Y_WP:	-0.107	Y_WP:	1.000	X:	0.016	Y:	0.033	Z:	0.105	yaw:	14.772	yaw rate:	-8.154	Roll:	8.655	Pitch:	-3.869	Yaw:	23.547	Thrust:	75.632
Time:	0.478	Roll Set Point:	-0.923	Pitch Set Point:	0.078	Yaw Set Point:	-0.258	X_WP:	-0.935	Y_WP:	-0.103	Y_WP:	1.000	X:	-0.007	Y:	0.030	Z:	0.108	yaw:	14.783	yaw rate:	-1.174	Roll:	6.018	Pitch:	-3.795	Yaw:	22.714	Thrust:	87.495
Time:	0.499	Roll Set Point:	-0.871	Pitch Set Point:	0.084	Yaw Set Point:	-0.257	X_WP:	-0.935	Y_WP:	-0.100	Y_WP:	1.000	X:	-0.033	Y:	0.025	Z:	0.113	yaw:	14.731	yaw rate:	5.239	Roll:	5.281	Pitch:	-3.550	Yaw:	21.919	Thrust:	89.843
Time:	0.518	Roll Set Point:	-0.816	Pitch Set Point:	0.071	Yaw Set Point:	-0.233	X_WP:	-0.936	Y_WP:	-0.098	Y_WP:	1.000	X:	-0.061	Y:	0.018	Z:	0.118	yaw:	13.376	yaw rate:	135.498	Roll:	3.456	Pitch:	13.191	Yaw:	3.456	Thrust:	90.116
Time:	0.539	Roll Set Point:	-0.758	Pitch Set Point:	0.059	Yaw Set Point:	-0.206	X_WP:	-0.936	Y_WP:	-0.095	Y_WP:	1.000	X:	-0.091	Y:	0.010	Z:	0.124	yaw:	11.815	yaw rate:	156.154	Roll:	0.995	Pitch:	14.114	Yaw:	-1.787	Thrust:	92.273
Time:	0.559	Roll Set Point:	-0.696	Pitch Set Point:	0.049	Yaw Set Point:	-0.177	X_WP:	-0.937	Y_WP:	-0.092	Y_WP:	1.000	X:	-0.122	Y:	0.002	Z:	0.131	yaw:	10.134	yaw rate:	168.062	Roll:	-1.723	Pitch:	14.231	Yaw:	-5.565	Thrust:	90.315
Time:	0.579	Roll Set Point:	-0.631	Pitch Set Point:	0.045	Yaw Set Point:	-0.150	X_WP:	-0.938	Y_WP:	-0.089	Y_WP:	1.000	X:	-0.155	Y:	-0.008	Z:	0.140	yaw:	8.610	yaw rate:	152.367	Roll:	-2.232	Pitch:	10.052	Yaw:	-5.297	Thrust:	90.232
Time:	0.599	Roll Set Point:	-0.563	Pitch Set Point:	0.035	Yaw Set Point:	-0.111	X_WP:	-0.940	Y_WP:	-0.085	Y_WP:	1.000	X:	-0.190	Y:	-0.018	Z:	0.150	yaw:	6.387	yaw rate:	222.371	Roll:	-7.682	Pitch:	16.915	Yaw:	-19.261	Thrust:	83.740
Time:	0.618	Roll Set Point:	-0.493	Pitch Set Point:	0.055	Yaw Set Point:	-0.114	X_WP:	-0.942	Y_WP:	-0.081	Y_WP:	1.000	X:	-0.225	Y:	-0.027	Z:	0.160	yaw:	6.516	yaw rate:	-12.937	Roll:	-7.986	Pitch:	-10.434	Yaw:	12.786	Thrust:	83.542
Time:	0.644	Roll Set Point:	-0.419	Pitch Set Point:	0.072	Yaw Set Point:	-0.111	X_WP:	-0.943	Y_WP:	-0.078	Y_WP:	1.000	X:	-0.262	Y:	-0.037	Z:	0.173	yaw:	6.334	yaw rate:	18.153	Roll:	-4.621	Pitch:	-5.967	Yaw:	9.544	Thrust:	100.000
Time:	0.657	Roll Set Point:	-0.345	Pitch Set Point:	0.084	Yaw Set Point:	-0.099	X_WP:	-0.945	Y_WP:	-0.075	Y_WP:	1.000	X:	-0.300	Y:	-0.047	Z:	0.187	yaw:	5.672	yaw rate:	66.227	Roll:	-22.218	Pitch:	-3.239	Yaw:	-3.608	Thrust:	43.276
Time:	0.680	Roll Set Point:	-0.270	Pitch Set Point:	0.091	Yaw Set Point:	-0.081	X_WP:	-0.946	Y_WP:	-0.072	Y_WP:	1.000	X:	-0.338	Y:	-0.057	Z:	0.201	yaw:	4.634	yaw rate:	103.795	Roll:	-9.528	Pitch:	0.609	Yaw:	-3.002	Thrust:	95.338
Time:	0.698	Roll Set Point:	-0.193	Pitch Set Point:	0.103	Yaw Set Point:	-0.069	X_WP:	-0.947	Y_WP:	-0.069	Y_WP:	1.000	X:	-0.377	Y:	-0.066	Z:	0.218	yaw:	3.962	yaw rate:	67.177	Roll:	-20.476	Pitch:	-3.549	Yaw:	-2.692	Thrust:	57.654
Time:	0.718	Roll Set Point:	-0.117	Pitch Set Point:	0.112	Yaw Set Point:	-0.050	X_WP:	-0.949	Y_WP:	-0.065	Y_WP:	1.000	X:	-0.416	Y:	-0.076	Z:	0.236	yaw:	2.853	yaw rate:	110.898	Roll:	-14.385	Pitch:	-1.598	Yaw:	-8.292	Thrust:	82.426
Time:	0.738	Roll Set Point:	-0.041	Pitch Set Point:	0.136	Yaw Set Point:	-0.055	X_WP:	-0.951	Y_WP:	-0.061	Y_WP:	1.000	X:	-0.454	Y:	-0.085	Z:	0.255	yaw:	3.162	yaw rate:	-30.817	Roll:	-15.937	Pitch:	-13.457	Yaw:	10.447	Thrust:	73.188
Time:	0.759	Roll Set Point:	0.034	Pitch Set Point:	0.149	Yaw Set Point:	-0.041	X_WP:	-0.952	Y_WP:	-0.058	Y_WP:	1.000	X:	-0.492	Y:	-0.094	Z:	0.275	yaw:	2.355	yaw rate:	80.664	Roll:	-17.703	Pitch:	-5.104	Yaw:	-4.854	Thrust:	76.827
Time:	0.779	Roll Set Point:	0.108	Pitch Set Point:	0.165	Yaw Set Point:	-0.030	X_WP:	-0.953	Y_WP:	-0.055	Y_WP:	1.000	X:	-0.529	Y:	-0.103	Z:	0.295	yaw:	1.723	yaw rate:	63.156	Roll:	-17.676	Pitch:	-7.733	Yaw:	-4.054	Thrust:	66.664
Time:	0.798	Roll Set Point:	0.181	Pitch Set Point:	0.188	Yaw Set Point:	-0.039	X_WP:	-0.954	Y_WP:	-0.051	Y_WP:	1.000	X:	-0.566	Y:	-0.112	Z:	0.316	yaw:	2.247	yaw rate:	-52.389	Roll:	-18.891	Pitch:	-14.870	Yaw:	12.090	Thrust:	71.252
Time:	0.818	Roll Set Point:	0.253	Pitch Set Point:	0.214	Yaw Set Point:	-0.061	X_WP:	-0.954	Y_WP:	-0.048	Y_WP:	1.000	X:	-0.601	Y:	-0.120	Z:	0.338	yaw:	3.467	yaw rate:	-121.951	Roll:	-22.779	Pitch:	-18.650	Yaw:	23.307	Thrust:	61.363
Time:	0.845	Roll Set Point:	0.321	Pitch Set Point:	0.230	Yaw Set Point:	-0.060	X_WP:	-0.954	Y_WP:	-0.045	Y_WP:	1.000	X:	-0.635	Y:	-0.128	Z:	0.361	yaw:	3.435	yaw rate:	3.155	Roll:	-12.287	Pitch:	-8.228	Yaw:	7.266	Thrust:	100.000
Time:	0.858	Roll Set Point:	0.387	Pitch Set Point:	0.246	Yaw Set Point:	-0.064	X_WP:	-0.954	Y_WP:	-0.042	Y_WP:	1.000	X:	-0.667	Y:	-0.135	Z:	0.385	yaw:	3.653	yaw rate:	-21.802	Roll:	-30.000	Pitch:	-15.355	Yaw:	10.870	Thrust:	8.016
Time:	0.877	Roll Set Point:	0.451	Pitch Set Point:	0.258	Yaw Set Point:	-0.059	X_WP:	-0.954	Y_WP:	-0.039	Y_WP:	1.000	X:	-0.699	Y:	-0.141	Z:	0.410	yaw:	3.362	yaw rate:	29.138	Roll:	-20.158	Pitch:	-8.859	Yaw:	2.682	Thrust:	58.305
Time:	0.899	Roll Set Point:	0.509	Pitch Set Point:	0.267	Yaw Set Point:	-0.042	X_WP:	-0.953	Y_WP:	-0.036	Y_WP:	1.000	X:	-0.729	Y:	-0.147	Z:	0.436	yaw:	2.403	yaw rate:	95.857	Roll:	-16.348	Pitch:	-6.323	Yaw:	-6.065	Thrust:	65.837
Time:	0.919	Roll Set Point:	0.566	Pitch Set Point:	0.279	Yaw Set Point:	-0.042	X_WP:	-0.953	Y_WP:	-0.033	Y_WP:	1.000	X:	-0.757	Y:	-0.152	Z:	0.462	yaw:	2.429	yaw rate:	-2.551	Roll:	-17.814	Pitch:	-9.517	Yaw:	5.725	Thrust:	67.629
Time:	0.939	Roll Set Point:	0.624	Pitch Set Point:	0.292	Yaw Set Point:	-0.064	X_WP:	-0.952	Y_WP:	-0.030	Y_WP:	1.000	X:	-0.784	Y:	-0.156	Z:	0.488	yaw:	3.694	yaw rate:	-126.550	Roll:	-22.092	Pitch:	-12.086	Yaw:	23.999	Thrust:	54.218
Time:	0.959	Roll Set Point:	0.676	Pitch Set Point:	0.298	Yaw Set Point:	-0.058	X_WP:	-0.952	Y_WP:	-0.028	Y_WP:	1.000	X:	-0.810	Y:	-0.159	Z:	0.514	yaw:	3.310	yaw rate:	38.407	Roll:	-16.958	Pitch:	-6.807	Yaw:	1.665	Thrust:	66.018
Time:	0.979	Roll Set Point:	0.725	Pitch Set Point:	0.304	Yaw Set Point:	-0.058	X_WP:	-0.951	Y_WP:	-0.025	Y_WP:	1.000	X:	-0.834	Y:	-0.161	Z:	0.540	yaw:	3.304	yaw rate:	0.637	Roll:	-16.646	Pitch:	-7.560	Yaw:	6.543	Thrust:	61.138
Time:	0.998	Roll Set Point:	0.770	Pitch Set Point:	0.308	Yaw Set Point:	-0.049	X_WP:	-0.951	Y_WP:	-0.022	Y_WP:	1.000	X:	-0.857	Y:	-0.163	Z:	0.565	yaw:	2.835	yaw rate:	46.858	Roll:	-16.089	Pitch:	-6.383	Yaw:	-0.559	Thrust:	52.832
Time:	1.017	Roll Set Point:	0.813	Pitch Set Point:	0.311	Yaw Set Point:	-0.046	X_WP:	-0.950	Y_WP:	-0.019	Y_WP:	1.000	X:	-0.878	Y:	-0.164	Z:	0.592	yaw:	2.610	yaw rate:	22.505	Roll:	-16.810	Pitch:	-6.467	Yaw:	2.471	Thrust:	52.283
Time:	1.044	Roll Set Point:	0.852	Pitch Set Point:	0.313	Yaw Set Point:	-0.045	X_WP:	-0.950	Y_WP:	-0.016	Y_WP:	1.000	X:	-0.898	Y:	-0.164	Z:	0.618	yaw:	2.562	yaw rate:	4.794	Roll:	-11.914	Pitch:	-6.362	Yaw:	5.707	Thrust:	98.532
Time:	1.058	Roll Set Point:	0.890	Pitch Set Point:	0.314	Yaw Set Point:	-0.045	X_WP:	-0.950	Y_WP:	-0.013	Y_WP:	1.000	X:	-0.916	Y:	-0.163	Z:	0.643	yaw:	2.589	yaw rate:	-2.619	Roll:	-17.500	Pitch:	-6.145	Yaw:	5.528	Thrust:	13.844
Time:	1.080	Roll Set Point:	0.924	Pitch Set Point:	0.314	Yaw Set Point:	-0.055	X_WP:	-0.950	Y_WP:	-0.010	Y_WP:	1.000	X:	-0.933	Y:	-0.162	Z:	0.669	yaw:	3.128	yaw rate:	-53.998	Roll:	-12.458	Pitch:	-5.304	Yaw:	12.881	Thrust:	78.896
Time:	1.099	Roll Set Point:	0.955	Pitch Set Point:	0.313	Yaw Set Point:	-0.048	X_WP:	-0.951	Y_WP:	-0.007	Y_WP:	1.000	X:	-0.949	Y:	-0.160	Z:	0.694	yaw:	2.736	yaw rate:	39.233	Roll:	-13.668	Pitch:	-5.845	Yaw:	0.171	Thrust:	47.496
Time:	1.118	Roll Set Point:	0.985	Pitch Set Point:	0.311	Yaw Set Point:	-0.054	X_WP:	-0.952	Y_WP:	-0.003	Y_WP:	1.000	X:	-0.964	Y:	-0.157	Z:	0.719	yaw:	3.118	yaw rate:	-38.154	Roll:	-12.579	Pitch:	-5.151	Yaw:	11.405	Thrust:	51.293
Time:	1.139	Roll Set Point:	1.012	Pitch Set Point:	0.308	Yaw Set Point:	-0.056	X_WP:	-0.952	Y_WP:	0.001	Y_WP:	1.000	X:	-0.978	Y:	-0.155	Z:	0.744	yaw:	3.212	yaw rate:	-9.407	Roll:	-11.237	Pitch:	-4.788	Yaw:	7.701	Thrust:	59.511
Time:	1.160	Roll Set Point:	1.033	Pitch Set Point:	0.305	Yaw Set Point:	-0.047	X_WP:	-0.954	Y_WP:	0.005	Y_WP:	1.000	X:	-0.990	Y:	-0.151	Z:	0.769	yaw:	2.693	yaw rate:	51.847	Roll:	-8.024	Pitch:	-4.959	Yaw:	-0.423	Thrust:	68.790
Time:	1.181	Roll Set Point:	1.056	Pitch Set Point:	0.301	Yaw Set Point:	-0.053	X_WP:	-0.955	Y_WP:	0.008	Y_WP:	1.000	X:	-1.001	Y:	-0.148	Z:	0.793	yaw:	3.019	yaw rate:	-32.602	Roll:	-9.785	Pitch:	-4.094	Yaw:	10.329	Thrust:	67.068
Time:	1.198	Roll Set Point:	1.073	Pitch Set Point:	0.297	Yaw Set Point:	-0.037	X_WP:	-0.955	Y_WP:	0.011	Y_WP:	1.000	X:	-1.011	Y:	-0.144	Z:	0.817	yaw:	2.107	yaw rate:	91.222	Roll:	-7.908	Pitch:	-4.833	Yaw:	-9.320	Thrust:	39.334
Time:	1.219	Roll Set Point:	1.093	Pitch Set Point:	0.291	Yaw Set Point:	-0.054	X_WP:	-0.956	Y_WP:	0.015	Y_WP:	1.000	X:	-1.021	Y:	-0.140	Z:	0.840	yaw:	3.066	yaw rate:	-95.877	Roll:	-10.518	Pitch:	-2.919	Yaw:	18.662	Thrust:	57.016
Time:	1.245	Roll Set Point:	1.110	Pitch Set Point:	0.285	Yaw Set Point:	-0.057	X_WP:	-0.957	Y_WP:	0.019	Y_WP:	1.000	X:	-1.029	Y:	-0.135	Z:	0.863	yaw:	3.274	yaw rate:	-20.811	Roll:	-7.333	Pitch:	-3.786	Yaw:	9.263	Thrust:	100.000
Time:	1.258	Roll Set Point:	1.124	Pitch Set Point:	0.279	Yaw Set Point:	-0.054	X_WP:	-0.957	Y_WP:	0.022	Y_WP:	1.000	X:	-1.037	Y:	-0.130	Z:	0.886	yaw:	3.077	yaw rate:	19.663	Roll:	-8.984	Pitch:	-3.111	Yaw:	1.854	Thrust:	4.230
Time:	1.278	Roll Set Point:	1.135	Pitch Set Point:	0.273	Yaw Set Point:	-0.045	X_WP:	-0.958	Y_WP:	0.026	Y_WP:	1.000	X:	-1.043	Y:	-0.125	Z:	0.910	yaw:	2.550	yaw rate:	52.743	Roll:	-6.051	Pitch:	-3.932	Yaw:	-1.106	Thrust:	56.727
Time:	1.299	Roll Set Point:	1.148	Pitch Set Point:	0.263	Yaw Set Point:	-0.061	X_WP:	-0.958	Y_WP:	0.029	Y_WP:	1.000	X:	-1.049	Y:	-0.120	Z:	0.933	yaw:	3.510	yaw rate:	-95.989	Roll:	-8.302	Pitch:	-1.262	Yaw:	19.195	Thrust:	63.024
Time:	1.319	Roll Set Point:	1.155	Pitch Set Point:	0.257	Yaw Set Point:	-0.044	X_WP:	-0.958	Y_WP:	0.033	Y_WP:	1.000	X:	-1.054	Y:	-0.114	Z:	0.955	yaw:	2.513	yaw rate:	99.730	Roll:	-4.272	Pitch:	-4.056	Yaw:	-7.708	Thrust:	53.576
Time:	1.338	Roll Set Point:	1.165	Pitch Set Point:	0.248	Yaw Set Point:	-0.056	X_WP:	-0.958	Y_WP:	0.037	Y_WP:	1.000	X:	-1.058	Y:	-0.108	Z:	0.978	yaw:	3.210	yaw rate:	-69.797	Roll:	-7.156	Pitch:	-1.632	Yaw:	15.770	Thrust:	49.973
Time:	1.365	Roll Set Point:	1.172	Pitch Set Point:	0.239	Yaw Set Point:	-0.064	X_WP:	-0.958	Y_WP:	0.041	Y_WP:	1.000	X:	-1.061	Y:	-0.102	Z:	1.001	yaw:	3.659	yaw rate:	-44.843	Roll:	-5.018	Pitch:	-2.218	Yaw:	12.187	Thrust:	92.890
Time:	1.381	Roll Set Point:	1.177	Pitch Set Point:	0.229	Yaw Set Point:	-0.057	X_WP:	-0.958	Y_WP:	0.044	Y_WP:	1.000	X:	-1.064	Y:	-0.096	Z:	1.024	yaw:	3.291	yaw rate:	36.794	Roll:	-4.912	Pitch:	-1.146	Yaw:	-0.017	Thrust:	23.890
Time:	1.397	Roll Set Point:	1.182	Pitch Set Point:	0.219	Yaw Set Point:	-0.061	X_WP:	-0.957	Y_WP:	0.046	Y_WP:	1.000	X:	-1.066	Y:	-0.090	Z:	1.046	yaw:	3.509	yaw rate:	-21.797	Roll:	-5.843	Pitch:	-0.028	Yaw:	9.965	Thrust:	25.933
Time:	1.418	Roll Set Point:	1.186	Pitch Set Point:	0.210	Yaw Set Point:	-0.055	X_WP:	-0.956	Y_WP:	0.050	Y_WP:	1.000	X:	-1.068	Y:	-0.083	Z:	1.067	yaw:	3.130	yaw rate:	37.925	Roll:	-4.163	Pitch:	-1.849	Yaw:	1.741	Thrust:	55.460
Time:	1.445	Roll Set Point:	1.188	Pitch Set Point:	0.199	Yaw Set Point:	-0.053	X_WP:	-0.955	Y_WP:	0.052	Y_WP:	1.000	X:	-1.069	Y:	-0.077	Z:	1.089	yaw:	3.026	yaw rate:	10.386	Roll:	-3.666	Pitch:	-1.526	Yaw:	5.727	Thrust:	93.196
Time:	1.458	Roll Set Point:	1.191	Pitch Set Point:	0.188	Yaw Set Point:	-0.058	X_WP:	-0.954	Y_WP:	0.055	Y_WP:	1.000	X:	-1.069	Y:	-0.070	Z:	1.110	yaw:	3.318	yaw rate:	-29.248	Roll:	-5.045	Pitch:	2.320	Yaw:	11.484	Thrust:	0.000
Time:	1.479	Roll Set Point:	1.192	Pitch Set Point:	0.178	Yaw Set Point:	-0.056	X_WP:	-0.954	Y_WP:	0.058	Y_WP:	1.000	X:	-1.069	Y:	-0.063	Z:	1.130	yaw:	3.206	yaw rate:	11.250	Roll:	-3.326	Pitch:	-1.333	Yaw:	5.118	Thrust:	56.083
Time:	1.500	Roll Set Point:	1.191	Pitch Set Point:	0.168	Yaw Set Point:	-0.055	X_WP:	-0.954	Y_WP:	0.062	Y_WP:	1.000	X:	-1.069	Y:	-0.056	Z:	1.150	yaw:	3.135	yaw rate:	7.124	Roll:	-2.725	Pitch:	-1.022	Yaw:	5.407	Thrust:	48.795
Time:	1.518	Roll Set Point:	1.190	Pitch Set Point:	0.158	Yaw Set Point:	-0.056	X_WP:	-0.954	Y_WP:	0.066	Y_WP:	1.000	X:	-1.069	Y:	-0.049	Z:	1.168	yaw:	3.208	yaw rate:	-7.307	Roll:	-2.392	Pitch:	-0.694	Yaw:	7.414	Thrust:	48.459
Time:	1.538	Roll Set Point:	1.188	Pitch Set Point:	0.149	Yaw Set Point:	-0.049	X_WP:	-0.954	Y_WP:	0.069	Y_WP:	1.000	X:	-1.068	Y:	-0.043	Z:	1.185	yaw:	2.805	yaw rate:	40.236	Roll:	-1.210	Pitch:	-1.715	Yaw:	0.792	Thrust:	52.489
Time:	1.559	Roll Set Point:	1.185	Pitch Set Point:	0.139	Yaw Set Point:	-0.045	X_WP:	-0.954	Y_WP:	0.073	Y_WP:	1.000	X:	-1.067	Y:	-0.036	Z:	1.202	yaw:	2.562	yaw rate:	24.334	Roll:	-1.180	Pitch:	-1.238	Yaw:	2.426	Thrust:	57.664
Time:	1.580	Roll Set Point:	1.182	Pitch Set Point:	0.129	Yaw Set Point:	-0.045	X_WP:	-0.955	Y_WP:	0.077	Y_WP:	1.000	X:	-1.066	Y:	-0.029	Z:	1.218	yaw:	2.558	yaw rate:	0.349	Roll:	-1.128	Pitch:	-0.718	Yaw:	5.637	Thrust:	57.606
Time:	1.598	Roll Set Point:	1.178	Pitch Set Point:	0.120	Yaw Set Point:	-0.039	X_WP:	-0.955	Y_WP:	0.080	Y_WP:	1.000	X:	-1.065	Y:	-0.022	Z:	1.232	yaw:	2.245	yaw rate:	31.321	Roll:	-0.372	Pitch:	-1.193	Yaw:	0.535	Thrust:	47.546
Time:	1.618	Roll Set Point:	1.174	Pitch Set Point:	0.111	Yaw Set Point:	-0.031	X_WP:	-0.955	Y_WP:	0.084	Y_WP:	1.000	X:	-1.063	Y:	-0.015	Z:	1.246	yaw:	1.780	yaw rate:	46.495	Roll:	-0.568	Pitch:	-1.348	Yaw:	-1.757	Thrust:	52.455
Time:	1.643	Roll Set Point:	1.171	Pitch Set Point:	0.102	Yaw Set Point:	-0.029	X_WP:	-0.955	Y_WP:	0.088	Y_WP:	1.000	X:	-1.062	Y:	-0.009	Z:	1.260	yaw:	1.652	yaw rate:	12.803	Roll:	-1.175	Pitch:	-1.290	Yaw:	3.330	Thrust:	80.391
Time:	1.657	Roll Set Point:	1.167	Pitch Set Point:	0.093	Yaw Set Point:	-0.021	X_WP:	-0.955	Y_WP:	0.091	Y_WP:	1.000	X:	-1.060	Y:	-0.002	Z:	1.273	yaw:	1.177	yaw rate:	47.497	Roll:	-0.189	Pitch:	-0.837	Yaw:	-5.056	Thrust:	21.221
Time:	1.680	Roll Set Point:	1.163	Pitch Set Point:	0.083	Yaw Set Point:	-0.025	X_WP:	-0.955	Y_WP:	0.095	Y_WP:	1.000	X:	-1.058	Y:	0.005	Z:	1.286	yaw:	1.460	yaw rate:	-28.290	Roll:	-1.193	Pitch:	-0.259	Yaw:	7.591	Thrust:	68.105
Time:	1.699	Roll Set Point:	1.159	Pitch Set Point:	0.074	Yaw Set Point:	-0.019	X_WP:	-0.954	Y_WP:	0.099	Y_WP:	1.000	X:	-1.056	Y:	0.012	Z:	1.298	yaw:	1.062	yaw rate:	39.810	Roll:	-0.380	Pitch:	-0.970	Yaw:	-1.824	Thrust:	52.146
Time:	1.719	Roll Set Point:	1.154	Pitch Set Point:	0.064	Yaw Set Point:	-0.016	X_WP:	-0.954	Y_WP:	0.102	Y_WP:	1.000	X:	-1.054	Y:	0.018	Z:	1.310	yaw:	0.927	yaw rate:	13.463	Roll:	-0.344	Pitch:	-0.413	Yaw:	1.465	Thrust:	51.137
Time:	1.739	Roll Set Point:	1.149	Pitch Set Point:	0.056	Yaw Set Point:	-0.014	X_WP:	-0.955	Y_WP:	0.106	Y_WP:	1.000	X:	-1.051	Y:	0.025	Z:	1.320	yaw:	0.803	yaw rate:	12.417	Roll:	0.171	Pitch:	-0.936	Yaw:	1.496	Thrust:	54.223
Time:	1.759	Roll Set Point:	1.144	Pitch Set Point:	0.047	Yaw Set Point:	-0.013	X_WP:	-0.955	Y_WP:	0.110	Y_WP:	1.000	X:	-1.049	Y:	0.031	Z:	1.331	yaw:	0.735	yaw rate:	6.869	Roll:	0.440	Pitch:	-0.961	Yaw:	2.136	Thrust:	54.219
Time:	1.780	Roll Set Point:	1.138	Pitch Set Point:	0.038	Yaw Set Point:	-0.013	X_WP:	-0.956	Y_WP:	0.114	Y_WP:	1.000	X:	-1.047	Y:	0.037	Z:	1.340	yaw:	0.725	yaw rate:	0.962	Roll:	0.290	Pitch:	-0.858	Yaw:	3.001	Thrust:	60.057
Time:	1.799	Roll Set Point:	1.133	Pitch Set Point:	0.029	Yaw Set Point:	-0.012	X_WP:	-0.956	Y_WP:	0.118	Y_WP:	1.000	X:	-1.044	Y:	0.044	Z:	1.350	yaw:	0.666	yaw rate:	5.947	Roll:	0.780	Pitch:	-0.127	Yaw:	2.024	Thrust:	48.608
Time:	1.818	Roll Set Point:	1.125	Pitch Set Point:	0.022	Yaw Set Point:	0.007	X_WP:	-0.957	Y_WP:	0.121	Y_WP:	1.000	X:	-1.041	Y:	0.050	Z:	1.358	yaw:	-0.416	yaw rate:	108.167	Roll:	2.162	Pitch:	-1.938	Yaw:	-13.531	Thrust:	48.149
Time:	1.845	Roll Set Point:	1.122	Pitch Set Point:	0.013	Yaw Set Point:	0.001	X_WP:	-0.957	Y_WP:	0.125	Y_WP:	1.000	X:	-1.040	Y:	0.056	Z:	1.366	yaw:	-0.050	yaw rate:	-36.605	Roll:	-0.526	Pitch:	-0.568	Yaw:	6.189	Thrust:	88.501
Time:	1.858	Roll Set Point:	1.118	Pitch Set Point:	0.003	Yaw Set Point:	-0.014	X_WP:	-0.957	Y_WP:	0.129	Y_WP:	1.000	X:	-1.037	Y:	0.063	Z:	1.375	yaw:	0.830	yaw rate:	-87.982	Roll:	0.229	Pitch:	2.262	Yaw:	19.940	Thrust:	11.066
Time:	1.880	Roll Set Point:	1.112	Pitch Set Point:	-0.005	Yaw Set Point:	-0.003	X_WP:	-0.958	Y_WP:	0.133	Y_WP:	1.000	X:	-1.035	Y:	0.069	Z:	1.382	yaw:	0.195	yaw rate:	63.479	Roll:	0.972	Pitch:	-1.245	Yaw:	-4.824	Thrust:	66.090
Time:	1.899	Roll Set Point:	1.107	Pitch Set Point:	-0.012	Yaw Set Point:	0.004	X_WP:	-0.958	Y_WP:	0.137	Y_WP:	1.000	X:	-1.033	Y:	0.075	Z:	1.389	yaw:	-0.219	yaw rate:	41.436	Roll:	0.966	Pitch:	-0.883	Yaw:	-4.305	Thrust:	44.184
Time:	1.918	Roll Set Point:	1.102	Pitch Set Point:	-0.019	Yaw Set Point:	0.011	X_WP:	-0.958	Y_WP:	0.141	Y_WP:	1.000	X:	-1.030	Y:	0.080	Z:	1.396	yaw:	-0.639	yaw rate:	41.925	Roll:	0.875	Pitch:	-1.196	Yaw:	-4.668	Thrust:	46.665
Time:	1.938	Roll Set Point:	1.099	Pitch Set Point:	-0.029	Yaw Set Point:	-0.002	X_WP:	-0.958	Y_WP:	0.144	Y_WP:	1.000	X:	-1.028	Y:	0.086	Z:	1.402	yaw:	0.141	yaw rate:	-77.941	Roll:	-0.591	Pitch:	1.064	Yaw:	13.043	Thrust:	44.268
Time:	1.960	Roll Set Point:	1.093	Pitch Set Point:	-0.035	Yaw Set Point:	0.011	X_WP:	-0.958	Y_WP:	0.148	Y_WP:	1.000	X:	-1.026	Y:	0.092	Z:	1.408	yaw:	-0.641	yaw rate:	78.138	Roll:	1.180	Pitch:	-1.372	Yaw:	-8.102	Thrust:	59.222
Time:	1.979	Roll Set Point:	1.089	Pitch Set Point:	-0.043	Yaw Set Point:	0.018	X_WP:	-0.958	Y_WP:	0.152	Y_WP:	1.000	X:	-1.024	Y:	0.098	Z:	1.414	yaw:	-1.012	yaw rate:	37.109	Roll:	0.802	Pitch:	-0.899	Yaw:	-4.252	Thrust:	50.779
Time:	1.998	Roll Set Point:	1.087	Pitch Set Point:	-0.052	Yaw Set Point:	0.004	X_WP:	-0.958	Y_WP:	0.155	Y_WP:	1.000	X:	-1.023	Y:	0.104	Z:	1.419	yaw:	-0.248	yaw rate:	-76.351	Roll:	-0.808	Pitch:	1.014	Yaw:	11.809	Thrust:	48.759
Time:	2.018	Roll Set Point:	1.084	Pitch Set Point:	-0.059	Yaw Set Point:	0.004	X_WP:	-0.958	Y_WP:	0.159	Y_WP:	1.000	X:	-1.021	Y:	0.109	Z:	1.423	yaw:	-0.225	yaw rate:	-2.354	Roll:	-0.098	Pitch:	-0.378	Yaw:	1.981	Thrust:	51.043
Time:	2.043	Roll Set Point:	1.080	Pitch Set Point:	-0.066	Yaw Set Point:	0.001	X_WP:	-0.958	Y_WP:	0.163	Y_WP:	1.000	X:	-1.019	Y:	0.115	Z:	1.427	yaw:	-0.074	yaw rate:	-15.036	Roll:	0.086	Pitch:	-0.868	Yaw:	3.949	Thrust:	70.932
Time:	2.059	Roll Set Point:	1.076	Pitch Set Point:	-0.072	Yaw Set Point:	0.019	X_WP:	-0.958	Y_WP:	0.166	Y_WP:	1.000	X:	-1.017	Y:	0.120	Z:	1.430	yaw:	-1.091	yaw rate:	101.643	Roll:	1.182	Pitch:	-1.276	Yaw:	-17.513	Thrust:	27.046
Time:	2.079	Roll Set Point:	1.075	Pitch Set Point:	-0.081	Yaw Set Point:	-0.000	X_WP:	-0.958	Y_WP:	0.170	Y_WP:	1.000	X:	-1.016	Y:	0.125	Z:	1.432	yaw:	0.010	yaw rate:	-110.080	Roll:	-1.002	Pitch:	0.680	Yaw:	16.357	Thrust:	54.987
Time:	2.099	Roll Set Point:	1.071	Pitch Set Point:	-0.087	Yaw Set Point:	0.017	X_WP:	-0.957	Y_WP:	0.173	Y_WP:	1.000	X:	-1.015	Y:	0.130	Z:	1.434	yaw:	-0.973	yaw rate:	98.281	Roll:	0.749	Pitch:	-1.094	Yaw:	-11.713	Thrust:	53.938
Time:	2.119	Roll Set Point:	1.070	Pitch Set Point:	-0.095	Yaw Set Point:	0.001	X_WP:	-0.957	Y_WP:	0.177	Y_WP:	1.000	X:	-1.014	Y:	0.136	Z:	1.436	yaw:	-0.060	yaw rate:	-91.319	Roll:	-1.025	Pitch:	0.439	Yaw:	14.050	Thrust:	47.238
Time:	2.138	Roll Set Point:	1.066	Pitch Set Point:	-0.098	Yaw Set Point:	0.034	X_WP:	-0.957	Y_WP:	0.180	Y_WP:	1.000	X:	-1.012	Y:	0.140	Z:	1.437	yaw:	-1.920	yaw rate:	186.049	Roll:	1.419	Pitch:	-2.478	Yaw:	-28.260	Thrust:	44.379
Time:	2.160	Roll Set Point:	1.064	Pitch Set Point:	-0.105	Yaw Set Point:	0.027	X_WP:	-0.957	Y_WP:	0.184	Y_WP:	1.000	X:	-1.011	Y:	0.145	Z:	1.438	yaw:	-1.533	yaw rate:	-38.721	Roll:	-0.590	Pitch:	-0.338	Yaw:	4.608	Thrust:	58.178
Time:	2.178	Roll Set Point:	1.063	Pitch Set Point:	-0.112	Yaw Set Point:	0.025	X_WP:	-0.956	Y_WP:	0.187	Y_WP:	1.000	X:	-1.010	Y:	0.150	Z:	1.438	yaw:	-1.409	yaw rate:	-12.371	Roll:	-0.676	Pitch:	-0.047	Yaw:	1.586	Thrust:	48.675
Time:	2.199	Roll Set Point:	1.061	Pitch Set Point:	-0.117	Yaw Set Point:	0.025	X_WP:	-0.956	Y_WP:	0.191	Y_WP:	1.000	X:	-1.009	Y:	0.155	Z:	1.438	yaw:	-1.425	yaw rate:	1.577	Roll:	-0.321	Pitch:	-1.214	Yaw:	-0.200	Thrust:	52.304
Time:	2.218	Roll Set Point:	1.060	Pitch Set Point:	-0.124	Yaw Set Point:	0.022	X_WP:	-0.956	Y_WP:	0.195	Y_WP:	1.000	X:	-1.008	Y:	0.160	Z:	1.438	yaw:	-1.247	yaw rate:	-17.753	Roll:	-0.703	Pitch:	-0.258	Yaw:	2.525	Thrust:	46.818
Time:	2.243	Roll Set Point:	1.059	Pitch Set Point:	-0.130	Yaw Set Point:	0.013	X_WP:	-0.955	Y_WP:	0.198	Y_WP:	1.000	X:	-1.008	Y:	0.164	Z:	1.437	yaw:	-0.724	yaw rate:	-52.339	Roll:	-1.127	Pitch:	-0.585	Yaw:	6.828	Thrust:	67.025
Time:	2.258	Roll Set Point:	1.057	Pitch Set Point:	-0.135	Yaw Set Point:	0.022	X_WP:	-0.955	Y_WP:	0.202	Y_WP:	1.000	X:	-1.007	Y:	0.169	Z:	1.435	yaw:	-1.257	yaw rate:	53.295	Roll:	0.076	Pitch:	-1.045	Yaw:	-9.596	Thrust:	34.823
Time:	2.279	Roll Set Point:	1.057	Pitch Set Point:	-0.140	Yaw Set Point:	0.030	X_WP:	-0.954	Y_WP:	0.205	Y_WP:	1.000	X:	-1.006	Y:	0.173	Z:	1.433	yaw:	-1.723	yaw rate:	46.634	Roll:	-0.973	Pitch:	-0.884	Yaw:	-6.417	Thrust:	50.637
Time:	2.302	Roll Set Point:	1.057	Pitch Set Point:	-0.147	Yaw Set Point:	0.010	X_WP:	-0.954	Y_WP:	0.209	Y_WP:	1.000	X:	-1.006	Y:	0.178	Z:	1.431	yaw:	-0.586	yaw rate:	-113.765	Roll:	-1.667	Pitch:	0.156	Yaw:	15.030	Thrust:	56.890
Time:	2.319	Roll Set Point:	1.056	Pitch Set Point:	-0.151	Yaw Set Point:	0.018	X_WP:	-0.953	Y_WP:	0.213	Y_WP:	1.000	X:	-1.005	Y:	0.182	Z:	1.428	yaw:	-1.012	yaw rate:	42.664	Roll:	-0.616	Pitch:	-1.576	Yaw:	-5.666	Thrust:	47.184
Time:	2.339	Roll Set Point:	1.056	Pitch Set Point:	-0.156	Yaw Set Point:	-0.002	X_WP:	-0.953	Y_WP:	0.217	Y_WP:	1.000	X:	-1.004	Y:	0.186	Z:	1.424	yaw:	0.119	yaw rate:	-113.131	Roll:	-1.142	Pitch:	-0.698	Yaw:	17.130	Thrust:	50.561
Time:	2.360	Roll Set Point:	1.055	Pitch Set Point:	-0.160	Yaw Set Point:	0.010	X_WP:	-0.953	Y_WP:	0.221	Y_WP:	1.000	X:	-1.004	Y:	0.191	Z:	1.420	yaw:	-0.581	yaw rate:	69.979	Roll:	-0.394	Pitch:	-1.528	Yaw:	-7.493	Thrust:	53.229
Time:	2.380	Roll Set Point:	1.054	Pitch Set Point:	-0.164	Yaw Set Point:	0.011	X_WP:	-0.953	Y_WP:	0.225	Y_WP:	1.000	X:	-1.004	Y:	0.195	Z:	1.414	yaw:	-0.608	yaw rate:	2.756	Roll:	-0.437	Pitch:	-1.910	Yaw:	0.727	Thrust:	58.075
Time:	2.398	Roll Set Point:	1.052	Pitch Set Point:	-0.167	Yaw Set Point:	0.023	X_WP:	-0.953	Y_WP:	0.230	Y_WP:	1.000	X:	-1.003	Y:	0.199	Z:	1.409	yaw:	-1.300	yaw rate:	69.182	Roll:	0.027	Pitch:	-2.145	Yaw:	-10.489	Thrust:	48.499
Time:	2.418	Roll Set Point:	1.052	Pitch Set Point:	-0.172	Yaw Set Point:	0.014	X_WP:	-0.953	Y_WP:	0.233	Y_WP:	1.000	X:	-1.003	Y:	0.203	Z:	1.402	yaw:	-0.825	yaw rate:	-47.527	Roll:	-0.828	Pitch:	-0.753	Yaw:	6.833	Thrust:	56.507
Time:	2.445	Roll Set Point:	1.051	Pitch Set Point:	-0.176	Yaw Set Point:	0.013	X_WP:	-0.954	Y_WP:	0.237	Y_WP:	1.000	X:	-1.003	Y:	0.207	Z:	1.395	yaw:	-0.717	yaw rate:	-10.815	Roll:	-0.209	Pitch:	-1.364	Yaw:	2.502	Thrust:	70.655
Time:	2.458	Roll Set Point:	1.049	Pitch Set Point:	-0.181	Yaw Set Point:	0.006	X_WP:	-0.955	Y_WP:	0.241	Y_WP:	1.000	X:	-1.002	Y:	0.211	Z:	1.388	yaw:	-0.343	yaw rate:	-37.391	Roll:	-0.065	Pitch:	-0.583	Yaw:	8.114	Thrust:	44.004
Time:	2.478	Roll Set Point:	1.048	Pitch Set Point:	-0.185	Yaw Set Point:	0.011	X_WP:	-0.955	Y_WP:	0.244	Y_WP:	1.000	X:	-1.002	Y:	0.215	Z:	1.380	yaw:	-0.629	yaw rate:	28.633	Roll:	-0.068	Pitch:	-1.062	Yaw:	-2.653	Thrust:	57.087
Time:	2.500	Roll Set Point:	1.047	Pitch Set Point:	-0.189	Yaw Set Point:	0.016	X_WP:	-0.956	Y_WP:	0.247	Y_WP:	1.000	X:	-1.001	Y:	0.219	Z:	1.372	yaw:	-0.899	yaw rate:	26.941	Roll:	-0.024	Pitch:	-1.303	Yaw:	-2.510	Thrust:	58.570
Time:	2.518	Roll Set Point:	1.046	Pitch Set Point:	-0.193	Yaw Set Point:	0.012	X_WP:	-0.956	Y_WP:	0.251	Y_WP:	1.000	X:	-1.001	Y:	0.223	Z:	1.364	yaw:	-0.663	yaw rate:	-23.563	Roll:	-0.473	Pitch:	-1.173	Yaw:	4.149	Thrust:	54.688
Time:	2.539	Roll Set Point:	1.046	Pitch Set Point:	-0.197	Yaw Set Point:	0.008	X_WP:	-0.956	Y_WP:	0.255	Y_WP:	1.000	X:	-1.001	Y:	0.226	Z:	1.355	yaw:	-0.450	yaw rate:	-21.303	Roll:	-0.555	Pitch:	-1.235	Yaw:	3.981	Thrust:	57.245
Time:	2.560	Roll Set Point:	1.045	Pitch Set Point:	-0.201	Yaw Set Point:	0.013	X_WP:	-0.956	Y_WP:	0.258	Y_WP:	1.000	X:	-1.001	Y:	0.230	Z:	1.347	yaw:	-0.753	yaw rate:	30.284	Roll:	-0.448	Pitch:	-1.482	Yaw:	-2.681	Thrust:	60.038
Time:	2.580	Roll Set Point:	1.045	Pitch Set Point:	-0.205	Yaw Set Point:	0.009	X_WP:	-0.956	Y_WP:	0.262	Y_WP:	1.000	X:	-1.001	Y:	0.234	Z:	1.338	yaw:	-0.524	yaw rate:	-22.914	Roll:	-1.012	Pitch:	-1.394	Yaw:	4.117	Thrust:	55.443
Time:	2.597	Roll Set Point:	1.045	Pitch Set Point:	-0.207	Yaw Set Point:	0.021	X_WP:	-0.956	Y_WP:	0.267	Y_WP:	1.000	X:	-1.000	Y:	0.237	Z:	1.330	yaw:	-1.196	yaw rate:	67.249	Roll:	-0.627	Pitch:	-2.625	Yaw:	-10.031	Thrust:	52.397
Time:	2.617	Roll Set Point:	1.045	Pitch Set Point:	-0.212	Yaw Set Point:	0.008	X_WP:	-0.955	Y_WP:	0.270	Y_WP:	1.000	X:	-1.000	Y:	0.241	Z:	1.321	yaw:	-0.442	yaw rate:	-75.446	Roll:	-1.382	Pitch:	-0.629	Yaw:	11.021	Thrust:	56.236
Time:	2.641	Roll Set Point:	1.045	Pitch Set Point:	-0.216	Yaw Set Point:	0.009	X_WP:	-0.955	Y_WP:	0.273	Y_WP:	1.000	X:	-1.000	Y:	0.245	Z:	1.312	yaw:	-0.539	yaw rate:	9.755	Roll:	-0.845	Pitch:	-1.042	Yaw:	0.192	Thrust:	61.460
Time:	2.659	Roll Set Point:	1.046	Pitch Set Point:	-0.219	Yaw Set Point:	0.008	X_WP:	-0.954	Y_WP:	0.277	Y_WP:	1.000	X:	-1.000	Y:	0.248	Z:	1.303	yaw:	-0.451	yaw rate:	-8.813	Roll:	-1.650	Pitch:	-1.382	Yaw:	2.284	Thrust:	53.220
Time:	2.679	Roll Set Point:	1.047	Pitch Set Point:	-0.224	Yaw Set Point:	0.008	X_WP:	-0.953	Y_WP:	0.280	Y_WP:	1.000	X:	-1.000	Y:	0.252	Z:	1.294	yaw:	-0.434	yaw rate:	-1.742	Roll:	-1.793	Pitch:	-0.862	Yaw:	1.426	Thrust:	55.922
Time:	2.700	Roll Set Point:	1.048	Pitch Set Point:	-0.228	Yaw Set Point:	0.007	X_WP:	-0.953	Y_WP:	0.283	Y_WP:	1.000	X:	-1.000	Y:	0.256	Z:	1.285	yaw:	-0.412	yaw rate:	-2.208	Roll:	-1.310	Pitch:	-0.758	Yaw:	1.633	Thrust:	57.108
Time:	2.718	Roll Set Point:	1.049	Pitch Set Point:	-0.232	Yaw Set Point:	0.009	X_WP:	-0.952	Y_WP:	0.286	Y_WP:	1.000	X:	-1.000	Y:	0.259	Z:	1.275	yaw:	-0.503	yaw rate:	9.112	Roll:	-2.102	Pitch:	-1.102	Yaw:	-0.481	Thrust:	54.581
Time:	2.738	Roll Set Point:	1.049	Pitch Set Point:	-0.235	Yaw Set Point:	0.011	X_WP:	-0.951	Y_WP:	0.290	Y_WP:	1.000	X:	-1.000	Y:	0.263	Z:	1.266	yaw:	-0.656	yaw rate:	15.354	Roll:	-1.451	Pitch:	-1.804	Yaw:	-1.124	Thrust:	57.417
Time:	2.760	Roll Set Point:	1.050	Pitch Set Point:	-0.239	Yaw Set Point:	0.007	X_WP:	-0.951	Y_WP:	0.293	Y_WP:	1.000	X:	-1.000	Y:	0.266	Z:	1.256	yaw:	-0.422	yaw rate:	-23.406	Roll:	-1.315	Pitch:	-1.443	Yaw:	4.172	Thrust:	58.785
Time:	2.779	Roll Set Point:	1.050	Pitch Set Point:	-0.242	Yaw Set Point:	0.010	X_WP:	-0.950	Y_WP:	0.297	Y_WP:	1.000	X:	-1.001	Y:	0.270	Z:	1.246	yaw:	-0.577	yaw rate:	15.525	Roll:	-1.215	Pitch:	-1.900	Yaw:	-1.137	Thrust:	56.137
Time:	2.798	Roll Set Point:	1.050	Pitch Set Point:	-0.245	Yaw Set Point:	0.005	X_WP:	-0.950	Y_WP:	0.302	Y_WP:	1.000	X:	-1.000	Y:	0.273	Z:	1.236	yaw:	-0.301	yaw rate:	-27.597	Roll:	-1.200	Pitch:	-1.832	Yaw:	5.116	Thrust:	55.898
Time:	2.819	Roll Set Point:	1.051	Pitch Set Point:	-0.248	Yaw Set Point:	0.004	X_WP:	-0.950	Y_WP:	0.306	Y_WP:	1.000	X:	-1.001	Y:	0.277	Z:	1.226	yaw:	-0.256	yaw rate:	-4.552	Roll:	-1.044	Pitch:	-1.905	Yaw:	2.071	Thrust:	58.527
Time:	2.844	Roll Set Point:	1.050	Pitch Set Point:	-0.251	Yaw Set Point:	-0.001	X_WP:	-0.951	Y_WP:	0.310	Y_WP:	1.000	X:	-1.001	Y:	0.280	Z:	1.216	yaw:	0.040	yaw rate:	-29.565	Roll:	-0.873	Pitch:	-1.555	Yaw:	5.386	Thrust:	63.109
Time:	2.858	Roll Set Point:	1.050	Pitch Set Point:	-0.254	Yaw Set Point:	-0.000	X_WP:	-0.951	Y_WP:	0.313	Y_WP:	1.000	X:	-1.000	Y:	0.284	Z:	1.206	yaw:	0.019	yaw rate:	2.056	Roll:	-0.372	Pitch:	-1.834	Yaw:	0.906	Thrust:	53.407
Time:	2.879	Roll Set Point:	1.049	Pitch Set Point:	-0.258	Yaw Set Point:	-0.007	X_WP:	-0.952	Y_WP:	0.317	Y_WP:	1.000	X:	-1.000	Y:	0.287	Z:	1.196	yaw:	0.413	yaw rate:	-39.376	Roll:	-0.567	Pitch:	-1.404	Yaw:	7.341	Thrust:	58.398
Time:	2.899	Roll Set Point:	1.048	Pitch Set Point:	-0.260	Yaw Set Point:	0.005	X_WP:	-0.952	Y_WP:	0.321	Y_WP:	1.000	X:	-1.000	Y:	0.291	Z:	1.186	yaw:	-0.289	yaw rate:	70.191	Roll:	-0.158	Pitch:	-2.229	Yaw:	-7.474	Thrust:	58.935
Time:	2.918	Roll Set Point:	1.048	Pitch Set Point:	-0.263	Yaw Set Point:	0.008	X_WP:	-0.953	Y_WP:	0.325	Y_WP:	1.000	X:	-1.000	Y:	0.294	Z:	1.176	yaw:	-0.441	yaw rate:	15.156	Roll:	-0.658	Pitch:	-2.182	Yaw:	-1.090	Thrust:	56.790
Time:	2.941	Roll Set Point:	1.048	Pitch Set Point:	-0.267	Yaw Set Point:	0.000	X_WP:	-0.953	Y_WP:	0.328	Y_WP:	1.000	X:	-1.000	Y:	0.297	Z:	1.166	yaw:	-0.004	yaw rate:	-43.611	Roll:	-0.915	Pitch:	-1.390	Yaw:	7.043	Thrust:	60.678
Time:	2.961	Roll Set Point:	1.047	Pitch Set Point:	-0.269	Yaw Set Point:	0.006	X_WP:	-0.953	Y_WP:	0.332	Y_WP:	1.000	X:	-1.000	Y:	0.301	Z:	1.156	yaw:	-0.330	yaw rate:	32.560	Roll:	-0.344	Pitch:	-2.167	Yaw:	-3.165	Thrust:	56.782
Time:	2.981	Roll Set Point:	1.048	Pitch Set Point:	-0.272	Yaw Set Point:	-0.001	X_WP:	-0.953	Y_WP:	0.336	Y_WP:	1.000	X:	-1.000	Y:	0.304	Z:	1.146	yaw:	0.068	yaw rate:	-39.788	Roll:	-1.277	Pitch:	-2.070	Yaw:	7.053	Thrust:	58.794
Time:	2.999	Roll Set Point:	1.048	Pitch Set Point:	-0.274	Yaw Set Point:	0.002	X_WP:	-0.953	Y_WP:	0.341	Y_WP:	1.000	X:	-1.000	Y:	0.308	Z:	1.136	yaw:	-0.120	yaw rate:	18.761	Roll:	-1.147	Pitch:	-2.333	Yaw:	-1.051	Thrust:	57.417
Time:	3.019	Roll Set Point:	1.047	Pitch Set Point:	-0.277	Yaw Set Point:	0.008	X_WP:	-0.953	Y_WP:	0.345	Y_WP:	1.000	X:	-1.000	Y:	0.311	Z:	1.126	yaw:	-0.484	yaw rate:	36.402	Roll:	-0.764	Pitch:	-2.375	Yaw:	-3.762	Thrust:	57.385
Time:	3.044	Roll Set Point:	1.048	Pitch Set Point:	-0.281	Yaw Set Point:	0.003	X_WP:	-0.953	Y_WP:	0.348	Y_WP:	1.000	X:	-1.000	Y:	0.314	Z:	1.116	yaw:	-0.184	yaw rate:	-29.974	Roll:	-1.181	Pitch:	-1.536	Yaw:	5.101	Thrust:	64.063
Time:	3.059	Roll Set Point:	1.049	Pitch Set Point:	-0.285	Yaw Set Point:	0.005	X_WP:	-0.952	Y_WP:	0.351	Y_WP:	1.000	X:	-1.000	Y:	0.318	Z:	1.107	yaw:	-0.297	yaw rate:	11.271	Roll:	-1.900	Pitch:	-0.918	Yaw:	-0.988	Thrust:	55.520
Time:	3.081	Roll Set Point:	1.049	Pitch Set Point:	-0.287	Yaw Set Point:	0.010	X_WP:	-0.951	Y_WP:	0.354	Y_WP:	1.000	X:	-1.000	Y:	0.321	Z:	1.097	yaw:	-0.551	yaw rate:	25.400	Roll:	-1.292	Pitch:	-2.031	Yaw:	-1.831	Thrust:	60.281
Time:	3.103	Roll Set Point:	1.050	Pitch Set Point:	-0.291	Yaw Set Point:	0.011	X_WP:	-0.950	Y_WP:	0.357	Y_WP:	1.000	X:	-1.000	Y:	0.325	Z:	1.087	yaw:	-0.647	yaw rate:	9.643	Roll:	-2.032	Pitch:	-1.446	Yaw:	-0.106	Thrust:	61.807
Time:	3.119	Roll Set Point:	1.051	Pitch Set Point:	-0.295	Yaw Set Point:	0.018	X_WP:	-0.949	Y_WP:	0.361	Y_WP:	1.000	X:	-1.000	Y:	0.328	Z:	1.078	yaw:	-1.013	yaw rate:	36.610	Roll:	-2.063	Pitch:	-1.669	Yaw:	-6.016	Thrust:	55.882
Time:	3.140	Roll Set Point:	1.052	Pitch Set Point:	-0.297	Yaw Set Point:	0.033	X_WP:	-0.948	Y_WP:	0.364	Y_WP:	1.000	X:	-1.000	Y:	0.331	Z:	1.068	yaw:	-1.913	yaw rate:	89.994	Roll:	-1.592	Pitch:	-1.888	Yaw:	-12.187	Thrust:	58.792
Time:	3.160	Roll Set Point:	1.053	Pitch Set Point:	-0.302	Yaw Set Point:	0.033	X_WP:	-0.946	Y_WP:	0.366	Y_WP:	1.000	X:	-1.000	Y:	0.335	Z:	1.059	yaw:	-1.896	yaw rate:	-1.730	Roll:	-2.129	Pitch:	-0.948	Yaw:	-0.677	Thrust:	59.505
Time:	3.180	Roll Set Point:	1.055	Pitch Set Point:	-0.306	Yaw Set Point:	0.030	X_WP:	-0.945	Y_WP:	0.369	Y_WP:	1.000	X:	-1.000	Y:	0.339	Z:	1.050	yaw:	-1.745	yaw rate:	-15.080	Roll:	-2.618	Pitch:	-0.790	Yaw:	1.258	Thrust:	58.968
Time:	3.200	Roll Set Point:	1.057	Pitch Set Point:	-0.311	Yaw Set Point:	0.026	X_WP:	-0.943	Y_WP:	0.372	Y_WP:	1.000	X:	-1.000	Y:	0.342	Z:	1.041	yaw:	-1.497	yaw rate:	-24.856	Roll:	-2.694	Pitch:	-0.629	Yaw:	2.901	Thrust:	58.525
Time:	3.218	Roll Set Point:	1.058	Pitch Set Point:	-0.316	Yaw Set Point:	0.031	X_WP:	-0.941	Y_WP:	0.375	Y_WP:	1.000	X:	-1.000	Y:	0.346	Z:	1.032	yaw:	-1.751	yaw rate:	25.495	Roll:	-2.754	Pitch:	-0.856	Yaw:	-4.387	Thrust:	58.180
Time:	3.242	Roll Set Point:	1.060	Pitch Set Point:	-0.321	Yaw Set Point:	0.022	X_WP:	-0.940	Y_WP:	0.377	Y_WP:	1.000	X:	-1.000	Y:	0.350	Z:	1.023	yaw:	-1.235	yaw rate:	-51.635	Roll:	-2.721	Pitch:	-0.472	Yaw:	5.951	Thrust:	63.942
Time:	3.258	Roll Set Point:	1.061	Pitch Set Point:	-0.325	Yaw Set Point:	0.028	X_WP:	-0.938	Y_WP:	0.380	Y_WP:	1.000	X:	-1.000	Y:	0.353	Z:	1.015	yaw:	-1.595	yaw rate:	35.940	Roll:	-2.675	Pitch:	-0.750	Yaw:	-6.898	Thrust:	56.204
Time:	3.278	Roll Set Point:	1.063	Pitch Set Point:	-0.330	Yaw Set Point:	0.023	X_WP:	-0.936	Y_WP:	0.383	Y_WP:	1.000	X:	-1.000	Y:	0.357	Z:	1.006	yaw:	-1.299	yaw rate:	-29.564	Roll:	-3.177	Pitch:	-0.486	Yaw:	3.722	Thrust:	60.016
Time:	3.299	Roll Set Point:	1.064	Pitch Set Point:	-0.335	Yaw Set Point:	0.020	X_WP:	-0.934	Y_WP:	0.385	Y_WP:	1.000	X:	-1.000	Y:	0.361	Z:	0.998	yaw:	-1.139	yaw rate:	-15.946	Roll:	-2.896	Pitch:	-0.092	Yaw:	2.136	Thrust:	60.183
Time:	3.317	Roll Set Point:	1.066	Pitch Set Point:	-0.341	Yaw Set Point:	0.012	X_WP:	-0.933	Y_WP:	0.388	Y_WP:	1.000	X:	-0.999	Y:	0.365	Z:	0.989	yaw:	-0.662	yaw rate:	-47.766	Roll:	-2.920	Pitch:	0.172	Yaw:	7.443	Thrust:	58.876
Time:	3.339	Roll Set Point:	1.067	Pitch Set Point:	-0.345	Yaw Set Point:	0.015	X_WP:	-0.931	Y_WP:	0.392	Y_WP:	1.000	X:	-0.999	Y:	0.369	Z:	0.981	yaw:	-0.837	yaw rate:	17.536	Roll:	-2.592	Pitch:	-1.174	Yaw:	-1.537	Thrust:	62.158
Time:	3.359	Roll Set Point:	1.067	Pitch Set Point:	-0.348	Yaw Set Point:	0.021	X_WP:	-0.930	Y_WP:	0.394	Y_WP:	1.000	X:	-0.999	Y:	0.372	Z:	0.973	yaw:	-1.225	yaw rate:	38.818	Roll:	-2.453	Pitch:	-1.279	Yaw:	-5.190	Thrust:	60.836
Time:	3.381	Roll Set Point:	1.068	Pitch Set Point:	-0.353	Yaw Set Point:	0.016	X_WP:	-0.928	Y_WP:	0.398	Y_WP:	1.000	X:	-0.998	Y:	0.376	Z:	0.965	yaw:	-0.940	yaw rate:	-28.501	Roll:	-2.520	Pitch:	-0.760	Yaw:	3.866	Thrust:	62.403
Time:	3.399	Roll Set Point:	1.068	Pitch Set Point:	-0.356	Yaw Set Point:	0.021	X_WP:	-0.927	Y_WP:	0.401	Y_WP:	1.000	X:	-0.998	Y:	0.379	Z:	0.957	yaw:	-1.228	yaw rate:	28.721	Roll:	-2.119	Pitch:	-1.707	Yaw:	-4.455	Thrust:	59.523
Time:	3.418	Roll Set Point:	1.068	Pitch Set Point:	-0.361	Yaw Set Point:	0.014	X_WP:	-0.926	Y_WP:	0.405	Y_WP:	1.000	X:	-0.997	Y:	0.383	Z:	0.950	yaw:	-0.826	yaw rate:	-40.132	Roll:	-2.125	Pitch:	-0.666	Yaw:	5.881	Thrust:	59.139
Time:	3.442	Roll Set Point:	1.067	Pitch Set Point:	-0.363	Yaw Set Point:	0.014	X_WP:	-0.925	Y_WP:	0.409	Y_WP:	1.000	X:	-0.996	Y:	0.387	Z:	0.942	yaw:	-0.797	yaw rate:	-2.932	Roll:	-1.849	Pitch:	-2.029	Yaw:	1.127	Thrust:	65.527
Time:	3.458	Roll Set Point:	1.066	Pitch Set Point:	-0.366	Yaw Set Point:	0.009	X_WP:	-0.924	Y_WP:	0.413	Y_WP:	1.000	X:	-0.996	Y:	0.390	Z:	0.935	yaw:	-0.535	yaw rate:	-26.151	Roll:	-1.704	Pitch:	-1.481	Yaw:	4.826	Thrust:	56.487
Time:	3.479	Roll Set Point:	1.065	Pitch Set Point:	-0.370	Yaw Set Point:	0.005	X_WP:	-0.924	Y_WP:	0.417	Y_WP:	1.000	X:	-0.995	Y:	0.394	Z:	0.929	yaw:	-0.311	yaw rate:	-22.484	Roll:	-1.399	Pitch:	-1.422	Yaw:	4.018	Thrust:	62.710
Time:	3.501	Roll Set Point:	1.063	Pitch Set Point:	-0.373	Yaw Set Point:	0.015	X_WP:	-0.923	Y_WP:	0.421	Y_WP:	1.000	X:	-0.994	Y:	0.397	Z:	0.922	yaw:	-0.860	yaw rate:	54.937	Roll:	-1.102	Pitch:	-2.090	Yaw:	-6.115	Thrust:	61.857
Time:	3.518	Roll Set Point:	1.062	Pitch Set Point:	-0.377	Yaw Set Point:	0.002	X_WP:	-0.923	Y_WP:	0.424	Y_WP:	1.000	X:	-0.993	Y:	0.401	Z:	0.916	yaw:	-0.103	yaw rate:	-75.646	Roll:	-1.771	Pitch:	-0.312	Yaw:	12.745	Thrust:	57.547
Time:	3.543	Roll Set Point:	1.061	Pitch Set Point:	-0.380	Yaw Set Point:	0.009	X_WP:	-0.921	Y_WP:	0.428	Y_WP:	1.000	X:	-0.991	Y:	0.404	Z:	0.910	yaw:	-0.530	yaw rate:	42.657	Roll:	-1.579	Pitch:	-1.984	Yaw:	-3.292	Thrust:	67.992
Time:	3.559	Roll Set Point:	1.060	Pitch Set Point:	-0.384	Yaw Set Point:	0.002	X_WP:	-0.920	Y_WP:	0.432	Y_WP:	1.000	X:	-0.990	Y:	0.408	Z:	0.904	yaw:	-0.122	yaw rate:	-40.751	Roll:	-2.060	Pitch:	-0.869	Yaw:	7.921	Thrust:	54.707
Time:	3.581	Roll Set Point:	1.058	Pitch Set Point:	-0.386	Yaw Set Point:	0.019	X_WP:	-0.919	Y_WP:	0.435	Y_WP:	1.000	X:	-0.989	Y:	0.411	Z:	0.899	yaw:	-1.116	yaw rate:	99.401	Roll:	-1.122	Pitch:	-2.472	Yaw:	-11.592	Thrust:	63.976
Time:	3.598	Roll Set Point:	1.058	Pitch Set Point:	-0.390	Yaw Set Point:	0.005	X_WP:	-0.917	Y_WP:	0.439	Y_WP:	1.000	X:	-0.987	Y:	0.415	Z:	0.894	yaw:	-0.313	yaw rate:	-80.307	Roll:	-2.381	Pitch:	-0.597	Yaw:	13.266	Thrust:	55.964
Time:	3.618	Roll Set Point:	1.056	Pitch Set Point:	-0.394	Yaw Set Point:	0.008	X_WP:	-0.916	Y_WP:	0.442	Y_WP:	1.000	X:	-0.986	Y:	0.418	Z:	0.889	yaw:	-0.433	yaw rate:	12.001	Roll:	-1.540	Pitch:	-1.345	Yaw:	-0.507	Thrust:	61.108
Time:	3.642	Roll Set Point:	1.055	Pitch Set Point:	-0.399	Yaw Set Point:	-0.001	X_WP:	-0.914	Y_WP:	0.445	Y_WP:	1.000	X:	-0.984	Y:	0.422	Z:	0.884	yaw:	0.044	yaw rate:	-47.731	Roll:	-1.902	Pitch:	-0.477	Yaw:	7.213	Thrust:	66.057
Time:	3.658	Roll Set Point:	1.054	Pitch Set Point:	-0.403	Yaw Set Point:	-0.003	X_WP:	-0.912	Y_WP:	0.448	Y_WP:	1.000	X:	-0.983	Y:	0.425	Z:	0.880	yaw:	0.186	yaw rate:	-14.204	Roll:	-2.554	Pitch:	-0.404	Yaw:	3.839	Thrust:	53.784
Time:	3.678	Roll Set Point:	1.053	Pitch Set Point:	-0.407	Yaw Set Point:	0.000	X_WP:	-0.910	Y_WP:	0.450	Y_WP:	1.000	X:	-0.982	Y:	0.429	Z:	0.876	yaw:	-0.024	yaw rate:	20.985	Roll:	-2.067	Pitch:	-0.786	Yaw:	-1.289	Thrust:	59.446
Time:	3.707	Roll Set Point:	1.051	Pitch Set Point:	-0.411	Yaw Set Point:	0.005	X_WP:	-0.909	Y_WP:	0.452	Y_WP:	1.000	X:	-0.980	Y:	0.432	Z:	0.872	yaw:	-0.259	yaw rate:	23.463	Roll:	-1.646	Pitch:	-0.801	Yaw:	-0.304	Thrust:	75.459
Time:	3.719	Roll Set Point:	1.051	Pitch Set Point:	-0.416	Yaw Set Point:	0.001	X_WP:	-0.906	Y_WP:	0.455	Y_WP:	1.000	X:	-0.978	Y:	0.436	Z:	0.868	yaw:	-0.073	yaw rate:	-18.525	Roll:	-2.850	Pitch:	0.245	Yaw:	4.657	Thrust:	47.689
Time:	3.738	Roll Set Point:	1.050	Pitch Set Point:	-0.420	Yaw Set Point:	-0.005	X_WP:	-0.904	Y_WP:	0.458	Y_WP:	1.000	X:	-0.977	Y:	0.439	Z:	0.865	yaw:	0.265	yaw rate:	-33.800	Roll:	-2.473	Pitch:	-0.125	Yaw:	6.439	Thrust:	59.188
Time:	3.759	Roll Set Point:	1.048	Pitch Set Point:	-0.425	Yaw Set Point:	-0.000	X_WP:	-0.902	Y_WP:	0.460	Y_WP:	1.000	X:	-0.975	Y:	0.442	Z:	0.861	yaw:	0.022	yaw rate:	24.305	Roll:	-1.978	Pitch:	-0.295	Yaw:	-1.424	Thrust:	60.794
Time:	3.782	Roll Set Point:	1.047	Pitch Set Point:	-0.428	Yaw Set Point:	0.020	X_WP:	-0.899	Y_WP:	0.462	Y_WP:	1.000	X:	-0.973	Y:	0.446	Z:	0.858	yaw:	-1.162	yaw rate:	118.388	Roll:	-2.093	Pitch:	-1.794	Yaw:	-13.893	Thrust:	67.329
Time:	3.797	Roll Set Point:	1.046	Pitch Set Point:	-0.434	Yaw Set Point:	-0.002	X_WP:	-0.897	Y_WP:	0.464	Y_WP:	1.000	X:	-0.971	Y:	0.449	Z:	0.854	yaw:	0.126	yaw rate:	-128.815	Roll:	-2.833	Pitch:	2.001	Yaw:	22.406	Thrust:	54.974
Time:	3.818	Roll Set Point:	1.044	Pitch Set Point:	-0.438	Yaw Set Point:	-0.003	X_WP:	-0.895	Y_WP:	0.466	Y_WP:	1.000	X:	-0.970	Y:	0.452	Z:	0.850	yaw:	0.170	yaw rate:	-4.360	Roll:	-2.168	Pitch:	0.005	Yaw:	2.410	Thrust:	63.992
Time:	3.843	Roll Set Point:	1.043	Pitch Set Point:	-0.442	Yaw Set Point:	-0.001	X_WP:	-0.893	Y_WP:	0.469	Y_WP:	1.000	X:	-0.968	Y:	0.455	Z:	0.847	yaw:	0.052	yaw rate:	11.792	Roll:	-2.143	Pitch:	-0.473	Yaw:	0.694	Thrust:	71.690
Time:	3.857	Roll Set Point:	1.041	Pitch Set Point:	-0.447	Yaw Set Point:	-0.006	X_WP:	-0.890	Y_WP:	0.471	Y_WP:	1.000	X:	-0.966	Y:	0.459	Z:	0.843	yaw:	0.332	yaw rate:	-27.998	Roll:	-2.179	Pitch:	0.292	Yaw:	6.557	Thrust:	53.824
Time:	3.879	Roll Set Point:	1.039	Pitch Set Point:	-0.450	Yaw Set Point:	0.004	X_WP:	-0.888	Y_WP:	0.474	Y_WP:	1.000	X:	-0.964	Y:	0.462	Z:	0.840	yaw:	-0.228	yaw rate:	55.919	Roll:	-2.122	Pitch:	-1.332	Yaw:	-5.395	Thrust:	66.962
Time:	3.901	Roll Set Point:	1.038	Pitch Set Point:	-0.453	Yaw Set Point:	0.005	X_WP:	-0.886	Y_WP:	0.477	Y_WP:	1.000	X:	-0.962	Y:	0.465	Z:	0.836	yaw:	-0.300	yaw rate:	7.221	Roll:	-2.256	Pitch:	-0.916	Yaw:	0.407	Thrust:	65.621
Time:	3.918	Roll Set Point:	1.035	Pitch Set Point:	-0.457	Yaw Set Point:	-0.006	X_WP:	-0.884	Y_WP:	0.480	Y_WP:	1.000	X:	-0.959	Y:	0.468	Z:	0.834	yaw:	0.325	yaw rate:	-62.529	Roll:	-1.773	Pitch:	-0.382	Yaw:	10.939	Thrust:	61.451
Time:	3.938	Roll Set Point:	1.033	Pitch Set Point:	-0.458	Yaw Set Point:	0.005	X_WP:	-0.882	Y_WP:	0.483	Y_WP:	1.000	X:	-0.958	Y:	0.471	Z:	0.831	yaw:	-0.293	yaw rate:	61.851	Roll:	-1.725	Pitch:	-2.108	Yaw:	-7.050	Thrust:	62.877
Time:	3.959	Roll Set Point:	1.030	Pitch Set Point:	-0.461	Yaw Set Point:	0.006	X_WP:	-0.880	Y_WP:	0.487	Y_WP:	1.000	X:	-0.955	Y:	0.474	Z:	0.828	yaw:	-0.324	yaw rate:	3.119	Roll:	-1.373	Pitch:	-1.707	Yaw:	0.779	Thrust:	66.010
Time:	3.981	Roll Set Point:	1.027	Pitch Set Point:	-0.463	Yaw Set Point:	0.006	X_WP:	-0.878	Y_WP:	0.491	Y_WP:	1.000	X:	-0.953	Y:	0.477	Z:	0.826	yaw:	-0.357	yaw rate:	3.308	Roll:	-1.655	Pitch:	-1.994	Yaw:	0.789	Thrust:	66.439
Time:	3.998	Roll Set Point:	1.025	Pitch Set Point:	-0.465	Yaw Set Point:	0.009	X_WP:	-0.876	Y_WP:	0.495	Y_WP:	1.000	X:	-0.951	Y:	0.480	Z:	0.825	yaw:	-0.537	yaw rate:	17.991	Roll:	-1.546	Pitch:	-1.857	Yaw:	-1.948	Thrust:	58.743
Time:	4.018	Roll Set Point:	1.022	Pitch Set Point:	-0.467	Yaw Set Point:	0.005	X_WP:	-0.875	Y_WP:	0.498	Y_WP:	1.000	X:	-0.948	Y:	0.483	Z:	0.824	yaw:	-0.311	yaw rate:	-22.654	Roll:	-1.081	Pitch:	-1.271	Yaw:	4.161	Thrust:	59.697
Time:	4.043	Roll Set Point:	1.018	Pitch Set Point:	-0.470	Yaw Set Point:	-0.001	X_WP:	-0.873	Y_WP:	0.501	Y_WP:	1.000	X:	-0.946	Y:	0.486	Z:	0.823	yaw:	0.045	yaw rate:	-35.545	Roll:	-1.173	Pitch:	-1.202	Yaw:	5.728	Thrust:	72.472
Time:	4.058	Roll Set Point:	1.016	Pitch Set Point:	-0.472	Yaw Set Point:	0.006	X_WP:	-0.871	Y_WP:	0.505	Y_WP:	1.000	X:	-0.943	Y:	0.488	Z:	0.823	yaw:	-0.362	yaw rate:	40.632	Roll:	-1.630	Pitch:	-2.342	Yaw:	-6.358	Thrust:	49.246
Time:	4.078	Roll Set Point:	1.013	Pitch Set Point:	-0.474	Yaw Set Point:	0.011	X_WP:	-0.869	Y_WP:	0.508	Y_WP:	1.000	X:	-0.941	Y:	0.491	Z:	0.824	yaw:	-0.614	yaw rate:	25.200	Roll:	-1.901	Pitch:	-1.923	Yaw:	-2.581	Thrust:	60.944
Time:	4.099	Roll Set Point:	1.010	Pitch Set Point:	-0.477	Yaw Set Point:	0.007	X_WP:	-0.867	Y_WP:	0.511	Y_WP:	1.000	X:	-0.939	Y:	0.494	Z:	0.824	yaw:	-0.404	yaw rate:	-20.999	Roll:	-1.427	Pitch:	-1.108	Yaw:	3.660	Thrust:	64.072
Time:	4.118	Roll Set Point:	1.008	Pitch Set Point:	-0.479	Yaw Set Point:	0.005	X_WP:	-0.864	Y_WP:	0.514	Y_WP:	1.000	X:	-0.936	Y:	0.497	Z:	0.825	yaw:	-0.270	yaw rate:	-13.389	Roll:	-1.828	Pitch:	-1.300	Yaw:	2.942	Thrust:	56.629
Time:	4.138	Roll Set Point:	1.005	Pitch Set Point:	-0.482	Yaw Set Point:	0.007	X_WP:	-0.862	Y_WP:	0.517	Y_WP:	1.000	X:	-0.933	Y:	0.500	Z:	0.826	yaw:	-0.391	yaw rate:	12.177	Roll:	-1.568	Pitch:	-1.495	Yaw:	-0.595	Thrust:	59.357
Time:	4.159	Roll Set Point:	1.002	Pitch Set Point:	-0.485	Yaw Set Point:	0.006	X_WP:	-0.859	Y_WP:	0.520	Y_WP:	1.000	X:	-0.931	Y:	0.502	Z:	0.828	yaw:	-0.349	yaw rate:	-4.220	Roll:	-1.782	Pitch:	-1.023	Yaw:	1.637	Thrust:	58.766
Time:	4.181	Roll Set Point:	1.000	Pitch Set Point:	-0.488	Yaw Set Point:	0.004	X_WP:	-0.857	Y_WP:	0.522	Y_WP:	1.000	X:	-0.928	Y:	0.505	Z:	0.829	yaw:	-0.233	yaw rate:	-11.592	Roll:	-1.802	Pitch:	-0.595	Yaw:	2.759	Thrust:	68.906
Time:	4.198	Roll Set Point:	0.997	Pitch Set Point:	-0.492	Yaw Set Point:	0.013	X_WP:	-0.855	Y_WP:	0.524	Y_WP:	1.000	X:	-0.926	Y:	0.508	Z:	0.830	yaw:	-0.772	yaw rate:	53.911	Roll:	-1.759	Pitch:	-0.634	Yaw:	-8.008	Thrust:	53.975
Time:	4.218	Roll Set Point:	0.995	Pitch Set Point:	-0.495	Yaw Set Point:	0.017	X_WP:	-0.852	Y_WP:	0.526	Y_WP:	1.000	X:	-0.923	Y:	0.511	Z:	0.831	yaw:	-0.965	yaw rate:	19.235	Roll:	-2.014	Pitch:	-0.798	Yaw:	-2.427	Thrust:	59.014
Time:	4.241	Roll Set Point:	0.992	Pitch Set Point:	-0.500	Yaw Set Point:	0.010	X_WP:	-0.849	Y_WP:	0.528	Y_WP:	1.000	X:	-0.921	Y:	0.514	Z:	0.833	yaw:	-0.596	yaw rate:	-36.856	Roll:	-1.906	Pitch:	-0.049	Yaw:	5.143	Thrust:	68.709
Time:	4.257	Roll Set Point:	0.990	Pitch Set Point:	-0.503	Yaw Set Point:	0.017	X_WP:	-0.847	Y_WP:	0.529	Y_WP:	1.000	X:	-0.918	Y:	0.517	Z:	0.834	yaw:	-1.002	yaw rate:	40.600	Roll:	-1.801	Pitch:	-0.152	Yaw:	-6.824	Thrust:	48.838
Time:	4.278	Roll Set Point:	0.988	Pitch Set Point:	-0.508	Yaw Set Point:	0.013	X_WP:	-0.844	Y_WP:	0.531	Y_WP:	1.000	X:	-0.916	Y:	0.520	Z:	0.836	yaw:	-0.745	yaw rate:	-25.709	Roll:	-2.229	Pitch:	0.235	Yaw:	3.711	Thrust:	65.545
Time:	4.298	Roll Set Point:	0.985	Pitch Set Point:	-0.512	Yaw Set Point:	0.010	X_WP:	-0.841	Y_WP:	0.532	Y_WP:	1.000	X:	-0.913	Y:	0.523	Z:	0.838	yaw:	-0.599	yaw rate:	-14.660	Roll:	-1.904	Pitch:	0.527	Yaw:	2.596	Thrust:	57.195
Time:	4.319	Roll Set Point:	0.982	Pitch Set Point:	-0.516	Yaw Set Point:	0.015	X_WP:	-0.838	Y_WP:	0.534	Y_WP:	1.000	X:	-0.910	Y:	0.526	Z:	0.840	yaw:	-0.882	yaw rate:	28.323	Roll:	-2.008	Pitch:	-0.099	Yaw:	-3.282	Thrust:	65.444
Time:	4.338	Roll Set Point:	0.979	Pitch Set Point:	-0.522	Yaw Set Point:	0.010	X_WP:	-0.836	Y_WP:	0.535	Y_WP:	1.000	X:	-0.907	Y:	0.529	Z:	0.842	yaw:	-0.574	yaw rate:	-30.739	Roll:	-1.691	Pitch:	1.119	Yaw:	4.816	Thrust:	58.504
Time:	4.359	Roll Set Point:	0.977	Pitch Set Point:	-0.527	Yaw Set Point:	0.006	X_WP:	-0.833	Y_WP:	0.536	Y_WP:	1.000	X:	-0.905	Y:	0.531	Z:	0.844	yaw:	-0.317	yaw rate:	-25.774	Roll:	-2.258	Pitch:	1.046	Yaw:	4.378	Thrust:	63.181
Time:	4.380	Roll Set Point:	0.974	Pitch Set Point:	-0.532	Yaw Set Point:	-0.000	X_WP:	-0.829	Y_WP:	0.536	Y_WP:	1.000	X:	-0.902	Y:	0.534	Z:	0.846	yaw:	0.002	yaw rate:	-31.856	Roll:	-2.109	Pitch:	1.206	Yaw:	5.479	Thrust:	65.799
Time:	4.398	Roll Set Point:	0.972	Pitch Set Point:	-0.537	Yaw Set Point:	0.005	X_WP:	-0.827	Y_WP:	0.537	Y_WP:	1.000	X:	-0.899	Y:	0.537	Z:	0.848	yaw:	-0.306	yaw rate:	30.835	Roll:	-1.990	Pitch:	0.872	Yaw:	-3.672	Thrust:	53.964
Time:	4.418	Roll Set Point:	0.969	Pitch Set Point:	-0.541	Yaw Set Point:	0.008	X_WP:	-0.824	Y_WP:	0.538	Y_WP:	1.000	X:	-0.896	Y:	0.540	Z:	0.850	yaw:	-0.433	yaw rate:	12.620	Roll:	-1.848	Pitch:	1.186	Yaw:	-0.810	Thrust:	60.218
Time:	4.440	Roll Set Point:	0.966	Pitch Set Point:	-0.546	Yaw Set Point:	0.009	X_WP:	-0.821	Y_WP:	0.539	Y_WP:	1.000	X:	-0.893	Y:	0.543	Z:	0.853	yaw:	-0.517	yaw rate:	8.466	Roll:	-2.029	Pitch:	0.819	Yaw:	-0.074	Thrust:	67.530
Time:	4.458	Roll Set Point:	0.964	Pitch Set Point:	-0.550	Yaw Set Point:	0.004	X_WP:	-0.818	Y_WP:	0.540	Y_WP:	1.000	X:	-0.891	Y:	0.545	Z:	0.855	yaw:	-0.246	yaw rate:	-27.160	Roll:	-2.380	Pitch:	0.829	Yaw:	4.983	Thrust:	53.769
Time:	4.478	Roll Set Point:	0.961	Pitch Set Point:	-0.553	Yaw Set Point:	0.005	X_WP:	-0.814	Y_WP:	0.542	Y_WP:	1.000	X:	-0.888	Y:	0.548	Z:	0.858	yaw:	-0.280	yaw rate:	3.447	Roll:	-2.165	Pitch:	-0.061	Yaw:	0.682	Thrust:	62.203
Time:	4.498	Roll Set Point:	0.958	Pitch Set Point:	-0.555	Yaw Set Point:	0.009	X_WP:	-0.811	Y_WP:	0.544	Y_WP:	1.000	X:	-0.885	Y:	0.550	Z:	0.861	yaw:	-0.524	yaw rate:	24.358	Roll:	-2.097	Pitch:	-0.414	Yaw:	-2.415	Thrust:	61.629
Time:	4.518	Roll Set Point:	0.955	Pitch Set Point:	-0.559	Yaw Set Point:	0.007	X_WP:	-0.809	Y_WP:	0.546	Y_WP:	1.000	X:	-0.882	Y:	0.553	Z:	0.864	yaw:	-0.391	yaw rate:	-13.226	Roll:	-1.898	Pitch:	0.050	Yaw:	2.661	Thrust:	60.785
Time:	4.539	Roll Set Point:	0.953	Pitch Set Point:	-0.561	Yaw Set Point:	0.009	X_WP:	-0.806	Y_WP:	0.547	Y_WP:	1.000	X:	-0.879	Y:	0.555	Z:	0.867	yaw:	-0.543	yaw rate:	15.117	Roll:	-2.108	Pitch:	-0.148	Yaw:	-1.305	Thrust:	59.280
Time:	4.558	Roll Set Point:	0.949	Pitch Set Point:	-0.564	Yaw Set Point:	0.008	X_WP:	-0.802	Y_WP:	0.549	Y_WP:	1.000	X:	-0.876	Y:	0.557	Z:	0.871	yaw:	-0.483	yaw rate:	-5.984	Roll:	-1.988	Pitch:	0.209	Yaw:	1.571	Thrust:	58.177
Time:	4.581	Roll Set Point:	0.947	Pitch Set Point:	-0.567	Yaw Set Point:	0.011	X_WP:	-0.799	Y_WP:	0.550	Y_WP:	1.000	X:	-0.873	Y:	0.559	Z:	0.875	yaw:	-0.614	yaw rate:	13.158	Roll:	-2.231	Pitch:	-0.216	Yaw:	-0.588	Thrust:	71.381
Time:	4.598	Roll Set Point:	0.943	Pitch Set Point:	-0.570	Yaw Set Point:	0.010	X_WP:	-0.796	Y_WP:	0.552	Y_WP:	1.000	X:	-0.870	Y:	0.561	Z:	0.879	yaw:	-0.597	yaw rate:	-1.717	Roll:	-1.939	Pitch:	0.428	Yaw:	0.685	Thrust:	48.597
Time:	4.617	Roll Set Point:	0.940	Pitch Set Point:	-0.573	Yaw Set Point:	0.009	X_WP:	-0.793	Y_WP:	0.552	Y_WP:	1.000	X:	-0.867	Y:	0.563	Z:	0.883	yaw:	-0.509	yaw rate:	-8.789	Roll:	-1.939	Pitch:	0.639	Yaw:	1.885	Thrust:	54.186
Time:	4.642	Roll Set Point:	0.937	Pitch Set Point:	-0.575	Yaw Set Point:	0.010	X_WP:	-0.790	Y_WP:	0.554	Y_WP:	1.000	X:	-0.863	Y:	0.565	Z:	0.887	yaw:	-0.561	yaw rate:	5.196	Roll:	-2.107	Pitch:	-0.121	Yaw:	0.456	Thrust:	72.543
Time:	4.657	Roll Set Point:	0.934	Pitch Set Point:	-0.578	Yaw Set Point:	0.004	X_WP:	-0.786	Y_WP:	0.554	Y_WP:	1.000	X:	-0.860	Y:	0.566	Z:	0.891	yaw:	-0.223	yaw rate:	-33.805	Roll:	-1.764	Pitch:	1.123	Yaw:	6.675	Thrust:	41.436
Time:	4.678	Roll Set Point:	0.930	Pitch Set Point:	-0.580	Yaw Set Point:	0.010	X_WP:	-0.783	Y_WP:	0.555	Y_WP:	1.000	X:	-0.857	Y:	0.568	Z:	0.895	yaw:	-0.559	yaw rate:	33.592	Roll:	-2.009	Pitch:	-0.129	Yaw:	-3.431	Thrust:	63.097
Time:	4.698	Roll Set Point:	0.927	Pitch Set Point:	-0.582	Yaw Set Point:	0.013	X_WP:	-0.780	Y_WP:	0.556	Y_WP:	1.000	X:	-0.853	Y:	0.569	Z:	0.899	yaw:	-0.760	yaw rate:	20.126	Roll:	-1.875	Pitch:	0.347	Yaw:	-2.215	Thrust:	59.258
Time:	4.718	Roll Set Point:	0.923	Pitch Set Point:	-0.585	Yaw Set Point:	0.006	X_WP:	-0.777	Y_WP:	0.556	Y_WP:	1.000	X:	-0.850	Y:	0.571	Z:	0.903	yaw:	-0.370	yaw rate:	-39.029	Roll:	-1.585	Pitch:	0.894	Yaw:	6.122	Thrust:	57.573
Time:	4.739	Roll Set Point:	0.920	Pitch Set Point:	-0.587	Yaw Set Point:	0.006	X_WP:	-0.773	Y_WP:	0.557	Y_WP:	1.000	X:	-0.847	Y:	0.572	Z:	0.907	yaw:	-0.320	yaw rate:	-5.055	Roll:	-2.144	Pitch:	0.471	Yaw:	1.682	Thrust:	62.618
Time:	4.759	Roll Set Point:	0.916	Pitch Set Point:	-0.590	Yaw Set Point:	-0.002	X_WP:	-0.770	Y_WP:	0.557	Y_WP:	1.000	X:	-0.843	Y:	0.573	Z:	0.910	yaw:	0.117	yaw rate:	-43.673	Roll:	-1.499	Pitch:	0.974	Yaw:	7.346	Thrust:	61.508
Time:	4.787	Roll Set Point:	0.912	Pitch Set Point:	-0.591	Yaw Set Point:	0.012	X_WP:	-0.768	Y_WP:	0.557	Y_WP:	1.000	X:	-0.840	Y:	0.575	Z:	0.913	yaw:	-0.687	yaw rate:	80.413	Roll:	-1.564	Pitch:	-0.096	Yaw:	-6.432	Thrust:	66.650
Time:	4.800	Roll Set Point:	0.908	Pitch Set Point:	-0.594	Yaw Set Point:	0.002	X_WP:	-0.764	Y_WP:	0.557	Y_WP:	1.000	X:	-0.836	Y:	0.576	Z:	0.916	yaw:	-0.099	yaw rate:	-58.790	Roll:	-1.680	Pitch:	1.535	Yaw:	12.601	Thrust:	59.554
Time:	4.817	Roll Set Point:	0.904	Pitch Set Point:	-0.595	Yaw Set Point:	0.008	X_WP:	-0.761	Y_WP:	0.557	Y_WP:	1.000	X:	-0.833	Y:	0.576	Z:	0.919	yaw:	-0.454	yaw rate:	35.526	Roll:	-1.580	Pitch:	0.455	Yaw:	-4.823	Thrust:	51.317
Time:	4.845	Roll Set Point:	0.899	Pitch Set Point:	-0.598	Yaw Set Point:	0.005	X_WP:	-0.759	Y_WP:	0.556	Y_WP:	1.000	X:	-0.829	Y:	0.577	Z:	0.923	yaw:	-0.285	yaw rate:	-16.979	Roll:	-1.309	Pitch:	0.653	Yaw:	3.180	Thrust:	85.482
Time:	4.858	Roll Set Point:	0.895	Pitch Set Point:	-0.600	Yaw Set Point:	0.005	X_WP:	-0.756	Y_WP:	0.556	Y_WP:	1.000	X:	-0.825	Y:	0.578	Z:	0.926	yaw:	-0.270	yaw rate:	-1.494	Roll:	-1.369	Pitch:	1.711	Yaw:	0.883	Thrust:	36.402
Time:	4.877	Roll Set Point:	0.890	Pitch Set Point:	-0.601	Yaw Set Point:	0.002	X_WP:	-0.753	Y_WP:	0.556	Y_WP:	1.000	X:	-0.822	Y:	0.579	Z:	0.930	yaw:	-0.131	yaw rate:	-13.837	Roll:	-0.933	Pitch:	0.766	Yaw:	3.060	Thrust:	59.170
Time:	4.899	Roll Set Point:	0.887	Pitch Set Point:	-0.602	Yaw Set Point:	0.011	X_WP:	-0.749	Y_WP:	0.556	Y_WP:	1.000	X:	-0.818	Y:	0.579	Z:	0.933	yaw:	-0.650	yaw rate:	51.864	Roll:	-1.921	Pitch:	-0.110	Yaw:	-6.019	Thrust:	62.361
Time:	4.918	Roll Set Point:	0.883	Pitch Set Point:	-0.603	Yaw Set Point:	0.001	X_WP:	-0.746	Y_WP:	0.556	Y_WP:	1.000	X:	-0.815	Y:	0.580	Z:	0.936	yaw:	-0.043	yaw rate:	-60.737	Roll:	-1.449	Pitch:	0.998	Yaw:	9.456	Thrust:	59.100
Time:	4.937	Roll Set Point:	0.878	Pitch Set Point:	-0.604	Yaw Set Point:	0.003	X_WP:	-0.743	Y_WP:	0.556	Y_WP:	1.000	X:	-0.811	Y:	0.580	Z:	0.940	yaw:	-0.168	yaw rate:	12.554	Roll:	-1.006	Pitch:	0.091	Yaw:	-0.569	Thrust:	57.596
Time:	4.958	Roll Set Point:	0.874	Pitch Set Point:	-0.603	Yaw Set Point:	0.006	X_WP:	-0.740	Y_WP:	0.557	Y_WP:	1.000	X:	-0.807	Y:	0.580	Z:	0.943	yaw:	-0.315	yaw rate:	14.712	Roll:	-1.981	Pitch:	-0.603	Yaw:	-0.770	Thrust:	64.804
Time:	4.981	Roll Set Point:	0.871	Pitch Set Point:	-0.601	Yaw Set Point:	0.014	X_WP:	-0.736	Y_WP:	0.558	Y_WP:	1.000	X:	-0.803	Y:	0.580	Z:	0.946	yaw:	-0.782	yaw rate:	46.685	Roll:	-2.016	Pitch:	-1.440	Yaw:	-4.752	Thrust:	70.329
Time:	4.998	Roll Set Point:	0.867	Pitch Set Point:	-0.600	Yaw Set Point:	0.010	X_WP:	-0.732	Y_WP:	0.558	Y_WP:	1.000	X:	-0.800	Y:	0.580	Z:	0.950	yaw:	-0.572	yaw rate:	-20.988	Roll:	-1.724	Pitch:	-0.585	Yaw:	3.616	Thrust:	51.642
Time:	5.017	Roll Set Point:	0.864	Pitch Set Point:	-0.599	Yaw Set Point:	0.009	X_WP:	-0.728	Y_WP:	0.560	Y_WP:	1.000	X:	-0.796	Y:	0.580	Z:	0.953	yaw:	-0.495	yaw rate:	-7.688	Roll:	-2.104	Pitch:	-1.269	Yaw:	1.709	Thrust:	57.780
Time:	5.047	Roll Set Point:	0.860	Pitch Set Point:	-0.597	Yaw Set Point:	0.010	X_WP:	-0.725	Y_WP:	0.561	Y_WP:	1.000	X:	-0.792	Y:	0.579	Z:	0.957	yaw:	-0.594	yaw rate:	9.882	Roll:	-1.746	Pitch:	-1.440	Yaw:	0.298	Thrust:	84.254
Time:	5.059	Roll Set Point:	0.856	Pitch Set Point:	-0.595	Yaw Set Point:	0.008	X_WP:	-0.721	Y_WP:	0.562	Y_WP:	1.000	X:	-0.788	Y:	0.579	Z:	0.960	yaw:	-0.439	yaw rate:	-15.518	Roll:	-1.671	Pitch:	-1.718	Yaw:	3.495	Thrust:	34.366
Time:	5.080	Roll Set Point:	0.851	Pitch Set Point:	-0.593	Yaw Set Point:	0.011	X_WP:	-0.718	Y_WP:	0.563	Y_WP:	1.000	X:	-0.784	Y:	0.579	Z:	0.964	yaw:	-0.608	yaw rate:	16.922	Roll:	-1.616	Pitch:	-1.698	Yaw:	-1.632	Thrust:	62.017
Time:	5.103	Roll Set Point:	0.848	Pitch Set Point:	-0.591	Yaw Set Point:	0.013	X_WP:	-0.714	Y_WP:	0.564	Y_WP:	1.000	X:	-0.781	Y:	0.578	Z:	0.968	yaw:	-0.748	yaw rate:	13.981	Roll:	-2.163	Pitch:	-1.527	Yaw:	-1.250	Thrust:	59.418
Time:	5.119	Roll Set Point:	0.844	Pitch Set Point:	-0.590	Yaw Set Point:	0.006	X_WP:	-0.710	Y_WP:	0.565	Y_WP:	1.000	X:	-0.777	Y:	0.578	Z:	0.971	yaw:	-0.349	yaw rate:	-39.912	Roll:	-1.581	Pitch:	-0.772	Yaw:	6.504	Thrust:	60.503
Time:	5.138	Roll Set Point:	0.840	Pitch Set Point:	-0.588	Yaw Set Point:	0.007	X_WP:	-0.707	Y_WP:	0.565	Y_WP:	1.000	X:	-0.773	Y:	0.577	Z:	0.974	yaw:	-0.414	yaw rate:	6.502	Roll:	-1.497	Pitch:	-1.308	Yaw:	-0.207	Thrust:	50.820
Time:	5.162	Roll Set Point:	0.836	Pitch Set Point:	-0.587	Yaw Set Point:	-0.004	X_WP:	-0.703	Y_WP:	0.566	Y_WP:	1.000	X:	-0.769	Y:	0.576	Z:	0.977	yaw:	0.207	yaw rate:	-62.086	Roll:	-1.614	Pitch:	-0.815	Yaw:	8.901	Thrust:	72.040
Time:	5.183	Roll Set Point:	0.832	Pitch Set Point:	-0.585	Yaw Set Point:	0.007	X_WP:	-0.700	Y_WP:	0.566	Y_WP:	1.000	X:	-0.766	Y:	0.576	Z:	0.980	yaw:	-0.376	yaw rate:	58.301	Roll:	-1.584	Pitch:	-1.500	Yaw:	-6.100	Thrust:	67.842
Time:	5.199	Roll Set Point:	0.828	Pitch Set Point:	-0.584	Yaw Set Point:	0.010	X_WP:	-0.696	Y_WP:	0.566	Y_WP:	1.000	X:	-0.762	Y:	0.575	Z:	0.983	yaw:	-0.556	yaw rate:	18.010	Roll:	-1.824	Pitch:	-1.223	Yaw:	-2.609	Thrust:	48.444
Time:	5.219	Roll Set Point:	0.824	Pitch Set Point:	-0.583	Yaw Set Point:	0.010	X_WP:	-0.693	Y_WP:	0.566	Y_WP:	1.000	X:	-0.758	Y:	0.575	Z:	0.986	yaw:	-0.591	yaw rate:	3.521	Roll:	-1.672	Pitch:	-1.057	Yaw:	0.146	Thrust:	61.432
Time:	5.246	Roll Set Point:	0.819	Pitch Set Point:	-0.581	Yaw Set Point:	0.012	X_WP:	-0.690	Y_WP:	0.567	Y_WP:	1.000	X:	-0.754	Y:	0.574	Z:	0.988	yaw:	-0.665	yaw rate:	7.350	Roll:	-1.148	Pitch:	-1.277	Yaw:	0.189	Thrust:	79.355
Time:	5.258	Roll Set Point:	0.814	Pitch Set Point:	-0.580	Yaw Set Point:	-0.001	X_WP:	-0.686	Y_WP:	0.567	Y_WP:	1.000	X:	-0.750	Y:	0.573	Z:	0.991	yaw:	0.053	yaw rate:	-71.783	Roll:	-0.999	Pitch:	-0.240	Yaw:	16.215	Thrust:	35.479
Time:	5.278	Roll Set Point:	0.810	Pitch Set Point:	-0.579	Yaw Set Point:	0.011	X_WP:	-0.683	Y_WP:	0.566	Y_WP:	1.000	X:	-0.747	Y:	0.573	Z:	0.994	yaw:	-0.629	yaw rate:	68.216	Roll:	-1.682	Pitch:	-1.276	Yaw:	-8.210	Thrust:	63.110
Time:	5.307	Roll Set Point:	0.806	Pitch Set Point:	-0.578	Yaw Set Point:	0.011	X_WP:	-0.680	Y_WP:	0.566	Y_WP:	1.000	X:	-0.743	Y:	0.572	Z:	0.997	yaw:	-0.626	yaw rate:	-0.318	Roll:	-1.286	Pitch:	-0.972	Yaw:	0.906	Thrust:	66.936
