Time:	0.036	Roll Set Point:	-0.132	Pitch Set Point:	1.815	Yaw Set Point:	-0.026	X_WP:	0.000	Y_WP:	0.000	Y_WP:	0.750	X:	0.078	Y:	-0.907	Z:	0.403	yaw:	1.513	yaw rate:	-8.256	Roll:	1.567	Pitch:	-26.347	Yaw:	2.113	Thrust:	19.104
Time:	0.056	Roll Set Point:	-0.132	Pitch Set Point:	1.815	Yaw Set Point:	-0.026	X_WP:	0.000	Y_WP:	0.000	Y_WP:	0.750	X:	0.078	Y:	-0.907	Z:	0.403	yaw:	1.487	yaw rate:	2.639	Roll:	1.952	Pitch:	-26.381	Yaw:	1.743	Thrust:	19.951
Time:	0.077	Roll Set Point:	-0.132	Pitch Set Point:	1.815	Yaw Set Point:	-0.026	X_WP:	0.000	Y_WP:	0.000	Y_WP:	0.750	X:	0.078	Y:	-0.907	Z:	0.403	yaw:	1.496	yaw rate:	-0.927	Roll:	1.458	Pitch:	-26.451	Yaw:	2.230	Thrust:	20.823
Time:	0.096	Roll Set Point:	-0.134	Pitch Set Point:	1.815	Yaw Set Point:	-0.025	X_WP:	0.000	Y_WP:	0.000	Y_WP:	0.750	X:	0.078	Y:	-0.907	Z:	0.403	yaw:	1.415	yaw rate:	8.181	Roll:	2.757	Pitch:	-26.378	Yaw:	0.894	Thrust:	21.552
Time:	0.118	Roll Set Point:	-0.131	Pitch Set Point:	1.815	Yaw Set Point:	-0.027	X_WP:	0.000	Y_WP:	0.000	Y_WP:	0.750	X:	0.078	Y:	-0.907	Z:	0.402	yaw:	1.565	yaw rate:	-15.003	Roll:	-0.546	Pitch:	-26.607	Yaw:	4.034	Thrust:	23.079
Time:	0.138	Roll Set Point:	-0.133	Pitch Set Point:	1.815	Yaw Set Point:	-0.026	X_WP:	0.000	Y_WP:	0.000	Y_WP:	0.750	X:	0.078	Y:	-0.907	Z:	0.403	yaw:	1.480	yaw rate:	8.467	Roll:	2.946	Pitch:	-26.580	Yaw:	0.943	Thrust:	22.615
Time:	0.156	Roll Set Point:	-0.133	Pitch Set Point:	1.815	Yaw Set Point:	-0.025	X_WP:	0.000	Y_WP:	0.000	Y_WP:	0.750	X:	0.078	Y:	-0.907	Z:	0.403	yaw:	1.455	yaw rate:	2.518	Roll:	1.949	Pitch:	-26.550	Yaw:	1.748	Thrust:	23.921
Time:	0.176	Roll Set Point:	-0.111	Pitch Set Point:	1.816	Yaw Set Point:	-0.049	X_WP:	0.000	Y_WP:	0.000	Y_WP:	0.750	X:	0.078	Y:	-0.906	Z:	0.402	yaw:	2.813	yaw rate:	-135.787	Roll:	-17.045	Pitch:	-27.294	Yaw:	21.485	Thrust:	26.250
Time:	0.197	Roll Set Point:	-0.133	Pitch Set Point:	1.815	Yaw Set Point:	-0.026	X_WP:	0.000	Y_WP:	0.000	Y_WP:	0.750	X:	0.078	Y:	-0.907	Z:	0.402	yaw:	1.464	yaw rate:	134.840	Roll:	19.499	Pitch:	-26.103	Yaw:	-14.470	Thrust:	25.458
Time:	0.216	Roll Set Point:	-0.132	Pitch Set Point:	1.815	Yaw Set Point:	-0.026	X_WP:	0.000	Y_WP:	0.000	Y_WP:	0.750	X:	0.078	Y:	-0.907	Z:	0.403	yaw:	1.494	yaw rate:	-2.989	Roll:	1.320	Pitch:	-26.815	Yaw:	2.600	Thrust:	25.659
Time:	0.236	Roll Set Point:	-0.133	Pitch Set Point:	1.815	Yaw Set Point:	-0.025	X_WP:	0.000	Y_WP:	0.000	Y_WP:	0.750	X:	0.078	Y:	-0.907	Z:	0.403	yaw:	1.441	yaw rate:	5.277	Roll:	2.327	Pitch:	-26.734	Yaw:	1.457	Thrust:	27.496
Time:	0.256	Roll Set Point:	-0.134	Pitch Set Point:	1.815	Yaw Set Point:	-0.025	X_WP:	0.000	Y_WP:	0.000	Y_WP:	0.750	X:	0.078	Y:	-0.907	Z:	0.403	yaw:	1.418	yaw rate:	2.315	Roll:	2.004	Pitch:	-26.856	Yaw:	1.785	Thrust:	28.174
Time:	0.277	Roll Set Point:	-0.131	Pitch Set Point:	1.815	Yaw Set Point:	-0.027	X_WP:	0.000	Y_WP:	0.000	Y_WP:	0.750	X:	0.078	Y:	-0.907	Z:	0.402	yaw:	1.570	yaw rate:	-15.143	Roll:	-0.578	Pitch:	-26.923	Yaw:	4.170	Thrust:	30.119
Time:	0.297	Roll Set Point:	-0.132	Pitch Set Point:	1.815	Yaw Set Point:	-0.027	X_WP:	0.000	Y_WP:	0.000	Y_WP:	0.750	X:	0.078	Y:	-0.907	Z:	0.403	yaw:	1.520	yaw rate:	5.003	Roll:	2.495	Pitch:	-26.996	Yaw:	1.613	Thrust:	29.802
Time:	0.318	Roll Set Point:	-0.132	Pitch Set Point:	1.815	Yaw Set Point:	-0.026	X_WP:	0.000	Y_WP:	0.000	Y_WP:	0.750	X:	0.078	Y:	-0.907	Z:	0.403	yaw:	1.495	yaw rate:	2.502	Roll:	1.963	Pitch:	-27.007	Yaw:	1.921	Thrust:	30.965
Time:	0.337	Roll Set Point:	-0.132	Pitch Set Point:	1.815	Yaw Set Point:	-0.026	X_WP:	0.000	Y_WP:	0.000	Y_WP:	0.750	X:	0.078	Y:	-0.907	Z:	0.403	yaw:	1.507	yaw rate:	-1.217	Roll:	1.448	Pitch:	-27.026	Yaw:	2.428	Thrust:	31.165
Time:	0.357	Roll Set Point:	-0.132	Pitch Set Point:	1.815	Yaw Set Point:	-0.027	X_WP:	0.000	Y_WP:	0.000	Y_WP:	0.750	X:	0.078	Y:	-0.907	Z:	0.403	yaw:	1.526	yaw rate:	-1.899	Roll:	1.330	Pitch:	-27.033	Yaw:	2.555	Thrust:	32.343
Time:	0.376	Roll Set Point:	-0.131	Pitch Set Point:	1.815	Yaw Set Point:	-0.027	X_WP:	0.000	Y_WP:	0.000	Y_WP:	0.750	X:	0.078	Y:	-0.907	Z:	0.403	yaw:	1.560	yaw rate:	-3.410	Roll:	1.007	Pitch:	-27.084	Yaw:	2.816	Thrust:	33.276
Time:	0.399	Roll Set Point:	-0.133	Pitch Set Point:	1.815	Yaw Set Point:	-0.025	X_WP:	0.000	Y_WP:	0.000	Y_WP:	0.750	X:	0.078	Y:	-0.907	Z:	0.403	yaw:	1.439	yaw rate:	12.073	Roll:	3.309	Pitch:	-27.162	Yaw:	0.831	Thrust:	35.799
Time:	0.416	Roll Set Point:	-0.132	Pitch Set Point:	1.815	Yaw Set Point:	-0.026	X_WP:	0.000	Y_WP:	0.000	Y_WP:	0.750	X:	0.078	Y:	-0.907	Z:	0.403	yaw:	1.504	yaw rate:	-6.492	Roll:	0.608	Pitch:	-27.036	Yaw:	3.274	Thrust:	32.614
Time:	0.437	Roll Set Point:	-0.130	Pitch Set Point:	1.815	Yaw Set Point:	-0.028	X_WP:	0.000	Y_WP:	0.000	Y_WP:	0.750	X:	0.078	Y:	-0.907	Z:	0.402	yaw:	1.616	yaw rate:	-11.210	Roll:	-0.102	Pitch:	-27.108	Yaw:	3.908	Thrust:	36.231
Time:	0.457	Roll Set Point:	-0.132	Pitch Set Point:	1.815	Yaw Set Point:	-0.026	X_WP:	0.000	Y_WP:	0.000	Y_WP:	0.750	X:	0.078	Y:	-0.907	Z:	0.403	yaw:	1.503	yaw rate:	11.266	Roll:	3.311	Pitch:	-27.090	Yaw:	0.815	Thrust:	36.219
Time:	0.475	Roll Set Point:	-0.131	Pitch Set Point:	1.815	Yaw Set Point:	-0.027	X_WP:	0.000	Y_WP:	0.000	Y_WP:	0.750	X:	0.078	Y:	-0.907	Z:	0.402	yaw:	1.548	yaw rate:	-4.483	Roll:	0.811	Pitch:	-27.036	Yaw:	3.002	Thrust:	37.239
Time:	0.496	Roll Set Point:	-0.132	Pitch Set Point:	1.815	Yaw Set Point:	-0.026	X_WP:	0.000	Y_WP:	0.000	Y_WP:	0.750	X:	0.078	Y:	-0.907	Z:	0.402	yaw:	1.482	yaw rate:	6.633	Roll:	2.500	Pitch:	-27.053	Yaw:	1.482	Thrust:	38.918
Time:	0.517	Roll Set Point:	-0.133	Pitch Set Point:	1.815	Yaw Set Point:	-0.025	X_WP:	0.000	Y_WP:	0.000	Y_WP:	0.750	X:	0.078	Y:	-0.907	Z:	0.403	yaw:	1.432	yaw rate:	4.961	Roll:	2.501	Pitch:	-27.142	Yaw:	1.624	Thrust:	38.925
Time:	0.536	Roll Set Point:	-0.133	Pitch Set Point:	1.815	Yaw Set Point:	-0.026	X_WP:	0.000	Y_WP:	0.000	Y_WP:	0.750	X:	0.078	Y:	-0.907	Z:	0.403	yaw:	1.478	yaw rate:	-4.545	Roll:	1.031	Pitch:	-27.135	Yaw:	2.925	Thrust:	39.636
Time:	0.556	Roll Set Point:	-0.132	Pitch Set Point:	1.815	Yaw Set Point:	-0.026	X_WP:	0.000	Y_WP:	0.000	Y_WP:	0.750	X:	0.078	Y:	-0.907	Z:	0.403	yaw:	1.485	yaw rate:	-0.758	Roll:	1.521	Pitch:	-27.091	Yaw:	2.446	Thrust:	40.414
Time:	0.576	Roll Set Point:	-0.133	Pitch Set Point:	1.815	Yaw Set Point:	-0.025	X_WP:	0.000	Y_WP:	0.000	Y_WP:	0.750	X:	0.078	Y:	-0.907	Z:	0.403	yaw:	1.439	yaw rate:	4.650	Roll:	2.330	Pitch:	-27.052	Yaw:	1.701	Thrust:	41.821
Time:	0.599	Roll Set Point:	-0.132	Pitch Set Point:	1.815	Yaw Set Point:	-0.026	X_WP:	0.000	Y_WP:	0.000	Y_WP:	0.750	X:	0.078	Y:	-0.907	Z:	0.403	yaw:	1.500	yaw rate:	-6.152	Roll:	0.890	Pitch:	-27.243	Yaw:	3.147	Thrust:	45.578
Time:	0.616	Roll Set Point:	-0.132	Pitch Set Point:	1.815	Yaw Set Point:	-0.026	X_WP:	0.000	Y_WP:	0.000	Y_WP:	0.750	X:	0.078	Y:	-0.907	Z:	0.403	yaw:	1.504	yaw rate:	-0.348	Roll:	1.587	Pitch:	-27.028	Yaw:	2.428	Thrust:	40.583
Time:	0.636	Roll Set Point:	-0.132	Pitch Set Point:	1.815	Yaw Set Point:	-0.026	X_WP:	0.000	Y_WP:	0.000	Y_WP:	0.750	X:	0.078	Y:	-0.907	Z:	0.403	yaw:	1.492	yaw rate:	1.189	Roll:	1.822	Pitch:	-27.090	Yaw:	2.244	Thrust:	43.782
Time:	0.656	Roll Set Point:	-0.131	Pitch Set Point:	1.815	Yaw Set Point:	-0.027	X_WP:	0.000	Y_WP:	0.000	Y_WP:	0.750	X:	0.078	Y:	-0.907	Z:	0.402	yaw:	1.551	yaw rate:	-5.947	Roll:	0.665	Pitch:	-27.028	Yaw:	3.287	Thrust:	44.865
Time:	0.676	Roll Set Point:	-0.133	Pitch Set Point:	1.815	Yaw Set Point:	-0.025	X_WP:	0.000	Y_WP:	0.000	Y_WP:	0.750	X:	0.078	Y:	-0.907	Z:	0.403	yaw:	1.438	yaw rate:	11.369	Roll:	3.351	Pitch:	-27.081	Yaw:	0.902	Thrust:	45.989
Time:	0.697	Roll Set Point:	-0.133	Pitch Set Point:	1.815	Yaw Set Point:	-0.025	X_WP:	0.000	Y_WP:	0.000	Y_WP:	0.750	X:	0.078	Y:	-0.907	Z:	0.403	yaw:	1.434	yaw rate:	0.386	Roll:	1.748	Pitch:	-27.114	Yaw:	2.306	Thrust:	46.703
Time:	0.716	Roll Set Point:	-0.132	Pitch Set Point:	1.815	Yaw Set Point:	-0.026	X_WP:	0.000	Y_WP:	0.000	Y_WP:	0.750	X:	0.078	Y:	-0.907	Z:	0.403	yaw:	1.493	yaw rate:	-5.926	Roll:	0.847	Pitch:	-27.127	Yaw:	3.221	Thrust:	47.681
Time:	0.738	Roll Set Point:	-0.132	Pitch Set Point:	1.815	Yaw Set Point:	-0.026	X_WP:	0.000	Y_WP:	0.000	Y_WP:	0.750	X:	0.078	Y:	-0.907	Z:	0.403	yaw:	1.491	yaw rate:	0.222	Roll:	1.705	Pitch:	-27.176	Yaw:	2.454	Thrust:	50.194
Time:	0.756	Roll Set Point:	-0.131	Pitch Set Point:	1.815	Yaw Set Point:	-0.027	X_WP:	0.000	Y_WP:	0.000	Y_WP:	0.750	X:	0.078	Y:	-0.907	Z:	0.402	yaw:	1.574	yaw rate:	-8.323	Roll:	0.210	Pitch:	-27.018	Yaw:	3.741	Thrust:	47.069
Time:	0.777	Roll Set Point:	-0.133	Pitch Set Point:	1.815	Yaw Set Point:	-0.025	X_WP:	0.000	Y_WP:	0.000	Y_WP:	0.750	X:	0.078	Y:	-0.907	Z:	0.403	yaw:	1.436	yaw rate:	13.801	Roll:	3.720	Pitch:	-27.066	Yaw:	0.721	Thrust:	49.927
Time:	0.798	Roll Set Point:	-0.131	Pitch Set Point:	1.815	Yaw Set Point:	-0.027	X_WP:	0.000	Y_WP:	0.000	Y_WP:	0.750	X:	0.078	Y:	-0.907	Z:	0.403	yaw:	1.547	yaw rate:	-11.111	Roll:	0.122	Pitch:	-27.171	Yaw:	3.985	Thrust:	53.748
Time:	0.816	Roll Set Point:	-0.132	Pitch Set Point:	1.815	Yaw Set Point:	-0.026	X_WP:	0.000	Y_WP:	0.000	Y_WP:	0.750	X:	0.078	Y:	-0.907	Z:	0.403	yaw:	1.492	yaw rate:	5.559	Roll:	2.588	Pitch:	-27.060	Yaw:	1.662	Thrust:	48.377
Time:	0.836	Roll Set Point:	-0.132	Pitch Set Point:	1.815	Yaw Set Point:	-0.026	X_WP:	0.000	Y_WP:	0.000	Y_WP:	0.750	X:	0.078	Y:	-0.907	Z:	0.403	yaw:	1.515	yaw rate:	-2.377	Roll:	1.376	Pitch:	-27.151	Yaw:	2.856	Thrust:	53.085
Time:	0.857	Roll Set Point:	-0.133	Pitch Set Point:	1.815	Yaw Set Point:	-0.026	X_WP:	0.000	Y_WP:	0.000	Y_WP:	0.750	X:	0.078	Y:	-0.907	Z:	0.403	yaw:	1.481	yaw rate:	3.478	Roll:	2.159	Pitch:	-27.076	Yaw:	2.073	Thrust:	54.274
Time:	0.877	Roll Set Point:	-0.132	Pitch Set Point:	1.815	Yaw Set Point:	-0.026	X_WP:	0.000	Y_WP:	0.000	Y_WP:	0.750	X:	0.078	Y:	-0.907	Z:	0.402	yaw:	1.501	yaw rate:	-2.067	Roll:	1.283	Pitch:	-27.036	Yaw:	2.815	Thrust:	54.607
Time:	0.898	Roll Set Point:	-0.133	Pitch Set Point:	1.815	Yaw Set Point:	-0.026	X_WP:	0.000	Y_WP:	0.000	Y_WP:	0.750	X:	0.078	Y:	-0.907	Z:	0.403	yaw:	1.477	yaw rate:	2.405	Roll:	2.182	Pitch:	-27.167	Yaw:	2.230	Thrust:	55.616
Time:	0.917	Roll Set Point:	-0.132	Pitch Set Point:	1.815	Yaw Set Point:	-0.026	X_WP:	0.000	Y_WP:	0.000	Y_WP:	0.750	X:	0.078	Y:	-0.907	Z:	0.403	yaw:	1.514	yaw rate:	-3.629	Roll:	1.173	Pitch:	-27.093	Yaw:	3.057	Thrust:	55.379
Time:	0.938	Roll Set Point:	-0.133	Pitch Set Point:	1.815	Yaw Set Point:	-0.026	X_WP:	0.000	Y_WP:	0.000	Y_WP:	0.750	X:	0.078	Y:	-0.907	Z:	0.403	yaw:	1.483	yaw rate:	3.047	Roll:	2.115	Pitch:	-27.122	Yaw:	2.179	Thrust:	57.833
Time:	0.958	Roll Set Point:	-0.131	Pitch Set Point:	1.815	Yaw Set Point:	-0.028	X_WP:	0.000	Y_WP:	0.000	Y_WP:	0.750	X:	0.078	Y:	-0.907	Z:	0.403	yaw:	1.587	yaw rate:	-10.413	Roll:	0.119	Pitch:	-27.094	Yaw:	4.066	Thrust:	57.887
Time:	0.978	Roll Set Point:	-0.133	Pitch Set Point:	1.815	Yaw Set Point:	-0.025	X_WP:	0.000	Y_WP:	0.000	Y_WP:	0.750	X:	0.078	Y:	-0.907	Z:	0.403	yaw:	1.441	yaw rate:	14.631	Roll:	3.970	Pitch:	-27.026	Yaw:	0.445	Thrust:	55.639
Time:	0.999	Roll Set Point:	-0.132	Pitch Set Point:	1.815	Yaw Set Point:	-0.026	X_WP:	0.000	Y_WP:	0.000	Y_WP:	0.750	X:	0.078	Y:	-0.907	Z:	0.403	yaw:	1.498	yaw rate:	-5.683	Roll:	1.013	Pitch:	-27.218	Yaw:	3.326	Thrust:	63.250
Time:	1.018	Roll Set Point:	-0.131	Pitch Set Point:	1.815	Yaw Set Point:	-0.027	X_WP:	0.000	Y_WP:	0.000	Y_WP:	0.750	X:	0.078	Y:	-0.907	Z:	0.402	yaw:	1.559	yaw rate:	-6.098	Roll:	0.585	Pitch:	-26.953	Yaw:	3.554	Thrust:	55.755
Time:	1.037	Roll Set Point:	-0.131	Pitch Set Point:	1.815	Yaw Set Point:	-0.027	X_WP:	0.000	Y_WP:	0.000	Y_WP:	0.750	X:	0.078	Y:	-0.907	Z:	0.402	yaw:	1.564	yaw rate:	-0.510	Roll:	1.598	Pitch:	-27.104	Yaw:	2.783	Thrust:	59.763
Time:	1.057	Roll Set Point:	-0.133	Pitch Set Point:	1.815	Yaw Set Point:	-0.026	X_WP:	0.000	Y_WP:	0.000	Y_WP:	0.750	X:	0.078	Y:	-0.907	Z:	0.403	yaw:	1.485	yaw rate:	7.836	Roll:	2.975	Pitch:	-27.111	Yaw:	1.605	Thrust:	60.558
Time:	1.077	Roll Set Point:	-0.133	Pitch Set Point:	1.815	Yaw Set Point:	-0.026	X_WP:	0.000	Y_WP:	0.000	Y_WP:	0.750	X:	0.078	Y:	-0.907	Z:	0.403	yaw:	1.483	yaw rate:	0.241	Roll:	1.732	Pitch:	-27.098	Yaw:	2.603	Thrust:	65.433
Time:	1.098	Roll Set Point:	-0.132	Pitch Set Point:	1.815	Yaw Set Point:	-0.026	X_WP:	0.000	Y_WP:	0.000	Y_WP:	0.750	X:	0.078	Y:	-0.907	Z:	0.402	yaw:	1.500	yaw rate:	-1.683	Roll:	1.376	Pitch:	-27.082	Yaw:	2.882	Thrust:	64.190
Time:	1.118	Roll Set Point:	-0.133	Pitch Set Point:	1.815	Yaw Set Point:	-0.025	X_WP:	0.000	Y_WP:	0.000	Y_WP:	0.750	X:	0.078	Y:	-0.907	Z:	0.403	yaw:	1.438	yaw rate:	6.148	Roll:	2.716	Pitch:	-27.081	Yaw:	1.790	Thrust:	64.221
Time:	1.137	Roll Set Point:	-0.131	Pitch Set Point:	1.815	Yaw Set Point:	-0.027	X_WP:	0.000	Y_WP:	0.000	Y_WP:	0.750	X:	0.078	Y:	-0.907	Z:	0.402	yaw:	1.559	yaw rate:	-12.025	Roll:	-0.075	Pitch:	-27.136	Yaw:	4.352	Thrust:	64.576
Time:	1.158	Roll Set Point:	-0.132	Pitch Set Point:	1.815	Yaw Set Point:	-0.026	X_WP:	0.000	Y_WP:	0.000	Y_WP:	0.750	X:	0.078	Y:	-0.907	Z:	0.403	yaw:	1.507	yaw rate:	5.116	Roll:	2.551	Pitch:	-27.155	Yaw:	2.080	Thrust:	67.222
Time:	1.177	Roll Set Point:	-0.132	Pitch Set Point:	1.815	Yaw Set Point:	-0.027	X_WP:	0.000	Y_WP:	0.000	Y_WP:	0.750	X:	0.078	Y:	-0.907	Z:	0.402	yaw:	1.522	yaw rate:	-1.463	Roll:	1.382	Pitch:	-27.050	Yaw:	2.910	Thrust:	65.612
Time:	1.201	Roll Set Point:	-0.133	Pitch Set Point:	1.815	Yaw Set Point:	-0.026	X_WP:	0.000	Y_WP:	0.000	Y_WP:	0.750	X:	0.078	Y:	-0.907	Z:	0.403	yaw:	1.478	yaw rate:	4.386	Roll:	2.387	Pitch:	-27.226	Yaw:	2.279	Thrust:	73.461
Time:	1.218	Roll Set Point:	-0.132	Pitch Set Point:	1.815	Yaw Set Point:	-0.026	X_WP:	0.000	Y_WP:	0.000	Y_WP:	0.750	X:	0.078	Y:	-0.907	Z:	0.403	yaw:	1.495	yaw rate:	-1.661	Roll:	1.469	Pitch:	-26.985	Yaw:	2.877	Thrust:	59.905
Time:	1.238	Roll Set Point:	-0.133	Pitch Set Point:	1.815	Yaw Set Point:	-0.026	X_WP:	0.000	Y_WP:	0.000	Y_WP:	0.750	X:	0.078	Y:	-0.907	Z:	0.403	yaw:	1.467	yaw rate:	2.825	Roll:	2.135	Pitch:	-27.103	Yaw:	2.330	Thrust:	71.178
Time:	1.258	Roll Set Point:	-0.133	Pitch Set Point:	1.815	Yaw Set Point:	-0.025	X_WP:	0.000	Y_WP:	0.000	Y_WP:	0.750	X:	0.078	Y:	-0.907	Z:	0.402	yaw:	1.443	yaw rate:	2.350	Roll:	1.830	Pitch:	-26.952	Yaw:	2.336	Thrust:	68.474
Time:	1.277	Roll Set Point:	-0.133	Pitch Set Point:	1.815	Yaw Set Point:	-0.025	X_WP:	0.000	Y_WP:	0.000	Y_WP:	0.750	X:	0.078	Y:	-0.907	Z:	0.403	yaw:	1.432	yaw rate:	1.069	Roll:	2.162	Pitch:	-27.124	Yaw:	2.493	Thrust:	68.570
Time:	1.298	Roll Set Point:	-0.132	Pitch Set Point:	1.815	Yaw Set Point:	-0.026	X_WP:	0.000	Y_WP:	0.000	Y_WP:	0.750	X:	0.078	Y:	-0.907	Z:	0.403	yaw:	1.500	yaw rate:	-6.763	Roll:	0.875	Pitch:	-27.233	Yaw:	3.640	Thrust:	74.871
Time:	1.317	Roll Set Point:	-0.132	Pitch Set Point:	1.815	Yaw Set Point:	-0.026	X_WP:	0.000	Y_WP:	0.000	Y_WP:	0.750	X:	0.078	Y:	-0.907	Z:	0.403	yaw:	1.514	yaw rate:	-1.403	Roll:	1.523	Pitch:	-27.080	Yaw:	2.954	Thrust:	71.511
Time:	1.338	Roll Set Point:	-0.130	Pitch Set Point:	1.815	Yaw Set Point:	-0.028	X_WP:	0.000	Y_WP:	0.000	Y_WP:	0.750	X:	0.078	Y:	-0.907	Z:	0.402	yaw:	1.588	yaw rate:	-7.417	Roll:	0.559	Pitch:	-27.063	Yaw:	3.868	Thrust:	74.078
Time:	1.358	Roll Set Point:	-0.133	Pitch Set Point:	1.815	Yaw Set Point:	-0.025	X_WP:	0.000	Y_WP:	0.000	Y_WP:	0.750	X:	0.078	Y:	-0.907	Z:	0.403	yaw:	1.439	yaw rate:	14.948	Roll:	3.928	Pitch:	-27.067	Yaw:	0.692	Thrust:	73.972
Time:	1.378	Roll Set Point:	-0.132	Pitch Set Point:	1.815	Yaw Set Point:	-0.026	X_WP:	0.000	Y_WP:	0.000	Y_WP:	0.750	X:	0.078	Y:	-0.907	Z:	0.402	yaw:	1.484	yaw rate:	-4.537	Roll:	0.958	Pitch:	-27.048	Yaw:	3.381	Thrust:	74.732
Time:	1.398	Roll Set Point:	-0.133	Pitch Set Point:	1.815	Yaw Set Point:	-0.026	X_WP:	0.000	Y_WP:	0.000	Y_WP:	0.750	X:	0.078	Y:	-0.907	Z:	0.403	yaw:	1.462	yaw rate:	2.230	Roll:	2.228	Pitch:	-27.164	Yaw:	2.496	Thrust:	78.336
Time:	1.418	Roll Set Point:	-0.133	Pitch Set Point:	1.815	Yaw Set Point:	-0.026	X_WP:	0.000	Y_WP:	0.000	Y_WP:	0.750	X:	0.078	Y:	-0.907	Z:	0.403	yaw:	1.482	yaw rate:	-2.057	Roll:	1.499	Pitch:	-27.097	Yaw:	3.050	Thrust:	72.650
Time:	1.437	Roll Set Point:	-0.131	Pitch Set Point:	1.815	Yaw Set Point:	-0.027	X_WP:	0.000	Y_WP:	0.000	Y_WP:	0.750	X:	0.078	Y:	-0.907	Z:	0.402	yaw:	1.536	yaw rate:	-5.333	Roll:	0.776	Pitch:	-27.061	Yaw:	3.582	Thrust:	78.586
Time:	1.457	Roll Set Point:	-0.132	Pitch Set Point:	1.815	Yaw Set Point:	-0.026	X_WP:	0.000	Y_WP:	0.000	Y_WP:	0.750	X:	0.078	Y:	-0.907	Z:	0.403	yaw:	1.508	yaw rate:	2.816	Roll:	2.400	Pitch:	-27.123	Yaw:	2.423	Thrust:	75.758
Time:	1.477	Roll Set Point:	-0.132	Pitch Set Point:	1.815	Yaw Set Point:	-0.026	X_WP:	0.000	Y_WP:	0.000	Y_WP:	0.750	X:	0.078	Y:	-0.907	Z:	0.403	yaw:	1.495	yaw rate:	1.284	Roll:	1.933	Pitch:	-27.084	Yaw:	2.682	Thrust:	79.217
Time:	1.497	Roll Set Point:	-0.111	Pitch Set Point:	1.816	Yaw Set Point:	-0.049	X_WP:	0.000	Y_WP:	0.000	Y_WP:	0.750	X:	0.078	Y:	-0.906	Z:	0.402	yaw:	2.819	yaw rate:	-132.389	Roll:	-16.380	Pitch:	-27.725	Yaw:	21.363	Thrust:	83.758
Time:	1.516	Roll Set Point:	-0.132	Pitch Set Point:	1.815	Yaw Set Point:	-0.026	X_WP:	0.000	Y_WP:	0.000	Y_WP:	0.750	X:	0.078	Y:	-0.907	Z:	0.402	yaw:	1.478	yaw rate:	134.020	Roll:	19.936	Pitch:	-26.367	Yaw:	-15.391	Thrust:	77.772
Time:	1.537	Roll Set Point:	-0.133	Pitch Set Point:	1.815	Yaw Set Point:	-0.025	X_WP:	0.000	Y_WP:	0.000	Y_WP:	0.750	X:	0.078	Y:	-0.907	Z:	0.403	yaw:	1.426	yaw rate:	5.277	Roll:	2.653	Pitch:	-27.136	Yaw:	2.183	Thrust:	84.742
Time:	1.557	Roll Set Point:	-0.133	Pitch Set Point:	1.815	Yaw Set Point:	-0.025	X_WP:	0.000	Y_WP:	0.000	Y_WP:	0.750	X:	0.078	Y:	-0.907	Z:	0.403	yaw:	1.435	yaw rate:	-0.956	Roll:	1.662	Pitch:	-27.110	Yaw:	2.929	Thrust:	81.310
Time:	1.578	Roll Set Point:	-0.131	Pitch Set Point:	1.815	Yaw Set Point:	-0.027	X_WP:	0.000	Y_WP:	0.000	Y_WP:	0.750	X:	0.078	Y:	-0.907	Z:	0.402	yaw:	1.538	yaw rate:	-10.253	Roll:	0.265	Pitch:	-27.077	Yaw:	4.294	Thrust:	86.003
Time:	1.599	Roll Set Point:	-0.132	Pitch Set Point:	1.815	Yaw Set Point:	-0.026	X_WP:	0.000	Y_WP:	0.000	Y_WP:	0.750	X:	0.078	Y:	-0.907	Z:	0.403	yaw:	1.502	yaw rate:	3.557	Roll:	2.418	Pitch:	-27.184	Yaw:	2.531	Thrust:	85.515
Time:	1.616	Roll Set Point:	-0.133	Pitch Set Point:	1.815	Yaw Set Point:	-0.025	X_WP:	0.000	Y_WP:	0.000	Y_WP:	0.750	X:	0.078	Y:	-0.907	Z:	0.403	yaw:	1.433	yaw rate:	6.918	Roll:	2.774	Pitch:	-27.005	Yaw:	1.726	Thrust:	79.119
Time:	1.637	Roll Set Point:	-0.132	Pitch Set Point:	1.815	Yaw Set Point:	-0.026	X_WP:	0.000	Y_WP:	0.000	Y_WP:	0.750	X:	0.078	Y:	-0.907	Z:	0.403	yaw:	1.501	yaw rate:	-6.770	Roll:	0.836	Pitch:	-27.149	Yaw:	3.834	Thrust:	84.873
Time:	1.656	Roll Set Point:	-0.132	Pitch Set Point:	1.815	Yaw Set Point:	-0.026	X_WP:	0.000	Y_WP:	0.000	Y_WP:	0.750	X:	0.078	Y:	-0.907	Z:	0.403	yaw:	1.503	yaw rate:	-0.262	Roll:	1.750	Pitch:	-27.101	Yaw:	2.984	Thrust:	87.319
Time:	1.677	Roll Set Point:	-0.132	Pitch Set Point:	1.815	Yaw Set Point:	-0.026	X_WP:	0.000	Y_WP:	0.000	Y_WP:	0.750	X:	0.078	Y:	-0.907	Z:	0.402	yaw:	1.470	yaw rate:	3.345	Roll:	2.117	Pitch:	-26.989	Yaw:	2.537	Thrust:	90.491
Time:	1.697	Roll Set Point:	-0.134	Pitch Set Point:	1.815	Yaw Set Point:	-0.024	X_WP:	0.000	Y_WP:	0.000	Y_WP:	0.750	X:	0.078	Y:	-0.907	Z:	0.402	yaw:	1.370	yaw rate:	10.000	Roll:	3.125	Pitch:	-27.042	Yaw:	1.441	Thrust:	87.050
Time:	1.718	Roll Set Point:	-0.132	Pitch Set Point:	1.815	Yaw Set Point:	-0.027	X_WP:	0.000	Y_WP:	0.000	Y_WP:	0.750	X:	0.078	Y:	-0.907	Z:	0.403	yaw:	1.521	yaw rate:	-15.097	Roll:	-0.036	Pitch:	-27.298	Yaw:	4.967	Thrust:	90.298
Time:	1.738	Roll Set Point:	-0.132	Pitch Set Point:	1.815	Yaw Set Point:	-0.026	X_WP:	0.000	Y_WP:	0.000	Y_WP:	0.750	X:	0.078	Y:	-0.907	Z:	0.403	yaw:	1.491	yaw rate:	2.983	Roll:	2.200	Pitch:	-27.072	Yaw:	2.626	Thrust:	89.921
Time:	1.758	Roll Set Point:	-0.132	Pitch Set Point:	1.815	Yaw Set Point:	-0.026	X_WP:	0.000	Y_WP:	0.000	Y_WP:	0.750	X:	0.078	Y:	-0.907	Z:	0.403	yaw:	1.495	yaw rate:	-0.436	Roll:	1.767	Pitch:	-27.099	Yaw:	3.034	Thrust:	90.446
Time:	1.779	Roll Set Point:	-0.132	Pitch Set Point:	1.815	Yaw Set Point:	-0.027	X_WP:	0.000	Y_WP:	0.000	Y_WP:	0.750	X:	0.078	Y:	-0.907	Z:	0.403	yaw:	1.528	yaw rate:	-3.250	Roll:	1.374	Pitch:	-27.138	Yaw:	3.530	Thrust:	97.922
Time:	1.802	Roll Set Point:	-0.131	Pitch Set Point:	1.815	Yaw Set Point:	-0.027	X_WP:	0.000	Y_WP:	0.000	Y_WP:	0.750	X:	0.078	Y:	-0.907	Z:	0.402	yaw:	1.538	yaw rate:	-0.997	Roll:	1.566	Pitch:	-27.163	Yaw:	3.319	Thrust:	100.000
Time:	1.818	Roll Set Point:	-0.133	Pitch Set Point:	1.815	Yaw Set Point:	-0.026	X_WP:	0.000	Y_WP:	0.000	Y_WP:	0.750	X:	0.078	Y:	-0.907	Z:	0.403	yaw:	1.472	yaw rate:	6.545	Roll:	3.037	Pitch:	-26.988	Yaw:	1.689	Thrust:	78.120
Time:	1.837	Roll Set Point:	-0.133	Pitch Set Point:	1.815	Yaw Set Point:	-0.026	X_WP:	0.000	Y_WP:	0.000	Y_WP:	0.750	X:	0.078	Y:	-0.907	Z:	0.403	yaw:	1.476	yaw rate:	-0.392	Roll:	1.755	Pitch:	-27.059	Yaw:	3.071	Thrust:	94.242
Time:	1.857	Roll Set Point:	-0.132	Pitch Set Point:	1.815	Yaw Set Point:	-0.026	X_WP:	0.000	Y_WP:	0.000	Y_WP:	0.750	X:	0.078	Y:	-0.907	Z:	0.402	yaw:	1.497	yaw rate:	-2.059	Roll:	1.384	Pitch:	-27.049	Yaw:	3.323	Thrust:	91.468
Time:	1.877	Roll Set Point:	-0.131	Pitch Set Point:	1.815	Yaw Set Point:	-0.027	X_WP:	0.000	Y_WP:	0.000	Y_WP:	0.750	X:	0.078	Y:	-0.907	Z:	0.402	yaw:	1.560	yaw rate:	-6.348	Roll:	0.916	Pitch:	-27.152	Yaw:	3.985	Thrust:	98.128
Time:	1.898	Roll Set Point:	-0.131	Pitch Set Point:	1.815	Yaw Set Point:	-0.027	X_WP:	0.000	Y_WP:	0.000	Y_WP:	0.750	X:	0.078	Y:	-0.907	Z:	0.402	yaw:	1.562	yaw rate:	-0.171	Roll:	1.784	Pitch:	-27.148	Yaw:	3.244	Thrust:	100.000
Time:	1.918	Roll Set Point:	-0.131	Pitch Set Point:	1.815	Yaw Set Point:	-0.027	X_WP:	0.000	Y_WP:	0.000	Y_WP:	0.750	X:	0.078	Y:	-0.907	Z:	0.402	yaw:	1.542	yaw rate:	1.980	Roll:	2.030	Pitch:	-27.009	Yaw:	2.897	Thrust:	97.763
Time:	1.936	Roll Set Point:	-0.133	Pitch Set Point:	1.815	Yaw Set Point:	-0.025	X_WP:	0.000	Y_WP:	0.000	Y_WP:	0.750	X:	0.078	Y:	-0.907	Z:	0.403	yaw:	1.431	yaw rate:	11.087	Roll:	3.597	Pitch:	-27.073	Yaw:	1.332	Thrust:	91.022
Time:	1.956	Roll Set Point:	-0.132	Pitch Set Point:	1.815	Yaw Set Point:	-0.026	X_WP:	0.000	Y_WP:	0.000	Y_WP:	0.750	X:	0.078	Y:	-0.907	Z:	0.403	yaw:	1.511	yaw rate:	-7.925	Roll:	0.751	Pitch:	-27.173	Yaw:	4.167	Thrust:	99.368
Time:	1.976	Roll Set Point:	-0.133	Pitch Set Point:	1.815	Yaw Set Point:	-0.025	X_WP:	0.000	Y_WP:	0.000	Y_WP:	0.750	X:	0.078	Y:	-0.907	Z:	0.402	yaw:	1.430	yaw rate:	8.018	Roll:	2.745	Pitch:	-26.933	Yaw:	1.993	Thrust:	100.000
Time:	1.998	Roll Set Point:	-0.132	Pitch Set Point:	1.815	Yaw Set Point:	-0.026	X_WP:	0.000	Y_WP:	0.000	Y_WP:	0.750	X:	0.078	Y:	-0.907	Z:	0.403	yaw:	1.510	yaw rate:	-7.908	Roll:	1.067	Pitch:	-27.271	Yaw:	4.187	Thrust:	100.000
Time:	2.016	Roll Set Point:	-0.133	Pitch Set Point:	1.815	Yaw Set Point:	-0.025	X_WP:	0.000	Y_WP:	0.000	Y_WP:	0.750	X:	0.078	Y:	-0.907	Z:	0.402	yaw:	1.437	yaw rate:	7.290	Roll:	2.730	Pitch:	-26.928	Yaw:	1.952	Thrust:	96.212
Time:	2.037	Roll Set Point:	-0.131	Pitch Set Point:	1.815	Yaw Set Point:	-0.027	X_WP:	0.000	Y_WP:	0.000	Y_WP:	0.750	X:	0.078	Y:	-0.907	Z:	0.402	yaw:	1.544	yaw rate:	-10.742	Roll:	0.423	Pitch:	-27.191	Yaw:	4.616	Thrust:	100.000
Time:	2.056	Roll Set Point:	-0.132	Pitch Set Point:	1.815	Yaw Set Point:	-0.026	X_WP:	0.000	Y_WP:	0.000	Y_WP:	0.750	X:	0.078	Y:	-0.907	Z:	0.403	yaw:	1.499	yaw rate:	4.469	Roll:	2.597	Pitch:	-27.106	Yaw:	2.573	Thrust:	100.000
Time:	2.076	Roll Set Point:	-0.131	Pitch Set Point:	1.815	Yaw Set Point:	-0.027	X_WP:	0.000	Y_WP:	0.000	Y_WP:	0.750	X:	0.078	Y:	-0.907	Z:	0.402	yaw:	1.547	yaw rate:	-4.807	Roll:	1.004	Pitch:	-27.103	Yaw:	3.874	Thrust:	100.000
Time:	2.096	Roll Set Point:	-0.133	Pitch Set Point:	1.815	Yaw Set Point:	-0.026	X_WP:	0.000	Y_WP:	0.000	Y_WP:	0.750	X:	0.078	Y:	-0.907	Z:	0.403	yaw:	1.467	yaw rate:	8.093	Roll:	3.131	Pitch:	-27.090	Yaw:	2.046	Thrust:	100.000
Time:	2.118	Roll Set Point:	-0.132	Pitch Set Point:	1.815	Yaw Set Point:	-0.026	X_WP:	0.000	Y_WP:	0.000	Y_WP:	0.750	X:	0.078	Y:	-0.907	Z:	0.402	yaw:	1.515	yaw rate:	-4.858	Roll:	1.103	Pitch:	-27.044	Yaw:	3.873	Thrust:	100.000
Time:	2.136	Roll Set Point:	-0.132	Pitch Set Point:	1.815	Yaw Set Point:	-0.026	X_WP:	0.000	Y_WP:	0.000	Y_WP:	0.750	X:	0.078	Y:	-0.907	Z:	0.403	yaw:	1.495	yaw rate:	2.050	Roll:	2.286	Pitch:	-27.174	Yaw:	2.906	Thrust:	100.000
Time:	2.156	Roll Set Point:	-0.132	Pitch Set Point:	1.815	Yaw Set Point:	-0.026	X_WP:	0.000	Y_WP:	0.000	Y_WP:	0.750	X:	0.078	Y:	-0.907	Z:	0.402	yaw:	1.467	yaw rate:	2.716	Roll:	2.028	Pitch:	-26.993	Yaw:	2.776	Thrust:	100.000
Time:	2.176	Roll Set Point:	-0.134	Pitch Set Point:	1.815	Yaw Set Point:	-0.025	X_WP:	0.000	Y_WP:	0.000	Y_WP:	0.750	X:	0.078	Y:	-0.907	Z:	0.403	yaw:	1.420	yaw rate:	4.748	Roll:	2.773	Pitch:	-27.070	Yaw:	2.529	Thrust:	100.000
Time:	2.197	Roll Set Point:	-0.133	Pitch Set Point:	1.815	Yaw Set Point:	-0.026	X_WP:	0.000	Y_WP:	0.000	Y_WP:	0.750	X:	0.078	Y:	-0.907	Z:	0.403	yaw:	1.486	yaw rate:	-6.555	Roll:	1.062	Pitch:	-27.224	Yaw:	4.098	Thrust:	100.000
Time:	2.215	Roll Set Point:	-0.132	Pitch Set Point:	1.815	Yaw Set Point:	-0.026	X_WP:	0.000	Y_WP:	0.000	Y_WP:	0.750	X:	0.078	Y:	-0.907	Z:	0.403	yaw:	1.516	yaw rate:	-3.064	Roll:	1.396	Pitch:	-27.071	Yaw:	3.606	Thrust:	100.000
Time:	2.236	Roll Set Point:	-0.133	Pitch Set Point:	1.815	Yaw Set Point:	-0.025	X_WP:	0.000	Y_WP:	0.000	Y_WP:	0.750	X:	0.078	Y:	-0.907	Z:	0.403	yaw:	1.447	yaw rate:	6.914	Roll:	2.834	Pitch:	-27.066	Yaw:	2.336	Thrust:	100.000
Time:	2.255	Roll Set Point:	-0.133	Pitch Set Point:	1.815	Yaw Set Point:	-0.025	X_WP:	0.000	Y_WP:	0.000	Y_WP:	0.750	X:	0.078	Y:	-0.907	Z:	0.403	yaw:	1.440	yaw rate:	0.714	Roll:	1.980	Pitch:	-27.047	Yaw:	3.056	Thrust:	100.000
Time:	2.277	Roll Set Point:	-0.133	Pitch Set Point:	1.815	Yaw Set Point:	-0.025	X_WP:	0.000	Y_WP:	0.000	Y_WP:	0.750	X:	0.078	Y:	-0.907	Z:	0.403	yaw:	1.431	yaw rate:	0.912	Roll:	2.034	Pitch:	-27.115	Yaw:	3.146	Thrust:	100.000
Time:	2.297	Roll Set Point:	-0.132	Pitch Set Point:	1.815	Yaw Set Point:	-0.026	X_WP:	0.000	Y_WP:	0.000	Y_WP:	0.750	X:	0.078	Y:	-0.907	Z:	0.403	yaw:	1.489	yaw rate:	-5.855	Roll:	1.112	Pitch:	-27.172	Yaw:	4.036	Thrust:	100.000
Time:	2.316	Roll Set Point:	-0.132	Pitch Set Point:	1.815	Yaw Set Point:	-0.026	X_WP:	0.000	Y_WP:	0.000	Y_WP:	0.750	X:	0.078	Y:	-0.907	Z:	0.403	yaw:	1.490	yaw rate:	-0.099	Roll:	1.857	Pitch:	-27.059	Yaw:	3.241	Thrust:	100.000
Time:	2.336	Roll Set Point:	-0.132	Pitch Set Point:	1.815	Yaw Set Point:	-0.026	X_WP:	0.000	Y_WP:	0.000	Y_WP:	0.750	X:	0.078	Y:	-0.907	Z:	0.403	yaw:	1.499	yaw rate:	-0.846	Roll:	1.786	Pitch:	-27.140	Yaw:	3.452	Thrust:	100.000
Time:	2.356	Roll Set Point:	-0.132	Pitch Set Point:	1.815	Yaw Set Point:	-0.026	X_WP:	0.000	Y_WP:	0.000	Y_WP:	0.750	X:	0.078	Y:	-0.907	Z:	0.403	yaw:	1.510	yaw rate:	-1.121	Roll:	1.712	Pitch:	-27.095	Yaw:	3.476	Thrust:	100.000
Time:	2.379	Roll Set Point:	-0.133	Pitch Set Point:	1.815	Yaw Set Point:	-0.026	X_WP:	0.000	Y_WP:	0.000	Y_WP:	0.750	X:	0.078	Y:	-0.907	Z:	0.403	yaw:	1.483	yaw rate:	2.725	Roll:	2.270	Pitch:	-27.163	Yaw:	3.152	Thrust:	100.000
Time:	2.399	Roll Set Point:	-0.132	Pitch Set Point:	1.815	Yaw Set Point:	-0.027	X_WP:	0.000	Y_WP:	0.000	Y_WP:	0.750	X:	0.078	Y:	-0.907	Z:	0.402	yaw:	1.524	yaw rate:	-4.144	Roll:	1.154	Pitch:	-27.047	Yaw:	3.939	Thrust:	100.000
Time:	2.418	Roll Set Point:	-0.131	Pitch Set Point:	1.815	Yaw Set Point:	-0.027	X_WP:	0.000	Y_WP:	0.000	Y_WP:	0.750	X:	0.078	Y:	-0.907	Z:	0.402	yaw:	1.542	yaw rate:	-1.753	Roll:	1.627	Pitch:	-27.062	Yaw:	3.516	Thrust:	100.000
Time:	2.438	Roll Set Point:	-0.132	Pitch Set Point:	1.815	Yaw Set Point:	-0.026	X_WP:	0.000	Y_WP:	0.000	Y_WP:	0.750	X:	0.078	Y:	-0.907	Z:	0.403	yaw:	1.498	yaw rate:	4.369	Roll:	2.613	Pitch:	-27.111	Yaw:	2.841	Thrust:	100.000
Time:	2.457	Roll Set Point:	-0.133	Pitch Set Point:	1.815	Yaw Set Point:	-0.025	X_WP:	0.000	Y_WP:	0.000	Y_WP:	0.750	X:	0.078	Y:	-0.907	Z:	0.403	yaw:	1.439	yaw rate:	5.878	Roll:	2.748	Pitch:	-27.084	Yaw:	2.528	Thrust:	100.000
Time:	2.476	Roll Set Point:	-0.132	Pitch Set Point:	1.815	Yaw Set Point:	-0.026	X_WP:	0.000	Y_WP:	0.000	Y_WP:	0.750	X:	0.078	Y:	-0.907	Z:	0.403	yaw:	1.502	yaw rate:	-6.303	Roll:	1.042	Pitch:	-27.132	Yaw:	4.189	Thrust:	100.000
Time:	2.497	Roll Set Point:	-0.132	Pitch Set Point:	1.815	Yaw Set Point:	-0.026	X_WP:	0.000	Y_WP:	0.000	Y_WP:	0.750	X:	0.078	Y:	-0.907	Z:	0.403	yaw:	1.513	yaw rate:	-1.073	Roll:	1.746	Pitch:	-27.085	Yaw:	3.587	Thrust:	100.000
Time:	2.517	Roll Set Point:	-0.131	Pitch Set Point:	1.815	Yaw Set Point:	-0.028	X_WP:	0.000	Y_WP:	0.000	Y_WP:	0.750	X:	0.078	Y:	-0.907	Z:	0.402	yaw:	1.579	yaw rate:	-6.647	Roll:	0.816	Pitch:	-27.075	Yaw:	4.372	Thrust:	100.000
Time:	2.537	Roll Set Point:	-0.132	Pitch Set Point:	1.815	Yaw Set Point:	-0.026	X_WP:	0.000	Y_WP:	0.000	Y_WP:	0.750	X:	0.078	Y:	-0.907	Z:	0.403	yaw:	1.506	yaw rate:	7.384	Roll:	3.058	Pitch:	-27.163	Yaw:	2.532	Thrust:	100.000
Time:	2.556	Roll Set Point:	-0.133	Pitch Set Point:	1.815	Yaw Set Point:	-0.026	X_WP:	0.000	Y_WP:	0.000	Y_WP:	0.750	X:	0.078	Y:	-0.907	Z:	0.403	yaw:	1.484	yaw rate:	2.153	Roll:	2.192	Pitch:	-27.016	Yaw:	3.077	Thrust:	100.000
Time:	2.576	Roll Set Point:	-0.133	Pitch Set Point:	1.815	Yaw Set Point:	-0.025	X_WP:	0.000	Y_WP:	0.000	Y_WP:	0.750	X:	0.078	Y:	-0.907	Z:	0.403	yaw:	1.433	yaw rate:	5.155	Roll:	2.648	Pitch:	-27.042	Yaw:	2.656	Thrust:	100.000
Time:	2.597	Roll Set Point:	-0.132	Pitch Set Point:	1.815	Yaw Set Point:	-0.026	X_WP:	0.000	Y_WP:	0.000	Y_WP:	0.750	X:	0.078	Y:	-0.907	Z:	0.403	yaw:	1.510	yaw rate:	-7.744	Roll:	0.871	Pitch:	-27.216	Yaw:	4.482	Thrust:	100.000
Time:	2.616	Roll Set Point:	-0.133	Pitch Set Point:	1.815	Yaw Set Point:	-0.026	X_WP:	0.000	Y_WP:	0.000	Y_WP:	0.750	X:	0.078	Y:	-0.907	Z:	0.403	yaw:	1.478	yaw rate:	3.181	Roll:	2.341	Pitch:	-27.054	Yaw:	3.023	Thrust:	100.000
Time:	2.637	Roll Set Point:	-0.130	Pitch Set Point:	1.815	Yaw Set Point:	-0.028	X_WP:	0.000	Y_WP:	0.000	Y_WP:	0.750	X:	0.078	Y:	-0.907	Z:	0.402	yaw:	1.591	yaw rate:	-11.320	Roll:	0.206	Pitch:	-27.108	Yaw:	5.075	Thrust:	100.000
Time:	2.679	Roll Set Point:	-0.132	Pitch Set Point:	1.815	Yaw Set Point:	-0.026	X_WP:	0.000	Y_WP:	0.000	Y_WP:	0.750	X:	0.078	Y:	-0.907	Z:	0.403	yaw:	1.505	yaw rate:	8.639	Roll:	2.948	Pitch:	-27.897	Yaw:	4.342	Thrust:	100.000
Time:	2.690	Roll Set Point:	-0.133	Pitch Set Point:	1.815	Yaw Set Point:	-0.025	X_WP:	0.000	Y_WP:	0.000	Y_WP:	0.750	X:	0.078	Y:	-0.907	Z:	0.402	yaw:	1.443	yaw rate:	6.148	Roll:	3.036	Pitch:	-26.578	Yaw:	1.517	Thrust:	86.205
Time:	2.702	Roll Set Point:	-0.131	Pitch Set Point:	1.815	Yaw Set Point:	-0.028	X_WP:	0.000	Y_WP:	0.000	Y_WP:	0.750	X:	0.078	Y:	-0.907	Z:	0.402	yaw:	1.581	yaw rate:	-13.737	Roll:	-1.114	Pitch:	-26.966	Yaw:	6.031	Thrust:	86.102
Time:	2.718	Roll Set Point:	-0.132	Pitch Set Point:	1.815	Yaw Set Point:	-0.026	X_WP:	0.000	Y_WP:	0.000	Y_WP:	0.750	X:	0.078	Y:	-0.907	Z:	0.403	yaw:	1.489	yaw rate:	9.217	Roll:	3.733	Pitch:	-26.918	Yaw:	1.711	Thrust:	100.000
Time:	2.738	Roll Set Point:	-0.133	Pitch Set Point:	1.815	Yaw Set Point:	-0.026	X_WP:	0.000	Y_WP:	0.000	Y_WP:	0.750	X:	0.078	Y:	-0.907	Z:	0.403	yaw:	1.478	yaw rate:	1.048	Roll:	2.090	Pitch:	-27.105	Yaw:	3.335	Thrust:	100.000
Time:	2.757	Roll Set Point:	-0.130	Pitch Set Point:	1.815	Yaw Set Point:	-0.028	X_WP:	0.000	Y_WP:	0.000	Y_WP:	0.750	X:	0.078	Y:	-0.907	Z:	0.402	yaw:	1.629	yaw rate:	-15.043	Roll:	-0.427	Pitch:	-27.076	Yaw:	5.704	Thrust:	100.000
Time:	2.777	Roll Set Point:	-0.131	Pitch Set Point:	1.815	Yaw Set Point:	-0.027	X_WP:	0.000	Y_WP:	0.000	Y_WP:	0.750	X:	0.078	Y:	-0.907	Z:	0.402	yaw:	1.539	yaw rate:	9.003	Roll:	3.120	Pitch:	-27.083	Yaw:	2.407	Thrust:	100.000
Time:	2.799	Roll Set Point:	-0.133	Pitch Set Point:	1.815	Yaw Set Point:	-0.025	X_WP:	0.000	Y_WP:	0.000	Y_WP:	0.750	X:	0.078	Y:	-0.907	Z:	0.403	yaw:	1.460	yaw rate:	7.903	Roll:	3.142	Pitch:	-27.153	Yaw:	2.649	Thrust:	100.000
Time:	2.817	Roll Set Point:	-0.133	Pitch Set Point:	1.815	Yaw Set Point:	-0.026	X_WP:	0.000	Y_WP:	0.000	Y_WP:	0.750	X:	0.078	Y:	-0.907	Z:	0.403	yaw:	1.482	yaw rate:	-2.212	Roll:	1.593	Pitch:	-27.033	Yaw:	3.748	Thrust:	100.000
Time:	2.837	Roll Set Point:	-0.133	Pitch Set Point:	1.815	Yaw Set Point:	-0.026	X_WP:	0.000	Y_WP:	0.000	Y_WP:	0.750	X:	0.078	Y:	-0.907	Z:	0.403	yaw:	1.479	yaw rate:	0.270	Roll:	2.005	Pitch:	-27.114	Yaw:	3.524	Thrust:	100.000
Time:	2.859	Roll Set Point:	-0.132	Pitch Set Point:	1.815	Yaw Set Point:	-0.026	X_WP:	0.000	Y_WP:	0.000	Y_WP:	0.750	X:	0.078	Y:	-0.907	Z:	0.403	yaw:	1.516	yaw rate:	-3.673	Roll:	1.449	Pitch:	-27.144	Yaw:	4.169	Thrust:	100.000
Time:	2.879	Roll Set Point:	-0.130	Pitch Set Point:	1.815	Yaw Set Point:	-0.028	X_WP:	0.000	Y_WP:	0.000	Y_WP:	0.750	X:	0.078	Y:	-0.907	Z:	0.402	yaw:	1.606	yaw rate:	-9.054	Roll:	0.650	Pitch:	-27.123	Yaw:	4.919	Thrust:	100.000
Time:	2.900	Roll Set Point:	-0.132	Pitch Set Point:	1.815	Yaw Set Point:	-0.026	X_WP:	0.000	Y_WP:	0.000	Y_WP:	0.750	X:	0.078	Y:	-0.907	Z:	0.403	yaw:	1.507	yaw rate:	9.941	Roll:	3.433	Pitch:	-27.142	Yaw:	2.522	Thrust:	100.000
Time:	2.918	Roll Set Point:	-0.132	Pitch Set Point:	1.815	Yaw Set Point:	-0.026	X_WP:	0.000	Y_WP:	0.000	Y_WP:	0.750	X:	0.078	Y:	-0.907	Z:	0.403	yaw:	1.508	yaw rate:	-0.139	Roll:	1.935	Pitch:	-27.071	Yaw:	3.524	Thrust:	100.000
Time:	2.938	Roll Set Point:	-0.132	Pitch Set Point:	1.815	Yaw Set Point:	-0.027	X_WP:	0.000	Y_WP:	0.000	Y_WP:	0.750	X:	0.078	Y:	-0.907	Z:	0.402	yaw:	1.519	yaw rate:	-1.118	Roll:	1.662	Pitch:	-26.991	Yaw:	3.802	Thrust:	100.000
Time:	2.958	Roll Set Point:	-0.132	Pitch Set Point:	1.815	Yaw Set Point:	-0.026	X_WP:	0.000	Y_WP:	0.000	Y_WP:	0.750	X:	0.078	Y:	-0.907	Z:	0.402	yaw:	1.496	yaw rate:	2.371	Roll:	2.287	Pitch:	-27.093	Yaw:	3.339	Thrust:	100.000
Time:	2.977	Roll Set Point:	-0.131	Pitch Set Point:	1.815	Yaw Set Point:	-0.027	X_WP:	0.000	Y_WP:	0.000	Y_WP:	0.750	X:	0.078	Y:	-0.907	Z:	0.402	yaw:	1.565	yaw rate:	-6.893	Roll:	0.904	Pitch:	-27.106	Yaw:	4.608	Thrust:	100.000
Time:	3.000	Roll Set Point:	-0.124	Pitch Set Point:	1.815	Yaw Set Point:	-0.035	X_WP:	0.000	Y_WP:	0.000	Y_WP:	0.750	X:	0.078	Y:	-0.907	Z:	0.402	yaw:	2.017	yaw rate:	-45.202	Roll:	-3.383	Pitch:	-27.373	Yaw:	9.815	Thrust:	100.000
Time:	3.017	Roll Set Point:	-0.131	Pitch Set Point:	1.815	Yaw Set Point:	-0.027	X_WP:	0.000	Y_WP:	0.000	Y_WP:	0.750	X:	0.078	Y:	-0.907	Z:	0.403	yaw:	1.566	yaw rate:	45.085	Roll:	8.840	Pitch:	-26.771	Yaw:	-3.073	Thrust:	100.000
Time:	3.039	Roll Set Point:	-0.132	Pitch Set Point:	1.815	Yaw Set Point:	-0.026	X_WP:	0.000	Y_WP:	0.000	Y_WP:	0.750	X:	0.078	Y:	-0.907	Z:	0.402	yaw:	1.470	yaw rate:	9.563	Roll:	3.143	Pitch:	-27.112	Yaw:	2.570	Thrust:	100.000
Time:	3.059	Roll Set Point:	-0.131	Pitch Set Point:	1.815	Yaw Set Point:	-0.028	X_WP:	0.000	Y_WP:	0.000	Y_WP:	0.750	X:	0.078	Y:	-0.907	Z:	0.402	yaw:	1.581	yaw rate:	-11.062	Roll:	0.439	Pitch:	-27.165	Yaw:	5.256	Thrust:	100.000
Time:	3.079	Roll Set Point:	-0.131	Pitch Set Point:	1.815	Yaw Set Point:	-0.027	X_WP:	0.000	Y_WP:	0.000	Y_WP:	0.750	X:	0.078	Y:	-0.907	Z:	0.403	yaw:	1.560	yaw rate:	2.087	Roll:	2.244	Pitch:	-27.068	Yaw:	3.510	Thrust:	100.000
Time:	3.099	Roll Set Point:	-0.133	Pitch Set Point:	1.815	Yaw Set Point:	-0.025	X_WP:	0.000	Y_WP:	0.000	Y_WP:	0.750	X:	0.078	Y:	-0.907	Z:	0.403	yaw:	1.440	yaw rate:	11.973	Roll:	3.773	Pitch:	-27.065	Yaw:	2.051	Thrust:	100.000
Time:	3.118	Roll Set Point:	-0.132	Pitch Set Point:	1.815	Yaw Set Point:	-0.026	X_WP:	0.000	Y_WP:	0.000	Y_WP:	0.750	X:	0.078	Y:	-0.907	Z:	0.403	yaw:	1.495	yaw rate:	-5.492	Roll:	1.194	Pitch:	-27.136	Yaw:	4.397	Thrust:	100.000
Time:	3.137	Roll Set Point:	-0.133	Pitch Set Point:	1.815	Yaw Set Point:	-0.025	X_WP:	0.000	Y_WP:	0.000	Y_WP:	0.750	X:	0.078	Y:	-0.907	Z:	0.403	yaw:	1.437	yaw rate:	5.834	Roll:	2.827	Pitch:	-26.989	Yaw:	2.694	Thrust:	100.000
Time:	3.156	Roll Set Point:	-0.132	Pitch Set Point:	1.815	Yaw Set Point:	-0.026	X_WP:	0.000	Y_WP:	0.000	Y_WP:	0.750	X:	0.078	Y:	-0.907	Z:	0.403	yaw:	1.502	yaw rate:	-6.495	Roll:	1.098	Pitch:	-27.153	Yaw:	4.601	Thrust:	100.000
Time:	3.177	Roll Set Point:	-0.133	Pitch Set Point:	1.815	Yaw Set Point:	-0.025	X_WP:	0.000	Y_WP:	0.000	Y_WP:	0.750	X:	0.078	Y:	-0.907	Z:	0.402	yaw:	1.424	yaw rate:	7.751	Roll:	2.856	Pitch:	-26.958	Yaw:	2.759	Thrust:	100.000
Time:	3.197	Roll Set Point:	-0.132	Pitch Set Point:	1.815	Yaw Set Point:	-0.026	X_WP:	0.000	Y_WP:	0.000	Y_WP:	0.750	X:	0.078	Y:	-0.907	Z:	0.403	yaw:	1.506	yaw rate:	-8.200	Roll:	1.133	Pitch:	-27.266	Yaw:	4.845	Thrust:	100.000
Time:	3.216	Roll Set Point:	-0.132	Pitch Set Point:	1.815	Yaw Set Point:	-0.026	X_WP:	0.000	Y_WP:	0.000	Y_WP:	0.750	X:	0.078	Y:	-0.907	Z:	0.403	yaw:	1.516	yaw rate:	-0.949	Roll:	1.842	Pitch:	-27.049	Yaw:	3.886	Thrust:	100.000
Time:	3.237	Roll Set Point:	-0.132	Pitch Set Point:	1.815	Yaw Set Point:	-0.027	X_WP:	0.000	Y_WP:	0.000	Y_WP:	0.750	X:	0.078	Y:	-0.907	Z:	0.403	yaw:	1.533	yaw rate:	-1.755	Roll:	1.775	Pitch:	-27.155	Yaw:	4.091	Thrust:	100.000
Time:	3.257	Roll Set Point:	-0.133	Pitch Set Point:	1.815	Yaw Set Point:	-0.026	X_WP:	0.000	Y_WP:	0.000	Y_WP:	0.750	X:	0.078	Y:	-0.907	Z:	0.403	yaw:	1.464	yaw rate:	6.950	Roll:	2.954	Pitch:	-27.062	Yaw:	2.845	Thrust:	100.000
Time:	3.277	Roll Set Point:	-0.132	Pitch Set Point:	1.815	Yaw Set Point:	-0.026	X_WP:	0.000	Y_WP:	0.000	Y_WP:	0.750	X:	0.078	Y:	-0.907	Z:	0.403	yaw:	1.500	yaw rate:	-3.647	Roll:	1.508	Pitch:	-27.100	Yaw:	4.324	Thrust:	100.000
Time:	3.298	Roll Set Point:	-0.132	Pitch Set Point:	1.815	Yaw Set Point:	-0.027	X_WP:	0.000	Y_WP:	0.000	Y_WP:	0.750	X:	0.078	Y:	-0.907	Z:	0.403	yaw:	1.523	yaw rate:	-2.258	Roll:	1.702	Pitch:	-27.152	Yaw:	4.189	Thrust:	100.000
Time:	3.318	Roll Set Point:	-0.132	Pitch Set Point:	1.815	Yaw Set Point:	-0.026	X_WP:	0.000	Y_WP:	0.000	Y_WP:	0.750	X:	0.078	Y:	-0.907	Z:	0.403	yaw:	1.504	yaw rate:	1.887	Roll:	2.268	Pitch:	-27.081	Yaw:	3.515	Thrust:	100.000
Time:	3.338	Roll Set Point:	-0.131	Pitch Set Point:	1.815	Yaw Set Point:	-0.027	X_WP:	0.000	Y_WP:	0.000	Y_WP:	0.750	X:	0.078	Y:	-0.907	Z:	0.402	yaw:	1.557	yaw rate:	-5.321	Roll:	1.165	Pitch:	-27.081	Yaw:	4.651	Thrust:	100.000
Time:	3.357	Roll Set Point:	-0.131	Pitch Set Point:	1.815	Yaw Set Point:	-0.027	X_WP:	0.000	Y_WP:	0.000	Y_WP:	0.750	X:	0.078	Y:	-0.907	Z:	0.402	yaw:	1.566	yaw rate:	-0.922	Roll:	1.826	Pitch:	-27.034	Yaw:	4.000	Thrust:	100.000
Time:	3.377	Roll Set Point:	-0.133	Pitch Set Point:	1.815	Yaw Set Point:	-0.026	X_WP:	0.000	Y_WP:	0.000	Y_WP:	0.750	X:	0.078	Y:	-0.907	Z:	0.403	yaw:	1.475	yaw rate:	9.120	Roll:	3.403	Pitch:	-27.147	Yaw:	2.659	Thrust:	100.000
Time:	3.399	Roll Set Point:	-0.132	Pitch Set Point:	1.815	Yaw Set Point:	-0.026	X_WP:	0.000	Y_WP:	0.000	Y_WP:	0.750	X:	0.078	Y:	-0.907	Z:	0.403	yaw:	1.495	yaw rate:	-2.015	Roll:	1.826	Pitch:	-27.153	Yaw:	4.241	Thrust:	100.000
Time:	3.417	Roll Set Point:	-0.133	Pitch Set Point:	1.815	Yaw Set Point:	-0.026	X_WP:	0.000	Y_WP:	0.000	Y_WP:	0.750	X:	0.078	Y:	-0.907	Z:	0.403	yaw:	1.483	yaw rate:	1.263	Roll:	2.183	Pitch:	-27.033	Yaw:	3.499	Thrust:	100.000
Time:	3.437	Roll Set Point:	-0.133	Pitch Set Point:	1.815	Yaw Set Point:	-0.025	X_WP:	0.000	Y_WP:	0.000	Y_WP:	0.750	X:	0.078	Y:	-0.907	Z:	0.403	yaw:	1.430	yaw rate:	5.254	Roll:	2.794	Pitch:	-27.043	Yaw:	3.202	Thrust:	100.000
Time:	3.457	Roll Set Point:	-0.132	Pitch Set Point:	1.815	Yaw Set Point:	-0.026	X_WP:	0.000	Y_WP:	0.000	Y_WP:	0.750	X:	0.078	Y:	-0.907	Z:	0.403	yaw:	1.493	yaw rate:	-6.262	Roll:	1.132	Pitch:	-27.161	Yaw:	4.687	Thrust:	100.000
Time:	3.478	Roll Set Point:	-0.131	Pitch Set Point:	1.815	Yaw Set Point:	-0.027	X_WP:	0.000	Y_WP:	0.000	Y_WP:	0.750	X:	0.078	Y:	-0.907	Z:	0.402	yaw:	1.542	yaw rate:	-4.913	Roll:	1.258	Pitch:	-27.061	Yaw:	4.654	Thrust:	100.000
Time:	3.498	Roll Set Point:	-0.132	Pitch Set Point:	1.815	Yaw Set Point:	-0.026	X_WP:	0.000	Y_WP:	0.000	Y_WP:	0.750	X:	0.078	Y:	-0.907	Z:	0.402	yaw:	1.500	yaw rate:	4.195	Roll:	2.580	Pitch:	-27.061	Yaw:	3.404	Thrust:	100.000
Time:	3.518	Roll Set Point:	-0.134	Pitch Set Point:	1.815	Yaw Set Point:	-0.025	X_WP:	0.000	Y_WP:	0.000	Y_WP:	0.750	X:	0.078	Y:	-0.907	Z:	0.403	yaw:	1.415	yaw rate:	8.535	Roll:	3.425	Pitch:	-27.073	Yaw:	2.662	Thrust:	100.000
Time:	3.543	Roll Set Point:	-0.131	Pitch Set Point:	1.815	Yaw Set Point:	-0.027	X_WP:	0.000	Y_WP:	0.000	Y_WP:	0.750	X:	0.078	Y:	-0.907	Z:	0.402	yaw:	1.559	yaw rate:	-14.396	Roll:	0.474	Pitch:	-27.371	Yaw:	6.005	Thrust:	100.000
Time:	3.557	Roll Set Point:	-0.133	Pitch Set Point:	1.815	Yaw Set Point:	-0.025	X_WP:	0.000	Y_WP:	0.000	Y_WP:	0.750	X:	0.078	Y:	-0.907	Z:	0.403	yaw:	1.426	yaw rate:	13.228	Roll:	4.744	Pitch:	-26.791	Yaw:	0.829	Thrust:	100.000
Time:	3.577	Roll Set Point:	-0.132	Pitch Set Point:	1.815	Yaw Set Point:	-0.026	X_WP:	0.000	Y_WP:	0.000	Y_WP:	0.750	X:	0.078	Y:	-0.907	Z:	0.403	yaw:	1.487	yaw rate:	-6.056	Roll:	1.232	Pitch:	-27.136	Yaw:	4.699	Thrust:	100.000
Time:	3.599	Roll Set Point:	-0.132	Pitch Set Point:	1.815	Yaw Set Point:	-0.026	X_WP:	0.000	Y_WP:	0.000	Y_WP:	0.750	X:	0.078	Y:	-0.907	Z:	0.403	yaw:	1.506	yaw rate:	-1.915	Roll:	1.882	Pitch:	-27.226	Yaw:	4.517	Thrust:	100.000
Time:	3.616	Roll Set Point:	-0.132	Pitch Set Point:	1.815	Yaw Set Point:	-0.026	X_WP:	0.000	Y_WP:	0.000	Y_WP:	0.750	X:	0.078	Y:	-0.907	Z:	0.403	yaw:	1.503	yaw rate:	0.299	Roll:	2.038	Pitch:	-26.993	Yaw:	3.617	Thrust:	100.000
Time:	3.637	Roll Set Point:	-0.131	Pitch Set Point:	1.815	Yaw Set Point:	-0.027	X_WP:	0.000	Y_WP:	0.000	Y_WP:	0.750	X:	0.078	Y:	-0.907	Z:	0.402	yaw:	1.536	yaw rate:	-3.273	Roll:	1.453	Pitch:	-27.078	Yaw:	4.523	Thrust:	100.000
Time:	3.657	Roll Set Point:	-0.132	Pitch Set Point:	1.815	Yaw Set Point:	-0.026	X_WP:	0.000	Y_WP:	0.000	Y_WP:	0.750	X:	0.078	Y:	-0.907	Z:	0.403	yaw:	1.498	yaw rate:	3.774	Roll:	2.722	Pitch:	-27.091	Yaw:	3.541	Thrust:	100.000
Time:	3.678	Roll Set Point:	-0.132	Pitch Set Point:	1.815	Yaw Set Point:	-0.026	X_WP:	0.000	Y_WP:	0.000	Y_WP:	0.750	X:	0.078	Y:	-0.907	Z:	0.403	yaw:	1.496	yaw rate:	0.152	Roll:	2.123	Pitch:	-27.165	Yaw:	4.131	Thrust:	100.000
Time:	3.698	Roll Set Point:	-0.133	Pitch Set Point:	1.815	Yaw Set Point:	-0.025	X_WP:	0.000	Y_WP:	0.000	Y_WP:	0.750	X:	0.078	Y:	-0.907	Z:	0.403	yaw:	1.453	yaw rate:	4.339	Roll:	2.676	Pitch:	-27.071	Yaw:	3.402	Thrust:	100.000
Time:	3.718	Roll Set Point:	-0.133	Pitch Set Point:	1.815	Yaw Set Point:	-0.026	X_WP:	0.000	Y_WP:	0.000	Y_WP:	0.750	X:	0.078	Y:	-0.907	Z:	0.403	yaw:	1.477	yaw rate:	-2.376	Roll:	1.769	Pitch:	-27.100	Yaw:	4.252	Thrust:	100.000
Time:	3.739	Roll Set Point:	-0.131	Pitch Set Point:	1.815	Yaw Set Point:	-0.027	X_WP:	0.000	Y_WP:	0.000	Y_WP:	0.750	X:	0.078	Y:	-0.907	Z:	0.403	yaw:	1.548	yaw rate:	-7.113	Roll:	0.961	Pitch:	-27.114	Yaw:	5.111	Thrust:	100.000
Time:	3.759	Roll Set Point:	-0.133	Pitch Set Point:	1.815	Yaw Set Point:	-0.025	X_WP:	0.000	Y_WP:	0.000	Y_WP:	0.750	X:	0.078	Y:	-0.907	Z:	0.403	yaw:	1.433	yaw rate:	11.507	Roll:	3.828	Pitch:	-27.071	Yaw:	2.472	Thrust:	100.000
Time:	3.781	Roll Set Point:	-0.131	Pitch Set Point:	1.815	Yaw Set Point:	-0.028	X_WP:	0.000	Y_WP:	0.000	Y_WP:	0.750	X:	0.078	Y:	-0.907	Z:	0.402	yaw:	1.576	yaw rate:	-14.327	Roll:	0.146	Pitch:	-27.209	Yaw:	6.081	Thrust:	100.000
Time:	3.799	Roll Set Point:	-0.134	Pitch Set Point:	1.815	Yaw Set Point:	-0.025	X_WP:	0.000	Y_WP:	0.000	Y_WP:	0.750	X:	0.078	Y:	-0.907	Z:	0.403	yaw:	1.407	yaw rate:	16.885	Roll:	4.540	Pitch:	-26.952	Yaw:	1.415	Thrust:	100.000
Time:	3.817	Roll Set Point:	-0.133	Pitch Set Point:	1.815	Yaw Set Point:	-0.025	X_WP:	0.000	Y_WP:	0.000	Y_WP:	0.750	X:	0.078	Y:	-0.907	Z:	0.403	yaw:	1.453	yaw rate:	-4.538	Roll:	1.317	Pitch:	-27.083	Yaw:	4.449	Thrust:	100.000
Time:	3.837	Roll Set Point:	-0.132	Pitch Set Point:	1.815	Yaw Set Point:	-0.026	X_WP:	0.000	Y_WP:	0.000	Y_WP:	0.750	X:	0.078	Y:	-0.907	Z:	0.403	yaw:	1.494	yaw rate:	-4.130	Roll:	1.553	Pitch:	-27.134	Yaw:	4.621	Thrust:	100.000
Time:	3.857	Roll Set Point:	-0.131	Pitch Set Point:	1.815	Yaw Set Point:	-0.027	X_WP:	0.000	Y_WP:	0.000	Y_WP:	0.750	X:	0.078	Y:	-0.907	Z:	0.402	yaw:	1.559	yaw rate:	-6.543	Roll:	1.011	Pitch:	-27.055	Yaw:	5.054	Thrust:	100.000
Time:	3.877	Roll Set Point:	-0.132	Pitch Set Point:	1.815	Yaw Set Point:	-0.026	X_WP:	0.000	Y_WP:	0.000	Y_WP:	0.750	X:	0.078	Y:	-0.907	Z:	0.403	yaw:	1.512	yaw rate:	4.769	Roll:	2.866	Pitch:	-27.123	Yaw:	3.486	Thrust:	100.000
Time:	3.898	Roll Set Point:	-0.132	Pitch Set Point:	1.815	Yaw Set Point:	-0.026	X_WP:	0.000	Y_WP:	0.000	Y_WP:	0.750	X:	0.078	Y:	-0.907	Z:	0.403	yaw:	1.501	yaw rate:	1.080	Roll:	2.283	Pitch:	-27.153	Yaw:	4.033	Thrust:	100.000
Time:	3.917	Roll Set Point:	-0.133	Pitch Set Point:	1.815	Yaw Set Point:	-0.026	X_WP:	0.000	Y_WP:	0.000	Y_WP:	0.750	X:	0.078	Y:	-0.907	Z:	0.403	yaw:	1.479	yaw rate:	2.235	Roll:	2.393	Pitch:	-27.012	Yaw:	3.642	Thrust:	100.000
Time:	3.938	Roll Set Point:	-0.131	Pitch Set Point:	1.815	Yaw Set Point:	-0.028	X_WP:	0.000	Y_WP:	0.000	Y_WP:	0.750	X:	0.078	Y:	-0.907	Z:	0.402	yaw:	1.576	yaw rate:	-9.744	Roll:	0.652	Pitch:	-27.128	Yaw:	5.526	Thrust:	100.000
Time:	3.958	Roll Set Point:	-0.133	Pitch Set Point:	1.815	Yaw Set Point:	-0.025	X_WP:	0.000	Y_WP:	0.000	Y_WP:	0.750	X:	0.078	Y:	-0.907	Z:	0.402	yaw:	1.418	yaw rate:	15.842	Roll:	4.237	Pitch:	-26.972	Yaw:	1.721	Thrust:	100.000
Time:	3.977	Roll Set Point:	-0.133	Pitch Set Point:	1.815	Yaw Set Point:	-0.025	X_WP:	0.000	Y_WP:	0.000	Y_WP:	0.750	X:	0.078	Y:	-0.907	Z:	0.403	yaw:	1.427	yaw rate:	-0.942	Roll:	2.254	Pitch:	-27.159	Yaw:	4.062	Thrust:	100.000
Time:	4.000	Roll Set Point:	-0.132	Pitch Set Point:	1.815	Yaw Set Point:	-0.027	X_WP:	0.000	Y_WP:	0.000	Y_WP:	0.750	X:	0.078	Y:	-0.907	Z:	0.403	yaw:	1.531	yaw rate:	-10.390	Roll:	0.886	Pitch:	-27.285	Yaw:	5.652	Thrust:	100.000
Time:	4.017	Roll Set Point:	-0.133	Pitch Set Point:	1.815	Yaw Set Point:	-0.026	X_WP:	0.000	Y_WP:	0.000	Y_WP:	0.750	X:	0.078	Y:	-0.907	Z:	0.403	yaw:	1.480	yaw rate:	5.143	Roll:	2.847	Pitch:	-26.924	Yaw:	2.945	Thrust:	100.000
Time:	4.037	Roll Set Point:	-0.132	Pitch Set Point:	1.815	Yaw Set Point:	-0.026	X_WP:	0.000	Y_WP:	0.000	Y_WP:	0.750	X:	0.078	Y:	-0.907	Z:	0.403	yaw:	1.491	yaw rate:	-1.179	Roll:	1.961	Pitch:	-27.135	Yaw:	4.214	Thrust:	100.000
Time:	4.057	Roll Set Point:	-0.132	Pitch Set Point:	1.815	Yaw Set Point:	-0.026	X_WP:	0.000	Y_WP:	0.000	Y_WP:	0.750	X:	0.078	Y:	-0.907	Z:	0.402	yaw:	1.513	yaw rate:	-2.149	Roll:	1.666	Pitch:	-27.000	Yaw:	4.414	Thrust:	100.000
Time:	4.077	Roll Set Point:	-0.133	Pitch Set Point:	1.815	Yaw Set Point:	-0.025	X_WP:	0.000	Y_WP:	0.000	Y_WP:	0.750	X:	0.078	Y:	-0.907	Z:	0.403	yaw:	1.426	yaw rate:	8.660	Roll:	3.462	Pitch:	-27.099	Yaw:	2.876	Thrust:	100.000
Time:	4.098	Roll Set Point:	-0.132	Pitch Set Point:	1.815	Yaw Set Point:	-0.027	X_WP:	0.000	Y_WP:	0.000	Y_WP:	0.750	X:	0.078	Y:	-0.907	Z:	0.403	yaw:	1.526	yaw rate:	-9.942	Roll:	0.837	Pitch:	-27.234	Yaw:	5.460	Thrust:	100.000
Time:	4.119	Roll Set Point:	-0.132	Pitch Set Point:	1.815	Yaw Set Point:	-0.026	X_WP:	0.000	Y_WP:	0.000	Y_WP:	0.750	X:	0.078	Y:	-0.907	Z:	0.402	yaw:	1.479	yaw rate:	4.615	Roll:	2.611	Pitch:	-26.980	Yaw:	3.456	Thrust:	100.000
Time:	4.138	Roll Set Point:	-0.132	Pitch Set Point:	1.815	Yaw Set Point:	-0.026	X_WP:	0.000	Y_WP:	0.000	Y_WP:	0.750	X:	0.078	Y:	-0.907	Z:	0.403	yaw:	1.510	yaw rate:	-3.021	Roll:	1.839	Pitch:	-27.231	Yaw:	4.558	Thrust:	100.000
Time:	4.160	Roll Set Point:	-0.133	Pitch Set Point:	1.815	Yaw Set Point:	-0.025	X_WP:	0.000	Y_WP:	0.000	Y_WP:	0.750	X:	0.078	Y:	-0.907	Z:	0.403	yaw:	1.445	yaw rate:	6.509	Roll:	3.043	Pitch:	-27.045	Yaw:	3.310	Thrust:	100.000
Time:	4.177	Roll Set Point:	-0.132	Pitch Set Point:	1.815	Yaw Set Point:	-0.026	X_WP:	0.000	Y_WP:	0.000	Y_WP:	0.750	X:	0.078	Y:	-0.907	Z:	0.403	yaw:	1.495	yaw rate:	-5.022	Roll:	1.367	Pitch:	-27.088	Yaw:	4.612	Thrust:	100.000
Time:	4.199	Roll Set Point:	-0.131	Pitch Set Point:	1.815	Yaw Set Point:	-0.027	X_WP:	0.000	Y_WP:	0.000	Y_WP:	0.750	X:	0.078	Y:	-0.907	Z:	0.402	yaw:	1.543	yaw rate:	-4.816	Roll:	1.390	Pitch:	-27.133	Yaw:	4.897	Thrust:	100.000
Time:	4.218	Roll Set Point:	-0.124	Pitch Set Point:	1.815	Yaw Set Point:	-0.035	X_WP:	0.000	Y_WP:	0.000	Y_WP:	0.750	X:	0.078	Y:	-0.907	Z:	0.402	yaw:	1.988	yaw rate:	-44.503	Roll:	-4.385	Pitch:	-27.277	Yaw:	10.865	Thrust:	100.000
Time:	4.237	Roll Set Point:	-0.130	Pitch Set Point:	1.815	Yaw Set Point:	-0.028	X_WP:	0.000	Y_WP:	0.000	Y_WP:	0.750	X:	0.078	Y:	-0.907	Z:	0.402	yaw:	1.588	yaw rate:	39.965	Roll:	7.467	Pitch:	-26.885	Yaw:	-1.149	Thrust:	100.000
Time:	4.257	Roll Set Point:	-0.131	Pitch Set Point:	1.815	Yaw Set Point:	-0.027	X_WP:	0.000	Y_WP:	0.000	Y_WP:	0.750	X:	0.078	Y:	-0.907	Z:	0.402	yaw:	1.558	yaw rate:	3.081	Roll:	2.540	Pitch:	-27.072	Yaw:	3.778	Thrust:	100.000
Time:	4.277	Roll Set Point:	-0.132	Pitch Set Point:	1.815	Yaw Set Point:	-0.026	X_WP:	0.000	Y_WP:	0.000	Y_WP:	0.750	X:	0.078	Y:	-0.907	Z:	0.403	yaw:	1.493	yaw rate:	6.452	Roll:	3.158	Pitch:	-27.165	Yaw:	3.273	Thrust:	100.000
Time:	4.298	Roll Set Point:	-0.132	Pitch Set Point:	1.815	Yaw Set Point:	-0.026	X_WP:	0.000	Y_WP:	0.000	Y_WP:	0.750	X:	0.078	Y:	-0.907	Z:	0.403	yaw:	1.515	yaw rate:	-2.182	Roll:	1.849	Pitch:	-27.105	Yaw:	4.418	Thrust:	100.000
Time:	4.317	Roll Set Point:	-0.132	Pitch Set Point:	1.815	Yaw Set Point:	-0.027	X_WP:	0.000	Y_WP:	0.000	Y_WP:	0.750	X:	0.078	Y:	-0.907	Z:	0.403	yaw:	1.530	yaw rate:	-1.474	Roll:	1.880	Pitch:	-27.083	Yaw:	4.298	Thrust:	100.000
Time:	4.338	Roll Set Point:	-0.133	Pitch Set Point:	1.815	Yaw Set Point:	-0.025	X_WP:	0.000	Y_WP:	0.000	Y_WP:	0.750	X:	0.078	Y:	-0.907	Z:	0.402	yaw:	1.443	yaw rate:	8.619	Roll:	3.111	Pitch:	-26.997	Yaw:	3.065	Thrust:	100.000
Time:	4.360	Roll Set Point:	-0.130	Pitch Set Point:	1.815	Yaw Set Point:	-0.028	X_WP:	0.000	Y_WP:	0.000	Y_WP:	0.750	X:	0.078	Y:	-0.907	Z:	0.402	yaw:	1.611	yaw rate:	-16.770	Roll:	-0.035	Pitch:	-27.233	Yaw:	6.441	Thrust:	100.000
Time:	4.383	Roll Set Point:	-0.131	Pitch Set Point:	1.815	Yaw Set Point:	-0.027	X_WP:	0.000	Y_WP:	0.000	Y_WP:	0.750	X:	0.078	Y:	-0.907	Z:	0.402	yaw:	1.542	yaw rate:	6.892	Roll:	3.085	Pitch:	-27.125	Yaw:	3.623	Thrust:	100.000
Time:	4.403	Roll Set Point:	-0.132	Pitch Set Point:	1.815	Yaw Set Point:	-0.026	X_WP:	0.000	Y_WP:	0.000	Y_WP:	0.750	X:	0.078	Y:	-0.907	Z:	0.403	yaw:	1.514	yaw rate:	2.844	Roll:	2.686	Pitch:	-27.208	Yaw:	3.868	Thrust:	100.000
Time:	4.417	Roll Set Point:	-0.132	Pitch Set Point:	1.815	Yaw Set Point:	-0.026	X_WP:	0.000	Y_WP:	0.000	Y_WP:	0.750	X:	0.078	Y:	-0.907	Z:	0.403	yaw:	1.511	yaw rate:	0.232	Roll:	2.073	Pitch:	-26.915	Yaw:	3.524	Thrust:	100.000
Time:	4.438	Roll Set Point:	-0.133	Pitch Set Point:	1.815	Yaw Set Point:	-0.025	X_WP:	0.000	Y_WP:	0.000	Y_WP:	0.750	X:	0.078	Y:	-0.907	Z:	0.403	yaw:	1.433	yaw rate:	7.839	Roll:	3.247	Pitch:	-27.050	Yaw:	2.984	Thrust:	100.000
Time:	4.457	Roll Set Point:	-0.132	Pitch Set Point:	1.815	Yaw Set Point:	-0.026	X_WP:	0.000	Y_WP:	0.000	Y_WP:	0.750	X:	0.078	Y:	-0.907	Z:	0.403	yaw:	1.518	yaw rate:	-8.503	Roll:	0.982	Pitch:	-27.146	Yaw:	5.200	Thrust:	100.000
Time:	4.478	Roll Set Point:	-0.133	Pitch Set Point:	1.815	Yaw Set Point:	-0.025	X_WP:	0.000	Y_WP:	0.000	Y_WP:	0.750	X:	0.078	Y:	-0.907	Z:	0.403	yaw:	1.435	yaw rate:	8.316	Roll:	3.305	Pitch:	-27.065	Yaw:	3.063	Thrust:	100.000
Time:	4.497	Roll Set Point:	-0.132	Pitch Set Point:	1.815	Yaw Set Point:	-0.026	X_WP:	0.000	Y_WP:	0.000	Y_WP:	0.750	X:	0.078	Y:	-0.907	Z:	0.403	yaw:	1.497	yaw rate:	-6.232	Roll:	1.268	Pitch:	-27.134	Yaw:	4.881	Thrust:	100.000
Time:	4.519	Roll Set Point:	-0.132	Pitch Set Point:	1.815	Yaw Set Point:	-0.027	X_WP:	0.000	Y_WP:	0.000	Y_WP:	0.750	X:	0.078	Y:	-0.907	Z:	0.403	yaw:	1.524	yaw rate:	-2.720	Roll:	1.845	Pitch:	-27.148	Yaw:	4.610	Thrust:	100.000
Time:	4.539	Roll Set Point:	-0.133	Pitch Set Point:	1.815	Yaw Set Point:	-0.025	X_WP:	0.000	Y_WP:	0.000	Y_WP:	0.750	X:	0.078	Y:	-0.907	Z:	0.402	yaw:	1.444	yaw rate:	8.016	Roll:	3.158	Pitch:	-26.973	Yaw:	3.000	Thrust:	100.000
Time:	4.558	Roll Set Point:	-0.132	Pitch Set Point:	1.815	Yaw Set Point:	-0.026	X_WP:	0.000	Y_WP:	0.000	Y_WP:	0.750	X:	0.078	Y:	-0.907	Z:	0.403	yaw:	1.506	yaw rate:	-6.150	Roll:	1.448	Pitch:	-27.200	Yaw:	4.883	Thrust:	100.000
Time:	4.580	Roll Set Point:	-0.132	Pitch Set Point:	1.815	Yaw Set Point:	-0.027	X_WP:	0.000	Y_WP:	0.000	Y_WP:	0.750	X:	0.078	Y:	-0.907	Z:	0.403	yaw:	1.525	yaw rate:	-1.907	Roll:	1.934	Pitch:	-27.164	Yaw:	4.491	Thrust:	100.000
Time:	4.600	Roll Set Point:	-0.132	Pitch Set Point:	1.815	Yaw Set Point:	-0.026	X_WP:	0.000	Y_WP:	0.000	Y_WP:	0.750	X:	0.078	Y:	-0.907	Z:	0.403	yaw:	1.510	yaw rate:	1.443	Roll:	2.421	Pitch:	-27.114	Yaw:	3.986	Thrust:	100.000
Time:	4.618	Roll Set Point:	-0.132	Pitch Set Point:	1.815	Yaw Set Point:	-0.026	X_WP:	0.000	Y_WP:	0.000	Y_WP:	0.750	X:	0.078	Y:	-0.907	Z:	0.403	yaw:	1.516	yaw rate:	-0.577	Roll:	1.983	Pitch:	-27.023	Yaw:	3.924	Thrust:	100.000
Time:	4.638	Roll Set Point:	-0.134	Pitch Set Point:	1.815	Yaw Set Point:	-0.024	X_WP:	0.000	Y_WP:	0.000	Y_WP:	0.750	X:	0.078	Y:	-0.907	Z:	0.402	yaw:	1.365	yaw rate:	15.140	Roll:	4.058	Pitch:	-26.876	Yaw:	1.898	Thrust:	100.000
Time:	4.657	Roll Set Point:	-0.132	Pitch Set Point:	1.815	Yaw Set Point:	-0.026	X_WP:	0.000	Y_WP:	0.000	Y_WP:	0.750	X:	0.078	Y:	-0.907	Z:	0.403	yaw:	1.498	yaw rate:	-13.280	Roll:	0.525	Pitch:	-27.241	Yaw:	5.825	Thrust:	100.000
Time:	4.684	Roll Set Point:	-0.130	Pitch Set Point:	1.815	Yaw Set Point:	-0.028	X_WP:	0.000	Y_WP:	0.000	Y_WP:	0.750	X:	0.078	Y:	-0.907	Z:	0.402	yaw:	1.612	yaw rate:	-11.473	Roll:	1.180	Pitch:	-27.413	Yaw:	6.066	Thrust:	100.000
Time:	4.698	Roll Set Point:	-0.132	Pitch Set Point:	1.815	Yaw Set Point:	-0.026	X_WP:	0.000	Y_WP:	0.000	Y_WP:	0.750	X:	0.078	Y:	-0.907	Z:	0.402	yaw:	1.506	yaw rate:	10.656	Roll:	4.191	Pitch:	-26.679	Yaw:	1.421	Thrust:	100.000
Time:	4.719	Roll Set Point:	-0.132	Pitch Set Point:	1.815	Yaw Set Point:	-0.026	X_WP:	0.000	Y_WP:	0.000	Y_WP:	0.750	X:	0.078	Y:	-0.907	Z:	0.403	yaw:	1.492	yaw rate:	1.404	Roll:	2.550	Pitch:	-27.201	Yaw:	3.908	Thrust:	100.000
Time:	4.739	Roll Set Point:	-0.130	Pitch Set Point:	1.815	Yaw Set Point:	-0.028	X_WP:	0.000	Y_WP:	0.000	Y_WP:	0.750	X:	0.078	Y:	-0.907	Z:	0.402	yaw:	1.593	yaw rate:	-10.116	Roll:	0.625	Pitch:	-27.105	Yaw:	5.577	Thrust:	100.000
Time:	4.769	Roll Set Point:	-0.132	Pitch Set Point:	1.815	Yaw Set Point:	-0.026	X_WP:	0.000	Y_WP:	0.000	Y_WP:	0.750	X:	0.078	Y:	-0.907	Z:	0.403	yaw:	1.486	yaw rate:	10.657	Roll:	3.823	Pitch:	-27.084	Yaw:	4.093	Thrust:	100.000
Time:	4.783	Roll Set Point:	-0.132	Pitch Set Point:	1.815	Yaw Set Point:	-0.026	X_WP:	0.000	Y_WP:	0.000	Y_WP:	0.750	X:	0.078	Y:	-0.907	Z:	0.403	yaw:	1.518	yaw rate:	-3.143	Roll:	1.966	Pitch:	-27.265	Yaw:	4.152	Thrust:	100.000
Time:	4.803	Roll Set Point:	-0.128	Pitch Set Point:	1.815	Yaw Set Point:	-0.030	X_WP:	0.000	Y_WP:	0.000	Y_WP:	0.750	X:	0.078	Y:	-0.907	Z:	0.402	yaw:	1.695	yaw rate:	-17.691	Roll:	-0.676	Pitch:	-27.226	Yaw:	6.697	Thrust:	100.000
Time:	4.817	Roll Set Point:	-0.134	Pitch Set Point:	1.815	Yaw Set Point:	-0.024	X_WP:	0.000	Y_WP:	0.000	Y_WP:	0.750	X:	0.078	Y:	-0.907	Z:	0.403	yaw:	1.402	yaw rate:	29.251	Roll:	7.440	Pitch:	-26.611	Yaw:	-1.514	Thrust:	100.000
Time:	4.845	Roll Set Point:	-0.130	Pitch Set Point:	1.816	Yaw Set Point:	-0.029	X_WP:	0.000	Y_WP:	0.000	Y_WP:	0.750	X:	0.078	Y:	-0.907	Z:	0.403	yaw:	1.646	yaw rate:	-24.431	Roll:	0.007	Pitch:	-27.561	Yaw:	7.363	Thrust:	100.000
Time:	4.867	Roll Set Point:	-0.127	Pitch Set Point:	1.816	Yaw Set Point:	-0.031	X_WP:	0.000	Y_WP:	0.000	Y_WP:	0.750	X:	0.078	Y:	-0.907	Z:	0.402	yaw:	1.776	yaw rate:	-13.009	Roll:	0.303	Pitch:	-27.212	Yaw:	6.244	Thrust:	100.000
Time:	4.879	Roll Set Point:	-0.130	Pitch Set Point:	1.816	Yaw Set Point:	-0.029	X_WP:	0.000	Y_WP:	0.000	Y_WP:	0.750	X:	0.078	Y:	-0.907	Z:	0.403	yaw:	1.633	yaw rate:	14.314	Roll:	5.465	Pitch:	-26.778	Yaw:	0.379	Thrust:	100.000
Time:	4.898	Roll Set Point:	-0.129	Pitch Set Point:	1.816	Yaw Set Point:	-0.029	X_WP:	0.000	Y_WP:	0.000	Y_WP:	0.750	X:	0.078	Y:	-0.907	Z:	0.403	yaw:	1.664	yaw rate:	-3.062	Roll:	1.736	Pitch:	-27.062	Yaw:	4.679	Thrust:	100.000
Time:	4.917	Roll Set Point:	-0.120	Pitch Set Point:	1.816	Yaw Set Point:	-0.039	X_WP:	0.000	Y_WP:	0.000	Y_WP:	0.750	X:	0.078	Y:	-0.907	Z:	0.402	yaw:	2.217	yaw rate:	-55.344	Roll:	-5.756	Pitch:	-27.282	Yaw:	12.567	Thrust:	100.000
Time:	4.939	Roll Set Point:	-0.128	Pitch Set Point:	1.816	Yaw Set Point:	-0.030	X_WP:	0.000	Y_WP:	0.000	Y_WP:	0.750	X:	0.078	Y:	-0.907	Z:	0.402	yaw:	1.724	yaw rate:	49.341	Roll:	8.594	Pitch:	-26.970	Yaw:	-1.543	Thrust:	100.000
Time:	4.957	Roll Set Point:	-0.133	Pitch Set Point:	1.815	Yaw Set Point:	-0.025	X_WP:	0.000	Y_WP:	0.000	Y_WP:	0.750	X:	0.078	Y:	-0.907	Z:	0.403	yaw:	1.433	yaw rate:	29.071	Roll:	6.766	Pitch:	-26.744	Yaw:	-0.252	Thrust:	100.000
Time:	4.977	Roll Set Point:	-0.133	Pitch Set Point:	1.815	Yaw Set Point:	-0.025	X_WP:	0.000	Y_WP:	0.000	Y_WP:	0.750	X:	0.078	Y:	-0.907	Z:	0.403	yaw:	1.433	yaw rate:	0.077	Roll:	2.280	Pitch:	-27.129	Yaw:	4.011	Thrust:	100.000
Time:	4.999	Roll Set Point:	-0.132	Pitch Set Point:	1.815	Yaw Set Point:	-0.026	X_WP:	0.000	Y_WP:	0.000	Y_WP:	0.750	X:	0.078	Y:	-0.907	Z:	0.402	yaw:	1.503	yaw rate:	-7.083	Roll:	1.241	Pitch:	-27.124	Yaw:	5.090	Thrust:	100.000
Time:	5.019	Roll Set Point:	-0.132	Pitch Set Point:	1.815	Yaw Set Point:	-0.026	X_WP:	0.000	Y_WP:	0.000	Y_WP:	0.750	X:	0.078	Y:	-0.907	Z:	0.403	yaw:	1.494	yaw rate:	0.932	Roll:	2.547	Pitch:	-27.168	Yaw:	3.887	Thrust:	100.000
Time:	5.041	Roll Set Point:	-0.132	Pitch Set Point:	1.815	Yaw Set Point:	-0.027	X_WP:	0.000	Y_WP:	0.000	Y_WP:	0.750	X:	0.078	Y:	-0.907	Z:	0.403	yaw:	1.522	yaw rate:	-2.843	Roll:	1.856	Pitch:	-27.142	Yaw:	4.697	Thrust:	100.000
Time:	5.058	Roll Set Point:	-0.132	Pitch Set Point:	1.815	Yaw Set Point:	-0.026	X_WP:	0.000	Y_WP:	0.000	Y_WP:	0.750	X:	0.078	Y:	-0.907	Z:	0.402	yaw:	1.473	yaw rate:	4.896	Roll:	2.763	Pitch:	-26.912	Yaw:	3.004	Thrust:	100.000
Time:	5.078	Roll Set Point:	-0.131	Pitch Set Point:	1.815	Yaw Set Point:	-0.028	X_WP:	0.000	Y_WP:	0.000	Y_WP:	0.750	X:	0.078	Y:	-0.907	Z:	0.402	yaw:	1.586	yaw rate:	-11.238	Roll:	0.674	Pitch:	-27.198	Yaw:	5.722	Thrust:	100.000
Time:	5.098	Roll Set Point:	-0.131	Pitch Set Point:	1.815	Yaw Set Point:	-0.027	X_WP:	0.000	Y_WP:	0.000	Y_WP:	0.750	X:	0.078	Y:	-0.907	Z:	0.402	yaw:	1.545	yaw rate:	4.072	Roll:	2.713	Pitch:	-27.051	Yaw:	3.577	Thrust:	100.000
Time:	5.118	Roll Set Point:	-0.136	Pitch Set Point:	1.815	Yaw Set Point:	-0.022	X_WP:	0.000	Y_WP:	0.000	Y_WP:	0.750	X:	0.078	Y:	-0.907	Z:	0.403	yaw:	1.261	yaw rate:	28.424	Roll:	6.491	Pitch:	-26.847	Yaw:	-0.053	Thrust:	100.000
Time:	5.138	Roll Set Point:	-0.133	Pitch Set Point:	1.815	Yaw Set Point:	-0.026	X_WP:	0.000	Y_WP:	0.000	Y_WP:	0.750	X:	0.078	Y:	-0.907	Z:	0.403	yaw:	1.474	yaw rate:	-21.342	Roll:	-0.630	Pitch:	-27.345	Yaw:	6.859	Thrust:	100.000
Time:	5.158	Roll Set Point:	-0.133	Pitch Set Point:	1.815	Yaw Set Point:	-0.025	X_WP:	0.000	Y_WP:	0.000	Y_WP:	0.750	X:	0.078	Y:	-0.907	Z:	0.403	yaw:	1.442	yaw rate:	3.238	Roll:	2.739	Pitch:	-27.064	Yaw:	3.664	Thrust:	100.000
Time:	5.180	Roll Set Point:	-0.140	Pitch Set Point:	1.815	Yaw Set Point:	-0.017	X_WP:	0.000	Y_WP:	0.000	Y_WP:	0.750	X:	0.078	Y:	-0.907	Z:	0.403	yaw:	0.970	yaw rate:	47.172	Roll:	8.647	Pitch:	-26.696	Yaw:	-2.351	Thrust:	100.000
Time:	5.203	Roll Set Point:	-0.141	Pitch Set Point:	1.815	Yaw Set Point:	-0.016	X_WP:	0.000	Y_WP:	0.000	Y_WP:	0.750	X:	0.078	Y:	-0.907	Z:	0.403	yaw:	0.923	yaw rate:	4.690	Roll:	3.150	Pitch:	-27.199	Yaw:	3.068	Thrust:	100.000
Time:	5.222	Roll Set Point:	-0.141	Pitch Set Point:	1.815	Yaw Set Point:	-0.016	X_WP:	0.000	Y_WP:	0.000	Y_WP:	0.750	X:	0.078	Y:	-0.907	Z:	0.402	yaw:	0.900	yaw rate:	2.328	Roll:	2.711	Pitch:	-26.937	Yaw:	2.784	Thrust:	100.000
Time:	5.243	Roll Set Point:	-0.141	Pitch Set Point:	1.815	Yaw Set Point:	-0.015	X_WP:	0.000	Y_WP:	0.000	Y_WP:	0.750	X:	0.078	Y:	-0.907	Z:	0.403	yaw:	0.880	yaw rate:	1.972	Roll:	2.860	Pitch:	-27.132	Yaw:	3.089	Thrust:	100.000
Time:	5.258	Roll Set Point:	-0.141	Pitch Set Point:	1.815	Yaw Set Point:	-0.016	X_WP:	0.000	Y_WP:	0.000	Y_WP:	0.750	X:	0.078	Y:	-0.907	Z:	0.403	yaw:	0.914	yaw rate:	-3.363	Roll:	1.777	Pitch:	-27.059	Yaw:	3.429	Thrust:	100.000
Time:	5.279	Roll Set Point:	-0.140	Pitch Set Point:	1.815	Yaw Set Point:	-0.016	X_WP:	0.000	Y_WP:	0.000	Y_WP:	0.750	X:	0.077	Y:	-0.907	Z:	0.402	yaw:	0.928	yaw rate:	-1.396	Roll:	2.356	Pitch:	-27.053	Yaw:	3.512	Thrust:	100.000
Time:	5.298	Roll Set Point:	-0.140	Pitch Set Point:	1.815	Yaw Set Point:	-0.016	X_WP:	0.000	Y_WP:	0.000	Y_WP:	0.750	X:	0.077	Y:	-0.907	Z:	0.402	yaw:	0.922	yaw rate:	0.555	Roll:	2.486	Pitch:	-27.102	Yaw:	3.178	Thrust:	100.000
Time:	5.317	Roll Set Point:	-0.141	Pitch Set Point:	1.815	Yaw Set Point:	-0.016	X_WP:	0.000	Y_WP:	0.000	Y_WP:	0.750	X:	0.078	Y:	-0.907	Z:	0.403	yaw:	0.920	yaw rate:	0.228	Roll:	2.726	Pitch:	-27.093	Yaw:	3.169	Thrust:	100.000
Time:	5.337	Roll Set Point:	-0.140	Pitch Set Point:	1.815	Yaw Set Point:	-0.016	X_WP:	0.000	Y_WP:	0.000	Y_WP:	0.750	X:	0.078	Y:	-0.907	Z:	0.403	yaw:	0.926	yaw rate:	-0.627	Roll:	2.456	Pitch:	-27.110	Yaw:	3.397	Thrust:	100.000
