Time:	0.050	Roll Set Point:	0.158	Pitch Set Point:	0.271	Yaw Set Point:	0.732	X_WP:	0.000	Y_WP:	0.000	Y_WP:	0.500	X:	-0.131	Y:	-0.105	Z:	0.053	yaw:	-41.947	yaw rate:	7.184	Roll:	-0.790	Pitch:	-4.806	Yaw:	-58.569	Thrust:	24.604
Time:	0.070	Roll Set Point:	0.159	Pitch Set Point:	0.270	Yaw Set Point:	0.729	X_WP:	0.000	Y_WP:	0.000	Y_WP:	0.500	X:	-0.131	Y:	-0.105	Z:	0.053	yaw:	-41.774	yaw rate:	-17.344	Roll:	-1.580	Pitch:	-4.731	Yaw:	-56.344	Thrust:	26.038
Time:	0.091	Roll Set Point:	0.162	Pitch Set Point:	0.270	Yaw Set Point:	0.712	X_WP:	0.000	Y_WP:	0.000	Y_WP:	0.500	X:	-0.131	Y:	-0.105	Z:	0.053	yaw:	-40.821	yaw rate:	-95.242	Roll:	-3.034	Pitch:	-4.352	Yaw:	-45.474	Thrust:	26.551
Time:	0.111	Roll Set Point:	0.160	Pitch Set Point:	0.271	Yaw Set Point:	0.729	X_WP:	0.000	Y_WP:	0.000	Y_WP:	0.500	X:	-0.131	Y:	-0.105	Z:	0.052	yaw:	-41.743	yaw rate:	92.182	Roll:	1.137	Pitch:	-5.483	Yaw:	-71.100	Thrust:	29.274
Time:	0.133	Roll Set Point:	0.159	Pitch Set Point:	0.271	Yaw Set Point:	0.731	X_WP:	0.000	Y_WP:	0.000	Y_WP:	0.500	X:	-0.131	Y:	-0.105	Z:	0.053	yaw:	-41.875	yaw rate:	13.176	Roll:	-0.172	Pitch:	-4.686	Yaw:	-61.321	Thrust:	27.492
Time:	0.155	Roll Set Point:	0.159	Pitch Set Point:	0.271	Yaw Set Point:	0.727	X_WP:	0.000	Y_WP:	0.000	Y_WP:	0.500	X:	-0.131	Y:	-0.105	Z:	0.053	yaw:	-41.656	yaw rate:	-21.908	Roll:	-1.192	Pitch:	-4.846	Yaw:	-57.082	Thrust:	30.962
Time:	0.174	Roll Set Point:	0.159	Pitch Set Point:	0.270	Yaw Set Point:	0.731	X_WP:	0.000	Y_WP:	0.000	Y_WP:	0.500	X:	-0.131	Y:	-0.105	Z:	0.053	yaw:	-41.894	yaw rate:	23.848	Roll:	-0.523	Pitch:	-4.818	Yaw:	-63.393	Thrust:	30.622
Time:	0.192	Roll Set Point:	0.159	Pitch Set Point:	0.270	Yaw Set Point:	0.730	X_WP:	0.000	Y_WP:	0.000	Y_WP:	0.500	X:	-0.131	Y:	-0.105	Z:	0.053	yaw:	-41.849	yaw rate:	-4.469	Roll:	-0.947	Pitch:	-4.874	Yaw:	-59.589	Thrust:	31.285
Time:	0.211	Roll Set Point:	0.164	Pitch Set Point:	0.269	Yaw Set Point:	0.699	X_WP:	0.000	Y_WP:	0.000	Y_WP:	0.500	X:	-0.131	Y:	-0.105	Z:	0.053	yaw:	-40.039	yaw rate:	-181.067	Roll:	-5.838	Pitch:	-3.767	Yaw:	-33.225	Thrust:	32.182
Time:	0.231	Roll Set Point:	0.161	Pitch Set Point:	0.270	Yaw Set Point:	0.717	X_WP:	0.000	Y_WP:	0.000	Y_WP:	0.500	X:	-0.131	Y:	-0.105	Z:	0.053	yaw:	-41.087	yaw rate:	104.819	Roll:	2.011	Pitch:	-5.696	Yaw:	-73.709	Thrust:	34.651
Time:	0.251	Roll Set Point:	0.162	Pitch Set Point:	0.270	Yaw Set Point:	0.716	X_WP:	0.000	Y_WP:	0.000	Y_WP:	0.500	X:	-0.131	Y:	-0.105	Z:	0.053	yaw:	-41.022	yaw rate:	-6.549	Roll:	-1.236	Pitch:	-4.793	Yaw:	-59.318	Thrust:	35.474
Time:	0.271	Roll Set Point:	0.160	Pitch Set Point:	0.270	Yaw Set Point:	0.728	X_WP:	0.000	Y_WP:	0.000	Y_WP:	0.500	X:	-0.131	Y:	-0.105	Z:	0.053	yaw:	-41.732	yaw rate:	71.061	Roll:	0.642	Pitch:	-5.015	Yaw:	-70.789	Thrust:	36.806
Time:	0.291	Roll Set Point:	0.162	Pitch Set Point:	0.270	Yaw Set Point:	0.713	X_WP:	0.000	Y_WP:	0.000	Y_WP:	0.500	X:	-0.131	Y:	-0.105	Z:	0.053	yaw:	-40.836	yaw rate:	-89.605	Roll:	-2.904	Pitch:	-4.670	Yaw:	-48.876	Thrust:	37.474
Time:	0.312	Roll Set Point:	0.161	Pitch Set Point:	0.269	Yaw Set Point:	0.720	X_WP:	0.000	Y_WP:	0.000	Y_WP:	0.500	X:	-0.131	Y:	-0.104	Z:	0.053	yaw:	-41.274	yaw rate:	43.794	Roll:	0.119	Pitch:	-4.720	Yaw:	-67.031	Thrust:	39.248
Time:	0.334	Roll Set Point:	0.163	Pitch Set Point:	0.269	Yaw Set Point:	0.707	X_WP:	0.000	Y_WP:	0.000	Y_WP:	0.500	X:	-0.131	Y:	-0.104	Z:	0.053	yaw:	-40.498	yaw rate:	-77.626	Roll:	-2.567	Pitch:	-4.328	Yaw:	-51.775	Thrust:	41.276
Time:	0.353	Roll Set Point:	0.163	Pitch Set Point:	0.268	Yaw Set Point:	0.700	X_WP:	0.000	Y_WP:	0.000	Y_WP:	0.500	X:	-0.130	Y:	-0.104	Z:	0.053	yaw:	-40.129	yaw rate:	-36.870	Roll:	-1.411	Pitch:	-4.480	Yaw:	-54.863	Thrust:	39.494
Time:	0.372	Roll Set Point:	0.161	Pitch Set Point:	0.269	Yaw Set Point:	0.711	X_WP:	0.000	Y_WP:	0.000	Y_WP:	0.500	X:	-0.130	Y:	-0.105	Z:	0.053	yaw:	-40.761	yaw rate:	63.199	Roll:	0.761	Pitch:	-5.298	Yaw:	-69.516	Thrust:	40.594
Time:	0.390	Roll Set Point:	0.160	Pitch Set Point:	0.269	Yaw Set Point:	0.710	X_WP:	0.000	Y_WP:	0.000	Y_WP:	0.500	X:	-0.130	Y:	-0.105	Z:	0.053	yaw:	-40.707	yaw rate:	-5.379	Roll:	-0.688	Pitch:	-4.951	Yaw:	-59.833	Thrust:	41.382
Time:	0.412	Roll Set Point:	0.161	Pitch Set Point:	0.269	Yaw Set Point:	0.702	X_WP:	0.000	Y_WP:	0.000	Y_WP:	0.500	X:	-0.130	Y:	-0.105	Z:	0.053	yaw:	-40.244	yaw rate:	-46.298	Roll:	-1.974	Pitch:	-4.703	Yaw:	-54.768	Thrust:	44.980
Time:	0.431	Roll Set Point:	0.159	Pitch Set Point:	0.270	Yaw Set Point:	0.717	X_WP:	0.000	Y_WP:	0.000	Y_WP:	0.500	X:	-0.130	Y:	-0.105	Z:	0.053	yaw:	-41.099	yaw rate:	85.490	Roll:	1.248	Pitch:	-5.394	Yaw:	-73.077	Thrust:	43.407
Time:	0.450	Roll Set Point:	0.161	Pitch Set Point:	0.269	Yaw Set Point:	0.707	X_WP:	0.000	Y_WP:	0.000	Y_WP:	0.500	X:	-0.130	Y:	-0.105	Z:	0.053	yaw:	-40.481	yaw rate:	-61.799	Roll:	-2.338	Pitch:	-4.737	Yaw:	-52.364	Thrust:	45.587
Time:	0.471	Roll Set Point:	0.160	Pitch Set Point:	0.269	Yaw Set Point:	0.714	X_WP:	0.000	Y_WP:	0.000	Y_WP:	0.500	X:	-0.130	Y:	-0.105	Z:	0.053	yaw:	-40.909	yaw rate:	42.821	Roll:	-0.075	Pitch:	-4.790	Yaw:	-66.678	Thrust:	47.942
Time:	0.491	Roll Set Point:	0.160	Pitch Set Point:	0.268	Yaw Set Point:	0.707	X_WP:	0.000	Y_WP:	0.000	Y_WP:	0.500	X:	-0.129	Y:	-0.105	Z:	0.054	yaw:	-40.501	yaw rate:	-40.834	Roll:	-1.708	Pitch:	-4.423	Yaw:	-54.673	Thrust:	45.960
Time:	0.511	Roll Set Point:	0.162	Pitch Set Point:	0.266	Yaw Set Point:	0.689	X_WP:	0.000	Y_WP:	0.000	Y_WP:	0.500	X:	-0.129	Y:	-0.104	Z:	0.054	yaw:	-39.504	yaw rate:	-99.737	Roll:	-3.095	Pitch:	-3.710	Yaw:	-46.620	Thrust:	48.696
Time:	0.532	Roll Set Point:	0.164	Pitch Set Point:	0.264	Yaw Set Point:	0.668	X_WP:	0.000	Y_WP:	0.000	Y_WP:	0.500	X:	-0.128	Y:	-0.104	Z:	0.054	yaw:	-38.278	yaw rate:	-122.532	Roll:	-3.891	Pitch:	-3.627	Yaw:	-43.003	Thrust:	51.720
Time:	0.554	Roll Set Point:	0.166	Pitch Set Point:	0.261	Yaw Set Point:	0.654	X_WP:	0.000	Y_WP:	0.000	Y_WP:	0.500	X:	-0.127	Y:	-0.102	Z:	0.055	yaw:	-37.471	yaw rate:	-80.686	Roll:	-3.049	Pitch:	-3.449	Yaw:	-46.794	Thrust:	52.996
Time:	0.571	Roll Set Point:	0.170	Pitch Set Point:	0.257	Yaw Set Point:	0.615	X_WP:	0.000	Y_WP:	0.000	Y_WP:	0.500	X:	-0.126	Y:	-0.102	Z:	0.056	yaw:	-35.247	yaw rate:	-222.490	Roll:	-6.719	Pitch:	-1.717	Yaw:	-19.257	Thrust:	46.662
Time:	0.591	Roll Set Point:	0.168	Pitch Set Point:	0.256	Yaw Set Point:	0.621	X_WP:	0.000	Y_WP:	0.000	Y_WP:	0.500	X:	-0.125	Y:	-0.101	Z:	0.056	yaw:	-35.595	yaw rate:	34.854	Roll:	-0.112	Pitch:	-3.931	Yaw:	-58.271	Thrust:	51.967
Time:	0.614	Roll Set Point:	0.171	Pitch Set Point:	0.252	Yaw Set Point:	0.588	X_WP:	0.000	Y_WP:	0.000	Y_WP:	0.500	X:	-0.123	Y:	-0.100	Z:	0.057	yaw:	-33.716	yaw rate:	-187.874	Roll:	-4.587	Pitch:	-2.231	Yaw:	-30.111	Thrust:	56.317
Time:	0.631	Roll Set Point:	0.166	Pitch Set Point:	0.250	Yaw Set Point:	0.600	X_WP:	0.000	Y_WP:	0.000	Y_WP:	0.500	X:	-0.122	Y:	-0.100	Z:	0.059	yaw:	-34.353	yaw rate:	63.670	Roll:	1.221	Pitch:	-3.796	Yaw:	-60.974	Thrust:	47.502
Time:	0.650	Roll Set Point:	0.168	Pitch Set Point:	0.245	Yaw Set Point:	0.565	X_WP:	0.000	Y_WP:	0.000	Y_WP:	0.500	X:	-0.120	Y:	-0.098	Z:	0.059	yaw:	-32.376	yaw rate:	-197.729	Roll:	-5.176	Pitch:	-1.103	Yaw:	-21.992	Thrust:	54.961
Time:	0.671	Roll Set Point:	0.169	Pitch Set Point:	0.240	Yaw Set Point:	0.543	X_WP:	0.000	Y_WP:	0.000	Y_WP:	0.500	X:	-0.118	Y:	-0.097	Z:	0.060	yaw:	-31.097	yaw rate:	-127.885	Roll:	-3.435	Pitch:	-1.457	Yaw:	-31.199	Thrust:	55.658
Time:	0.691	Roll Set Point:	0.171	Pitch Set Point:	0.234	Yaw Set Point:	0.510	X_WP:	0.000	Y_WP:	0.000	Y_WP:	0.500	X:	-0.116	Y:	-0.095	Z:	0.061	yaw:	-29.216	yaw rate:	-188.134	Roll:	-5.222	Pitch:	-0.497	Yaw:	-19.694	Thrust:	56.559
Time:	0.711	Roll Set Point:	0.168	Pitch Set Point:	0.228	Yaw Set Point:	0.488	X_WP:	0.000	Y_WP:	0.000	Y_WP:	0.500	X:	-0.113	Y:	-0.093	Z:	0.061	yaw:	-27.980	yaw rate:	-123.589	Roll:	-2.246	Pitch:	-0.996	Yaw:	-26.981	Thrust:	58.057
Time:	0.733	Roll Set Point:	0.168	Pitch Set Point:	0.221	Yaw Set Point:	0.467	X_WP:	0.000	Y_WP:	0.000	Y_WP:	0.500	X:	-0.110	Y:	-0.091	Z:	0.062	yaw:	-26.782	yaw rate:	-119.798	Roll:	-3.114	Pitch:	-0.690	Yaw:	-27.717	Thrust:	63.237
Time:	0.755	Roll Set Point:	0.167	Pitch Set Point:	0.213	Yaw Set Point:	0.416	X_WP:	0.000	Y_WP:	0.000	Y_WP:	0.500	X:	-0.106	Y:	-0.089	Z:	0.063	yaw:	-23.840	yaw rate:	-294.132	Roll:	-4.501	Pitch:	1.590	Yaw:	-2.965	Thrust:	62.447
Time:	0.771	Roll Set Point:	0.163	Pitch Set Point:	0.204	Yaw Set Point:	0.388	X_WP:	0.000	Y_WP:	0.000	Y_WP:	0.500	X:	-0.102	Y:	-0.086	Z:	0.063	yaw:	-22.216	yaw rate:	-162.444	Roll:	-2.688	Pitch:	2.206	Yaw:	-6.742	Thrust:	53.662
Time:	0.791	Roll Set Point:	0.161	Pitch Set Point:	0.193	Yaw Set Point:	0.345	X_WP:	0.000	Y_WP:	0.000	Y_WP:	0.500	X:	-0.098	Y:	-0.083	Z:	0.064	yaw:	-19.783	yaw rate:	-243.256	Roll:	-3.673	Pitch:	2.625	Yaw:	-0.849	Thrust:	62.712
Time:	0.817	Roll Set Point:	0.156	Pitch Set Point:	0.183	Yaw Set Point:	0.313	X_WP:	0.000	Y_WP:	0.000	Y_WP:	0.500	X:	-0.093	Y:	-0.079	Z:	0.065	yaw:	-17.934	yaw rate:	-184.947	Roll:	-1.865	Pitch:	1.672	Yaw:	-10.067	Thrust:	70.287
Time:	0.831	Roll Set Point:	0.149	Pitch Set Point:	0.173	Yaw Set Point:	0.292	X_WP:	0.000	Y_WP:	0.000	Y_WP:	0.500	X:	-0.087	Y:	-0.076	Z:	0.066	yaw:	-16.758	yaw rate:	-117.588	Roll:	0.255	Pitch:	3.678	Yaw:	-6.704	Thrust:	52.423
Time:	0.851	Roll Set Point:	0.138	Pitch Set Point:	0.164	Yaw Set Point:	0.281	X_WP:	0.000	Y_WP:	0.000	Y_WP:	0.500	X:	-0.081	Y:	-0.072	Z:	0.069	yaw:	-16.098	yaw rate:	-66.036	Roll:	1.805	Pitch:	1.884	Yaw:	-17.543	Thrust:	62.492
Time:	0.871	Roll Set Point:	0.132	Pitch Set Point:	0.151	Yaw Set Point:	0.239	X_WP:	0.000	Y_WP:	0.000	Y_WP:	0.500	X:	-0.075	Y:	-0.068	Z:	0.070	yaw:	-13.693	yaw rate:	-240.511	Roll:	-1.134	Pitch:	4.497	Yaw:	7.563	Thrust:	65.134
Time:	0.891	Roll Set Point:	0.121	Pitch Set Point:	0.140	Yaw Set Point:	0.229	X_WP:	0.000	Y_WP:	0.000	Y_WP:	0.500	X:	-0.069	Y:	-0.063	Z:	0.072	yaw:	-13.138	yaw rate:	-55.428	Roll:	2.137	Pitch:	3.153	Yaw:	-14.911	Thrust:	59.557
Time:	0.911	Roll Set Point:	0.110	Pitch Set Point:	0.127	Yaw Set Point:	0.203	X_WP:	0.000	Y_WP:	0.000	Y_WP:	0.500	X:	-0.062	Y:	-0.058	Z:	0.076	yaw:	-11.644	yaw rate:	-149.465	Roll:	1.736	Pitch:	4.255	Yaw:	-0.665	Thrust:	62.727
Time:	0.931	Roll Set Point:	0.100	Pitch Set Point:	0.113	Yaw Set Point:	0.172	X_WP:	0.000	Y_WP:	0.000	Y_WP:	0.500	X:	-0.055	Y:	-0.052	Z:	0.078	yaw:	-9.843	yaw rate:	-180.077	Roll:	1.415	Pitch:	4.785	Yaw:	5.095	Thrust:	64.804
Time:	0.953	Roll Set Point:	0.089	Pitch Set Point:	0.098	Yaw Set Point:	0.125	X_WP:	0.000	Y_WP:	0.000	Y_WP:	0.500	X:	-0.048	Y:	-0.046	Z:	0.082	yaw:	-7.174	yaw rate:	-266.916	Roll:	1.783	Pitch:	5.335	Yaw:	18.940	Thrust:	66.809
Time:	0.971	Roll Set Point:	0.075	Pitch Set Point:	0.086	Yaw Set Point:	0.134	X_WP:	0.000	Y_WP:	0.000	Y_WP:	0.500	X:	-0.040	Y:	-0.040	Z:	0.086	yaw:	-7.668	yaw rate:	49.379	Roll:	4.809	Pitch:	3.853	Yaw:	-21.383	Thrust:	59.764
Time:	0.991	Roll Set Point:	0.062	Pitch Set Point:	0.072	Yaw Set Point:	0.118	X_WP:	0.000	Y_WP:	0.000	Y_WP:	0.500	X:	-0.033	Y:	-0.034	Z:	0.091	yaw:	-6.779	yaw rate:	-88.810	Roll:	4.249	Pitch:	5.100	Yaw:	-1.885	Thrust:	61.735
Time:	1.014	Roll Set Point:	0.049	Pitch Set Point:	0.058	Yaw Set Point:	0.112	X_WP:	0.000	Y_WP:	0.000	Y_WP:	0.500	X:	-0.026	Y:	-0.028	Z:	0.096	yaw:	-6.429	yaw rate:	-35.063	Roll:	4.490	Pitch:	4.928	Yaw:	-9.206	Thrust:	64.950
Time:	1.032	Roll Set Point:	0.035	Pitch Set Point:	0.045	Yaw Set Point:	0.102	X_WP:	0.000	Y_WP:	0.000	Y_WP:	0.500	X:	-0.019	Y:	-0.021	Z:	0.101	yaw:	-5.870	yaw rate:	-55.924	Roll:	4.817	Pitch:	5.381	Yaw:	-4.010	Thrust:	56.318
Time:	1.051	Roll Set Point:	0.021	Pitch Set Point:	0.030	Yaw Set Point:	0.093	X_WP:	0.000	Y_WP:	0.000	Y_WP:	0.500	X:	-0.011	Y:	-0.015	Z:	0.107	yaw:	-5.335	yaw rate:	-53.490	Roll:	5.268	Pitch:	5.803	Yaw:	-3.909	Thrust:	58.713
Time:	1.071	Roll Set Point:	0.007	Pitch Set Point:	0.016	Yaw Set Point:	0.083	X_WP:	0.000	Y_WP:	0.000	Y_WP:	0.500	X:	-0.004	Y:	-0.008	Z:	0.114	yaw:	-4.765	yaw rate:	-57.010	Roll:	5.313	Pitch:	5.550	Yaw:	-3.346	Thrust:	62.777
Time:	1.090	Roll Set Point:	-0.006	Pitch Set Point:	0.002	Yaw Set Point:	0.091	X_WP:	0.000	Y_WP:	0.000	Y_WP:	0.500	X:	0.003	Y:	-0.001	Z:	0.121	yaw:	-5.200	yaw rate:	43.501	Roll:	5.319	Pitch:	6.342	Yaw:	-17.065	Thrust:	56.021
Time:	1.110	Roll Set Point:	-0.020	Pitch Set Point:	-0.013	Yaw Set Point:	0.087	X_WP:	0.000	Y_WP:	0.000	Y_WP:	0.500	X:	0.010	Y:	0.006	Z:	0.128	yaw:	-4.962	yaw rate:	-23.796	Roll:	5.764	Pitch:	6.186	Yaw:	-8.023	Thrust:	62.078
Time:	1.133	Roll Set Point:	-0.032	Pitch Set Point:	-0.027	Yaw Set Point:	0.080	X_WP:	0.000	Y_WP:	0.000	Y_WP:	0.500	X:	0.017	Y:	0.013	Z:	0.135	yaw:	-4.612	yaw rate:	-35.001	Roll:	5.022	Pitch:	5.685	Yaw:	-6.917	Thrust:	65.876
Time:	1.153	Roll Set Point:	-0.046	Pitch Set Point:	-0.042	Yaw Set Point:	0.060	X_WP:	0.000	Y_WP:	0.000	Y_WP:	0.500	X:	0.023	Y:	0.020	Z:	0.143	yaw:	-3.436	yaw rate:	-117.594	Roll:	6.038	Pitch:	6.270	Yaw:	6.303	Thrust:	64.400
Time:	1.172	Roll Set Point:	-0.057	Pitch Set Point:	-0.055	Yaw Set Point:	0.080	X_WP:	0.000	Y_WP:	0.000	Y_WP:	0.500	X:	0.030	Y:	0.027	Z:	0.150	yaw:	-4.566	yaw rate:	113.040	Roll:	5.641	Pitch:	7.446	Yaw:	-26.711	Thrust:	51.485
Time:	1.191	Roll Set Point:	-0.070	Pitch Set Point:	-0.069	Yaw Set Point:	0.073	X_WP:	0.000	Y_WP:	0.000	Y_WP:	0.500	X:	0.036	Y:	0.033	Z:	0.158	yaw:	-4.165	yaw rate:	-40.146	Roll:	6.212	Pitch:	6.654	Yaw:	-4.586	Thrust:	60.688
Time:	1.212	Roll Set Point:	-0.082	Pitch Set Point:	-0.083	Yaw Set Point:	0.057	X_WP:	0.000	Y_WP:	0.000	Y_WP:	0.500	X:	0.042	Y:	0.040	Z:	0.166	yaw:	-3.249	yaw rate:	-91.523	Roll:	6.423	Pitch:	6.946	Yaw:	2.992	Thrust:	60.175
Time:	1.231	Roll Set Point:	-0.092	Pitch Set Point:	-0.097	Yaw Set Point:	0.069	X_WP:	0.000	Y_WP:	0.000	Y_WP:	0.500	X:	0.048	Y:	0.047	Z:	0.174	yaw:	-3.970	yaw rate:	72.047	Roll:	4.866	Pitch:	7.082	Yaw:	-19.112	Thrust:	60.123
Time:	1.250	Roll Set Point:	-0.104	Pitch Set Point:	-0.109	Yaw Set Point:	0.039	X_WP:	0.000	Y_WP:	0.000	Y_WP:	0.500	X:	0.053	Y:	0.053	Z:	0.183	yaw:	-2.242	yaw rate:	-172.736	Roll:	7.102	Pitch:	6.282	Yaw:	16.772	Thrust:	55.774
Time:	1.270	Roll Set Point:	-0.113	Pitch Set Point:	-0.121	Yaw Set Point:	0.038	X_WP:	0.000	Y_WP:	0.000	Y_WP:	0.500	X:	0.058	Y:	0.060	Z:	0.192	yaw:	-2.172	yaw rate:	-7.034	Roll:	5.282	Pitch:	6.649	Yaw:	-6.139	Thrust:	59.206
Time:	1.291	Roll Set Point:	-0.123	Pitch Set Point:	-0.134	Yaw Set Point:	0.053	X_WP:	0.000	Y_WP:	0.000	Y_WP:	0.500	X:	0.063	Y:	0.065	Z:	0.200	yaw:	-3.060	yaw rate:	88.749	Roll:	5.359	Pitch:	7.698	Yaw:	-19.690	Thrust:	58.833
Time:	1.311	Roll Set Point:	-0.130	Pitch Set Point:	-0.146	Yaw Set Point:	0.046	X_WP:	0.000	Y_WP:	0.000	Y_WP:	0.500	X:	0.067	Y:	0.072	Z:	0.208	yaw:	-2.612	yaw rate:	-44.762	Roll:	5.062	Pitch:	6.844	Yaw:	-1.634	Thrust:	65.126
Time:	1.332	Roll Set Point:	-0.139	Pitch Set Point:	-0.157	Yaw Set Point:	0.038	X_WP:	0.000	Y_WP:	0.000	Y_WP:	0.500	X:	0.071	Y:	0.077	Z:	0.216	yaw:	-2.162	yaw rate:	-44.965	Roll:	5.696	Pitch:	6.146	Yaw:	-1.892	Thrust:	67.647
Time:	1.355	Roll Set Point:	-0.147	Pitch Set Point:	-0.168	Yaw Set Point:	0.031	X_WP:	0.000	Y_WP:	0.000	Y_WP:	0.500	X:	0.075	Y:	0.083	Z:	0.225	yaw:	-1.800	yaw rate:	-36.234	Roll:	5.217	Pitch:	6.442	Yaw:	-2.634	Thrust:	66.779
Time:	1.371	Roll Set Point:	-0.152	Pitch Set Point:	-0.178	Yaw Set Point:	0.039	X_WP:	0.000	Y_WP:	0.000	Y_WP:	0.500	X:	0.078	Y:	0.088	Z:	0.233	yaw:	-2.233	yaw rate:	43.310	Roll:	4.242	Pitch:	7.748	Yaw:	-13.306	Thrust:	49.091
Time:	1.391	Roll Set Point:	-0.159	Pitch Set Point:	-0.188	Yaw Set Point:	0.027	X_WP:	0.000	Y_WP:	0.000	Y_WP:	0.500	X:	0.081	Y:	0.093	Z:	0.242	yaw:	-1.543	yaw rate:	-69.050	Roll:	5.635	Pitch:	6.062	Yaw:	2.868	Thrust:	60.992
Time:	1.414	Roll Set Point:	-0.163	Pitch Set Point:	-0.198	Yaw Set Point:	0.035	X_WP:	0.000	Y_WP:	0.000	Y_WP:	0.500	X:	0.083	Y:	0.098	Z:	0.251	yaw:	-2.020	yaw rate:	47.735	Roll:	3.669	Pitch:	6.877	Yaw:	-12.852	Thrust:	68.927
Time:	1.431	Roll Set Point:	-0.169	Pitch Set Point:	-0.206	Yaw Set Point:	0.027	X_WP:	0.000	Y_WP:	0.000	Y_WP:	0.500	X:	0.086	Y:	0.102	Z:	0.260	yaw:	-1.554	yaw rate:	-46.605	Roll:	4.793	Pitch:	6.201	Yaw:	1.677	Thrust:	51.157
Time:	1.451	Roll Set Point:	-0.174	Pitch Set Point:	-0.214	Yaw Set Point:	0.012	X_WP:	0.000	Y_WP:	0.000	Y_WP:	0.500	X:	0.087	Y:	0.107	Z:	0.269	yaw:	-0.702	yaw rate:	-85.238	Roll:	5.136	Pitch:	5.840	Yaw:	6.179	Thrust:	59.011
Time:	1.471	Roll Set Point:	-0.176	Pitch Set Point:	-0.222	Yaw Set Point:	0.016	X_WP:	0.000	Y_WP:	0.000	Y_WP:	0.500	X:	0.089	Y:	0.110	Z:	0.279	yaw:	-0.923	yaw rate:	22.129	Roll:	3.341	Pitch:	6.536	Yaw:	-8.190	Thrust:	59.613
Time:	1.491	Roll Set Point:	-0.178	Pitch Set Point:	-0.230	Yaw Set Point:	0.022	X_WP:	0.000	Y_WP:	0.000	Y_WP:	0.500	X:	0.090	Y:	0.114	Z:	0.288	yaw:	-1.289	yaw rate:	36.596	Roll:	2.998	Pitch:	6.465	Yaw:	-10.611	Thrust:	58.324
Time:	1.511	Roll Set Point:	-0.181	Pitch Set Point:	-0.236	Yaw Set Point:	0.011	X_WP:	0.000	Y_WP:	0.000	Y_WP:	0.500	X:	0.091	Y:	0.118	Z:	0.297	yaw:	-0.644	yaw rate:	-64.493	Roll:	4.198	Pitch:	5.513	Yaw:	3.439	Thrust:	60.131
Time:	1.532	Roll Set Point:	-0.183	Pitch Set Point:	-0.241	Yaw Set Point:	0.005	X_WP:	0.000	Y_WP:	0.000	Y_WP:	0.500	X:	0.092	Y:	0.120	Z:	0.306	yaw:	-0.310	yaw rate:	-33.384	Roll:	3.799	Pitch:	5.180	Yaw:	-0.509	Thrust:	60.545
Time:	1.553	Roll Set Point:	-0.184	Pitch Set Point:	-0.247	Yaw Set Point:	0.004	X_WP:	0.000	Y_WP:	0.000	Y_WP:	0.500	X:	0.092	Y:	0.123	Z:	0.316	yaw:	-0.216	yaw rate:	-9.354	Roll:	3.050	Pitch:	5.293	Yaw:	-3.517	Thrust:	72.122
Time:	1.571	Roll Set Point:	-0.185	Pitch Set Point:	-0.251	Yaw Set Point:	0.000	X_WP:	0.000	Y_WP:	0.000	Y_WP:	0.500	X:	0.092	Y:	0.125	Z:	0.325	yaw:	-0.022	yaw rate:	-19.488	Roll:	3.418	Pitch:	5.226	Yaw:	-0.717	Thrust:	50.241
Time:	1.591	Roll Set Point:	-0.183	Pitch Set Point:	-0.256	Yaw Set Point:	0.005	X_WP:	0.000	Y_WP:	0.000	Y_WP:	0.500	X:	0.092	Y:	0.128	Z:	0.334	yaw:	-0.306	yaw rate:	28.459	Roll:	1.489	Pitch:	5.999	Yaw:	-8.149	Thrust:	57.329
Time:	1.611	Roll Set Point:	-0.182	Pitch Set Point:	-0.261	Yaw Set Point:	0.001	X_WP:	0.000	Y_WP:	0.000	Y_WP:	0.500	X:	0.091	Y:	0.130	Z:	0.343	yaw:	-0.051	yaw rate:	-25.547	Roll:	2.517	Pitch:	5.394	Yaw:	-0.372	Thrust:	54.934
Time:	1.631	Roll Set Point:	-0.181	Pitch Set Point:	-0.264	Yaw Set Point:	0.001	X_WP:	0.000	Y_WP:	0.000	Y_WP:	0.500	X:	0.090	Y:	0.132	Z:	0.352	yaw:	-0.083	yaw rate:	3.192	Roll:	1.983	Pitch:	4.879	Yaw:	-4.775	Thrust:	65.892
Time:	1.651	Roll Set Point:	-0.180	Pitch Set Point:	-0.266	Yaw Set Point:	-0.009	X_WP:	0.000	Y_WP:	0.000	Y_WP:	0.500	X:	0.089	Y:	0.134	Z:	0.361	yaw:	0.489	yaw rate:	-57.119	Roll:	2.840	Pitch:	4.359	Yaw:	4.664	Thrust:	56.153
Time:	1.671	Roll Set Point:	-0.176	Pitch Set Point:	-0.270	Yaw Set Point:	0.007	X_WP:	0.000	Y_WP:	0.000	Y_WP:	0.500	X:	0.088	Y:	0.135	Z:	0.370	yaw:	-0.412	yaw rate:	90.034	Roll:	-0.118	Pitch:	5.898	Yaw:	-16.087	Thrust:	63.204
Time:	1.690	Roll Set Point:	-0.174	Pitch Set Point:	-0.272	Yaw Set Point:	-0.005	X_WP:	0.000	Y_WP:	0.000	Y_WP:	0.500	X:	0.087	Y:	0.136	Z:	0.379	yaw:	0.296	yaw rate:	-70.783	Roll:	2.636	Pitch:	3.896	Yaw:	5.999	Thrust:	58.579
Time:	1.711	Roll Set Point:	-0.172	Pitch Set Point:	-0.273	Yaw Set Point:	-0.011	X_WP:	0.000	Y_WP:	0.000	Y_WP:	0.500	X:	0.085	Y:	0.137	Z:	0.387	yaw:	0.629	yaw rate:	-33.264	Roll:	1.974	Pitch:	4.057	Yaw:	1.061	Thrust:	62.455
Time:	1.731	Roll Set Point:	-0.169	Pitch Set Point:	-0.275	Yaw Set Point:	-0.016	X_WP:	0.000	Y_WP:	0.000	Y_WP:	0.500	X:	0.083	Y:	0.138	Z:	0.396	yaw:	0.911	yaw rate:	-28.228	Roll:	1.431	Pitch:	4.332	Yaw:	1.243	Thrust:	57.919
Time:	1.751	Roll Set Point:	-0.164	Pitch Set Point:	-0.276	Yaw Set Point:	-0.005	X_WP:	0.000	Y_WP:	0.000	Y_WP:	0.500	X:	0.082	Y:	0.138	Z:	0.403	yaw:	0.302	yaw rate:	60.866	Roll:	-0.170	Pitch:	4.737	Yaw:	-11.309	Thrust:	67.543
Time:	1.771	Roll Set Point:	-0.160	Pitch Set Point:	-0.276	Yaw Set Point:	-0.007	X_WP:	0.000	Y_WP:	0.000	Y_WP:	0.500	X:	0.080	Y:	0.138	Z:	0.411	yaw:	0.381	yaw rate:	-7.912	Roll:	0.790	Pitch:	3.869	Yaw:	-2.358	Thrust:	60.360
Time:	1.791	Roll Set Point:	-0.156	Pitch Set Point:	-0.277	Yaw Set Point:	-0.005	X_WP:	0.000	Y_WP:	0.000	Y_WP:	0.500	X:	0.078	Y:	0.139	Z:	0.419	yaw:	0.300	yaw rate:	8.168	Roll:	0.270	Pitch:	4.077	Yaw:	-4.591	Thrust:	59.901
Time:	1.813	Roll Set Point:	-0.153	Pitch Set Point:	-0.276	Yaw Set Point:	-0.012	X_WP:	0.000	Y_WP:	0.000	Y_WP:	0.500	X:	0.076	Y:	0.138	Z:	0.427	yaw:	0.673	yaw rate:	-37.377	Roll:	1.252	Pitch:	3.229	Yaw:	1.342	Thrust:	66.640
Time:	1.830	Roll Set Point:	-0.150	Pitch Set Point:	-0.274	Yaw Set Point:	-0.021	X_WP:	0.000	Y_WP:	0.000	Y_WP:	0.500	X:	0.073	Y:	0.138	Z:	0.435	yaw:	1.228	yaw rate:	-55.435	Roll:	1.488	Pitch:	2.835	Yaw:	6.085	Thrust:	51.626
Time:	1.851	Roll Set Point:	-0.145	Pitch Set Point:	-0.274	Yaw Set Point:	-0.025	X_WP:	0.000	Y_WP:	0.000	Y_WP:	0.500	X:	0.071	Y:	0.138	Z:	0.443	yaw:	1.428	yaw rate:	-20.054	Roll:	0.421	Pitch:	3.406	Yaw:	0.533	Thrust:	60.871
Time:	1.871	Roll Set Point:	-0.137	Pitch Set Point:	-0.273	Yaw Set Point:	-0.006	X_WP:	0.000	Y_WP:	0.000	Y_WP:	0.500	X:	0.068	Y:	0.137	Z:	0.451	yaw:	0.349	yaw rate:	107.915	Roll:	-2.124	Pitch:	4.200	Yaw:	-17.468	Thrust:	60.762
Time:	1.891	Roll Set Point:	-0.135	Pitch Set Point:	-0.270	Yaw Set Point:	-0.021	X_WP:	0.000	Y_WP:	0.000	Y_WP:	0.500	X:	0.066	Y:	0.136	Z:	0.460	yaw:	1.231	yaw rate:	-88.221	Roll:	1.949	Pitch:	2.209	Yaw:	9.241	Thrust:	58.443
Time:	1.911	Roll Set Point:	-0.131	Pitch Set Point:	-0.268	Yaw Set Point:	-0.023	X_WP:	0.000	Y_WP:	0.000	Y_WP:	0.500	X:	0.064	Y:	0.135	Z:	0.468	yaw:	1.345	yaw rate:	-11.322	Roll:	0.124	Pitch:	2.768	Yaw:	-0.485	Thrust:	56.805
Time:	1.932	Roll Set Point:	-0.119	Pitch Set Point:	-0.269	Yaw Set Point:	0.020	X_WP:	0.000	Y_WP:	0.000	Y_WP:	0.500	X:	0.061	Y:	0.134	Z:	0.476	yaw:	-1.159	yaw rate:	250.354	Roll:	-5.752	Pitch:	5.357	Yaw:	-36.466	Thrust:	65.022
Time:	1.951	Roll Set Point:	-0.117	Pitch Set Point:	-0.265	Yaw Set Point:	0.003	X_WP:	0.000	Y_WP:	0.000	Y_WP:	0.500	X:	0.058	Y:	0.133	Z:	0.485	yaw:	-0.148	yaw rate:	-101.069	Roll:	1.911	Pitch:	1.611	Yaw:	10.016	Thrust:	52.041
Time:	1.971	Roll Set Point:	-0.112	Pitch Set Point:	-0.262	Yaw Set Point:	0.001	X_WP:	0.000	Y_WP:	0.000	Y_WP:	0.500	X:	0.056	Y:	0.131	Z:	0.493	yaw:	-0.046	yaw rate:	-10.229	Roll:	-0.237	Pitch:	2.342	Yaw:	-2.568	Thrust:	55.821
Time:	1.991	Roll Set Point:	-0.108	Pitch Set Point:	-0.259	Yaw Set Point:	-0.005	X_WP:	0.000	Y_WP:	0.000	Y_WP:	0.500	X:	0.054	Y:	0.130	Z:	0.501	yaw:	0.280	yaw rate:	-32.599	Roll:	0.208	Pitch:	2.131	Yaw:	0.827	Thrust:	55.934
Time:	2.014	Roll Set Point:	-0.104	Pitch Set Point:	-0.256	Yaw Set Point:	-0.011	X_WP:	0.000	Y_WP:	0.000	Y_WP:	0.500	X:	0.051	Y:	0.128	Z:	0.509	yaw:	0.620	yaw rate:	-33.984	Roll:	0.280	Pitch:	1.971	Yaw:	0.248	Thrust:	67.975
Time:	2.031	Roll Set Point:	-0.099	Pitch Set Point:	-0.253	Yaw Set Point:	-0.006	X_WP:	0.000	Y_WP:	0.000	Y_WP:	0.500	X:	0.049	Y:	0.127	Z:	0.517	yaw:	0.338	yaw rate:	28.209	Roll:	-1.052	Pitch:	2.574	Yaw:	-7.175	Thrust:	49.602
Time:	2.050	Roll Set Point:	-0.095	Pitch Set Point:	-0.249	Yaw Set Point:	-0.011	X_WP:	0.000	Y_WP:	0.000	Y_WP:	0.500	X:	0.047	Y:	0.125	Z:	0.524	yaw:	0.605	yaw rate:	-26.742	Roll:	0.201	Pitch:	1.567	Yaw:	0.709	Thrust:	51.667
Time:	2.071	Roll Set Point:	-0.085	Pitch Set Point:	-0.248	Yaw Set Point:	0.019	X_WP:	0.000	Y_WP:	0.000	Y_WP:	0.500	X:	0.044	Y:	0.124	Z:	0.532	yaw:	-1.114	yaw rate:	171.935	Roll:	-4.565	Pitch:	3.718	Yaw:	-27.407	Thrust:	61.600
Time:	2.091	Roll Set Point:	-0.080	Pitch Set Point:	-0.244	Yaw Set Point:	0.022	X_WP:	0.000	Y_WP:	0.000	Y_WP:	0.500	X:	0.041	Y:	0.122	Z:	0.539	yaw:	-1.254	yaw rate:	13.997	Roll:	-0.946	Pitch:	2.044	Yaw:	-7.531	Thrust:	57.496
Time:	2.111	Roll Set Point:	-0.077	Pitch Set Point:	-0.240	Yaw Set Point:	0.015	X_WP:	0.000	Y_WP:	0.000	Y_WP:	0.500	X:	0.040	Y:	0.120	Z:	0.546	yaw:	-0.851	yaw rate:	-40.277	Roll:	0.239	Pitch:	1.440	Yaw:	0.303	Thrust:	55.108
Time:	2.133	Roll Set Point:	-0.073	Pitch Set Point:	-0.236	Yaw Set Point:	0.015	X_WP:	0.000	Y_WP:	0.000	Y_WP:	0.500	X:	0.038	Y:	0.118	Z:	0.553	yaw:	-0.869	yaw rate:	1.811	Roll:	-0.528	Pitch:	1.857	Yaw:	-5.812	Thrust:	62.823
Time:	2.152	Roll Set Point:	-0.071	Pitch Set Point:	-0.232	Yaw Set Point:	0.008	X_WP:	0.000	Y_WP:	0.000	Y_WP:	0.500	X:	0.036	Y:	0.116	Z:	0.559	yaw:	-0.463	yaw rate:	-40.646	Roll:	0.355	Pitch:	1.183	Yaw:	1.218	Thrust:	54.511
Time:	2.171	Roll Set Point:	-0.066	Pitch Set Point:	-0.228	Yaw Set Point:	0.010	X_WP:	0.000	Y_WP:	0.000	Y_WP:	0.500	X:	0.034	Y:	0.114	Z:	0.565	yaw:	-0.577	yaw rate:	11.396	Roll:	-1.022	Pitch:	1.800	Yaw:	-6.154	Thrust:	56.101
Time:	2.191	Roll Set Point:	-0.063	Pitch Set Point:	-0.225	Yaw Set Point:	0.007	X_WP:	0.000	Y_WP:	0.000	Y_WP:	0.500	X:	0.032	Y:	0.112	Z:	0.571	yaw:	-0.392	yaw rate:	-18.498	Roll:	-0.293	Pitch:	1.561	Yaw:	-2.112	Thrust:	57.300
Time:	2.215	Roll Set Point:	-0.060	Pitch Set Point:	-0.220	Yaw Set Point:	0.006	X_WP:	0.000	Y_WP:	0.000	Y_WP:	0.500	X:	0.030	Y:	0.110	Z:	0.577	yaw:	-0.339	yaw rate:	-5.312	Roll:	-0.189	Pitch:	1.512	Yaw:	-4.685	Thrust:	71.110
Time:	2.231	Roll Set Point:	-0.056	Pitch Set Point:	-0.217	Yaw Set Point:	0.012	X_WP:	0.000	Y_WP:	0.000	Y_WP:	0.500	X:	0.029	Y:	0.108	Z:	0.582	yaw:	-0.699	yaw rate:	35.993	Roll:	-1.143	Pitch:	1.358	Yaw:	-10.099	Thrust:	42.756
Time:	2.251	Roll Set Point:	-0.054	Pitch Set Point:	-0.212	Yaw Set Point:	0.003	X_WP:	0.000	Y_WP:	0.000	Y_WP:	0.500	X:	0.027	Y:	0.106	Z:	0.587	yaw:	-0.171	yaw rate:	-52.747	Roll:	0.507	Pitch:	1.140	Yaw:	2.880	Thrust:	56.271
Time:	2.271	Roll Set Point:	-0.052	Pitch Set Point:	-0.208	Yaw Set Point:	0.000	X_WP:	0.000	Y_WP:	0.000	Y_WP:	0.500	X:	0.026	Y:	0.104	Z:	0.593	yaw:	-0.014	yaw rate:	-15.714	Roll:	0.194	Pitch:	0.980	Yaw:	-1.812	Thrust:	55.186
Time:	2.291	Roll Set Point:	-0.049	Pitch Set Point:	-0.204	Yaw Set Point:	0.003	X_WP:	0.000	Y_WP:	0.000	Y_WP:	0.500	X:	0.025	Y:	0.102	Z:	0.598	yaw:	-0.165	yaw rate:	15.113	Roll:	-0.701	Pitch:	1.604	Yaw:	-6.305	Thrust:	62.222
Time:	2.317	Roll Set Point:	-0.048	Pitch Set Point:	-0.200	Yaw Set Point:	-0.002	X_WP:	0.000	Y_WP:	0.000	Y_WP:	0.500	X:	0.024	Y:	0.100	Z:	0.602	yaw:	0.099	yaw rate:	-26.398	Roll:	0.562	Pitch:	1.386	Yaw:	-2.268	Thrust:	80.078
Time:	2.333	Roll Set Point:	-0.044	Pitch Set Point:	-0.197	Yaw Set Point:	0.003	X_WP:	0.000	Y_WP:	0.000	Y_WP:	0.500	X:	0.022	Y:	0.098	Z:	0.607	yaw:	-0.168	yaw rate:	26.640	Roll:	-1.617	Pitch:	0.913	Yaw:	-7.862	Thrust:	31.123
Time:	2.354	Roll Set Point:	-0.043	Pitch Set Point:	-0.193	Yaw Set Point:	0.003	X_WP:	0.000	Y_WP:	0.000	Y_WP:	0.500	X:	0.021	Y:	0.096	Z:	0.611	yaw:	-0.165	yaw rate:	-0.252	Roll:	0.034	Pitch:	1.362	Yaw:	-4.578	Thrust:	69.598
Time:	2.370	Roll Set Point:	-0.041	Pitch Set Point:	-0.189	Yaw Set Point:	0.006	X_WP:	0.000	Y_WP:	0.000	Y_WP:	0.500	X:	0.021	Y:	0.094	Z:	0.615	yaw:	-0.316	yaw rate:	15.135	Roll:	-0.427	Pitch:	0.730	Yaw:	-6.130	Thrust:	42.117
Time:	2.391	Roll Set Point:	-0.040	Pitch Set Point:	-0.186	Yaw Set Point:	-0.005	X_WP:	0.000	Y_WP:	0.000	Y_WP:	0.500	X:	0.020	Y:	0.093	Z:	0.620	yaw:	0.270	yaw rate:	-58.646	Roll:	0.751	Pitch:	1.201	Yaw:	3.812	Thrust:	58.112
Time:	2.413	Roll Set Point:	-0.039	Pitch Set Point:	-0.181	Yaw Set Point:	-0.002	X_WP:	0.000	Y_WP:	0.000	Y_WP:	0.500	X:	0.019	Y:	0.091	Z:	0.623	yaw:	0.095	yaw rate:	17.463	Roll:	0.096	Pitch:	1.073	Yaw:	-6.353	Thrust:	63.909
Time:	2.430	Roll Set Point:	-0.037	Pitch Set Point:	-0.178	Yaw Set Point:	-0.002	X_WP:	0.000	Y_WP:	0.000	Y_WP:	0.500	X:	0.019	Y:	0.089	Z:	0.626	yaw:	0.131	yaw rate:	-3.579	Roll:	0.003	Pitch:	1.057	Yaw:	-2.723	Thrust:	49.520
Time:	2.451	Roll Set Point:	-0.036	Pitch Set Point:	-0.175	Yaw Set Point:	0.001	X_WP:	0.000	Y_WP:	0.000	Y_WP:	0.500	X:	0.018	Y:	0.087	Z:	0.629	yaw:	-0.067	yaw rate:	19.836	Roll:	-0.176	Pitch:	1.183	Yaw:	-6.682	Thrust:	58.898
Time:	2.472	Roll Set Point:	-0.037	Pitch Set Point:	-0.171	Yaw Set Point:	-0.012	X_WP:	0.000	Y_WP:	0.000	Y_WP:	0.500	X:	0.018	Y:	0.086	Z:	0.631	yaw:	0.678	yaw rate:	-74.520	Roll:	1.489	Pitch:	0.893	Yaw:	5.714	Thrust:	64.695
Time:	2.491	Roll Set Point:	-0.035	Pitch Set Point:	-0.168	Yaw Set Point:	-0.001	X_WP:	0.000	Y_WP:	0.000	Y_WP:	0.500	X:	0.017	Y:	0.084	Z:	0.633	yaw:	0.039	yaw rate:	63.948	Roll:	-0.766	Pitch:	1.209	Yaw:	-12.611	Thrust:	55.032
Time:	2.511	Roll Set Point:	-0.035	Pitch Set Point:	-0.165	Yaw Set Point:	-0.006	X_WP:	0.000	Y_WP:	0.000	Y_WP:	0.500	X:	0.017	Y:	0.082	Z:	0.635	yaw:	0.317	yaw rate:	-27.807	Roll:	0.834	Pitch:	0.919	Yaw:	-0.102	Thrust:	61.773
Time:	2.533	Roll Set Point:	-0.034	Pitch Set Point:	-0.162	Yaw Set Point:	-0.003	X_WP:	0.000	Y_WP:	0.000	Y_WP:	0.500	X:	0.017	Y:	0.081	Z:	0.636	yaw:	0.180	yaw rate:	13.654	Roll:	0.192	Pitch:	1.248	Yaw:	-5.732	Thrust:	67.275
Time:	2.552	Roll Set Point:	-0.035	Pitch Set Point:	-0.159	Yaw Set Point:	-0.010	X_WP:	0.000	Y_WP:	0.000	Y_WP:	0.500	X:	0.017	Y:	0.079	Z:	0.637	yaw:	0.591	yaw rate:	-41.082	Roll:	1.166	Pitch:	0.909	Yaw:	2.968	Thrust:	54.287
Time:	2.571	Roll Set Point:	-0.034	Pitch Set Point:	-0.156	Yaw Set Point:	-0.009	X_WP:	0.000	Y_WP:	0.000	Y_WP:	0.500	X:	0.017	Y:	0.078	Z:	0.638	yaw:	0.528	yaw rate:	6.282	Roll:	0.312	Pitch:	1.188	Yaw:	-3.840	Thrust:	55.113
Time:	2.590	Roll Set Point:	-0.034	Pitch Set Point:	-0.154	Yaw Set Point:	-0.005	X_WP:	0.000	Y_WP:	0.000	Y_WP:	0.500	X:	0.017	Y:	0.077	Z:	0.639	yaw:	0.278	yaw rate:	24.998	Roll:	0.267	Pitch:	1.162	Yaw:	-6.840	Thrust:	58.095
Time:	2.611	Roll Set Point:	-0.034	Pitch Set Point:	-0.151	Yaw Set Point:	-0.007	X_WP:	0.000	Y_WP:	0.000	Y_WP:	0.500	X:	0.017	Y:	0.076	Z:	0.640	yaw:	0.405	yaw rate:	-12.726	Roll:	0.797	Pitch:	1.138	Yaw:	-1.749	Thrust:	58.706
Time:	2.630	Roll Set Point:	-0.035	Pitch Set Point:	-0.149	Yaw Set Point:	-0.007	X_WP:	0.000	Y_WP:	0.000	Y_WP:	0.500	X:	0.017	Y:	0.074	Z:	0.641	yaw:	0.395	yaw rate:	1.050	Roll:	0.781	Pitch:	1.167	Yaw:	-3.545	Thrust:	57.879
Time:	2.651	Roll Set Point:	-0.036	Pitch Set Point:	-0.146	Yaw Set Point:	-0.015	X_WP:	0.000	Y_WP:	0.000	Y_WP:	0.500	X:	0.017	Y:	0.073	Z:	0.643	yaw:	0.886	yaw rate:	-49.086	Roll:	1.415	Pitch:	0.963	Yaw:	3.608	Thrust:	58.039
Time:	2.671	Roll Set Point:	-0.037	Pitch Set Point:	-0.143	Yaw Set Point:	-0.021	X_WP:	0.000	Y_WP:	0.000	Y_WP:	0.500	X:	0.018	Y:	0.072	Z:	0.644	yaw:	1.186	yaw rate:	-29.989	Roll:	1.443	Pitch:	0.930	Yaw:	1.563	Thrust:	57.354
Time:	2.690	Roll Set Point:	-0.037	Pitch Set Point:	-0.141	Yaw Set Point:	-0.016	X_WP:	0.000	Y_WP:	0.000	Y_WP:	0.500	X:	0.018	Y:	0.071	Z:	0.645	yaw:	0.898	yaw rate:	28.731	Roll:	0.440	Pitch:	1.364	Yaw:	-6.449	Thrust:	56.293
Time:	2.711	Roll Set Point:	-0.037	Pitch Set Point:	-0.140	Yaw Set Point:	-0.009	X_WP:	0.000	Y_WP:	0.000	Y_WP:	0.500	X:	0.018	Y:	0.070	Z:	0.646	yaw:	0.505	yaw rate:	39.278	Roll:	0.287	Pitch:	1.500	Yaw:	-8.327	Thrust:	58.531
Time:	2.732	Roll Set Point:	-0.038	Pitch Set Point:	-0.138	Yaw Set Point:	-0.011	X_WP:	0.000	Y_WP:	0.000	Y_WP:	0.500	X:	0.019	Y:	0.069	Z:	0.647	yaw:	0.634	yaw rate:	-12.856	Roll:	1.145	Pitch:	1.247	Yaw:	-1.190	Thrust:	55.993
Time:	2.754	Roll Set Point:	-0.040	Pitch Set Point:	-0.136	Yaw Set Point:	-0.021	X_WP:	0.000	Y_WP:	0.000	Y_WP:	0.500	X:	0.019	Y:	0.068	Z:	0.649	yaw:	1.189	yaw rate:	-55.478	Roll:	1.720	Pitch:	1.180	Yaw:	3.124	Thrust:	68.243
Time:	2.770	Roll Set Point:	-0.040	Pitch Set Point:	-0.135	Yaw Set Point:	-0.013	X_WP:	0.000	Y_WP:	0.000	Y_WP:	0.500	X:	0.019	Y:	0.067	Z:	0.649	yaw:	0.742	yaw rate:	44.688	Roll:	0.223	Pitch:	1.465	Yaw:	-9.539	Thrust:	41.091
Time:	2.790	Roll Set Point:	-0.041	Pitch Set Point:	-0.133	Yaw Set Point:	-0.018	X_WP:	0.000	Y_WP:	0.000	Y_WP:	0.500	X:	0.020	Y:	0.066	Z:	0.650	yaw:	1.039	yaw rate:	-29.743	Roll:	1.676	Pitch:	1.090	Yaw:	1.471	Thrust:	55.131
Time:	2.813	Roll Set Point:	-0.043	Pitch Set Point:	-0.132	Yaw Set Point:	-0.041	X_WP:	0.000	Y_WP:	0.000	Y_WP:	0.500	X:	0.020	Y:	0.066	Z:	0.651	yaw:	2.368	yaw rate:	-132.823	Roll:	2.216	Pitch:	1.437	Yaw:	14.682	Thrust:	62.708
Time:	2.831	Roll Set Point:	-0.043	Pitch Set Point:	-0.130	Yaw Set Point:	-0.019	X_WP:	0.000	Y_WP:	0.000	Y_WP:	0.500	X:	0.021	Y:	0.065	Z:	0.652	yaw:	1.073	yaw rate:	129.440	Roll:	-0.012	Pitch:	1.478	Yaw:	-20.273	Thrust:	51.377
Time:	2.850	Roll Set Point:	-0.043	Pitch Set Point:	-0.129	Yaw Set Point:	-0.012	X_WP:	0.000	Y_WP:	0.000	Y_WP:	0.500	X:	0.021	Y:	0.065	Z:	0.652	yaw:	0.709	yaw rate:	36.412	Roll:	0.470	Pitch:	1.778	Yaw:	-7.684	Thrust:	55.009
Time:	2.871	Roll Set Point:	-0.044	Pitch Set Point:	-0.128	Yaw Set Point:	-0.014	X_WP:	0.000	Y_WP:	0.000	Y_WP:	0.500	X:	0.022	Y:	0.064	Z:	0.652	yaw:	0.810	yaw rate:	-10.099	Roll:	1.376	Pitch:	1.390	Yaw:	-1.506	Thrust:	56.879
Time:	2.890	Roll Set Point:	-0.045	Pitch Set Point:	-0.127	Yaw Set Point:	-0.018	X_WP:	0.000	Y_WP:	0.000	Y_WP:	0.500	X:	0.022	Y:	0.064	Z:	0.651	yaw:	1.029	yaw rate:	-21.905	Roll:	1.225	Pitch:	1.505	Yaw:	0.570	Thrust:	55.804
Time:	2.912	Roll Set Point:	-0.047	Pitch Set Point:	-0.126	Yaw Set Point:	-0.022	X_WP:	0.000	Y_WP:	0.000	Y_WP:	0.500	X:	0.023	Y:	0.063	Z:	0.650	yaw:	1.245	yaw rate:	-21.557	Roll:	1.562	Pitch:	1.379	Yaw:	0.174	Thrust:	59.882
Time:	2.933	Roll Set Point:	-0.048	Pitch Set Point:	-0.125	Yaw Set Point:	-0.027	X_WP:	0.000	Y_WP:	0.000	Y_WP:	0.500	X:	0.023	Y:	0.063	Z:	0.649	yaw:	1.533	yaw rate:	-28.834	Roll:	1.688	Pitch:	1.409	Yaw:	1.881	Thrust:	60.707
Time:	2.953	Roll Set Point:	-0.049	Pitch Set Point:	-0.124	Yaw Set Point:	-0.024	X_WP:	0.000	Y_WP:	0.000	Y_WP:	0.500	X:	0.024	Y:	0.062	Z:	0.648	yaw:	1.350	yaw rate:	18.323	Roll:	0.897	Pitch:	1.701	Yaw:	-4.410	Thrust:	59.488
Time:	2.971	Roll Set Point:	-0.049	Pitch Set Point:	-0.124	Yaw Set Point:	-0.022	X_WP:	0.000	Y_WP:	0.000	Y_WP:	0.500	X:	0.024	Y:	0.062	Z:	0.646	yaw:	1.266	yaw rate:	8.418	Roll:	0.790	Pitch:	1.827	Yaw:	-2.949	Thrust:	52.304
Time:	2.991	Roll Set Point:	-0.049	Pitch Set Point:	-0.124	Yaw Set Point:	-0.019	X_WP:	0.000	Y_WP:	0.000	Y_WP:	0.500	X:	0.024	Y:	0.062	Z:	0.644	yaw:	1.110	yaw rate:	15.610	Roll:	1.041	Pitch:	1.652	Yaw:	-4.295	Thrust:	58.748
Time:	3.015	Roll Set Point:	-0.050	Pitch Set Point:	-0.123	Yaw Set Point:	-0.022	X_WP:	0.000	Y_WP:	0.000	Y_WP:	0.500	X:	0.024	Y:	0.062	Z:	0.643	yaw:	1.287	yaw rate:	-17.781	Roll:	1.280	Pitch:	1.706	Yaw:	-0.700	Thrust:	63.973
Time:	3.030	Roll Set Point:	-0.054	Pitch Set Point:	-0.123	Yaw Set Point:	-0.062	X_WP:	0.000	Y_WP:	0.000	Y_WP:	0.500	X:	0.025	Y:	0.062	Z:	0.641	yaw:	3.552	yaw rate:	-226.496	Roll:	3.630	Pitch:	1.029	Yaw:	39.427	Thrust:	49.520
Time:	3.050	Roll Set Point:	-0.054	Pitch Set Point:	-0.122	Yaw Set Point:	-0.053	X_WP:	0.000	Y_WP:	0.000	Y_WP:	0.500	X:	0.025	Y:	0.062	Z:	0.639	yaw:	3.055	yaw rate:	49.749	Roll:	0.821	Pitch:	1.651	Yaw:	-6.016	Thrust:	58.746
Time:	3.071	Roll Set Point:	-0.056	Pitch Set Point:	-0.121	Yaw Set Point:	-0.062	X_WP:	0.000	Y_WP:	0.000	Y_WP:	0.500	X:	0.026	Y:	0.061	Z:	0.637	yaw:	3.551	yaw rate:	-49.581	Roll:	2.008	Pitch:	1.336	Yaw:	7.191	Thrust:	57.581
Time:	3.092	Roll Set Point:	-0.055	Pitch Set Point:	-0.121	Yaw Set Point:	-0.058	X_WP:	0.000	Y_WP:	0.000	Y_WP:	0.500	X:	0.026	Y:	0.061	Z:	0.635	yaw:	3.335	yaw rate:	21.569	Roll:	0.732	Pitch:	2.006	Yaw:	-1.913	Thrust:	61.390
Time:	3.111	Roll Set Point:	-0.056	Pitch Set Point:	-0.121	Yaw Set Point:	-0.057	X_WP:	0.000	Y_WP:	0.000	Y_WP:	0.500	X:	0.026	Y:	0.061	Z:	0.632	yaw:	3.265	yaw rate:	6.946	Roll:	1.133	Pitch:	1.723	Yaw:	-0.040	Thrust:	56.896
Time:	3.131	Roll Set Point:	-0.057	Pitch Set Point:	-0.120	Yaw Set Point:	-0.059	X_WP:	0.000	Y_WP:	0.000	Y_WP:	0.500	X:	0.027	Y:	0.061	Z:	0.630	yaw:	3.404	yaw rate:	-13.832	Roll:	1.517	Pitch:	1.596	Yaw:	2.827	Thrust:	59.929
Time:	3.154	Roll Set Point:	-0.057	Pitch Set Point:	-0.120	Yaw Set Point:	-0.057	X_WP:	0.000	Y_WP:	0.000	Y_WP:	0.500	X:	0.027	Y:	0.061	Z:	0.627	yaw:	3.260	yaw rate:	14.348	Roll:	1.068	Pitch:	1.826	Yaw:	-1.307	Thrust:	66.624
Time:	3.171	Roll Set Point:	-0.056	Pitch Set Point:	-0.120	Yaw Set Point:	-0.051	X_WP:	0.000	Y_WP:	0.000	Y_WP:	0.500	X:	0.027	Y:	0.061	Z:	0.624	yaw:	2.913	yaw rate:	34.691	Roll:	0.360	Pitch:	2.085	Yaw:	-4.442	Thrust:	50.522
Time:	3.190	Roll Set Point:	-0.057	Pitch Set Point:	-0.120	Yaw Set Point:	-0.053	X_WP:	0.000	Y_WP:	0.000	Y_WP:	0.500	X:	0.027	Y:	0.061	Z:	0.621	yaw:	3.051	yaw rate:	-13.775	Roll:	1.232	Pitch:	1.749	Yaw:	2.545	Thrust:	57.521
Time:	3.211	Roll Set Point:	-0.058	Pitch Set Point:	-0.120	Yaw Set Point:	-0.060	X_WP:	0.000	Y_WP:	0.000	Y_WP:	0.500	X:	0.027	Y:	0.061	Z:	0.619	yaw:	3.426	yaw rate:	-37.535	Roll:	1.688	Pitch:	1.529	Yaw:	6.068	Thrust:	55.655
Time:	3.230	Roll Set Point:	-0.058	Pitch Set Point:	-0.119	Yaw Set Point:	-0.059	X_WP:	0.000	Y_WP:	0.000	Y_WP:	0.500	X:	0.027	Y:	0.061	Z:	0.616	yaw:	3.385	yaw rate:	4.141	Roll:	1.001	Pitch:	1.816	Yaw:	0.639	Thrust:	60.348
Time:	3.250	Roll Set Point:	-0.057	Pitch Set Point:	-0.120	Yaw Set Point:	-0.055	X_WP:	0.000	Y_WP:	0.000	Y_WP:	0.500	X:	0.027	Y:	0.061	Z:	0.612	yaw:	3.136	yaw rate:	24.875	Roll:	0.543	Pitch:	2.091	Yaw:	-2.441	Thrust:	60.036
Time:	3.271	Roll Set Point:	-0.057	Pitch Set Point:	-0.120	Yaw Set Point:	-0.054	X_WP:	0.000	Y_WP:	0.000	Y_WP:	0.500	X:	0.027	Y:	0.061	Z:	0.609	yaw:	3.082	yaw rate:	5.471	Roll:	1.176	Pitch:	1.801	Yaw:	0.029	Thrust:	58.903
Time:	3.290	Roll Set Point:	-0.056	Pitch Set Point:	-0.120	Yaw Set Point:	-0.048	X_WP:	0.000	Y_WP:	0.000	Y_WP:	0.500	X:	0.027	Y:	0.061	Z:	0.606	yaw:	2.748	yaw rate:	33.338	Roll:	0.452	Pitch:	2.174	Yaw:	-4.058	Thrust:	58.442
Time:	3.311	Roll Set Point:	-0.056	Pitch Set Point:	-0.120	Yaw Set Point:	-0.047	X_WP:	0.000	Y_WP:	0.000	Y_WP:	0.500	X:	0.027	Y:	0.061	Z:	0.603	yaw:	2.711	yaw rate:	3.722	Roll:	0.918	Pitch:	1.858	Yaw:	-0.230	Thrust:	59.880
Time:	3.333	Roll Set Point:	-0.057	Pitch Set Point:	-0.120	Yaw Set Point:	-0.057	X_WP:	0.000	Y_WP:	0.000	Y_WP:	0.500	X:	0.027	Y:	0.061	Z:	0.600	yaw:	3.283	yaw rate:	-57.169	Roll:	1.680	Pitch:	1.612	Yaw:	7.181	Thrust:	65.849
Time:	3.353	Roll Set Point:	-0.056	Pitch Set Point:	-0.120	Yaw Set Point:	-0.046	X_WP:	0.000	Y_WP:	0.000	Y_WP:	0.500	X:	0.027	Y:	0.061	Z:	0.596	yaw:	2.651	yaw rate:	63.210	Roll:	0.013	Pitch:	2.345	Yaw:	-8.064	Thrust:	58.166
Time:	3.371	Roll Set Point:	-0.056	Pitch Set Point:	-0.120	Yaw Set Point:	-0.045	X_WP:	0.000	Y_WP:	0.000	Y_WP:	0.500	X:	0.026	Y:	0.061	Z:	0.592	yaw:	2.584	yaw rate:	6.616	Roll:	0.806	Pitch:	1.958	Yaw:	-0.389	Thrust:	54.779
Time:	3.390	Roll Set Point:	-0.056	Pitch Set Point:	-0.121	Yaw Set Point:	-0.050	X_WP:	0.000	Y_WP:	0.000	Y_WP:	0.500	X:	0.026	Y:	0.061	Z:	0.589	yaw:	2.857	yaw rate:	-27.249	Roll:	1.102	Pitch:	1.924	Yaw:	4.400	Thrust:	57.154
Time:	3.414	Roll Set Point:	-0.055	Pitch Set Point:	-0.121	Yaw Set Point:	-0.048	X_WP:	0.000	Y_WP:	0.000	Y_WP:	0.500	X:	0.026	Y:	0.061	Z:	0.586	yaw:	2.764	yaw rate:	9.258	Roll:	0.852	Pitch:	2.004	Yaw:	-1.133	Thrust:	64.158
Time:	3.430	Roll Set Point:	-0.055	Pitch Set Point:	-0.121	Yaw Set Point:	-0.043	X_WP:	0.000	Y_WP:	0.000	Y_WP:	0.500	X:	0.026	Y:	0.061	Z:	0.583	yaw:	2.442	yaw rate:	32.212	Roll:	0.580	Pitch:	2.102	Yaw:	-4.453	Thrust:	52.970
Time:	3.450	Roll Set Point:	-0.055	Pitch Set Point:	-0.121	Yaw Set Point:	-0.047	X_WP:	0.000	Y_WP:	0.000	Y_WP:	0.500	X:	0.026	Y:	0.061	Z:	0.580	yaw:	2.678	yaw rate:	-23.567	Roll:	1.139	Pitch:	1.874	Yaw:	3.286	Thrust:	58.568
Time:	3.470	Roll Set Point:	-0.055	Pitch Set Point:	-0.121	Yaw Set Point:	-0.049	X_WP:	0.000	Y_WP:	0.000	Y_WP:	0.500	X:	0.026	Y:	0.061	Z:	0.577	yaw:	2.799	yaw rate:	-12.096	Roll:	1.024	Pitch:	1.947	Yaw:	2.171	Thrust:	58.957
Time:	3.490	Roll Set Point:	-0.054	Pitch Set Point:	-0.121	Yaw Set Point:	-0.044	X_WP:	0.000	Y_WP:	0.000	Y_WP:	0.500	X:	0.026	Y:	0.061	Z:	0.574	yaw:	2.547	yaw rate:	25.178	Roll:	0.610	Pitch:	2.096	Yaw:	-3.063	Thrust:	57.768
Time:	3.511	Roll Set Point:	-0.054	Pitch Set Point:	-0.122	Yaw Set Point:	-0.043	X_WP:	0.000	Y_WP:	0.000	Y_WP:	0.500	X:	0.026	Y:	0.061	Z:	0.571	yaw:	2.467	yaw rate:	7.996	Roll:	0.792	Pitch:	2.132	Yaw:	-0.981	Thrust:	58.513
Time:	3.531	Roll Set Point:	-0.055	Pitch Set Point:	-0.122	Yaw Set Point:	-0.051	X_WP:	0.000	Y_WP:	0.000	Y_WP:	0.500	X:	0.026	Y:	0.061	Z:	0.568	yaw:	2.927	yaw rate:	-45.952	Roll:	1.561	Pitch:	1.725	Yaw:	6.732	Thrust:	59.522
Time:	3.554	Roll Set Point:	-0.054	Pitch Set Point:	-0.122	Yaw Set Point:	-0.047	X_WP:	0.000	Y_WP:	0.000	Y_WP:	0.500	X:	0.025	Y:	0.062	Z:	0.565	yaw:	2.684	yaw rate:	24.221	Roll:	0.512	Pitch:	2.282	Yaw:	-2.737	Thrust:	64.125
Time:	3.571	Roll Set Point:	-0.053	Pitch Set Point:	-0.122	Yaw Set Point:	-0.043	X_WP:	0.000	Y_WP:	0.000	Y_WP:	0.500	X:	0.025	Y:	0.062	Z:	0.561	yaw:	2.463	yaw rate:	22.101	Roll:	0.680	Pitch:	2.054	Yaw:	-2.717	Thrust:	52.888
Time:	3.590	Roll Set Point:	-0.054	Pitch Set Point:	-0.122	Yaw Set Point:	-0.047	X_WP:	0.000	Y_WP:	0.000	Y_WP:	0.500	X:	0.026	Y:	0.062	Z:	0.558	yaw:	2.713	yaw rate:	-24.939	Roll:	1.380	Pitch:	1.797	Yaw:	3.980	Thrust:	57.058
Time:	3.614	Roll Set Point:	-0.053	Pitch Set Point:	-0.123	Yaw Set Point:	-0.049	X_WP:	0.000	Y_WP:	0.000	Y_WP:	0.500	X:	0.025	Y:	0.062	Z:	0.555	yaw:	2.798	yaw rate:	-8.470	Roll:	0.593	Pitch:	2.397	Yaw:	1.191	Thrust:	64.786
Time:	3.631	Roll Set Point:	-0.053	Pitch Set Point:	-0.123	Yaw Set Point:	-0.045	X_WP:	0.000	Y_WP:	0.000	Y_WP:	0.500	X:	0.025	Y:	0.062	Z:	0.551	yaw:	2.586	yaw rate:	21.104	Roll:	0.894	Pitch:	1.887	Yaw:	-2.336	Thrust:	55.658
Time:	3.651	Roll Set Point:	-0.052	Pitch Set Point:	-0.123	Yaw Set Point:	-0.038	X_WP:	0.000	Y_WP:	0.000	Y_WP:	0.500	X:	0.025	Y:	0.062	Z:	0.547	yaw:	2.175	yaw rate:	41.179	Roll:	0.463	Pitch:	2.180	Yaw:	-5.529	Thrust:	58.749
Time:	3.670	Roll Set Point:	-0.052	Pitch Set Point:	-0.124	Yaw Set Point:	-0.039	X_WP:	0.000	Y_WP:	0.000	Y_WP:	0.500	X:	0.025	Y:	0.062	Z:	0.544	yaw:	2.262	yaw rate:	-8.707	Roll:	0.865	Pitch:	2.153	Yaw:	1.298	Thrust:	59.846
Time:	3.690	Roll Set Point:	-0.052	Pitch Set Point:	-0.124	Yaw Set Point:	-0.044	X_WP:	0.000	Y_WP:	0.000	Y_WP:	0.500	X:	0.025	Y:	0.062	Z:	0.540	yaw:	2.502	yaw rate:	-24.013	Roll:	1.219	Pitch:	1.980	Yaw:	3.504	Thrust:	60.308
Time:	3.711	Roll Set Point:	-0.052	Pitch Set Point:	-0.124	Yaw Set Point:	-0.039	X_WP:	0.000	Y_WP:	0.000	Y_WP:	0.500	X:	0.025	Y:	0.062	Z:	0.536	yaw:	2.238	yaw rate:	26.424	Roll:	0.676	Pitch:	2.158	Yaw:	-3.456	Thrust:	61.397
Time:	3.733	Roll Set Point:	-0.052	Pitch Set Point:	-0.124	Yaw Set Point:	-0.038	X_WP:	0.000	Y_WP:	0.000	Y_WP:	0.500	X:	0.025	Y:	0.063	Z:	0.532	yaw:	2.183	yaw rate:	5.460	Roll:	0.857	Pitch:	2.103	Yaw:	-1.111	Thrust:	66.400
Time:	3.754	Roll Set Point:	-0.051	Pitch Set Point:	-0.125	Yaw Set Point:	-0.036	X_WP:	0.000	Y_WP:	0.000	Y_WP:	0.500	X:	0.025	Y:	0.063	Z:	0.529	yaw:	2.056	yaw rate:	12.694	Roll:	0.670	Pitch:	2.269	Yaw:	-1.924	Thrust:	61.618
Time:	3.771	Roll Set Point:	-0.051	Pitch Set Point:	-0.125	Yaw Set Point:	-0.037	X_WP:	0.000	Y_WP:	0.000	Y_WP:	0.500	X:	0.024	Y:	0.063	Z:	0.525	yaw:	2.101	yaw rate:	-4.451	Roll:	0.972	Pitch:	2.083	Yaw:	0.877	Thrust:	54.202
Time:	3.791	Roll Set Point:	-0.055	Pitch Set Point:	-0.123	Yaw Set Point:	-0.076	X_WP:	0.000	Y_WP:	0.000	Y_WP:	0.500	X:	0.025	Y:	0.063	Z:	0.522	yaw:	4.355	yaw rate:	-225.409	Roll:	3.664	Pitch:	0.679	Yaw:	35.038	Thrust:	57.798
Time:	3.814	Roll Set Point:	-0.055	Pitch Set Point:	-0.124	Yaw Set Point:	-0.083	X_WP:	0.000	Y_WP:	0.000	Y_WP:	0.500	X:	0.025	Y:	0.063	Z:	0.519	yaw:	4.773	yaw rate:	-41.814	Roll:	1.256	Pitch:	2.251	Yaw:	7.505	Thrust:	69.493
Time:	3.830	Roll Set Point:	-0.055	Pitch Set Point:	-0.124	Yaw Set Point:	-0.074	X_WP:	0.000	Y_WP:	0.000	Y_WP:	0.500	X:	0.025	Y:	0.063	Z:	0.515	yaw:	4.246	yaw rate:	52.634	Roll:	0.690	Pitch:	2.001	Yaw:	-5.025	Thrust:	51.585
Time:	3.851	Roll Set Point:	-0.055	Pitch Set Point:	-0.124	Yaw Set Point:	-0.076	X_WP:	0.000	Y_WP:	0.000	Y_WP:	0.500	X:	0.025	Y:	0.063	Z:	0.512	yaw:	4.378	yaw rate:	-13.127	Roll:	1.206	Pitch:	2.001	Yaw:	4.732	Thrust:	60.871
Time:	3.871	Roll Set Point:	-0.054	Pitch Set Point:	-0.124	Yaw Set Point:	-0.071	X_WP:	0.000	Y_WP:	0.000	Y_WP:	0.500	X:	0.025	Y:	0.063	Z:	0.510	yaw:	4.057	yaw rate:	32.072	Roll:	0.652	Pitch:	2.357	Yaw:	-1.495	Thrust:	58.451
Time:	3.890	Roll Set Point:	-0.054	Pitch Set Point:	-0.125	Yaw Set Point:	-0.063	X_WP:	0.000	Y_WP:	0.000	Y_WP:	0.500	X:	0.025	Y:	0.063	Z:	0.507	yaw:	3.615	yaw rate:	44.180	Roll:	0.578	Pitch:	2.359	Yaw:	-3.690	Thrust:	58.287
Time:	3.911	Roll Set Point:	-0.053	Pitch Set Point:	-0.125	Yaw Set Point:	-0.056	X_WP:	0.000	Y_WP:	0.000	Y_WP:	0.500	X:	0.025	Y:	0.063	Z:	0.504	yaw:	3.207	yaw rate:	40.823	Roll:	0.707	Pitch:	2.218	Yaw:	-3.693	Thrust:	58.798
Time:	3.933	Roll Set Point:	-0.053	Pitch Set Point:	-0.125	Yaw Set Point:	-0.059	X_WP:	0.000	Y_WP:	0.000	Y_WP:	0.500	X:	0.025	Y:	0.063	Z:	0.502	yaw:	3.354	yaw rate:	-14.649	Roll:	1.103	Pitch:	2.136	Yaw:	3.161	Thrust:	65.649
Time:	3.951	Roll Set Point:	-0.054	Pitch Set Point:	-0.126	Yaw Set Point:	-0.062	X_WP:	0.000	Y_WP:	0.000	Y_WP:	0.500	X:	0.025	Y:	0.064	Z:	0.500	yaw:	3.552	yaw rate:	-19.883	Roll:	1.155	Pitch:	2.150	Yaw:	5.296	Thrust:	53.595
Time:	3.971	Roll Set Point:	-0.054	Pitch Set Point:	-0.125	Yaw Set Point:	-0.068	X_WP:	0.000	Y_WP:	0.000	Y_WP:	0.500	X:	0.025	Y:	0.064	Z:	0.498	yaw:	3.900	yaw rate:	-34.759	Roll:	1.527	Pitch:	1.850	Yaw:	7.436	Thrust:	56.960
Time:	3.991	Roll Set Point:	-0.053	Pitch Set Point:	-0.126	Yaw Set Point:	-0.050	X_WP:	0.000	Y_WP:	0.000	Y_WP:	0.500	X:	0.025	Y:	0.064	Z:	0.496	yaw:	2.887	yaw rate:	101.330	Roll:	-0.059	Pitch:	2.741	Yaw:	-11.771	Thrust:	59.576
Time:	4.015	Roll Set Point:	-0.054	Pitch Set Point:	-0.126	Yaw Set Point:	-0.061	X_WP:	0.000	Y_WP:	0.000	Y_WP:	0.500	X:	0.025	Y:	0.064	Z:	0.494	yaw:	3.468	yaw rate:	-58.134	Roll:	1.636	Pitch:	1.977	Yaw:	7.852	Thrust:	67.107
Time:	4.032	Roll Set Point:	-0.054	Pitch Set Point:	-0.126	Yaw Set Point:	-0.063	X_WP:	0.000	Y_WP:	0.000	Y_WP:	0.500	X:	0.025	Y:	0.064	Z:	0.491	yaw:	3.600	yaw rate:	-13.186	Roll:	1.286	Pitch:	1.890	Yaw:	4.708	Thrust:	51.621
Time:	4.051	Roll Set Point:	-0.050	Pitch Set Point:	-0.128	Yaw Set Point:	-0.024	X_WP:	0.000	Y_WP:	0.000	Y_WP:	0.500	X:	0.024	Y:	0.064	Z:	0.489	yaw:	1.384	yaw rate:	221.560	Roll:	-1.638	Pitch:	3.526	Yaw:	-31.094	Thrust:	59.572
Time:	4.071	Roll Set Point:	-0.051	Pitch Set Point:	-0.128	Yaw Set Point:	-0.027	X_WP:	0.000	Y_WP:	0.000	Y_WP:	0.500	X:	0.024	Y:	0.065	Z:	0.486	yaw:	1.536	yaw rate:	-15.221	Roll:	1.076	Pitch:	2.148	Yaw:	1.646	Thrust:	57.233
Time:	4.091	Roll Set Point:	-0.053	Pitch Set Point:	-0.127	Yaw Set Point:	-0.057	X_WP:	0.000	Y_WP:	0.000	Y_WP:	0.500	X:	0.025	Y:	0.064	Z:	0.484	yaw:	3.266	yaw rate:	-173.000	Roll:	2.948	Pitch:	1.274	Yaw:	23.413	Thrust:	61.710
Time:	4.111	Roll Set Point:	-0.053	Pitch Set Point:	-0.128	Yaw Set Point:	-0.049	X_WP:	0.000	Y_WP:	0.000	Y_WP:	0.500	X:	0.025	Y:	0.065	Z:	0.481	yaw:	2.799	yaw rate:	46.695	Roll:	0.531	Pitch:	2.509	Yaw:	-4.876	Thrust:	59.085
Time:	4.132	Roll Set Point:	-0.053	Pitch Set Point:	-0.128	Yaw Set Point:	-0.057	X_WP:	0.000	Y_WP:	0.000	Y_WP:	0.500	X:	0.025	Y:	0.065	Z:	0.478	yaw:	3.248	yaw rate:	-44.810	Roll:	1.499	Pitch:	1.931	Yaw:	7.298	Thrust:	65.142
Time:	4.153	Roll Set Point:	-0.051	Pitch Set Point:	-0.129	Yaw Set Point:	-0.026	X_WP:	0.000	Y_WP:	0.000	Y_WP:	0.500	X:	0.024	Y:	0.065	Z:	0.475	yaw:	1.500	yaw rate:	174.769	Roll:	-0.878	Pitch:	3.213	Yaw:	-22.488	Thrust:	62.873
Time:	4.171	Roll Set Point:	-0.050	Pitch Set Point:	-0.130	Yaw Set Point:	-0.022	X_WP:	0.000	Y_WP:	0.000	Y_WP:	0.500	X:	0.024	Y:	0.065	Z:	0.473	yaw:	1.276	yaw rate:	22.381	Roll:	0.622	Pitch:	2.391	Yaw:	-3.863	Thrust:	56.842
Time:	4.191	Roll Set Point:	-0.053	Pitch Set Point:	-0.129	Yaw Set Point:	-0.047	X_WP:	0.000	Y_WP:	0.000	Y_WP:	0.500	X:	0.025	Y:	0.065	Z:	0.470	yaw:	2.691	yaw rate:	-141.489	Roll:	2.708	Pitch:	1.479	Yaw:	19.597	Thrust:	61.451
Time:	4.212	Roll Set Point:	-0.050	Pitch Set Point:	-0.130	Yaw Set Point:	-0.024	X_WP:	0.000	Y_WP:	0.000	Y_WP:	0.500	X:	0.024	Y:	0.065	Z:	0.467	yaw:	1.384	yaw rate:	130.656	Roll:	-0.520	Pitch:	3.050	Yaw:	-17.365	Thrust:	62.385
Time:	4.232	Roll Set Point:	-0.054	Pitch Set Point:	-0.130	Yaw Set Point:	-0.064	X_WP:	0.000	Y_WP:	0.000	Y_WP:	0.500	X:	0.025	Y:	0.066	Z:	0.465	yaw:	3.653	yaw rate:	-226.825	Roll:	3.356	Pitch:	1.392	Yaw:	32.113	Thrust:	62.405
Time:	4.252	Roll Set Point:	-0.053	Pitch Set Point:	-0.129	Yaw Set Point:	-0.057	X_WP:	0.000	Y_WP:	0.000	Y_WP:	0.500	X:	0.025	Y:	0.065	Z:	0.462	yaw:	3.276	yaw rate:	37.646	Roll:	0.791	Pitch:	2.036	Yaw:	-2.973	Thrust:	61.531
Time:	4.271	Roll Set Point:	-0.054	Pitch Set Point:	-0.129	Yaw Set Point:	-0.061	X_WP:	0.000	Y_WP:	0.000	Y_WP:	0.500	X:	0.025	Y:	0.065	Z:	0.459	yaw:	3.485	yaw rate:	-20.850	Roll:	1.266	Pitch:	2.164	Yaw:	5.032	Thrust:	62.135
Time:	4.291	Roll Set Point:	-0.054	Pitch Set Point:	-0.129	Yaw Set Point:	-0.058	X_WP:	0.000	Y_WP:	0.000	Y_WP:	0.500	X:	0.025	Y:	0.065	Z:	0.457	yaw:	3.334	yaw rate:	15.061	Roll:	0.929	Pitch:	2.226	Yaw:	0.174	Thrust:	61.217
Time:	4.311	Roll Set Point:	-0.053	Pitch Set Point:	-0.130	Yaw Set Point:	-0.053	X_WP:	0.000	Y_WP:	0.000	Y_WP:	0.500	X:	0.025	Y:	0.066	Z:	0.455	yaw:	3.011	yaw rate:	32.294	Roll:	0.635	Pitch:	2.446	Yaw:	-2.513	Thrust:	61.835
Time:	4.333	Roll Set Point:	-0.052	Pitch Set Point:	-0.130	Yaw Set Point:	-0.047	X_WP:	0.000	Y_WP:	0.000	Y_WP:	0.500	X:	0.025	Y:	0.066	Z:	0.453	yaw:	2.683	yaw rate:	32.806	Roll:	0.590	Pitch:	2.431	Yaw:	-2.903	Thrust:	62.984
Time:	4.355	Roll Set Point:	-0.052	Pitch Set Point:	-0.130	Yaw Set Point:	-0.044	X_WP:	0.000	Y_WP:	0.000	Y_WP:	0.500	X:	0.025	Y:	0.066	Z:	0.451	yaw:	2.538	yaw rate:	14.473	Roll:	0.906	Pitch:	2.334	Yaw:	-0.899	Thrust:	70.135
Time:	4.372	Roll Set Point:	-0.052	Pitch Set Point:	-0.131	Yaw Set Point:	-0.047	X_WP:	0.000	Y_WP:	0.000	Y_WP:	0.500	X:	0.025	Y:	0.066	Z:	0.449	yaw:	2.693	yaw rate:	-15.424	Roll:	1.098	Pitch:	2.195	Yaw:	4.324	Thrust:	51.713
Time:	4.391	Roll Set Point:	-0.052	Pitch Set Point:	-0.131	Yaw Set Point:	-0.044	X_WP:	0.000	Y_WP:	0.000	Y_WP:	0.500	X:	0.025	Y:	0.066	Z:	0.448	yaw:	2.494	yaw rate:	19.882	Roll:	0.771	Pitch:	2.295	Yaw:	-1.538	Thrust:	61.112
Time:	4.417	Roll Set Point:	-0.052	Pitch Set Point:	-0.131	Yaw Set Point:	-0.046	X_WP:	0.000	Y_WP:	0.000	Y_WP:	0.500	X:	0.024	Y:	0.066	Z:	0.446	yaw:	2.626	yaw rate:	-13.212	Roll:	1.052	Pitch:	2.238	Yaw:	2.043	Thrust:	71.578
Time:	4.432	Roll Set Point:	-0.052	Pitch Set Point:	-0.131	Yaw Set Point:	-0.043	X_WP:	0.000	Y_WP:	0.000	Y_WP:	0.500	X:	0.024	Y:	0.066	Z:	0.445	yaw:	2.481	yaw rate:	14.445	Roll:	0.883	Pitch:	2.234	Yaw:	-0.820	Thrust:	52.069
Time:	4.450	Roll Set Point:	-0.052	Pitch Set Point:	-0.131	Yaw Set Point:	-0.048	X_WP:	0.000	Y_WP:	0.000	Y_WP:	0.500	X:	0.024	Y:	0.066	Z:	0.444	yaw:	2.744	yaw rate:	-26.234	Roll:	1.227	Pitch:	2.136	Yaw:	5.340	Thrust:	57.469
Time:	4.470	Roll Set Point:	-0.051	Pitch Set Point:	-0.131	Yaw Set Point:	-0.044	X_WP:	0.000	Y_WP:	0.000	Y_WP:	0.500	X:	0.024	Y:	0.066	Z:	0.442	yaw:	2.494	yaw rate:	24.994	Roll:	0.680	Pitch:	2.390	Yaw:	-2.152	Thrust:	60.089
Time:	4.491	Roll Set Point:	-0.048	Pitch Set Point:	-0.133	Yaw Set Point:	-0.010	X_WP:	0.000	Y_WP:	0.000	Y_WP:	0.500	X:	0.024	Y:	0.066	Z:	0.441	yaw:	0.547	yaw rate:	194.683	Roll:	-1.397	Pitch:	3.301	Yaw:	-25.578	Thrust:	62.512
Time:	4.511	Roll Set Point:	-0.051	Pitch Set Point:	-0.131	Yaw Set Point:	-0.043	X_WP:	0.000	Y_WP:	0.000	Y_WP:	0.500	X:	0.024	Y:	0.066	Z:	0.440	yaw:	2.466	yaw rate:	-191.942	Roll:	3.212	Pitch:	1.273	Yaw:	27.090	Thrust:	62.910
Time:	4.533	Roll Set Point:	-0.048	Pitch Set Point:	-0.133	Yaw Set Point:	-0.014	X_WP:	0.000	Y_WP:	0.000	Y_WP:	0.500	X:	0.024	Y:	0.066	Z:	0.438	yaw:	0.777	yaw rate:	168.929	Roll:	-1.138	Pitch:	3.139	Yaw:	-22.040	Thrust:	66.398
Time:	4.552	Roll Set Point:	-0.050	Pitch Set Point:	-0.132	Yaw Set Point:	-0.037	X_WP:	0.000	Y_WP:	0.000	Y_WP:	0.500	X:	0.024	Y:	0.066	Z:	0.437	yaw:	2.101	yaw rate:	-132.407	Roll:	2.393	Pitch:	1.663	Yaw:	18.161	Thrust:	61.428
Time:	4.572	Roll Set Point:	-0.050	Pitch Set Point:	-0.132	Yaw Set Point:	-0.033	X_WP:	0.000	Y_WP:	0.000	Y_WP:	0.500	X:	0.024	Y:	0.066	Z:	0.436	yaw:	1.886	yaw rate:	21.476	Roll:	0.676	Pitch:	2.301	Yaw:	-2.471	Thrust:	62.056
Time:	4.590	Roll Set Point:	-0.050	Pitch Set Point:	-0.132	Yaw Set Point:	-0.035	X_WP:	0.000	Y_WP:	0.000	Y_WP:	0.500	X:	0.024	Y:	0.066	Z:	0.434	yaw:	2.027	yaw rate:	-14.036	Roll:	1.032	Pitch:	2.216	Yaw:	2.698	Thrust:	59.037
Time:	4.614	Roll Set Point:	-0.049	Pitch Set Point:	-0.132	Yaw Set Point:	-0.037	X_WP:	0.000	Y_WP:	0.000	Y_WP:	0.500	X:	0.024	Y:	0.066	Z:	0.433	yaw:	2.100	yaw rate:	-7.321	Roll:	0.974	Pitch:	2.328	Yaw:	1.112	Thrust:	68.738
Time:	4.632	Roll Set Point:	-0.047	Pitch Set Point:	-0.133	Yaw Set Point:	-0.013	X_WP:	0.000	Y_WP:	0.000	Y_WP:	0.500	X:	0.023	Y:	0.067	Z:	0.432	yaw:	0.765	yaw rate:	133.455	Roll:	-0.781	Pitch:	2.909	Yaw:	-20.361	Thrust:	60.427
Time:	4.651	Roll Set Point:	-0.047	Pitch Set Point:	-0.133	Yaw Set Point:	-0.009	X_WP:	0.000	Y_WP:	0.000	Y_WP:	0.500	X:	0.023	Y:	0.066	Z:	0.431	yaw:	0.519	yaw rate:	24.611	Roll:	0.617	Pitch:	2.323	Yaw:	-4.785	Thrust:	59.649
Time:	4.672	Roll Set Point:	-0.050	Pitch Set Point:	-0.131	Yaw Set Point:	-0.044	X_WP:	0.000	Y_WP:	0.000	Y_WP:	0.500	X:	0.023	Y:	0.066	Z:	0.431	yaw:	2.494	yaw rate:	-197.456	Roll:	3.074	Pitch:	1.428	Yaw:	24.780	Thrust:	63.090
Time:	4.690	Roll Set Point:	-0.049	Pitch Set Point:	-0.132	Yaw Set Point:	-0.035	X_WP:	0.000	Y_WP:	0.000	Y_WP:	0.500	X:	0.023	Y:	0.066	Z:	0.431	yaw:	1.995	yaw rate:	49.934	Roll:	0.361	Pitch:	2.465	Yaw:	-6.533	Thrust:	57.321
Time:	4.711	Roll Set Point:	-0.047	Pitch Set Point:	-0.133	Yaw Set Point:	-0.014	X_WP:	0.000	Y_WP:	0.000	Y_WP:	0.500	X:	0.023	Y:	0.066	Z:	0.431	yaw:	0.797	yaw rate:	119.794	Roll:	-0.559	Pitch:	2.919	Yaw:	-16.415	Thrust:	62.526
Time:	4.733	Roll Set Point:	-0.049	Pitch Set Point:	-0.131	Yaw Set Point:	-0.041	X_WP:	0.000	Y_WP:	0.000	Y_WP:	0.500	X:	0.023	Y:	0.066	Z:	0.432	yaw:	2.341	yaw rate:	-154.463	Roll:	2.782	Pitch:	1.405	Yaw:	19.832	Thrust:	63.305
Time:	4.751	Roll Set Point:	-0.049	Pitch Set Point:	-0.131	Yaw Set Point:	-0.038	X_WP:	0.000	Y_WP:	0.000	Y_WP:	0.500	X:	0.023	Y:	0.066	Z:	0.433	yaw:	2.188	yaw rate:	15.282	Roll:	0.710	Pitch:	2.334	Yaw:	-1.123	Thrust:	56.653
Time:	4.772	Roll Set Point:	-0.049	Pitch Set Point:	-0.131	Yaw Set Point:	-0.037	X_WP:	0.000	Y_WP:	0.000	Y_WP:	0.500	X:	0.023	Y:	0.066	Z:	0.434	yaw:	2.096	yaw rate:	9.282	Roll:	0.891	Pitch:	2.255	Yaw:	-0.488	Thrust:	61.049
Time:	4.791	Roll Set Point:	-0.049	Pitch Set Point:	-0.132	Yaw Set Point:	-0.048	X_WP:	0.000	Y_WP:	0.000	Y_WP:	0.500	X:	0.023	Y:	0.066	Z:	0.435	yaw:	2.754	yaw rate:	-65.877	Roll:	1.405	Pitch:	2.340	Yaw:	11.001	Thrust:	54.370
Time:	4.817	Roll Set Point:	-0.048	Pitch Set Point:	-0.131	Yaw Set Point:	-0.039	X_WP:	0.000	Y_WP:	0.000	Y_WP:	0.500	X:	0.023	Y:	0.066	Z:	0.436	yaw:	2.246	yaw rate:	50.854	Roll:	0.673	Pitch:	2.315	Yaw:	-4.805	Thrust:	75.356
Time:	4.831	Roll Set Point:	-0.048	Pitch Set Point:	-0.131	Yaw Set Point:	-0.038	X_WP:	0.000	Y_WP:	0.000	Y_WP:	0.500	X:	0.023	Y:	0.066	Z:	0.438	yaw:	2.204	yaw rate:	4.203	Roll:	0.778	Pitch:	2.159	Yaw:	0.803	Thrust:	39.959
Time:	4.850	Roll Set Point:	-0.048	Pitch Set Point:	-0.131	Yaw Set Point:	-0.041	X_WP:	0.000	Y_WP:	0.000	Y_WP:	0.500	X:	0.023	Y:	0.066	Z:	0.439	yaw:	2.367	yaw rate:	-16.268	Roll:	1.103	Pitch:	2.111	Yaw:	3.332	Thrust:	58.376
Time:	4.871	Roll Set Point:	-0.048	Pitch Set Point:	-0.130	Yaw Set Point:	-0.046	X_WP:	0.000	Y_WP:	0.000	Y_WP:	0.500	X:	0.023	Y:	0.066	Z:	0.440	yaw:	2.651	yaw rate:	-28.436	Roll:	1.147	Pitch:	2.162	Yaw:	5.191	Thrust:	59.953
Time:	4.891	Roll Set Point:	-0.045	Pitch Set Point:	-0.132	Yaw Set Point:	-0.014	X_WP:	0.000	Y_WP:	0.000	Y_WP:	0.500	X:	0.022	Y:	0.066	Z:	0.441	yaw:	0.790	yaw rate:	186.088	Roll:	-1.284	Pitch:	3.175	Yaw:	-24.906	Thrust:	60.478
Time:	4.911	Roll Set Point:	-0.048	Pitch Set Point:	-0.130	Yaw Set Point:	-0.042	X_WP:	0.000	Y_WP:	0.000	Y_WP:	0.500	X:	0.022	Y:	0.066	Z:	0.443	yaw:	2.422	yaw rate:	-163.170	Roll:	2.748	Pitch:	1.399	Yaw:	23.136	Thrust:	57.712
Time:	4.933	Roll Set Point:	-0.048	Pitch Set Point:	-0.130	Yaw Set Point:	-0.047	X_WP:	0.000	Y_WP:	0.000	Y_WP:	0.500	X:	0.022	Y:	0.066	Z:	0.443	yaw:	2.669	yaw rate:	-24.771	Roll:	1.202	Pitch:	2.068	Yaw:	4.313	Thrust:	64.832
Time:	4.951	Roll Set Point:	-0.047	Pitch Set Point:	-0.131	Yaw Set Point:	-0.036	X_WP:	0.000	Y_WP:	0.000	Y_WP:	0.500	X:	0.022	Y:	0.066	Z:	0.444	yaw:	2.082	yaw rate:	58.771	Roll:	0.176	Pitch:	2.681	Yaw:	-7.492	Thrust:	57.090
Time:	4.971	Roll Set Point:	-0.047	Pitch Set Point:	-0.130	Yaw Set Point:	-0.042	X_WP:	0.000	Y_WP:	0.000	Y_WP:	0.500	X:	0.022	Y:	0.066	Z:	0.445	yaw:	2.426	yaw rate:	-34.420	Roll:	1.225	Pitch:	2.048	Yaw:	6.086	Thrust:	58.975
Time:	4.991	Roll Set Point:	-0.046	Pitch Set Point:	-0.130	Yaw Set Point:	-0.040	X_WP:	0.000	Y_WP:	0.000	Y_WP:	0.500	X:	0.022	Y:	0.065	Z:	0.445	yaw:	2.265	yaw rate:	16.062	Roll:	0.677	Pitch:	2.268	Yaw:	-0.934	Thrust:	61.748
Time:	5.014	Roll Set Point:	-0.046	Pitch Set Point:	-0.130	Yaw Set Point:	-0.040	X_WP:	0.000	Y_WP:	0.000	Y_WP:	0.500	X:	0.022	Y:	0.065	Z:	0.446	yaw:	2.278	yaw rate:	-1.248	Roll:	0.825	Pitch:	2.335	Yaw:	1.066	Thrust:	69.625
Time:	5.032	Roll Set Point:	-0.046	Pitch Set Point:	-0.130	Yaw Set Point:	-0.039	X_WP:	0.000	Y_WP:	0.000	Y_WP:	0.500	X:	0.022	Y:	0.065	Z:	0.446	yaw:	2.238	yaw rate:	4.012	Roll:	0.770	Pitch:	2.231	Yaw:	0.771	Thrust:	55.482
Time:	5.052	Roll Set Point:	-0.045	Pitch Set Point:	-0.130	Yaw Set Point:	-0.038	X_WP:	0.000	Y_WP:	0.000	Y_WP:	0.500	X:	0.021	Y:	0.065	Z:	0.447	yaw:	2.198	yaw rate:	3.974	Roll:	0.755	Pitch:	2.298	Yaw:	0.617	Thrust:	60.556
Time:	5.073	Roll Set Point:	-0.044	Pitch Set Point:	-0.130	Yaw Set Point:	-0.036	X_WP:	0.000	Y_WP:	0.000	Y_WP:	0.500	X:	0.021	Y:	0.065	Z:	0.447	yaw:	2.055	yaw rate:	14.249	Roll:	0.568	Pitch:	2.393	Yaw:	-0.938	Thrust:	61.642
Time:	5.092	Roll Set Point:	-0.042	Pitch Set Point:	-0.131	Yaw Set Point:	-0.012	X_WP:	0.000	Y_WP:	0.000	Y_WP:	0.500	X:	0.020	Y:	0.066	Z:	0.448	yaw:	0.714	yaw rate:	134.099	Roll:	-1.012	Pitch:	2.993	Yaw:	-19.607	Thrust:	60.058
Time:	5.112	Roll Set Point:	-0.041	Pitch Set Point:	-0.131	Yaw Set Point:	-0.008	X_WP:	0.000	Y_WP:	0.000	Y_WP:	0.500	X:	0.020	Y:	0.066	Z:	0.449	yaw:	0.485	yaw rate:	22.987	Roll:	0.535	Pitch:	2.359	Yaw:	-4.232	Thrust:	59.854
Time:	5.134	Roll Set Point:	-0.043	Pitch Set Point:	-0.130	Yaw Set Point:	-0.032	X_WP:	0.000	Y_WP:	0.000	Y_WP:	0.500	X:	0.020	Y:	0.065	Z:	0.450	yaw:	1.825	yaw rate:	-134.056	Roll:	2.310	Pitch:	1.763	Yaw:	16.877	Thrust:	65.951
Time:	5.153	Roll Set Point:	-0.041	Pitch Set Point:	-0.131	Yaw Set Point:	-0.013	X_WP:	0.000	Y_WP:	0.000	Y_WP:	0.500	X:	0.020	Y:	0.066	Z:	0.451	yaw:	0.752	yaw rate:	107.347	Roll:	-0.648	Pitch:	2.944	Yaw:	-15.524	Thrust:	57.403
Time:	5.172	Roll Set Point:	-0.040	Pitch Set Point:	-0.131	Yaw Set Point:	-0.013	X_WP:	0.000	Y_WP:	0.000	Y_WP:	0.500	X:	0.020	Y:	0.066	Z:	0.453	yaw:	0.743	yaw rate:	0.853	Roll:	0.660	Pitch:	2.393	Yaw:	-0.886	Thrust:	57.313
Time:	5.199	Roll Set Point:	-0.038	Pitch Set Point:	-0.131	Yaw Set Point:	0.011	X_WP:	0.000	Y_WP:	0.000	Y_WP:	0.500	X:	0.019	Y:	0.065	Z:	0.454	yaw:	-0.603	yaw rate:	134.627	Roll:	-0.529	Pitch:	2.608	Yaw:	-16.644	Thrust:	77.416
Time:	5.214	Roll Set Point:	-0.037	Pitch Set Point:	-0.131	Yaw Set Point:	0.015	X_WP:	0.000	Y_WP:	0.000	Y_WP:	0.500	X:	0.019	Y:	0.066	Z:	0.456	yaw:	-0.873	yaw rate:	26.967	Roll:	0.037	Pitch:	2.588	Yaw:	-7.180	Thrust:	45.679
Time:	5.233	Roll Set Point:	-0.037	Pitch Set Point:	-0.131	Yaw Set Point:	0.012	X_WP:	0.000	Y_WP:	0.000	Y_WP:	0.500	X:	0.019	Y:	0.065	Z:	0.457	yaw:	-0.678	yaw rate:	-19.464	Roll:	0.930	Pitch:	2.265	Yaw:	-0.312	Thrust:	59.486
Time:	5.251	Roll Set Point:	-0.036	Pitch Set Point:	-0.131	Yaw Set Point:	0.011	X_WP:	0.000	Y_WP:	0.000	Y_WP:	0.500	X:	0.019	Y:	0.066	Z:	0.459	yaw:	-0.657	yaw rate:	-2.109	Roll:	0.633	Pitch:	2.394	Yaw:	-2.268	Thrust:	52.807
Time:	5.273	Roll Set Point:	-0.037	Pitch Set Point:	-0.131	Yaw Set Point:	0.008	X_WP:	0.000	Y_WP:	0.000	Y_WP:	0.500	X:	0.019	Y:	0.065	Z:	0.461	yaw:	-0.458	yaw rate:	-19.881	Roll:	1.068	Pitch:	2.254	Yaw:	-0.376	Thrust:	67.438
Time:	5.292	Roll Set Point:	-0.036	Pitch Set Point:	-0.131	Yaw Set Point:	0.010	X_WP:	0.000	Y_WP:	0.000	Y_WP:	0.500	X:	0.018	Y:	0.066	Z:	0.462	yaw:	-0.573	yaw rate:	11.424	Roll:	0.406	Pitch:	2.510	Yaw:	-4.189	Thrust:	56.946
Time:	5.312	Roll Set Point:	-0.037	Pitch Set Point:	-0.131	Yaw Set Point:	0.009	X_WP:	0.000	Y_WP:	0.000	Y_WP:	0.500	X:	0.019	Y:	0.065	Z:	0.463	yaw:	-0.491	yaw rate:	-8.173	Roll:	1.001	Pitch:	2.290	Yaw:	-1.551	Thrust:	59.191
Time:	5.333	Roll Set Point:	-0.036	Pitch Set Point:	-0.131	Yaw Set Point:	0.006	X_WP:	0.000	Y_WP:	0.000	Y_WP:	0.500	X:	0.018	Y:	0.066	Z:	0.464	yaw:	-0.353	yaw rate:	-13.736	Roll:	0.800	Pitch:	2.431	Yaw:	-0.782	Thrust:	62.878
Time:	5.356	Roll Set Point:	-0.042	Pitch Set Point:	-0.129	Yaw Set Point:	-0.053	X_WP:	0.000	Y_WP:	0.000	Y_WP:	0.500	X:	0.019	Y:	0.065	Z:	0.465	yaw:	3.020	yaw rate:	-337.382	Roll:	4.475	Pitch:	1.332	Yaw:	40.960	Thrust:	71.077
