Time:	0.051	Roll Set Point:	-0.274	Pitch Set Point:	0.495	Yaw Set Point:	-0.080	X_WP:	0.000	Y_WP:	0.000	Z_WP:	0.500	X:	0.147	Y:	-0.242	Z:	0.047	yaw:	4.572	yaw rate:	16.183	Roll:	0.635	Pitch:	-1.265	Yaw:	6.383	Thrust:	24.941
Time:	0.072	Roll Set Point:	-0.273	Pitch Set Point:	0.495	Yaw Set Point:	-0.082	X_WP:	0.000	Y_WP:	0.000	Z_WP:	0.500	X:	0.147	Y:	-0.242	Z:	0.046	yaw:	4.713	yaw rate:	-14.129	Roll:	0.039	Pitch:	-1.495	Yaw:	8.400	Thrust:	26.460
Time:	0.091	Roll Set Point:	-0.275	Pitch Set Point:	0.495	Yaw Set Point:	-0.081	X_WP:	0.000	Y_WP:	0.000	Z_WP:	0.500	X:	0.147	Y:	-0.242	Z:	0.047	yaw:	4.615	yaw rate:	9.836	Roll:	1.569	Pitch:	-1.203	Yaw:	5.150	Thrust:	26.106
Time:	0.110	Roll Set Point:	-0.275	Pitch Set Point:	0.495	Yaw Set Point:	-0.076	X_WP:	0.000	Y_WP:	0.000	Z_WP:	0.500	X:	0.147	Y:	-0.242	Z:	0.047	yaw:	4.375	yaw rate:	23.960	Roll:	1.376	Pitch:	-0.663	Yaw:	3.006	Thrust:	27.659
Time:	0.135	Roll Set Point:	-0.276	Pitch Set Point:	0.495	Yaw Set Point:	-0.074	X_WP:	0.000	Y_WP:	0.000	Z_WP:	0.500	X:	0.147	Y:	-0.242	Z:	0.047	yaw:	4.237	yaw rate:	13.845	Roll:	1.140	Pitch:	-1.200	Yaw:	4.614	Thrust:	30.940
Time:	0.150	Roll Set Point:	-0.273	Pitch Set Point:	0.496	Yaw Set Point:	-0.084	X_WP:	0.000	Y_WP:	0.000	Z_WP:	0.500	X:	0.147	Y:	-0.242	Z:	0.047	yaw:	4.786	yaw rate:	-54.925	Roll:	-1.855	Pitch:	-2.708	Yaw:	16.344	Thrust:	29.198
Time:	0.171	Roll Set Point:	-0.276	Pitch Set Point:	0.495	Yaw Set Point:	-0.074	X_WP:	0.000	Y_WP:	0.000	Z_WP:	0.500	X:	0.147	Y:	-0.242	Z:	0.047	yaw:	4.214	yaw rate:	57.193	Roll:	2.895	Pitch:	-0.190	Yaw:	-1.281	Thrust:	31.161
Time:	0.190	Roll Set Point:	-0.275	Pitch Set Point:	0.495	Yaw Set Point:	-0.076	X_WP:	0.000	Y_WP:	0.000	Z_WP:	0.500	X:	0.147	Y:	-0.242	Z:	0.047	yaw:	4.336	yaw rate:	-12.211	Roll:	0.110	Pitch:	-1.727	Yaw:	7.902	Thrust:	32.610
Time:	0.210	Roll Set Point:	-0.274	Pitch Set Point:	0.496	Yaw Set Point:	-0.082	X_WP:	0.000	Y_WP:	0.000	Z_WP:	0.500	X:	0.147	Y:	-0.242	Z:	0.047	yaw:	4.685	yaw rate:	-34.872	Roll:	-0.670	Pitch:	-1.949	Yaw:	11.333	Thrust:	33.596
Time:	0.231	Roll Set Point:	-0.276	Pitch Set Point:	0.495	Yaw Set Point:	-0.074	X_WP:	0.000	Y_WP:	0.000	Z_WP:	0.500	X:	0.147	Y:	-0.242	Z:	0.047	yaw:	4.211	yaw rate:	47.331	Roll:	2.492	Pitch:	-0.662	Yaw:	0.187	Thrust:	35.489
Time:	0.251	Roll Set Point:	-0.275	Pitch Set Point:	0.496	Yaw Set Point:	-0.078	X_WP:	0.000	Y_WP:	0.000	Z_WP:	0.500	X:	0.147	Y:	-0.242	Z:	0.047	yaw:	4.470	yaw rate:	-25.910	Roll:	-0.042	Pitch:	-1.906	Yaw:	9.937	Thrust:	35.352
Time:	0.272	Roll Set Point:	-0.273	Pitch Set Point:	0.496	Yaw Set Point:	-0.082	X_WP:	0.000	Y_WP:	0.000	Z_WP:	0.500	X:	0.147	Y:	-0.242	Z:	0.047	yaw:	4.702	yaw rate:	-23.186	Roll:	-0.400	Pitch:	-1.695	Yaw:	9.810	Thrust:	37.921
Time:	0.290	Roll Set Point:	-0.274	Pitch Set Point:	0.495	Yaw Set Point:	-0.079	X_WP:	0.000	Y_WP:	0.000	Z_WP:	0.500	X:	0.147	Y:	-0.242	Z:	0.047	yaw:	4.525	yaw rate:	17.702	Roll:	1.309	Pitch:	-0.924	Yaw:	4.078	Thrust:	36.136
Time:	0.310	Roll Set Point:	-0.274	Pitch Set Point:	0.495	Yaw Set Point:	-0.079	X_WP:	0.000	Y_WP:	0.000	Z_WP:	0.500	X:	0.147	Y:	-0.242	Z:	0.047	yaw:	4.502	yaw rate:	2.296	Roll:	0.961	Pitch:	-1.404	Yaw:	6.399	Thrust:	38.929
Time:	0.335	Roll Set Point:	-0.275	Pitch Set Point:	0.495	Yaw Set Point:	-0.077	X_WP:	0.000	Y_WP:	0.000	Z_WP:	0.500	X:	0.147	Y:	-0.242	Z:	0.047	yaw:	4.391	yaw rate:	11.129	Roll:	1.217	Pitch:	-1.339	Yaw:	5.502	Thrust:	44.001
Time:	0.350	Roll Set Point:	-0.275	Pitch Set Point:	0.495	Yaw Set Point:	-0.077	X_WP:	0.000	Y_WP:	0.000	Z_WP:	0.500	X:	0.147	Y:	-0.242	Z:	0.047	yaw:	4.408	yaw rate:	-1.704	Roll:	0.756	Pitch:	-1.490	Yaw:	6.807	Thrust:	37.083
Time:	0.370	Roll Set Point:	-0.274	Pitch Set Point:	0.496	Yaw Set Point:	-0.080	X_WP:	0.000	Y_WP:	0.000	Z_WP:	0.500	X:	0.147	Y:	-0.242	Z:	0.047	yaw:	4.611	yaw rate:	-20.322	Roll:	-0.315	Pitch:	-1.911	Yaw:	9.612	Thrust:	43.013
Time:	0.390	Roll Set Point:	-0.275	Pitch Set Point:	0.495	Yaw Set Point:	-0.075	X_WP:	0.000	Y_WP:	0.000	Z_WP:	0.500	X:	0.147	Y:	-0.242	Z:	0.047	yaw:	4.281	yaw rate:	32.986	Roll:	2.013	Pitch:	-0.925	Yaw:	2.206	Thrust:	43.471
Time:	0.411	Roll Set Point:	-0.274	Pitch Set Point:	0.497	Yaw Set Point:	-0.082	X_WP:	0.000	Y_WP:	0.000	Z_WP:	0.500	X:	0.147	Y:	-0.243	Z:	0.046	yaw:	4.697	yaw rate:	-41.550	Roll:	-0.795	Pitch:	-2.657	Yaw:	12.509	Thrust:	45.421
Time:	0.431	Roll Set Point:	-0.275	Pitch Set Point:	0.495	Yaw Set Point:	-0.073	X_WP:	0.000	Y_WP:	0.000	Z_WP:	0.500	X:	0.147	Y:	-0.243	Z:	0.047	yaw:	4.207	yaw rate:	49.033	Roll:	2.299	Pitch:	-0.513	Yaw:	0.023	Thrust:	44.889
Time:	0.451	Roll Set Point:	-0.276	Pitch Set Point:	0.495	Yaw Set Point:	-0.070	X_WP:	0.000	Y_WP:	0.000	Z_WP:	0.500	X:	0.147	Y:	-0.242	Z:	0.047	yaw:	4.022	yaw rate:	18.488	Roll:	1.472	Pitch:	-0.991	Yaw:	3.908	Thrust:	46.707
Time:	0.472	Roll Set Point:	-0.276	Pitch Set Point:	0.495	Yaw Set Point:	-0.073	X_WP:	0.000	Y_WP:	0.000	Z_WP:	0.500	X:	0.147	Y:	-0.243	Z:	0.047	yaw:	4.165	yaw rate:	-14.352	Roll:	0.362	Pitch:	-1.941	Yaw:	8.288	Thrust:	49.320
Time:	0.490	Roll Set Point:	-0.275	Pitch Set Point:	0.496	Yaw Set Point:	-0.074	X_WP:	0.000	Y_WP:	0.000	Z_WP:	0.500	X:	0.147	Y:	-0.243	Z:	0.047	yaw:	4.252	yaw rate:	-8.704	Roll:	0.397	Pitch:	-1.822	Yaw:	7.813	Thrust:	46.893
Time:	0.510	Roll Set Point:	-0.276	Pitch Set Point:	0.495	Yaw Set Point:	-0.072	X_WP:	0.000	Y_WP:	0.000	Z_WP:	0.500	X:	0.147	Y:	-0.243	Z:	0.047	yaw:	4.097	yaw rate:	15.521	Roll:	1.309	Pitch:	-1.069	Yaw:	4.345	Thrust:	48.701
Time:	0.536	Roll Set Point:	-0.276	Pitch Set Point:	0.495	Yaw Set Point:	-0.072	X_WP:	0.000	Y_WP:	0.000	Z_WP:	0.500	X:	0.147	Y:	-0.243	Z:	0.047	yaw:	4.109	yaw rate:	-1.186	Roll:	0.947	Pitch:	-1.689	Yaw:	6.792	Thrust:	57.667
Time:	0.551	Roll Set Point:	-0.276	Pitch Set Point:	0.495	Yaw Set Point:	-0.074	X_WP:	0.000	Y_WP:	0.000	Z_WP:	0.500	X:	0.147	Y:	-0.243	Z:	0.047	yaw:	4.224	yaw rate:	-11.501	Roll:	0.477	Pitch:	-1.930	Yaw:	8.433	Thrust:	45.204
Time:	0.571	Roll Set Point:	-0.276	Pitch Set Point:	0.496	Yaw Set Point:	-0.074	X_WP:	0.000	Y_WP:	0.000	Z_WP:	0.500	X:	0.147	Y:	-0.243	Z:	0.047	yaw:	4.241	yaw rate:	-1.666	Roll:	0.717	Pitch:	-1.789	Yaw:	6.954	Thrust:	54.831
Time:	0.590	Roll Set Point:	-0.275	Pitch Set Point:	0.496	Yaw Set Point:	-0.077	X_WP:	0.000	Y_WP:	0.000	Z_WP:	0.500	X:	0.147	Y:	-0.243	Z:	0.047	yaw:	4.410	yaw rate:	-16.889	Roll:	0.032	Pitch:	-1.832	Yaw:	9.253	Thrust:	53.921
Time:	0.610	Roll Set Point:	-0.274	Pitch Set Point:	0.496	Yaw Set Point:	-0.080	X_WP:	0.000	Y_WP:	0.000	Z_WP:	0.500	X:	0.147	Y:	-0.243	Z:	0.047	yaw:	4.596	yaw rate:	-18.660	Roll:	0.199	Pitch:	-1.981	Yaw:	9.728	Thrust:	54.858
Time:	0.631	Roll Set Point:	-0.274	Pitch Set Point:	0.497	Yaw Set Point:	-0.083	X_WP:	0.000	Y_WP:	0.000	Z_WP:	0.500	X:	0.147	Y:	-0.243	Z:	0.047	yaw:	4.761	yaw rate:	-16.487	Roll:	0.259	Pitch:	-1.870	Yaw:	9.665	Thrust:	56.543
Time:	0.652	Roll Set Point:	-0.274	Pitch Set Point:	0.496	Yaw Set Point:	-0.083	X_WP:	0.000	Y_WP:	0.000	Z_WP:	0.500	X:	0.147	Y:	-0.243	Z:	0.047	yaw:	4.730	yaw rate:	3.094	Roll:	1.090	Pitch:	-1.544	Yaw:	7.178	Thrust:	59.001
Time:	0.673	Roll Set Point:	-0.274	Pitch Set Point:	0.497	Yaw Set Point:	-0.087	X_WP:	0.000	Y_WP:	0.000	Z_WP:	0.500	X:	0.148	Y:	-0.243	Z:	0.047	yaw:	4.998	yaw rate:	-26.758	Roll:	0.120	Pitch:	-2.199	Yaw:	11.276	Thrust:	60.346
Time:	0.690	Roll Set Point:	-0.276	Pitch Set Point:	0.496	Yaw Set Point:	-0.080	X_WP:	0.000	Y_WP:	0.000	Z_WP:	0.500	X:	0.148	Y:	-0.242	Z:	0.048	yaw:	4.597	yaw rate:	40.029	Roll:	2.719	Pitch:	-0.594	Yaw:	1.112	Thrust:	53.774
Time:	0.710	Roll Set Point:	-0.279	Pitch Set Point:	0.496	Yaw Set Point:	-0.073	X_WP:	0.000	Y_WP:	0.000	Z_WP:	0.500	X:	0.149	Y:	-0.243	Z:	0.049	yaw:	4.205	yaw rate:	39.199	Roll:	3.167	Pitch:	-1.231	Yaw:	1.843	Thrust:	57.692
Time:	0.736	Roll Set Point:	-0.277	Pitch Set Point:	0.495	Yaw Set Point:	-0.081	X_WP:	0.000	Y_WP:	0.000	Z_WP:	0.500	X:	0.149	Y:	-0.242	Z:	0.049	yaw:	4.643	yaw rate:	-43.784	Roll:	-0.544	Pitch:	-2.038	Yaw:	12.430	Thrust:	69.967
Time:	0.751	Roll Set Point:	-0.279	Pitch Set Point:	0.494	Yaw Set Point:	-0.081	X_WP:	0.000	Y_WP:	0.000	Z_WP:	0.500	X:	0.149	Y:	-0.242	Z:	0.051	yaw:	4.663	yaw rate:	-1.987	Roll:	1.502	Pitch:	-1.266	Yaw:	7.690	Thrust:	49.440
Time:	0.770	Roll Set Point:	-0.281	Pitch Set Point:	0.493	Yaw Set Point:	-0.077	X_WP:	0.000	Y_WP:	0.000	Z_WP:	0.500	X:	0.150	Y:	-0.241	Z:	0.053	yaw:	4.423	yaw rate:	23.982	Roll:	2.427	Pitch:	-0.867	Yaw:	4.074	Thrust:	57.713
Time:	0.791	Roll Set Point:	-0.283	Pitch Set Point:	0.492	Yaw Set Point:	-0.074	X_WP:	0.000	Y_WP:	0.000	Z_WP:	0.500	X:	0.151	Y:	-0.241	Z:	0.056	yaw:	4.237	yaw rate:	18.613	Roll:	2.062	Pitch:	-0.943	Yaw:	4.612	Thrust:	59.550
Time:	0.810	Roll Set Point:	-0.284	Pitch Set Point:	0.490	Yaw Set Point:	-0.073	X_WP:	0.000	Y_WP:	0.000	Z_WP:	0.500	X:	0.151	Y:	-0.240	Z:	0.058	yaw:	4.197	yaw rate:	3.968	Roll:	1.477	Pitch:	-0.755	Yaw:	6.533	Thrust:	60.032
Time:	0.830	Roll Set Point:	-0.285	Pitch Set Point:	0.487	Yaw Set Point:	-0.073	X_WP:	0.000	Y_WP:	0.000	Z_WP:	0.500	X:	0.151	Y:	-0.238	Z:	0.061	yaw:	4.171	yaw rate:	2.647	Roll:	1.409	Pitch:	-0.815	Yaw:	6.669	Thrust:	58.456
Time:	0.852	Roll Set Point:	-0.285	Pitch Set Point:	0.485	Yaw Set Point:	-0.073	X_WP:	0.000	Y_WP:	0.000	Z_WP:	0.500	X:	0.152	Y:	-0.237	Z:	0.065	yaw:	4.177	yaw rate:	-0.579	Roll:	1.110	Pitch:	-0.751	Yaw:	7.184	Thrust:	61.562
Time:	0.873	Roll Set Point:	-0.288	Pitch Set Point:	0.481	Yaw Set Point:	-0.066	X_WP:	0.000	Y_WP:	0.000	Z_WP:	0.500	X:	0.152	Y:	-0.236	Z:	0.069	yaw:	3.776	yaw rate:	40.064	Roll:	2.812	Pitch:	-0.056	Yaw:	1.936	Thrust:	63.497
Time:	0.890	Roll Set Point:	-0.289	Pitch Set Point:	0.478	Yaw Set Point:	-0.067	X_WP:	0.000	Y_WP:	0.000	Z_WP:	0.500	X:	0.152	Y:	-0.234	Z:	0.073	yaw:	3.850	yaw rate:	-7.345	Roll:	1.044	Pitch:	-0.077	Yaw:	7.605	Thrust:	52.253
Time:	0.910	Roll Set Point:	-0.291	Pitch Set Point:	0.473	Yaw Set Point:	-0.060	X_WP:	0.000	Y_WP:	0.000	Z_WP:	0.500	X:	0.153	Y:	-0.232	Z:	0.078	yaw:	3.458	yaw rate:	39.115	Roll:	2.620	Pitch:	0.670	Yaw:	0.904	Thrust:	60.003
Time:	0.935	Roll Set Point:	-0.289	Pitch Set Point:	0.470	Yaw Set Point:	-0.066	X_WP:	0.000	Y_WP:	0.000	Z_WP:	0.500	X:	0.152	Y:	-0.230	Z:	0.082	yaw:	3.759	yaw rate:	-30.093	Roll:	-0.053	Pitch:	-0.852	Yaw:	10.086	Thrust:	74.268
Time:	0.950	Roll Set Point:	-0.292	Pitch Set Point:	0.465	Yaw Set Point:	-0.063	X_WP:	0.000	Y_WP:	0.000	Z_WP:	0.500	X:	0.153	Y:	-0.228	Z:	0.088	yaw:	3.626	yaw rate:	13.358	Roll:	2.308	Pitch:	0.436	Yaw:	3.880	Thrust:	43.259
Time:	0.971	Roll Set Point:	-0.291	Pitch Set Point:	0.463	Yaw Set Point:	-0.072	X_WP:	0.000	Y_WP:	0.000	Z_WP:	0.500	X:	0.154	Y:	-0.226	Z:	0.093	yaw:	4.121	yaw rate:	-49.514	Roll:	-0.215	Pitch:	-1.042	Yaw:	13.608	Thrust:	61.677
Time:	0.990	Roll Set Point:	-0.293	Pitch Set Point:	0.456	Yaw Set Point:	-0.063	X_WP:	0.000	Y_WP:	0.000	Z_WP:	0.500	X:	0.153	Y:	-0.223	Z:	0.098	yaw:	3.600	yaw rate:	52.071	Roll:	2.737	Pitch:	1.726	Yaw:	-0.497	Thrust:	58.175
Time:	1.010	Roll Set Point:	-0.295	Pitch Set Point:	0.450	Yaw Set Point:	-0.056	X_WP:	0.000	Y_WP:	0.000	Z_WP:	0.500	X:	0.154	Y:	-0.221	Z:	0.104	yaw:	3.221	yaw rate:	37.925	Roll:	2.598	Pitch:	1.069	Yaw:	0.926	Thrust:	60.032
Time:	1.031	Roll Set Point:	-0.295	Pitch Set Point:	0.445	Yaw Set Point:	-0.055	X_WP:	0.000	Y_WP:	0.000	Z_WP:	0.500	X:	0.154	Y:	-0.219	Z:	0.110	yaw:	3.168	yaw rate:	5.276	Roll:	1.535	Pitch:	0.233	Yaw:	5.275	Thrust:	63.388
Time:	1.051	Roll Set Point:	-0.296	Pitch Set Point:	0.439	Yaw Set Point:	-0.054	X_WP:	0.000	Y_WP:	0.000	Z_WP:	0.500	X:	0.154	Y:	-0.216	Z:	0.115	yaw:	3.096	yaw rate:	7.174	Roll:	1.340	Pitch:	0.927	Yaw:	4.855	Thrust:	62.599
Time:	1.074	Roll Set Point:	-0.295	Pitch Set Point:	0.435	Yaw Set Point:	-0.061	X_WP:	0.000	Y_WP:	0.000	Z_WP:	0.500	X:	0.154	Y:	-0.213	Z:	0.120	yaw:	3.500	yaw rate:	-40.381	Roll:	0.161	Pitch:	-0.596	Yaw:	11.212	Thrust:	71.660
Time:	1.090	Roll Set Point:	-0.294	Pitch Set Point:	0.430	Yaw Set Point:	-0.065	X_WP:	0.000	Y_WP:	0.000	Z_WP:	0.500	X:	0.154	Y:	-0.210	Z:	0.125	yaw:	3.744	yaw rate:	-24.394	Roll:	0.389	Pitch:	0.547	Yaw:	10.442	Thrust:	51.451
Time:	1.110	Roll Set Point:	-0.296	Pitch Set Point:	0.423	Yaw Set Point:	-0.054	X_WP:	0.000	Y_WP:	0.000	Z_WP:	0.500	X:	0.154	Y:	-0.207	Z:	0.131	yaw:	3.093	yaw rate:	65.124	Roll:	2.922	Pitch:	2.160	Yaw:	-2.639	Thrust:	64.195
Time:	1.134	Roll Set Point:	-0.297	Pitch Set Point:	0.417	Yaw Set Point:	-0.052	X_WP:	0.000	Y_WP:	0.000	Z_WP:	0.500	X:	0.154	Y:	-0.205	Z:	0.137	yaw:	3.004	yaw rate:	8.942	Roll:	1.626	Pitch:	0.312	Yaw:	5.146	Thrust:	74.028
Time:	1.150	Roll Set Point:	-0.298	Pitch Set Point:	0.410	Yaw Set Point:	-0.046	X_WP:	0.000	Y_WP:	0.000	Z_WP:	0.500	X:	0.154	Y:	-0.202	Z:	0.143	yaw:	2.608	yaw rate:	39.515	Roll:	2.251	Pitch:	2.101	Yaw:	-1.276	Thrust:	55.911
Time:	1.170	Roll Set Point:	-0.297	Pitch Set Point:	0.404	Yaw Set Point:	-0.049	X_WP:	0.000	Y_WP:	0.000	Z_WP:	0.500	X:	0.153	Y:	-0.199	Z:	0.149	yaw:	2.780	yaw rate:	-17.207	Roll:	0.502	Pitch:	0.650	Yaw:	7.777	Thrust:	60.974
Time:	1.191	Roll Set Point:	-0.298	Pitch Set Point:	0.399	Yaw Set Point:	-0.047	X_WP:	0.000	Y_WP:	0.000	Z_WP:	0.500	X:	0.154	Y:	-0.196	Z:	0.157	yaw:	2.690	yaw rate:	9.064	Roll:	1.712	Pitch:	0.780	Yaw:	4.299	Thrust:	64.550
Time:	1.210	Roll Set Point:	-0.300	Pitch Set Point:	0.393	Yaw Set Point:	-0.043	X_WP:	0.000	Y_WP:	0.000	Z_WP:	0.500	X:	0.154	Y:	-0.193	Z:	0.165	yaw:	2.479	yaw rate:	21.066	Roll:	2.219	Pitch:	1.070	Yaw:	2.271	Thrust:	58.052
Time:	1.231	Roll Set Point:	-0.300	Pitch Set Point:	0.387	Yaw Set Point:	-0.041	X_WP:	0.000	Y_WP:	0.000	Z_WP:	0.500	X:	0.154	Y:	-0.190	Z:	0.173	yaw:	2.339	yaw rate:	13.995	Roll:	1.620	Pitch:	0.894	Yaw:	3.212	Thrust:	63.700
Time:	1.251	Roll Set Point:	-0.299	Pitch Set Point:	0.381	Yaw Set Point:	-0.047	X_WP:	0.000	Y_WP:	0.000	Z_WP:	0.500	X:	0.154	Y:	-0.187	Z:	0.181	yaw:	2.684	yaw rate:	-34.503	Roll:	-0.093	Pitch:	0.259	Yaw:	9.888	Thrust:	63.260
Time:	1.273	Roll Set Point:	-0.298	Pitch Set Point:	0.376	Yaw Set Point:	-0.049	X_WP:	0.000	Y_WP:	0.000	Z_WP:	0.500	X:	0.154	Y:	-0.185	Z:	0.190	yaw:	2.817	yaw rate:	-13.266	Roll:	1.014	Pitch:	-0.027	Yaw:	7.397	Thrust:	66.554
Time:	1.291	Roll Set Point:	-0.300	Pitch Set Point:	0.370	Yaw Set Point:	-0.042	X_WP:	0.000	Y_WP:	0.000	Z_WP:	0.500	X:	0.154	Y:	-0.182	Z:	0.199	yaw:	2.423	yaw rate:	39.372	Roll:	2.533	Pitch:	2.075	Yaw:	-0.820	Thrust:	47.523
Time:	1.310	Roll Set Point:	-0.298	Pitch Set Point:	0.366	Yaw Set Point:	-0.052	X_WP:	0.000	Y_WP:	0.000	Z_WP:	0.500	X:	0.154	Y:	-0.179	Z:	0.209	yaw:	2.962	yaw rate:	-53.913	Roll:	-0.397	Pitch:	-0.536	Yaw:	13.328	Thrust:	55.632
Time:	1.335	Roll Set Point:	-0.301	Pitch Set Point:	0.359	Yaw Set Point:	-0.041	X_WP:	0.000	Y_WP:	0.000	Z_WP:	0.500	X:	0.154	Y:	-0.177	Z:	0.218	yaw:	2.342	yaw rate:	62.028	Roll:	3.115	Pitch:	1.319	Yaw:	-1.584	Thrust:	72.899
Time:	1.350	Roll Set Point:	-0.300	Pitch Set Point:	0.355	Yaw Set Point:	-0.045	X_WP:	0.000	Y_WP:	0.000	Z_WP:	0.500	X:	0.154	Y:	-0.174	Z:	0.228	yaw:	2.555	yaw rate:	-21.280	Roll:	0.543	Pitch:	0.298	Yaw:	8.316	Thrust:	46.726
Time:	1.370	Roll Set Point:	-0.303	Pitch Set Point:	0.349	Yaw Set Point:	-0.035	X_WP:	0.000	Y_WP:	0.000	Z_WP:	0.500	X:	0.154	Y:	-0.172	Z:	0.238	yaw:	2.029	yaw rate:	52.549	Roll:	2.933	Pitch:	1.617	Yaw:	-2.327	Thrust:	57.717
Time:	1.390	Roll Set Point:	-0.304	Pitch Set Point:	0.343	Yaw Set Point:	-0.031	X_WP:	0.000	Y_WP:	0.000	Z_WP:	0.500	X:	0.155	Y:	-0.169	Z:	0.248	yaw:	1.749	yaw rate:	28.040	Roll:	2.090	Pitch:	1.031	Yaw:	0.566	Thrust:	57.954
Time:	1.410	Roll Set Point:	-0.304	Pitch Set Point:	0.339	Yaw Set Point:	-0.031	X_WP:	0.000	Y_WP:	0.000	Z_WP:	0.500	X:	0.155	Y:	-0.167	Z:	0.258	yaw:	1.800	yaw rate:	-5.101	Roll:	1.283	Pitch:	0.240	Yaw:	5.006	Thrust:	57.501
Time:	1.431	Roll Set Point:	-0.304	Pitch Set Point:	0.335	Yaw Set Point:	-0.036	X_WP:	0.000	Y_WP:	0.000	Z_WP:	0.500	X:	0.155	Y:	-0.165	Z:	0.268	yaw:	2.083	yaw rate:	-28.310	Roll:	0.881	Pitch:	-0.309	Yaw:	8.400	Thrust:	61.980
Time:	1.452	Roll Set Point:	-0.304	Pitch Set Point:	0.329	Yaw Set Point:	-0.032	X_WP:	0.000	Y_WP:	0.000	Z_WP:	0.500	X:	0.155	Y:	-0.162	Z:	0.277	yaw:	1.811	yaw rate:	27.233	Roll:	1.728	Pitch:	0.947	Yaw:	0.845	Thrust:	59.273
Time:	1.473	Roll Set Point:	-0.306	Pitch Set Point:	0.324	Yaw Set Point:	-0.025	X_WP:	0.000	Y_WP:	0.000	Z_WP:	0.500	X:	0.155	Y:	-0.160	Z:	0.287	yaw:	1.453	yaw rate:	35.765	Roll:	2.377	Pitch:	0.668	Yaw:	-0.163	Thrust:	67.498
Time:	1.490	Roll Set Point:	-0.307	Pitch Set Point:	0.319	Yaw Set Point:	-0.022	X_WP:	0.000	Y_WP:	0.000	Z_WP:	0.500	X:	0.155	Y:	-0.158	Z:	0.297	yaw:	1.276	yaw rate:	17.727	Roll:	1.884	Pitch:	1.164	Yaw:	0.653	Thrust:	44.061
Time:	1.511	Roll Set Point:	-0.308	Pitch Set Point:	0.315	Yaw Set Point:	-0.020	X_WP:	0.000	Y_WP:	0.000	Z_WP:	0.500	X:	0.156	Y:	-0.156	Z:	0.307	yaw:	1.135	yaw rate:	14.072	Roll:	1.826	Pitch:	0.439	Yaw:	1.775	Thrust:	58.150
Time:	1.534	Roll Set Point:	-0.307	Pitch Set Point:	0.312	Yaw Set Point:	-0.026	X_WP:	0.000	Y_WP:	0.000	Z_WP:	0.500	X:	0.155	Y:	-0.154	Z:	0.316	yaw:	1.480	yaw rate:	-34.460	Roll:	0.593	Pitch:	-0.944	Yaw:	8.149	Thrust:	74.351
Time:	1.550	Roll Set Point:	-0.309	Pitch Set Point:	0.308	Yaw Set Point:	-0.017	X_WP:	0.000	Y_WP:	0.000	Z_WP:	0.500	X:	0.156	Y:	-0.153	Z:	0.326	yaw:	0.961	yaw rate:	51.825	Roll:	2.736	Pitch:	1.549	Yaw:	-5.282	Thrust:	47.246
Time:	1.576	Roll Set Point:	-0.310	Pitch Set Point:	0.303	Yaw Set Point:	-0.013	X_WP:	0.000	Y_WP:	0.000	Z_WP:	0.500	X:	0.156	Y:	-0.151	Z:	0.336	yaw:	0.737	yaw rate:	22.447	Roll:	2.134	Pitch:	-0.037	Yaw:	1.177	Thrust:	78.477
Time:	1.590	Roll Set Point:	-0.311	Pitch Set Point:	0.300	Yaw Set Point:	-0.009	X_WP:	0.000	Y_WP:	0.000	Z_WP:	0.500	X:	0.156	Y:	-0.149	Z:	0.345	yaw:	0.534	yaw rate:	20.269	Roll:	2.019	Pitch:	0.886	Yaw:	-1.693	Thrust:	35.373
Time:	1.610	Roll Set Point:	-0.310	Pitch Set Point:	0.298	Yaw Set Point:	-0.019	X_WP:	0.000	Y_WP:	0.000	Z_WP:	0.500	X:	0.157	Y:	-0.148	Z:	0.354	yaw:	1.091	yaw rate:	-55.696	Roll:	0.440	Pitch:	-1.434	Yaw:	10.707	Thrust:	61.051
Time:	1.630	Roll Set Point:	-0.311	Pitch Set Point:	0.294	Yaw Set Point:	-0.014	X_WP:	0.000	Y_WP:	0.000	Z_WP:	0.500	X:	0.156	Y:	-0.146	Z:	0.362	yaw:	0.781	yaw rate:	31.003	Roll:	1.689	Pitch:	0.501	Yaw:	-0.957	Thrust:	61.221
Time:	1.650	Roll Set Point:	-0.312	Pitch Set Point:	0.292	Yaw Set Point:	-0.014	X_WP:	0.000	Y_WP:	0.000	Z_WP:	0.500	X:	0.157	Y:	-0.145	Z:	0.371	yaw:	0.804	yaw rate:	-2.235	Roll:	1.868	Pitch:	-0.587	Yaw:	3.322	Thrust:	58.531
Time:	1.674	Roll Set Point:	-0.313	Pitch Set Point:	0.288	Yaw Set Point:	-0.001	X_WP:	0.000	Y_WP:	0.000	Z_WP:	0.500	X:	0.157	Y:	-0.144	Z:	0.379	yaw:	0.076	yaw rate:	72.733	Roll:	2.658	Pitch:	0.751	Yaw:	-5.666	Thrust:	76.910
Time:	1.690	Roll Set Point:	-0.313	Pitch Set Point:	0.286	Yaw Set Point:	-0.003	X_WP:	0.000	Y_WP:	0.000	Z_WP:	0.500	X:	0.157	Y:	-0.143	Z:	0.388	yaw:	0.173	yaw rate:	-9.685	Roll:	1.017	Pitch:	-0.335	Yaw:	3.386	Thrust:	45.204
Time:	1.710	Roll Set Point:	-0.314	Pitch Set Point:	0.284	Yaw Set Point:	-0.005	X_WP:	0.000	Y_WP:	0.000	Z_WP:	0.500	X:	0.157	Y:	-0.142	Z:	0.396	yaw:	0.308	yaw rate:	-13.492	Roll:	1.432	Pitch:	-1.119	Yaw:	4.146	Thrust:	61.490
Time:	1.735	Roll Set Point:	-0.313	Pitch Set Point:	0.283	Yaw Set Point:	-0.009	X_WP:	0.000	Y_WP:	0.000	Z_WP:	0.500	X:	0.157	Y:	-0.141	Z:	0.403	yaw:	0.535	yaw rate:	-22.677	Roll:	1.083	Pitch:	-1.154	Yaw:	5.560	Thrust:	82.980
Time:	1.750	Roll Set Point:	-0.314	Pitch Set Point:	0.279	Yaw Set Point:	0.002	X_WP:	0.000	Y_WP:	0.000	Z_WP:	0.500	X:	0.157	Y:	-0.140	Z:	0.411	yaw:	-0.102	yaw rate:	63.715	Roll:	2.480	Pitch:	1.280	Yaw:	-9.359	Thrust:	39.713
Time:	1.770	Roll Set Point:	-0.314	Pitch Set Point:	0.279	Yaw Set Point:	-0.008	X_WP:	0.000	Y_WP:	0.000	Z_WP:	0.500	X:	0.157	Y:	-0.139	Z:	0.419	yaw:	0.449	yaw rate:	-55.122	Roll:	0.581	Pitch:	-2.017	Yaw:	9.796	Thrust:	59.592
Time:	1.790	Roll Set Point:	-0.312	Pitch Set Point:	0.279	Yaw Set Point:	-0.017	X_WP:	0.000	Y_WP:	0.000	Z_WP:	0.500	X:	0.157	Y:	-0.138	Z:	0.426	yaw:	0.993	yaw rate:	-54.410	Roll:	0.180	Pitch:	-2.068	Yaw:	10.496	Thrust:	64.449
Time:	1.810	Roll Set Point:	-0.312	Pitch Set Point:	0.277	Yaw Set Point:	-0.018	X_WP:	0.000	Y_WP:	0.000	Z_WP:	0.500	X:	0.157	Y:	-0.137	Z:	0.433	yaw:	1.058	yaw rate:	-6.467	Roll:	1.256	Pitch:	-0.879	Yaw:	4.277	Thrust:	60.667
Time:	1.831	Roll Set Point:	-0.314	Pitch Set Point:	0.273	Yaw Set Point:	-0.002	X_WP:	0.000	Y_WP:	0.000	Z_WP:	0.500	X:	0.157	Y:	-0.136	Z:	0.441	yaw:	0.089	yaw rate:	96.819	Roll:	3.138	Pitch:	1.399	Yaw:	-10.215	Thrust:	60.275
Time:	1.851	Roll Set Point:	-0.316	Pitch Set Point:	0.270	Yaw Set Point:	0.009	X_WP:	0.000	Y_WP:	0.000	Z_WP:	0.500	X:	0.157	Y:	-0.136	Z:	0.449	yaw:	-0.500	yaw rate:	58.993	Roll:	2.786	Pitch:	0.349	Yaw:	-6.181	Thrust:	66.020
Time:	1.873	Roll Set Point:	-0.315	Pitch Set Point:	0.270	Yaw Set Point:	-0.000	X_WP:	0.000	Y_WP:	0.000	Z_WP:	0.500	X:	0.158	Y:	-0.135	Z:	0.456	yaw:	0.004	yaw rate:	-50.480	Roll:	0.681	Pitch:	-1.987	Yaw:	8.252	Thrust:	68.910
Time:	1.890	Roll Set Point:	-0.315	Pitch Set Point:	0.268	Yaw Set Point:	0.003	X_WP:	0.000	Y_WP:	0.000	Z_WP:	0.500	X:	0.157	Y:	-0.134	Z:	0.463	yaw:	-0.145	yaw rate:	14.953	Roll:	1.187	Pitch:	-0.030	Yaw:	-0.705	Thrust:	48.744
Time:	1.910	Roll Set Point:	-0.316	Pitch Set Point:	0.265	Yaw Set Point:	0.010	X_WP:	0.000	Y_WP:	0.000	Z_WP:	0.500	X:	0.158	Y:	-0.133	Z:	0.471	yaw:	-0.578	yaw rate:	43.242	Roll:	2.618	Pitch:	0.111	Yaw:	-4.596	Thrust:	58.118
Time:	1.935	Roll Set Point:	-0.315	Pitch Set Point:	0.266	Yaw Set Point:	0.001	X_WP:	0.000	Y_WP:	0.000	Z_WP:	0.500	X:	0.157	Y:	-0.133	Z:	0.479	yaw:	-0.042	yaw rate:	-53.539	Roll:	0.535	Pitch:	-2.186	Yaw:	8.149	Thrust:	76.991
Time:	1.951	Roll Set Point:	-0.317	Pitch Set Point:	0.263	Yaw Set Point:	0.010	X_WP:	0.000	Y_WP:	0.000	Z_WP:	0.500	X:	0.158	Y:	-0.132	Z:	0.487	yaw:	-0.592	yaw rate:	54.964	Roll:	2.824	Pitch:	0.745	Yaw:	-7.903	Thrust:	41.288
Time:	1.970	Roll Set Point:	-0.317	Pitch Set Point:	0.262	Yaw Set Point:	0.013	X_WP:	0.000	Y_WP:	0.000	Z_WP:	0.500	X:	0.158	Y:	-0.132	Z:	0.495	yaw:	-0.762	yaw rate:	17.049	Roll:	1.875	Pitch:	-0.556	Yaw:	-1.394	Thrust:	56.095
Time:	1.990	Roll Set Point:	-0.317	Pitch Set Point:	0.262	Yaw Set Point:	0.009	X_WP:	0.000	Y_WP:	0.000	Z_WP:	0.500	X:	0.158	Y:	-0.132	Z:	0.503	yaw:	-0.496	yaw rate:	-26.680	Roll:	1.153	Pitch:	-1.720	Yaw:	4.835	Thrust:	52.806
Time:	2.010	Roll Set Point:	-0.318	Pitch Set Point:	0.260	Yaw Set Point:	0.013	X_WP:	0.000	Y_WP:	0.000	Z_WP:	0.500	X:	0.158	Y:	-0.131	Z:	0.511	yaw:	-0.740	yaw rate:	24.411	Roll:	1.879	Pitch:	-0.358	Yaw:	-2.081	Thrust:	60.285
Time:	2.030	Roll Set Point:	-0.317	Pitch Set Point:	0.260	Yaw Set Point:	0.009	X_WP:	0.000	Y_WP:	0.000	Z_WP:	0.500	X:	0.158	Y:	-0.131	Z:	0.520	yaw:	-0.520	yaw rate:	-21.922	Roll:	1.174	Pitch:	-1.516	Yaw:	4.088	Thrust:	56.019
Time:	2.052	Roll Set Point:	-0.318	Pitch Set Point:	0.259	Yaw Set Point:	0.013	X_WP:	0.000	Y_WP:	0.000	Z_WP:	0.500	X:	0.158	Y:	-0.130	Z:	0.527	yaw:	-0.728	yaw rate:	20.770	Roll:	1.922	Pitch:	-0.879	Yaw:	-1.340	Thrust:	66.173
Time:	2.073	Roll Set Point:	-0.318	Pitch Set Point:	0.258	Yaw Set Point:	0.015	X_WP:	0.000	Y_WP:	0.000	Z_WP:	0.500	X:	0.158	Y:	-0.130	Z:	0.535	yaw:	-0.874	yaw rate:	14.607	Roll:	1.880	Pitch:	-0.877	Yaw:	-1.137	Thrust:	58.006
Time:	2.090	Roll Set Point:	-0.318	Pitch Set Point:	0.257	Yaw Set Point:	0.013	X_WP:	0.000	Y_WP:	0.000	Z_WP:	0.500	X:	0.158	Y:	-0.130	Z:	0.542	yaw:	-0.732	yaw rate:	-14.253	Roll:	0.998	Pitch:	-1.114	Yaw:	2.791	Thrust:	43.577
Time:	2.110	Roll Set Point:	-0.318	Pitch Set Point:	0.256	Yaw Set Point:	0.017	X_WP:	0.000	Y_WP:	0.000	Z_WP:	0.500	X:	0.158	Y:	-0.129	Z:	0.550	yaw:	-0.967	yaw rate:	23.486	Roll:	1.940	Pitch:	-0.646	Yaw:	-2.721	Thrust:	54.678
Time:	2.133	Roll Set Point:	-0.318	Pitch Set Point:	0.256	Yaw Set Point:	0.014	X_WP:	0.000	Y_WP:	0.000	Z_WP:	0.500	X:	0.158	Y:	-0.129	Z:	0.557	yaw:	-0.789	yaw rate:	-17.708	Roll:	1.222	Pitch:	-1.598	Yaw:	3.121	Thrust:	69.802
Time:	2.151	Roll Set Point:	-0.316	Pitch Set Point:	0.256	Yaw Set Point:	0.008	X_WP:	0.000	Y_WP:	0.000	Z_WP:	0.500	X:	0.158	Y:	-0.129	Z:	0.564	yaw:	-0.448	yaw rate:	-34.129	Roll:	0.629	Pitch:	-1.906	Yaw:	6.147	Thrust:	44.273
Time:	2.170	Roll Set Point:	-0.319	Pitch Set Point:	0.253	Yaw Set Point:	0.023	X_WP:	0.000	Y_WP:	0.000	Z_WP:	0.500	X:	0.158	Y:	-0.128	Z:	0.571	yaw:	-1.321	yaw rate:	87.301	Roll:	3.465	Pitch:	0.995	Yaw:	-11.365	Thrust:	55.436
Time:	2.190	Roll Set Point:	-0.316	Pitch Set Point:	0.255	Yaw Set Point:	0.010	X_WP:	0.000	Y_WP:	0.000	Z_WP:	0.500	X:	0.158	Y:	-0.128	Z:	0.577	yaw:	-0.586	yaw rate:	-73.487	Roll:	-0.150	Pitch:	-2.911	Yaw:	10.792	Thrust:	55.368
Time:	2.210	Roll Set Point:	-0.318	Pitch Set Point:	0.253	Yaw Set Point:	0.021	X_WP:	0.000	Y_WP:	0.000	Z_WP:	0.500	X:	0.158	Y:	-0.128	Z:	0.583	yaw:	-1.192	yaw rate:	60.542	Roll:	2.830	Pitch:	0.196	Yaw:	-7.654	Thrust:	56.848
Time:	2.231	Roll Set Point:	-0.318	Pitch Set Point:	0.252	Yaw Set Point:	0.023	X_WP:	0.000	Y_WP:	0.000	Z_WP:	0.500	X:	0.158	Y:	-0.128	Z:	0.588	yaw:	-1.299	yaw rate:	10.725	Roll:	1.715	Pitch:	-1.045	Yaw:	-1.246	Thrust:	59.403
Time:	2.252	Roll Set Point:	-0.321	Pitch Set Point:	0.247	Yaw Set Point:	0.050	X_WP:	0.000	Y_WP:	0.000	Z_WP:	0.500	X:	0.158	Y:	-0.127	Z:	0.594	yaw:	-2.865	yaw rate:	156.645	Roll:	4.312	Pitch:	2.482	Yaw:	-21.361	Thrust:	62.315
Time:	2.273	Roll Set Point:	-0.316	Pitch Set Point:	0.252	Yaw Set Point:	0.019	X_WP:	0.000	Y_WP:	0.000	Z_WP:	0.500	X:	0.157	Y:	-0.128	Z:	0.598	yaw:	-1.088	yaw rate:	-177.789	Roll:	-1.943	Pitch:	-5.498	Yaw:	22.069	Thrust:	64.913
Time:	2.290	Roll Set Point:	-0.317	Pitch Set Point:	0.251	Yaw Set Point:	0.022	X_WP:	0.000	Y_WP:	0.000	Z_WP:	0.500	X:	0.157	Y:	-0.127	Z:	0.602	yaw:	-1.289	yaw rate:	20.123	Roll:	2.046	Pitch:	-0.471	Yaw:	-3.373	Thrust:	44.642
Time:	2.310	Roll Set Point:	-0.317	Pitch Set Point:	0.252	Yaw Set Point:	0.016	X_WP:	0.000	Y_WP:	0.000	Z_WP:	0.500	X:	0.158	Y:	-0.127	Z:	0.606	yaw:	-0.919	yaw rate:	-36.941	Roll:	1.135	Pitch:	-2.202	Yaw:	5.454	Thrust:	57.047
Time:	2.335	Roll Set Point:	-0.317	Pitch Set Point:	0.250	Yaw Set Point:	0.025	X_WP:	0.000	Y_WP:	0.000	Z_WP:	0.500	X:	0.157	Y:	-0.127	Z:	0.611	yaw:	-1.418	yaw rate:	49.881	Roll:	1.964	Pitch:	-0.336	Yaw:	-4.976	Thrust:	76.560
Time:	2.351	Roll Set Point:	-0.317	Pitch Set Point:	0.250	Yaw Set Point:	0.028	X_WP:	0.000	Y_WP:	0.000	Z_WP:	0.500	X:	0.157	Y:	-0.127	Z:	0.615	yaw:	-1.589	yaw rate:	17.103	Roll:	1.535	Pitch:	-0.652	Yaw:	-3.544	Thrust:	38.480
Time:	2.370	Roll Set Point:	-0.316	Pitch Set Point:	0.253	Yaw Set Point:	0.015	X_WP:	0.000	Y_WP:	0.000	Z_WP:	0.500	X:	0.157	Y:	-0.128	Z:	0.618	yaw:	-0.887	yaw rate:	-70.230	Roll:	0.540	Pitch:	-3.544	Yaw:	9.940	Thrust:	59.531
Time:	2.390	Roll Set Point:	-0.316	Pitch Set Point:	0.252	Yaw Set Point:	0.017	X_WP:	0.000	Y_WP:	0.000	Z_WP:	0.500	X:	0.157	Y:	-0.128	Z:	0.621	yaw:	-0.954	yaw rate:	6.707	Roll:	1.708	Pitch:	-1.062	Yaw:	-0.398	Thrust:	59.101
Time:	2.411	Roll Set Point:	-0.315	Pitch Set Point:	0.251	Yaw Set Point:	0.022	X_WP:	0.000	Y_WP:	0.000	Z_WP:	0.500	X:	0.156	Y:	-0.127	Z:	0.625	yaw:	-1.283	yaw rate:	32.852	Roll:	1.290	Pitch:	-0.520	Yaw:	-4.184	Thrust:	57.629
Time:	2.431	Roll Set Point:	-0.313	Pitch Set Point:	0.253	Yaw Set Point:	0.011	X_WP:	0.000	Y_WP:	0.000	Z_WP:	0.500	X:	0.156	Y:	-0.127	Z:	0.627	yaw:	-0.635	yaw rate:	-64.788	Roll:	0.293	Pitch:	-2.783	Yaw:	9.384	Thrust:	59.679
Time:	2.451	Roll Set Point:	-0.313	Pitch Set Point:	0.251	Yaw Set Point:	0.022	X_WP:	0.000	Y_WP:	0.000	Z_WP:	0.500	X:	0.155	Y:	-0.127	Z:	0.630	yaw:	-1.283	yaw rate:	64.870	Roll:	2.288	Pitch:	0.024	Yaw:	-8.214	Thrust:	60.344
Time:	2.473	Roll Set Point:	-0.311	Pitch Set Point:	0.252	Yaw Set Point:	0.013	X_WP:	0.000	Y_WP:	0.000	Z_WP:	0.500	X:	0.155	Y:	-0.127	Z:	0.631	yaw:	-0.719	yaw rate:	-56.472	Roll:	0.051	Pitch:	-2.423	Yaw:	7.685	Thrust:	67.717
Time:	2.490	Roll Set Point:	-0.312	Pitch Set Point:	0.251	Yaw Set Point:	0.021	X_WP:	0.000	Y_WP:	0.000	Z_WP:	0.500	X:	0.155	Y:	-0.127	Z:	0.633	yaw:	-1.184	yaw rate:	46.530	Roll:	2.771	Pitch:	-0.153	Yaw:	-7.284	Thrust:	49.132
Time:	2.510	Roll Set Point:	-0.312	Pitch Set Point:	0.250	Yaw Set Point:	0.025	X_WP:	0.000	Y_WP:	0.000	Z_WP:	0.500	X:	0.154	Y:	-0.127	Z:	0.635	yaw:	-1.448	yaw rate:	26.430	Roll:	1.502	Pitch:	-0.855	Yaw:	-3.663	Thrust:	59.229
Time:	2.535	Roll Set Point:	-0.310	Pitch Set Point:	0.252	Yaw Set Point:	0.011	X_WP:	0.000	Y_WP:	0.000	Z_WP:	0.500	X:	0.154	Y:	-0.127	Z:	0.636	yaw:	-0.608	yaw rate:	-84.026	Roll:	0.345	Pitch:	-3.033	Yaw:	10.570	Thrust:	69.342
Time:	2.550	Roll Set Point:	-0.310	Pitch Set Point:	0.251	Yaw Set Point:	0.016	X_WP:	0.000	Y_WP:	0.000	Z_WP:	0.500	X:	0.154	Y:	-0.127	Z:	0.637	yaw:	-0.934	yaw rate:	32.599	Roll:	1.797	Pitch:	-0.373	Yaw:	-5.002	Thrust:	49.706
Time:	2.570	Roll Set Point:	-0.311	Pitch Set Point:	0.247	Yaw Set Point:	0.031	X_WP:	0.000	Y_WP:	0.000	Z_WP:	0.500	X:	0.153	Y:	-0.126	Z:	0.639	yaw:	-1.778	yaw rate:	84.449	Roll:	2.508	Pitch:	1.322	Yaw:	-11.857	Thrust:	57.791
Time:	2.590	Roll Set Point:	-0.309	Pitch Set Point:	0.249	Yaw Set Point:	0.018	X_WP:	0.000	Y_WP:	0.000	Z_WP:	0.500	X:	0.153	Y:	-0.126	Z:	0.640	yaw:	-1.057	yaw rate:	-72.160	Roll:	0.092	Pitch:	-2.985	Yaw:	9.870	Thrust:	56.478
Time:	2.610	Roll Set Point:	-0.309	Pitch Set Point:	0.247	Yaw Set Point:	0.027	X_WP:	0.000	Y_WP:	0.000	Z_WP:	0.500	X:	0.153	Y:	-0.126	Z:	0.642	yaw:	-1.575	yaw rate:	51.863	Roll:	2.076	Pitch:	0.136	Yaw:	-7.057	Thrust:	56.641
Time:	2.630	Roll Set Point:	-0.309	Pitch Set Point:	0.246	Yaw Set Point:	0.031	X_WP:	0.000	Y_WP:	0.000	Z_WP:	0.500	X:	0.152	Y:	-0.125	Z:	0.643	yaw:	-1.767	yaw rate:	19.150	Roll:	1.507	Pitch:	-0.661	Yaw:	-3.259	Thrust:	59.074
Time:	2.653	Roll Set Point:	-0.308	Pitch Set Point:	0.248	Yaw Set Point:	0.018	X_WP:	0.000	Y_WP:	0.000	Z_WP:	0.500	X:	0.153	Y:	-0.125	Z:	0.644	yaw:	-1.020	yaw rate:	-74.700	Roll:	0.587	Pitch:	-3.001	Yaw:	9.303	Thrust:	67.329
Time:	2.674	Roll Set Point:	-0.306	Pitch Set Point:	0.251	Yaw Set Point:	-0.001	X_WP:	0.000	Y_WP:	0.000	Z_WP:	0.500	X:	0.153	Y:	-0.126	Z:	0.644	yaw:	0.064	yaw rate:	-108.399	Roll:	-0.028	Pitch:	-3.836	Yaw:	15.531	Thrust:	63.311
Time:	2.690	Roll Set Point:	-0.305	Pitch Set Point:	0.246	Yaw Set Point:	0.021	X_WP:	0.000	Y_WP:	0.000	Z_WP:	0.500	X:	0.151	Y:	-0.125	Z:	0.646	yaw:	-1.199	yaw rate:	126.266	Roll:	2.341	Pitch:	3.164	Yaw:	-20.239	Thrust:	41.905
Time:	2.709	Roll Set Point:	-0.307	Pitch Set Point:	0.244	Yaw Set Point:	0.032	X_WP:	0.000	Y_WP:	0.000	Z_WP:	0.500	X:	0.152	Y:	-0.125	Z:	0.646	yaw:	-1.850	yaw rate:	65.172	Roll:	2.886	Pitch:	0.186	Yaw:	-9.689	Thrust:	55.865
Time:	2.734	Roll Set Point:	-0.306	Pitch Set Point:	0.243	Yaw Set Point:	0.034	X_WP:	0.000	Y_WP:	0.000	Z_WP:	0.500	X:	0.151	Y:	-0.124	Z:	0.647	yaw:	-1.964	yaw rate:	11.350	Roll:	1.416	Pitch:	-0.824	Yaw:	-1.894	Thrust:	68.284
Time:	2.750	Roll Set Point:	-0.306	Pitch Set Point:	0.243	Yaw Set Point:	0.031	X_WP:	0.000	Y_WP:	0.000	Z_WP:	0.500	X:	0.151	Y:	-0.124	Z:	0.648	yaw:	-1.801	yaw rate:	-16.288	Roll:	1.175	Pitch:	-1.447	Yaw:	1.443	Thrust:	48.523
Time:	2.770	Roll Set Point:	-0.303	Pitch Set Point:	0.243	Yaw Set Point:	0.022	X_WP:	0.000	Y_WP:	0.000	Z_WP:	0.500	X:	0.150	Y:	-0.123	Z:	0.648	yaw:	-1.249	yaw rate:	-55.154	Roll:	-0.162	Pitch:	-2.218	Yaw:	7.273	Thrust:	54.057
Time:	2.790	Roll Set Point:	-0.304	Pitch Set Point:	0.242	Yaw Set Point:	0.028	X_WP:	0.000	Y_WP:	0.000	Z_WP:	0.500	X:	0.151	Y:	-0.123	Z:	0.648	yaw:	-1.629	yaw rate:	37.921	Roll:	2.289	Pitch:	-0.226	Yaw:	-5.838	Thrust:	56.063
Time:	2.809	Roll Set Point:	-0.304	Pitch Set Point:	0.241	Yaw Set Point:	0.028	X_WP:	0.000	Y_WP:	0.000	Z_WP:	0.500	X:	0.150	Y:	-0.123	Z:	0.648	yaw:	-1.613	yaw rate:	-1.578	Roll:	1.345	Pitch:	-1.121	Yaw:	-0.396	Thrust:	59.024
Time:	2.830	Roll Set Point:	-0.304	Pitch Set Point:	0.240	Yaw Set Point:	0.032	X_WP:	0.000	Y_WP:	0.000	Z_WP:	0.500	X:	0.150	Y:	-0.123	Z:	0.648	yaw:	-1.848	yaw rate:	23.488	Roll:	1.788	Pitch:	-0.658	Yaw:	-3.895	Thrust:	59.156
Time:	2.851	Roll Set Point:	-0.302	Pitch Set Point:	0.240	Yaw Set Point:	0.027	X_WP:	0.000	Y_WP:	0.000	Z_WP:	0.500	X:	0.150	Y:	-0.122	Z:	0.647	yaw:	-1.533	yaw rate:	-31.453	Roll:	0.477	Pitch:	-1.601	Yaw:	3.458	Thrust:	62.951
Time:	2.873	Roll Set Point:	-0.301	Pitch Set Point:	0.240	Yaw Set Point:	0.022	X_WP:	0.000	Y_WP:	0.000	Z_WP:	0.500	X:	0.149	Y:	-0.122	Z:	0.645	yaw:	-1.266	yaw rate:	-26.768	Roll:	1.033	Pitch:	-1.819	Yaw:	3.195	Thrust:	64.333
Time:	2.890	Roll Set Point:	-0.302	Pitch Set Point:	0.238	Yaw Set Point:	0.030	X_WP:	0.000	Y_WP:	0.000	Z_WP:	0.500	X:	0.149	Y:	-0.121	Z:	0.644	yaw:	-1.744	yaw rate:	47.860	Roll:	2.214	Pitch:	0.434	Yaw:	-8.116	Thrust:	51.396
Time:	2.910	Roll Set Point:	-0.301	Pitch Set Point:	0.240	Yaw Set Point:	0.016	X_WP:	0.000	Y_WP:	0.000	Z_WP:	0.500	X:	0.150	Y:	-0.121	Z:	0.642	yaw:	-0.892	yaw rate:	-85.221	Roll:	0.190	Pitch:	-3.114	Yaw:	11.626	Thrust:	58.953
Time:	2.934	Roll Set Point:	-0.301	Pitch Set Point:	0.236	Yaw Set Point:	0.031	X_WP:	0.000	Y_WP:	0.000	Z_WP:	0.500	X:	0.149	Y:	-0.121	Z:	0.641	yaw:	-1.795	yaw rate:	90.296	Roll:	2.392	Pitch:	0.788	Yaw:	-10.575	Thrust:	66.726
Time:	2.950	Roll Set Point:	-0.300	Pitch Set Point:	0.238	Yaw Set Point:	0.016	X_WP:	0.000	Y_WP:	0.000	Z_WP:	0.500	X:	0.149	Y:	-0.120	Z:	0.639	yaw:	-0.916	yaw rate:	-87.879	Roll:	0.160	Pitch:	-3.331	Yaw:	13.952	Thrust:	52.294
Time:	2.970	Roll Set Point:	-0.301	Pitch Set Point:	0.235	Yaw Set Point:	0.033	X_WP:	0.000	Y_WP:	0.000	Z_WP:	0.500	X:	0.148	Y:	-0.120	Z:	0.638	yaw:	-1.862	yaw rate:	94.612	Roll:	2.511	Pitch:	1.339	Yaw:	-13.577	Thrust:	57.168
Time:	2.990	Roll Set Point:	-0.299	Pitch Set Point:	0.236	Yaw Set Point:	0.021	X_WP:	0.000	Y_WP:	0.000	Z_WP:	0.500	X:	0.148	Y:	-0.119	Z:	0.636	yaw:	-1.176	yaw rate:	-68.638	Roll:	0.042	Pitch:	-2.632	Yaw:	8.999	Thrust:	57.783
Time:	3.010	Roll Set Point:	-0.298	Pitch Set Point:	0.237	Yaw Set Point:	0.010	X_WP:	0.000	Y_WP:	0.000	Z_WP:	0.500	X:	0.149	Y:	-0.119	Z:	0.634	yaw:	-0.571	yaw rate:	-60.442	Roll:	0.794	Pitch:	-2.369	Yaw:	8.856	Thrust:	57.314
Time:	3.031	Roll Set Point:	-0.300	Pitch Set Point:	0.232	Yaw Set Point:	0.032	X_WP:	0.000	Y_WP:	0.000	Z_WP:	0.500	X:	0.148	Y:	-0.119	Z:	0.633	yaw:	-1.820	yaw rate:	124.874	Roll:	3.295	Pitch:	1.721	Yaw:	-16.490	Thrust:	60.432
Time:	3.050	Roll Set Point:	-0.300	Pitch Set Point:	0.230	Yaw Set Point:	0.037	X_WP:	0.000	Y_WP:	0.000	Z_WP:	0.500	X:	0.148	Y:	-0.118	Z:	0.631	yaw:	-2.102	yaw rate:	28.155	Roll:	1.616	Pitch:	0.038	Yaw:	-5.224	Thrust:	55.764
Time:	3.072	Roll Set Point:	-0.299	Pitch Set Point:	0.232	Yaw Set Point:	0.019	X_WP:	0.000	Y_WP:	0.000	Z_WP:	0.500	X:	0.148	Y:	-0.117	Z:	0.629	yaw:	-1.089	yaw rate:	-101.255	Roll:	0.376	Pitch:	-3.100	Yaw:	11.899	Thrust:	66.319
Time:	3.090	Roll Set Point:	-0.297	Pitch Set Point:	0.252	Yaw Set Point:	-0.183	X_WP:	0.000	Y_WP:	0.000	Z_WP:	0.500	X:	0.160	Y:	-0.112	Z:	0.630	yaw:	10.502	yaw rate:	-1159.102	Roll:	-11.558	Pitch:	-25.954	Yaw:	189.329	Thrust:	44.401
Time:	3.110	Roll Set Point:	-0.294	Pitch Set Point:	0.255	Yaw Set Point:	-0.206	X_WP:	0.000	Y_WP:	0.000	Z_WP:	0.500	X:	0.160	Y:	-0.112	Z:	0.627	yaw:	11.825	yaw rate:	-132.290	Roll:	-1.386	Pitch:	-3.870	Yaw:	35.298	Thrust:	58.595
Time:	3.134	Roll Set Point:	-0.297	Pitch Set Point:	0.251	Yaw Set Point:	-0.191	X_WP:	0.000	Y_WP:	0.000	Z_WP:	0.500	X:	0.160	Y:	-0.111	Z:	0.625	yaw:	10.929	yaw rate:	89.608	Roll:	3.123	Pitch:	0.282	Yaw:	7.618	Thrust:	70.074
Time:	3.150	Roll Set Point:	-0.300	Pitch Set Point:	0.246	Yaw Set Point:	-0.171	X_WP:	0.000	Y_WP:	0.000	Z_WP:	0.500	X:	0.161	Y:	-0.110	Z:	0.623	yaw:	9.810	yaw rate:	111.905	Roll:	4.757	Pitch:	2.696	Yaw:	-3.141	Thrust:	48.771
Time:	3.171	Roll Set Point:	-0.309	Pitch Set Point:	0.212	Yaw Set Point:	0.103	X_WP:	0.000	Y_WP:	0.000	Z_WP:	0.500	X:	0.149	Y:	-0.114	Z:	0.617	yaw:	-5.881	yaw rate:	1569.069	Roll:	18.606	Pitch:	29.682	Yaw:	-208.094	Thrust:	65.449
Time:	3.190	Roll Set Point:	-0.309	Pitch Set Point:	0.212	Yaw Set Point:	0.096	X_WP:	0.000	Y_WP:	0.000	Z_WP:	0.500	X:	0.150	Y:	-0.113	Z:	0.613	yaw:	-5.478	yaw rate:	-40.354	Roll:	1.316	Pitch:	-1.566	Yaw:	-0.491	Thrust:	60.077
Time:	3.210	Roll Set Point:	-0.312	Pitch Set Point:	0.207	Yaw Set Point:	0.106	X_WP:	0.000	Y_WP:	0.000	Z_WP:	0.500	X:	0.150	Y:	-0.112	Z:	0.610	yaw:	-6.086	yaw rate:	60.827	Roll:	2.939	Pitch:	1.561	Yaw:	-14.689	Thrust:	59.627
Time:	3.230	Roll Set Point:	-0.313	Pitch Set Point:	0.204	Yaw Set Point:	0.102	X_WP:	0.000	Y_WP:	0.000	Z_WP:	0.500	X:	0.151	Y:	-0.110	Z:	0.609	yaw:	-5.867	yaw rate:	-21.888	Roll:	1.739	Pitch:	-0.398	Yaw:	-3.645	Thrust:	55.573
Time:	3.251	Roll Set Point:	-0.314	Pitch Set Point:	0.202	Yaw Set Point:	0.092	X_WP:	0.000	Y_WP:	0.000	Z_WP:	0.500	X:	0.152	Y:	-0.108	Z:	0.607	yaw:	-5.266	yaw rate:	-60.070	Roll:	1.736	Pitch:	-0.904	Yaw:	1.838	Thrust:	59.960
Time:	3.273	Roll Set Point:	-0.310	Pitch Set Point:	0.204	Yaw Set Point:	0.052	X_WP:	0.000	Y_WP:	0.000	Z_WP:	0.500	X:	0.152	Y:	-0.106	Z:	0.606	yaw:	-2.981	yaw rate:	-228.481	Roll:	-1.645	Pitch:	-4.463	Yaw:	25.212	Thrust:	58.359
Time:	3.291	Roll Set Point:	-0.312	Pitch Set Point:	0.200	Yaw Set Point:	0.053	X_WP:	0.000	Y_WP:	0.000	Z_WP:	0.500	X:	0.153	Y:	-0.104	Z:	0.604	yaw:	-3.060	yaw rate:	7.839	Roll:	2.501	Pitch:	0.948	Yaw:	-4.003	Thrust:	51.466
Time:	3.310	Roll Set Point:	-0.316	Pitch Set Point:	0.191	Yaw Set Point:	0.079	X_WP:	0.000	Y_WP:	0.000	Z_WP:	0.500	X:	0.154	Y:	-0.102	Z:	0.602	yaw:	-4.545	yaw rate:	148.509	Roll:	4.303	Pitch:	4.452	Yaw:	-25.567	Thrust:	52.777
Time:	3.334	Roll Set Point:	-0.317	Pitch Set Point:	0.190	Yaw Set Point:	0.061	X_WP:	0.000	Y_WP:	0.000	Z_WP:	0.500	X:	0.155	Y:	-0.100	Z:	0.600	yaw:	-3.507	yaw rate:	-103.769	Roll:	1.346	Pitch:	-1.932	Yaw:	8.105	Thrust:	68.916
Time:	3.351	Roll Set Point:	-0.321	Pitch Set Point:	0.183	Yaw Set Point:	0.085	X_WP:	0.000	Y_WP:	0.000	Z_WP:	0.500	X:	0.157	Y:	-0.098	Z:	0.597	yaw:	-4.891	yaw rate:	138.333	Roll:	4.664	Pitch:	4.246	Yaw:	-27.483	Thrust:	48.182
Time:	3.371	Roll Set Point:	-0.322	Pitch Set Point:	0.180	Yaw Set Point:	0.072	X_WP:	0.000	Y_WP:	0.000	Z_WP:	0.500	X:	0.158	Y:	-0.096	Z:	0.596	yaw:	-4.106	yaw rate:	-78.406	Roll:	1.514	Pitch:	-0.924	Yaw:	5.865	Thrust:	56.523
Time:	3.390	Roll Set Point:	-0.325	Pitch Set Point:	0.173	Yaw Set Point:	0.087	X_WP:	0.000	Y_WP:	0.000	Z_WP:	0.500	X:	0.159	Y:	-0.094	Z:	0.593	yaw:	-5.007	yaw rate:	90.064	Roll:	3.341	Pitch:	3.208	Yaw:	-18.110	Thrust:	53.355
Time:	3.410	Roll Set Point:	-0.336	Pitch Set Point:	0.154	Yaw Set Point:	0.163	X_WP:	0.000	Y_WP:	0.000	Z_WP:	0.500	X:	0.162	Y:	-0.090	Z:	0.590	yaw:	-9.314	yaw rate:	430.652	Roll:	8.244	Pitch:	12.847	Yaw:	-68.229	Thrust:	58.849
Time:	3.430	Roll Set Point:	-0.334	Pitch Set Point:	0.159	Yaw Set Point:	0.110	X_WP:	0.000	Y_WP:	0.000	Z_WP:	0.500	X:	0.163	Y:	-0.089	Z:	0.587	yaw:	-6.292	yaw rate:	-302.131	Roll:	-0.713	Pitch:	-7.246	Yaw:	31.063	Thrust:	60.059
Time:	3.451	Roll Set Point:	-0.337	Pitch Set Point:	0.151	Yaw Set Point:	0.129	X_WP:	0.000	Y_WP:	0.000	Z_WP:	0.500	X:	0.164	Y:	-0.087	Z:	0.584	yaw:	-7.417	yaw rate:	112.482	Roll:	3.201	Pitch:	3.513	Yaw:	-22.937	Thrust:	60.790
Time:	3.473	Roll Set Point:	-0.338	Pitch Set Point:	0.151	Yaw Set Point:	0.108	X_WP:	0.000	Y_WP:	0.000	Z_WP:	0.500	X:	0.165	Y:	-0.085	Z:	0.581	yaw:	-6.200	yaw rate:	-121.701	Roll:	1.478	Pitch:	-2.511	Yaw:	7.429	Thrust:	61.601
Time:	3.490	Roll Set Point:	-0.334	Pitch Set Point:	0.153	Yaw Set Point:	0.078	X_WP:	0.000	Y_WP:	0.000	Z_WP:	0.500	X:	0.164	Y:	-0.083	Z:	0.579	yaw:	-4.490	yaw rate:	-171.043	Roll:	-1.412	Pitch:	-4.244	Yaw:	20.522	Thrust:	48.048
Time:	3.511	Roll Set Point:	-0.337	Pitch Set Point:	0.153	Yaw Set Point:	0.071	X_WP:	0.000	Y_WP:	0.000	Z_WP:	0.500	X:	0.166	Y:	-0.082	Z:	0.577	yaw:	-4.056	yaw rate:	-43.404	Roll:	2.516	Pitch:	-1.586	Yaw:	1.075	Thrust:	57.958
Time:	3.534	Roll Set Point:	-0.336	Pitch Set Point:	0.151	Yaw Set Point:	0.057	X_WP:	0.000	Y_WP:	0.000	Z_WP:	0.500	X:	0.166	Y:	-0.080	Z:	0.573	yaw:	-3.257	yaw rate:	-79.841	Roll:	1.021	Pitch:	-1.321	Yaw:	5.770	Thrust:	67.545
Time:	3.551	Roll Set Point:	-0.337	Pitch Set Point:	0.146	Yaw Set Point:	0.071	X_WP:	0.000	Y_WP:	0.000	Z_WP:	0.500	X:	0.166	Y:	-0.079	Z:	0.570	yaw:	-4.060	yaw rate:	80.235	Roll:	2.422	Pitch:	2.681	Yaw:	-17.462	Thrust:	50.451
Time:	3.571	Roll Set Point:	-0.337	Pitch Set Point:	0.145	Yaw Set Point:	0.066	X_WP:	0.000	Y_WP:	0.000	Z_WP:	0.500	X:	0.166	Y:	-0.078	Z:	0.566	yaw:	-3.809	yaw rate:	-25.041	Roll:	1.739	Pitch:	-0.863	Yaw:	-0.974	Thrust:	59.199
Time:	3.591	Roll Set Point:	-0.338	Pitch Set Point:	0.143	Yaw Set Point:	0.066	X_WP:	0.000	Y_WP:	0.000	Z_WP:	0.500	X:	0.167	Y:	-0.077	Z:	0.563	yaw:	-3.776	yaw rate:	-3.354	Roll:	1.818	Pitch:	-0.284	Yaw:	-3.770	Thrust:	60.033
Time:	3.610	Roll Set Point:	-0.341	Pitch Set Point:	0.141	Yaw Set Point:	0.079	X_WP:	0.000	Y_WP:	0.000	Z_WP:	0.500	X:	0.168	Y:	-0.077	Z:	0.560	yaw:	-4.532	yaw rate:	75.622	Roll:	3.172	Pitch:	0.909	Yaw:	-15.605	Thrust:	55.526
Time:	3.631	Roll Set Point:	-0.341	Pitch Set Point:	0.142	Yaw Set Point:	0.059	X_WP:	0.000	Y_WP:	0.000	Z_WP:	0.500	X:	0.168	Y:	-0.076	Z:	0.556	yaw:	-3.380	yaw rate:	-115.165	Roll:	0.889	Pitch:	-2.951	Yaw:	10.959	Thrust:	61.948
Time:	3.652	Roll Set Point:	-0.339	Pitch Set Point:	0.139	Yaw Set Point:	0.059	X_WP:	0.000	Y_WP:	0.000	Z_WP:	0.500	X:	0.168	Y:	-0.075	Z:	0.552	yaw:	-3.380	yaw rate:	-0.037	Roll:	1.086	Pitch:	-0.199	Yaw:	-3.687	Thrust:	63.154
Time:	3.673	Roll Set Point:	-0.340	Pitch Set Point:	0.140	Yaw Set Point:	0.047	X_WP:	0.000	Y_WP:	0.000	Z_WP:	0.500	X:	0.168	Y:	-0.074	Z:	0.548	yaw:	-2.687	yaw rate:	-69.302	Roll:	1.442	Pitch:	-2.215	Yaw:	5.678	Thrust:	63.547
Time:	3.690	Roll Set Point:	-0.340	Pitch Set Point:	0.137	Yaw Set Point:	0.056	X_WP:	0.000	Y_WP:	0.000	Z_WP:	0.500	X:	0.168	Y:	-0.073	Z:	0.545	yaw:	-3.194	yaw rate:	50.671	Roll:	1.795	Pitch:	1.061	Yaw:	-11.721	Thrust:	52.413
Time:	3.710	Roll Set Point:	-0.340	Pitch Set Point:	0.139	Yaw Set Point:	0.042	X_WP:	0.000	Y_WP:	0.000	Z_WP:	0.500	X:	0.168	Y:	-0.073	Z:	0.541	yaw:	-2.404	yaw rate:	-78.922	Roll:	1.160	Pitch:	-2.676	Yaw:	7.741	Thrust:	61.046
Time:	3.735	Roll Set Point:	-0.342	Pitch Set Point:	0.136	Yaw Set Point:	0.069	X_WP:	0.000	Y_WP:	0.000	Z_WP:	0.500	X:	0.169	Y:	-0.074	Z:	0.537	yaw:	-3.931	yaw rate:	152.618	Roll:	3.272	Pitch:	1.646	Yaw:	-20.681	Thrust:	69.992
Time:	3.750	Roll Set Point:	-0.339	Pitch Set Point:	0.136	Yaw Set Point:	0.050	X_WP:	0.000	Y_WP:	0.000	Z_WP:	0.500	X:	0.168	Y:	-0.072	Z:	0.533	yaw:	-2.860	yaw rate:	-107.025	Roll:	-0.464	Pitch:	-2.921	Yaw:	14.698	Thrust:	51.499
Time:	3.770	Roll Set Point:	-0.339	Pitch Set Point:	0.138	Yaw Set Point:	0.036	X_WP:	0.000	Y_WP:	0.000	Z_WP:	0.500	X:	0.168	Y:	-0.072	Z:	0.530	yaw:	-2.060	yaw rate:	-80.005	Roll:	1.087	Pitch:	-2.861	Yaw:	8.690	Thrust:	59.201
Time:	3.790	Roll Set Point:	-0.339	Pitch Set Point:	0.135	Yaw Set Point:	0.048	X_WP:	0.000	Y_WP:	0.000	Z_WP:	0.500	X:	0.168	Y:	-0.072	Z:	0.526	yaw:	-2.775	yaw rate:	71.439	Roll:	1.839	Pitch:	0.948	Yaw:	-12.263	Thrust:	60.799
Time:	3.809	Roll Set Point:	-0.338	Pitch Set Point:	0.135	Yaw Set Point:	0.045	X_WP:	0.000	Y_WP:	0.000	Z_WP:	0.500	X:	0.168	Y:	-0.071	Z:	0.523	yaw:	-2.555	yaw rate:	-21.944	Roll:	1.228	Pitch:	-1.233	Yaw:	0.224	Thrust:	57.756
Time:	3.830	Roll Set Point:	-0.338	Pitch Set Point:	0.135	Yaw Set Point:	0.044	X_WP:	0.000	Y_WP:	0.000	Z_WP:	0.500	X:	0.168	Y:	-0.071	Z:	0.519	yaw:	-2.538	yaw rate:	-1.736	Roll:	1.559	Pitch:	-1.105	Yaw:	-2.495	Thrust:	63.621
Time:	3.851	Roll Set Point:	-0.338	Pitch Set Point:	0.134	Yaw Set Point:	0.048	X_WP:	0.000	Y_WP:	0.000	Z_WP:	0.500	X:	0.167	Y:	-0.071	Z:	0.515	yaw:	-2.772	yaw rate:	23.425	Roll:	1.591	Pitch:	-0.386	Yaw:	-5.965	Thrust:	63.531
Time:	3.873	Roll Set Point:	-0.337	Pitch Set Point:	0.134	Yaw Set Point:	0.044	X_WP:	0.000	Y_WP:	0.000	Z_WP:	0.500	X:	0.167	Y:	-0.071	Z:	0.511	yaw:	-2.547	yaw rate:	-22.539	Roll:	1.367	Pitch:	-1.503	Yaw:	-0.009	Thrust:	63.272
Time:	3.890	Roll Set Point:	-0.337	Pitch Set Point:	0.134	Yaw Set Point:	0.041	X_WP:	0.000	Y_WP:	0.000	Z_WP:	0.500	X:	0.167	Y:	-0.071	Z:	0.508	yaw:	-2.333	yaw rate:	-21.341	Roll:	1.107	Pitch:	-1.341	Yaw:	0.599	Thrust:	54.381
Time:	3.910	Roll Set Point:	-0.336	Pitch Set Point:	0.134	Yaw Set Point:	0.042	X_WP:	0.000	Y_WP:	0.000	Z_WP:	0.500	X:	0.167	Y:	-0.070	Z:	0.504	yaw:	-2.386	yaw rate:	5.240	Roll:	1.426	Pitch:	-0.926	Yaw:	-3.318	Thrust:	61.907
Time:	3.934	Roll Set Point:	-0.336	Pitch Set Point:	0.137	Yaw Set Point:	0.026	X_WP:	0.000	Y_WP:	0.000	Z_WP:	0.500	X:	0.167	Y:	-0.070	Z:	0.501	yaw:	-1.488	yaw rate:	-89.733	Roll:	1.184	Pitch:	-3.086	Yaw:	8.400	Thrust:	71.545
Time:	3.950	Roll Set Point:	-0.337	Pitch Set Point:	0.133	Yaw Set Point:	0.051	X_WP:	0.000	Y_WP:	0.000	Z_WP:	0.500	X:	0.167	Y:	-0.071	Z:	0.498	yaw:	-2.919	yaw rate:	143.110	Roll:	3.302	Pitch:	3.260	Yaw:	-26.876	Thrust:	50.248
Time:	3.970	Roll Set Point:	-0.337	Pitch Set Point:	0.136	Yaw Set Point:	0.034	X_WP:	0.000	Y_WP:	0.000	Z_WP:	0.500	X:	0.167	Y:	-0.071	Z:	0.495	yaw:	-1.974	yaw rate:	-94.551	Roll:	0.881	Pitch:	-3.438	Yaw:	10.433	Thrust:	60.417
Time:	3.990	Roll Set Point:	-0.337	Pitch Set Point:	0.132	Yaw Set Point:	0.054	X_WP:	0.000	Y_WP:	0.000	Z_WP:	0.500	X:	0.167	Y:	-0.071	Z:	0.492	yaw:	-3.094	yaw rate:	112.055	Roll:	2.278	Pitch:	1.931	Yaw:	-18.264	Thrust:	60.427
Time:	4.010	Roll Set Point:	-0.336	Pitch Set Point:	0.133	Yaw Set Point:	0.047	X_WP:	0.000	Y_WP:	0.000	Z_WP:	0.500	X:	0.166	Y:	-0.070	Z:	0.489	yaw:	-2.700	yaw rate:	-39.441	Roll:	0.979	Pitch:	-1.803	Yaw:	2.085	Thrust:	60.218
Time:	4.030	Roll Set Point:	-0.336	Pitch Set Point:	0.134	Yaw Set Point:	0.041	X_WP:	0.000	Y_WP:	0.000	Z_WP:	0.500	X:	0.166	Y:	-0.070	Z:	0.486	yaw:	-2.337	yaw rate:	-36.334	Roll:	1.253	Pitch:	-1.953	Yaw:	2.107	Thrust:	61.066
Time:	4.052	Roll Set Point:	-0.334	Pitch Set Point:	0.133	Yaw Set Point:	0.041	X_WP:	0.000	Y_WP:	0.000	Z_WP:	0.500	X:	0.165	Y:	-0.070	Z:	0.483	yaw:	-2.335	yaw rate:	-0.133	Roll:	0.926	Pitch:	-0.684	Yaw:	-2.584	Thrust:	66.004
Time:	4.073	Roll Set Point:	-0.332	Pitch Set Point:	0.134	Yaw Set Point:	0.029	X_WP:	0.000	Y_WP:	0.000	Z_WP:	0.500	X:	0.165	Y:	-0.070	Z:	0.480	yaw:	-1.651	yaw rate:	-68.438	Roll:	0.655	Pitch:	-2.659	Yaw:	6.815	Thrust:	63.491
Time:	4.090	Roll Set Point:	-0.332	Pitch Set Point:	0.134	Yaw Set Point:	0.032	X_WP:	0.000	Y_WP:	0.000	Z_WP:	0.500	X:	0.165	Y:	-0.070	Z:	0.477	yaw:	-1.833	yaw rate:	18.161	Roll:	1.419	Pitch:	-0.657	Yaw:	-4.816	Thrust:	55.717
Time:	4.110	Roll Set Point:	-0.331	Pitch Set Point:	0.135	Yaw Set Point:	0.028	X_WP:	0.000	Y_WP:	0.000	Z_WP:	0.500	X:	0.165	Y:	-0.070	Z:	0.474	yaw:	-1.616	yaw rate:	-21.611	Roll:	1.095	Pitch:	-1.490	Yaw:	1.125	Thrust:	61.226
Time:	4.134	Roll Set Point:	-0.332	Pitch Set Point:	0.134	Yaw Set Point:	0.031	X_WP:	0.000	Y_WP:	0.000	Z_WP:	0.500	X:	0.165	Y:	-0.070	Z:	0.472	yaw:	-1.763	yaw rate:	14.695	Roll:	2.070	Pitch:	-0.807	Yaw:	-3.438	Thrust:	67.596
Time:	4.151	Roll Set Point:	-0.331	Pitch Set Point:	0.132	Yaw Set Point:	0.039	X_WP:	0.000	Y_WP:	0.000	Z_WP:	0.500	X:	0.164	Y:	-0.069	Z:	0.469	yaw:	-2.244	yaw rate:	48.016	Roll:	1.495	Pitch:	0.424	Yaw:	-10.538	Thrust:	54.335
Time:	4.170	Roll Set Point:	-0.332	Pitch Set Point:	0.132	Yaw Set Point:	0.046	X_WP:	0.000	Y_WP:	0.000	Z_WP:	0.500	X:	0.165	Y:	-0.070	Z:	0.467	yaw:	-2.613	yaw rate:	36.928	Roll:	2.157	Pitch:	-0.553	Yaw:	-8.005	Thrust:	59.556
Time:	4.190	Roll Set Point:	-0.331	Pitch Set Point:	0.133	Yaw Set Point:	0.037	X_WP:	0.000	Y_WP:	0.000	Z_WP:	0.500	X:	0.164	Y:	-0.069	Z:	0.464	yaw:	-2.108	yaw rate:	-50.501	Roll:	0.723	Pitch:	-1.870	Yaw:	4.187	Thrust:	62.073
Time:	4.210	Roll Set Point:	-0.330	Pitch Set Point:	0.132	Yaw Set Point:	0.036	X_WP:	0.000	Y_WP:	0.000	Z_WP:	0.500	X:	0.164	Y:	-0.069	Z:	0.462	yaw:	-2.047	yaw rate:	-6.067	Roll:	1.118	Pitch:	-1.006	Yaw:	-1.578	Thrust:	61.819
Time:	4.230	Roll Set Point:	-0.330	Pitch Set Point:	0.135	Yaw Set Point:	0.025	X_WP:	0.000	Y_WP:	0.000	Z_WP:	0.500	X:	0.164	Y:	-0.070	Z:	0.460	yaw:	-1.448	yaw rate:	-59.929	Roll:	1.493	Pitch:	-2.987	Yaw:	6.314	Thrust:	60.969
Time:	4.252	Roll Set Point:	-0.328	Pitch Set Point:	0.136	Yaw Set Point:	0.013	X_WP:	0.000	Y_WP:	0.000	Z_WP:	0.500	X:	0.163	Y:	-0.069	Z:	0.456	yaw:	-0.727	yaw rate:	-72.078	Roll:	0.337	Pitch:	-2.182	Yaw:	8.062	Thrust:	66.041
Time:	4.273	Roll Set Point:	-0.328	Pitch Set Point:	0.133	Yaw Set Point:	0.027	X_WP:	0.000	Y_WP:	0.000	Z_WP:	0.500	X:	0.163	Y:	-0.069	Z:	0.454	yaw:	-1.571	yaw rate:	84.416	Roll:	2.155	Pitch:	0.821	Yaw:	-12.454	Thrust:	65.711
Time:	4.290	Roll Set Point:	-0.329	Pitch Set Point:	0.133	Yaw Set Point:	0.033	X_WP:	0.000	Y_WP:	0.000	Z_WP:	0.500	X:	0.163	Y:	-0.069	Z:	0.452	yaw:	-1.894	yaw rate:	32.317	Roll:	2.052	Pitch:	-0.376	Yaw:	-7.084	Thrust:	55.285
Time:	4.310	Roll Set Point:	-0.329	Pitch Set Point:	0.133	Yaw Set Point:	0.035	X_WP:	0.000	Y_WP:	0.000	Z_WP:	0.500	X:	0.163	Y:	-0.069	Z:	0.450	yaw:	-1.993	yaw rate:	9.853	Roll:	1.635	Pitch:	-0.869	Yaw:	-3.624	Thrust:	63.236
Time:	4.334	Roll Set Point:	-0.330	Pitch Set Point:	0.131	Yaw Set Point:	0.041	X_WP:	0.000	Y_WP:	0.000	Z_WP:	0.500	X:	0.163	Y:	-0.069	Z:	0.448	yaw:	-2.343	yaw rate:	34.953	Roll:	2.042	Pitch:	-0.355	Yaw:	-6.545	Thrust:	72.787
Time:	4.351	Roll Set Point:	-0.330	Pitch Set Point:	0.134	Yaw Set Point:	0.027	X_WP:	0.000	Y_WP:	0.000	Z_WP:	0.500	X:	0.164	Y:	-0.069	Z:	0.445	yaw:	-1.566	yaw rate:	-77.649	Roll:	1.248	Pitch:	-3.443	Yaw:	10.805	Thrust:	54.137
Time:	4.370	Roll Set Point:	-0.329	Pitch Set Point:	0.133	Yaw Set Point:	0.027	X_WP:	0.000	Y_WP:	0.000	Z_WP:	0.500	X:	0.164	Y:	-0.069	Z:	0.443	yaw:	-1.530	yaw rate:	-3.577	Roll:	1.123	Pitch:	-0.676	Yaw:	-1.276	Thrust:	62.209
Time:	4.391	Roll Set Point:	-0.328	Pitch Set Point:	0.130	Yaw Set Point:	0.034	X_WP:	0.000	Y_WP:	0.000	Z_WP:	0.500	X:	0.163	Y:	-0.068	Z:	0.441	yaw:	-1.942	yaw rate:	41.219	Roll:	1.294	Pitch:	0.676	Yaw:	-7.839	Thrust:	61.247
Time:	4.410	Roll Set Point:	-0.327	Pitch Set Point:	0.134	Yaw Set Point:	0.007	X_WP:	0.000	Y_WP:	0.000	Z_WP:	0.500	X:	0.163	Y:	-0.068	Z:	0.439	yaw:	-0.427	yaw rate:	-151.529	Roll:	0.221	Pitch:	-4.679	Yaw:	20.011	Thrust:	62.671
Time:	4.430	Roll Set Point:	-0.328	Pitch Set Point:	0.132	Yaw Set Point:	0.022	X_WP:	0.000	Y_WP:	0.000	Z_WP:	0.500	X:	0.163	Y:	-0.068	Z:	0.438	yaw:	-1.258	yaw rate:	83.035	Roll:	2.659	Pitch:	0.592	Yaw:	-11.907	Thrust:	63.020
Time:	4.450	Roll Set Point:	-0.328	Pitch Set Point:	0.128	Yaw Set Point:	0.040	X_WP:	0.000	Y_WP:	0.000	Z_WP:	0.500	X:	0.163	Y:	-0.067	Z:	0.436	yaw:	-2.268	yaw rate:	101.040	Roll:	2.168	Pitch:	1.928	Yaw:	-16.282	Thrust:	60.771
Time:	4.472	Roll Set Point:	-0.329	Pitch Set Point:	0.129	Yaw Set Point:	0.029	X_WP:	0.000	Y_WP:	0.000	Z_WP:	0.500	X:	0.163	Y:	-0.067	Z:	0.435	yaw:	-1.687	yaw rate:	-58.051	Roll:	1.539	Pitch:	-2.136	Yaw:	4.803	Thrust:	69.189
Time:	4.490	Roll Set Point:	-0.327	Pitch Set Point:	0.126	Yaw Set Point:	0.033	X_WP:	0.000	Y_WP:	0.000	Z_WP:	0.500	X:	0.163	Y:	-0.066	Z:	0.433	yaw:	-1.895	yaw rate:	20.745	Roll:	0.867	Pitch:	0.455	Yaw:	-5.383	Thrust:	58.369
Time:	4.510	Roll Set Point:	-0.326	Pitch Set Point:	0.129	Yaw Set Point:	0.012	X_WP:	0.000	Y_WP:	0.000	Z_WP:	0.500	X:	0.163	Y:	-0.066	Z:	0.431	yaw:	-0.676	yaw rate:	-121.902	Roll:	0.528	Pitch:	-3.701	Yaw:	15.451	Thrust:	62.591
Time:	4.535	Roll Set Point:	-0.326	Pitch Set Point:	0.127	Yaw Set Point:	0.021	X_WP:	0.000	Y_WP:	0.000	Z_WP:	0.500	X:	0.162	Y:	-0.065	Z:	0.430	yaw:	-1.223	yaw rate:	54.708	Roll:	1.717	Pitch:	0.398	Yaw:	-7.381	Thrust:	72.136
Time:	4.551	Roll Set Point:	-0.327	Pitch Set Point:	0.124	Yaw Set Point:	0.031	X_WP:	0.000	Y_WP:	0.000	Z_WP:	0.500	X:	0.163	Y:	-0.065	Z:	0.429	yaw:	-1.782	yaw rate:	55.889	Roll:	2.487	Pitch:	1.021	Yaw:	-11.085	Thrust:	53.133
Time:	4.571	Roll Set Point:	-0.329	Pitch Set Point:	0.123	Yaw Set Point:	0.038	X_WP:	0.000	Y_WP:	0.000	Z_WP:	0.500	X:	0.163	Y:	-0.065	Z:	0.429	yaw:	-2.156	yaw rate:	37.376	Roll:	2.325	Pitch:	-0.267	Yaw:	-7.651	Thrust:	59.851
Time:	4.590	Roll Set Point:	-0.329	Pitch Set Point:	0.122	Yaw Set Point:	0.039	X_WP:	0.000	Y_WP:	0.000	Z_WP:	0.500	X:	0.163	Y:	-0.064	Z:	0.428	yaw:	-2.262	yaw rate:	10.619	Roll:	1.611	Pitch:	-0.414	Yaw:	-4.260	Thrust:	63.007
Time:	4.610	Roll Set Point:	-0.328	Pitch Set Point:	0.122	Yaw Set Point:	0.031	X_WP:	0.000	Y_WP:	0.000	Z_WP:	0.500	X:	0.163	Y:	-0.064	Z:	0.428	yaw:	-1.787	yaw rate:	-47.519	Roll:	1.118	Pitch:	-1.692	Yaw:	4.121	Thrust:	60.918
Time:	4.630	Roll Set Point:	-0.328	Pitch Set Point:	0.123	Yaw Set Point:	0.021	X_WP:	0.000	Y_WP:	0.000	Z_WP:	0.500	X:	0.163	Y:	-0.063	Z:	0.427	yaw:	-1.210	yaw rate:	-57.686	Roll:	1.362	Pitch:	-2.001	Yaw:	6.091	Thrust:	62.615
Time:	4.653	Roll Set Point:	-0.327	Pitch Set Point:	0.121	Yaw Set Point:	0.022	X_WP:	0.000	Y_WP:	0.000	Z_WP:	0.500	X:	0.163	Y:	-0.062	Z:	0.426	yaw:	-1.287	yaw rate:	7.713	Roll:	1.109	Pitch:	-0.039	Yaw:	-2.417	Thrust:	68.271
Time:	4.674	Roll Set Point:	-0.329	Pitch Set Point:	0.121	Yaw Set Point:	0.023	X_WP:	0.000	Y_WP:	0.000	Z_WP:	0.500	X:	0.164	Y:	-0.062	Z:	0.426	yaw:	-1.320	yaw rate:	3.328	Roll:	2.376	Pitch:	-1.120	Yaw:	-2.032	Thrust:	65.899
Time:	4.690	Roll Set Point:	-0.327	Pitch Set Point:	0.119	Yaw Set Point:	0.022	X_WP:	0.000	Y_WP:	0.000	Z_WP:	0.500	X:	0.163	Y:	-0.061	Z:	0.425	yaw:	-1.257	yaw rate:	-6.315	Roll:	0.491	Pitch:	0.071	Yaw:	-0.583	Thrust:	54.911
Time:	4.710	Roll Set Point:	-0.328	Pitch Set Point:	0.117	Yaw Set Point:	0.024	X_WP:	0.000	Y_WP:	0.000	Z_WP:	0.500	X:	0.163	Y:	-0.060	Z:	0.424	yaw:	-1.397	yaw rate:	13.992	Roll:	2.214	Pitch:	-0.153	Yaw:	-3.585	Thrust:	62.168
Time:	4.734	Roll Set Point:	-0.327	Pitch Set Point:	0.118	Yaw Set Point:	0.006	X_WP:	0.000	Y_WP:	0.000	Z_WP:	0.500	X:	0.163	Y:	-0.060	Z:	0.424	yaw:	-0.346	yaw rate:	-105.073	Roll:	0.864	Pitch:	-2.783	Yaw:	11.015	Thrust:	75.832
Time:	4.750	Roll Set Point:	-0.329	Pitch Set Point:	0.113	Yaw Set Point:	0.032	X_WP:	0.000	Y_WP:	0.000	Z_WP:	0.500	X:	0.163	Y:	-0.059	Z:	0.424	yaw:	-1.816	yaw rate:	146.950	Roll:	2.916	Pitch:	4.129	Yaw:	-26.363	Thrust:	49.696
Time:	4.770	Roll Set Point:	-0.329	Pitch Set Point:	0.113	Yaw Set Point:	0.027	X_WP:	0.000	Y_WP:	0.000	Z_WP:	0.500	X:	0.164	Y:	-0.059	Z:	0.424	yaw:	-1.532	yaw rate:	-28.400	Roll:	1.496	Pitch:	-1.141	Yaw:	1.804	Thrust:	61.201
Time:	4.790	Roll Set Point:	-0.328	Pitch Set Point:	0.112	Yaw Set Point:	0.023	X_WP:	0.000	Y_WP:	0.000	Z_WP:	0.500	X:	0.163	Y:	-0.058	Z:	0.424	yaw:	-1.328	yaw rate:	-20.373	Roll:	1.206	Pitch:	-1.122	Yaw:	1.017	Thrust:	62.111
Time:	4.810	Roll Set Point:	-0.330	Pitch Set Point:	0.111	Yaw Set Point:	0.030	X_WP:	0.000	Y_WP:	0.000	Z_WP:	0.500	X:	0.164	Y:	-0.058	Z:	0.425	yaw:	-1.704	yaw rate:	37.624	Roll:	2.420	Pitch:	-0.010	Yaw:	-6.975	Thrust:	59.944
Time:	4.830	Roll Set Point:	-0.329	Pitch Set Point:	0.110	Yaw Set Point:	0.023	X_WP:	0.000	Y_WP:	0.000	Z_WP:	0.500	X:	0.164	Y:	-0.057	Z:	0.425	yaw:	-1.335	yaw rate:	-36.912	Roll:	1.248	Pitch:	-0.993	Yaw:	3.157	Thrust:	66.386
Time:	4.851	Roll Set Point:	-0.330	Pitch Set Point:	0.108	Yaw Set Point:	0.036	X_WP:	0.000	Y_WP:	0.000	Z_WP:	0.500	X:	0.164	Y:	-0.057	Z:	0.425	yaw:	-2.041	yaw rate:	70.556	Roll:	2.321	Pitch:	0.640	Yaw:	-11.457	Thrust:	65.697
Time:	4.872	Roll Set Point:	-0.329	Pitch Set Point:	0.108	Yaw Set Point:	0.026	X_WP:	0.000	Y_WP:	0.000	Z_WP:	0.500	X:	0.164	Y:	-0.056	Z:	0.424	yaw:	-1.503	yaw rate:	-53.764	Roll:	1.039	Pitch:	-1.576	Yaw:	4.718	Thrust:	67.091
Time:	4.890	Roll Set Point:	-0.331	Pitch Set Point:	0.106	Yaw Set Point:	0.038	X_WP:	0.000	Y_WP:	0.000	Z_WP:	0.500	X:	0.164	Y:	-0.056	Z:	0.425	yaw:	-2.173	yaw rate:	67.044	Roll:	2.620	Pitch:	0.626	Yaw:	-12.841	Thrust:	55.700
Time:	4.910	Roll Set Point:	-0.330	Pitch Set Point:	0.107	Yaw Set Point:	0.029	X_WP:	0.000	Y_WP:	0.000	Z_WP:	0.500	X:	0.164	Y:	-0.056	Z:	0.424	yaw:	-1.686	yaw rate:	-48.691	Roll:	0.941	Pitch:	-1.715	Yaw:	4.378	Thrust:	62.138
Time:	4.934	Roll Set Point:	-0.331	Pitch Set Point:	0.105	Yaw Set Point:	0.038	X_WP:	0.000	Y_WP:	0.000	Z_WP:	0.500	X:	0.164	Y:	-0.055	Z:	0.425	yaw:	-2.173	yaw rate:	48.612	Roll:	2.202	Pitch:	0.058	Yaw:	-8.033	Thrust:	78.107
Time:	4.950	Roll Set Point:	-0.329	Pitch Set Point:	0.106	Yaw Set Point:	0.016	X_WP:	0.000	Y_WP:	0.000	Z_WP:	0.500	X:	0.164	Y:	-0.054	Z:	0.424	yaw:	-0.934	yaw rate:	-123.819	Roll:	0.230	Pitch:	-3.407	Yaw:	18.893	Thrust:	53.984
Time:	4.971	Roll Set Point:	-0.328	Pitch Set Point:	0.105	Yaw Set Point:	0.018	X_WP:	0.000	Y_WP:	0.000	Z_WP:	0.500	X:	0.164	Y:	-0.054	Z:	0.424	yaw:	-1.042	yaw rate:	10.738	Roll:	1.046	Pitch:	-0.378	Yaw:	-2.762	Thrust:	65.046
Time:	4.990	Roll Set Point:	-0.328	Pitch Set Point:	0.106	Yaw Set Point:	0.009	X_WP:	0.000	Y_WP:	0.000	Z_WP:	0.500	X:	0.164	Y:	-0.054	Z:	0.424	yaw:	-0.529	yaw rate:	-51.305	Roll:	1.328	Pitch:	-2.057	Yaw:	6.442	Thrust:	60.319
Time:	5.010	Roll Set Point:	-0.329	Pitch Set Point:	0.102	Yaw Set Point:	0.028	X_WP:	0.000	Y_WP:	0.000	Z_WP:	0.500	X:	0.164	Y:	-0.053	Z:	0.425	yaw:	-1.617	yaw rate:	108.788	Roll:	2.330	Pitch:	2.048	Yaw:	-15.899	Thrust:	62.810
Time:	5.030	Roll Set Point:	-0.329	Pitch Set Point:	0.104	Yaw Set Point:	0.015	X_WP:	0.000	Y_WP:	0.000	Z_WP:	0.500	X:	0.164	Y:	-0.053	Z:	0.425	yaw:	-0.887	yaw rate:	-72.985	Roll:	1.357	Pitch:	-2.674	Yaw:	8.336	Thrust:	67.240
Time:	5.053	Roll Set Point:	-0.328	Pitch Set Point:	0.102	Yaw Set Point:	0.020	X_WP:	0.000	Y_WP:	0.000	Z_WP:	0.500	X:	0.163	Y:	-0.053	Z:	0.425	yaw:	-1.169	yaw rate:	28.267	Roll:	1.278	Pitch:	-0.064	Yaw:	-4.891	Thrust:	68.101
Time:	5.074	Roll Set Point:	-0.328	Pitch Set Point:	0.102	Yaw Set Point:	0.018	X_WP:	0.000	Y_WP:	0.000	Z_WP:	0.500	X:	0.164	Y:	-0.052	Z:	0.426	yaw:	-1.040	yaw rate:	-12.919	Roll:	1.800	Pitch:	-1.000	Yaw:	0.152	Thrust:	69.592
Time:	5.091	Roll Set Point:	-0.329	Pitch Set Point:	0.103	Yaw Set Point:	0.010	X_WP:	0.000	Y_WP:	0.000	Z_WP:	0.500	X:	0.164	Y:	-0.052	Z:	0.427	yaw:	-0.591	yaw rate:	-44.932	Roll:	1.467	Pitch:	-2.138	Yaw:	6.453	Thrust:	52.429
Time:	5.111	Roll Set Point:	-0.328	Pitch Set Point:	0.102	Yaw Set Point:	0.006	X_WP:	0.000	Y_WP:	0.000	Z_WP:	0.500	X:	0.164	Y:	-0.052	Z:	0.428	yaw:	-0.360	yaw rate:	-23.057	Roll:	1.048	Pitch:	-1.139	Yaw:	2.527	Thrust:	64.780
Time:	5.135	Roll Set Point:	-0.328	Pitch Set Point:	0.102	Yaw Set Point:	0.006	X_WP:	0.000	Y_WP:	0.000	Z_WP:	0.500	X:	0.164	Y:	-0.051	Z:	0.429	yaw:	-0.355	yaw rate:	-0.533	Roll:	1.654	Pitch:	-0.916	Yaw:	-0.413	Thrust:	76.736
Time:	5.151	Roll Set Point:	-0.328	Pitch Set Point:	0.098	Yaw Set Point:	0.025	X_WP:	0.000	Y_WP:	0.000	Z_WP:	0.500	X:	0.164	Y:	-0.051	Z:	0.431	yaw:	-1.417	yaw rate:	106.232	Roll:	2.268	Pitch:	2.761	Yaw:	-19.856	Thrust:	44.890
Time:	5.171	Roll Set Point:	-0.329	Pitch Set Point:	0.099	Yaw Set Point:	0.024	X_WP:	0.000	Y_WP:	0.000	Z_WP:	0.500	X:	0.164	Y:	-0.051	Z:	0.433	yaw:	-1.351	yaw rate:	-6.584	Roll:	1.976	Pitch:	-1.455	Yaw:	-1.044	Thrust:	64.694
Time:	5.192	Roll Set Point:	-0.329	Pitch Set Point:	0.096	Yaw Set Point:	0.026	X_WP:	0.000	Y_WP:	0.000	Z_WP:	0.500	X:	0.164	Y:	-0.050	Z:	0.434	yaw:	-1.468	yaw rate:	11.604	Roll:	1.290	Pitch:	0.395	Yaw:	-3.631	Thrust:	59.479
Time:	5.211	Roll Set Point:	-0.330	Pitch Set Point:	0.096	Yaw Set Point:	0.027	X_WP:	0.000	Y_WP:	0.000	Z_WP:	0.500	X:	0.164	Y:	-0.050	Z:	0.437	yaw:	-1.570	yaw rate:	10.238	Roll:	2.173	Pitch:	-0.975	Yaw:	-3.488	Thrust:	59.154
Time:	5.231	Roll Set Point:	-0.329	Pitch Set Point:	0.095	Yaw Set Point:	0.023	X_WP:	0.000	Y_WP:	0.000	Z_WP:	0.500	X:	0.164	Y:	-0.049	Z:	0.438	yaw:	-1.337	yaw rate:	-23.292	Roll:	0.979	Pitch:	-0.651	Yaw:	1.217	Thrust:	63.110
Time:	5.253	Roll Set Point:	-0.329	Pitch Set Point:	0.095	Yaw Set Point:	0.021	X_WP:	0.000	Y_WP:	0.000	Z_WP:	0.500	X:	0.164	Y:	-0.049	Z:	0.440	yaw:	-1.229	yaw rate:	-10.835	Roll:	1.771	Pitch:	-1.169	Yaw:	-0.377	Thrust:	65.781
Time:	5.274	Roll Set Point:	-0.329	Pitch Set Point:	0.093	Yaw Set Point:	0.024	X_WP:	0.000	Y_WP:	0.000	Z_WP:	0.500	X:	0.164	Y:	-0.049	Z:	0.442	yaw:	-1.362	yaw rate:	13.384	Roll:	1.503	Pitch:	-0.181	Yaw:	-3.529	Thrust:	66.569
Time:	5.291	Roll Set Point:	-0.329	Pitch Set Point:	0.095	Yaw Set Point:	0.011	X_WP:	0.000	Y_WP:	0.000	Z_WP:	0.500	X:	0.164	Y:	-0.048	Z:	0.443	yaw:	-0.626	yaw rate:	-73.650	Roll:	1.400	Pitch:	-2.785	Yaw:	10.511	Thrust:	53.197
Time:	5.311	Roll Set Point:	-0.330	Pitch Set Point:	0.093	Yaw Set Point:	0.028	X_WP:	0.000	Y_WP:	0.000	Z_WP:	0.500	X:	0.164	Y:	-0.049	Z:	0.445	yaw:	-1.576	yaw rate:	95.048	Roll:	2.281	Pitch:	0.995	Yaw:	-14.562	Thrust:	61.904
Time:	5.336	Roll Set Point:	-0.329	Pitch Set Point:	0.092	Yaw Set Point:	0.021	X_WP:	0.000	Y_WP:	0.000	Z_WP:	0.500	X:	0.164	Y:	-0.048	Z:	0.447	yaw:	-1.176	yaw rate:	-40.014	Roll:	1.068	Pitch:	-1.052	Yaw:	2.673	Thrust:	74.788
Time:	5.351	Roll Set Point:	-0.329	Pitch Set Point:	0.092	Yaw Set Point:	0.017	X_WP:	0.000	Y_WP:	0.000	Z_WP:	0.500	X:	0.164	Y:	-0.047	Z:	0.449	yaw:	-0.980	yaw rate:	-19.612	Roll:	1.673	Pitch:	-1.189	Yaw:	1.771	Thrust:	47.491
