Time:	0.037	Roll Set Point:	-0.002	Pitch Set Point:	-0.000	Yaw Set Point:	3.138	X_WP:	0.000	Y_WP:	0.000	Y_WP:	1.000	X:	0.021	Y:	-0.490	Z:	0.055	yaw:	-179.798	yaw rate:	-1.225	Roll:	-0.555	Pitch:	14.202	Yaw:	-251.045	Thrust:	51.952
Time:	0.056	Roll Set Point:	-0.002	Pitch Set Point:	-0.000	Yaw Set Point:	3.138	X_WP:	0.000	Y_WP:	0.000	Y_WP:	1.000	X:	0.021	Y:	-0.490	Z:	0.055	yaw:	-179.810	yaw rate:	1.263	Roll:	-0.642	Pitch:	14.206	Yaw:	-252.446	Thrust:	54.182
Time:	0.075	Roll Set Point:	-0.002	Pitch Set Point:	-0.000	Yaw Set Point:	3.138	X_WP:	0.000	Y_WP:	0.000	Y_WP:	1.000	X:	0.021	Y:	-0.490	Z:	0.055	yaw:	-179.801	yaw rate:	-0.960	Roll:	-0.495	Pitch:	14.257	Yaw:	-253.305	Thrust:	56.254
Time:	0.096	Roll Set Point:	-0.002	Pitch Set Point:	-0.000	Yaw Set Point:	3.138	X_WP:	0.000	Y_WP:	0.000	Y_WP:	1.000	X:	0.021	Y:	-0.490	Z:	0.055	yaw:	-179.814	yaw rate:	1.350	Roll:	-0.661	Pitch:	14.274	Yaw:	-255.153	Thrust:	59.055
Time:	0.117	Roll Set Point:	-0.002	Pitch Set Point:	-0.000	Yaw Set Point:	3.138	X_WP:	0.000	Y_WP:	0.000	Y_WP:	1.000	X:	0.021	Y:	-0.490	Z:	0.055	yaw:	-179.806	yaw rate:	-0.822	Roll:	-0.505	Pitch:	14.304	Yaw:	-255.034	Thrust:	60.935
Time:	0.136	Roll Set Point:	-0.002	Pitch Set Point:	-0.000	Yaw Set Point:	3.138	X_WP:	0.000	Y_WP:	0.000	Y_WP:	1.000	X:	0.021	Y:	-0.490	Z:	0.055	yaw:	-179.808	yaw rate:	0.227	Roll:	-0.570	Pitch:	14.315	Yaw:	-255.002	Thrust:	63.305
Time:	0.157	Roll Set Point:	-0.001	Pitch Set Point:	-0.000	Yaw Set Point:	3.139	X_WP:	0.000	Y_WP:	0.000	Y_WP:	1.000	X:	0.021	Y:	-0.490	Z:	0.055	yaw:	-179.863	yaw rate:	5.486	Roll:	-0.937	Pitch:	14.337	Yaw:	-256.036	Thrust:	65.263
Time:	0.181	Roll Set Point:	-0.002	Pitch Set Point:	-0.000	Yaw Set Point:	3.138	X_WP:	0.000	Y_WP:	0.000	Y_WP:	1.000	X:	0.021	Y:	-0.490	Z:	0.055	yaw:	-179.799	yaw rate:	-6.384	Roll:	-0.191	Pitch:	14.423	Yaw:	-254.797	Thrust:	71.029
Time:	0.196	Roll Set Point:	-0.002	Pitch Set Point:	-0.000	Yaw Set Point:	3.138	X_WP:	0.000	Y_WP:	0.000	Y_WP:	1.000	X:	0.021	Y:	-0.490	Z:	0.055	yaw:	-179.791	yaw rate:	-0.872	Roll:	-0.473	Pitch:	14.363	Yaw:	-254.131	Thrust:	66.531
Time:	0.216	Roll Set Point:	-0.002	Pitch Set Point:	-0.000	Yaw Set Point:	3.138	X_WP:	0.000	Y_WP:	0.000	Y_WP:	1.000	X:	0.021	Y:	-0.490	Z:	0.055	yaw:	-179.806	yaw rate:	1.540	Roll:	-0.696	Pitch:	14.431	Yaw:	-255.322	Thrust:	72.798
Time:	0.238	Roll Set Point:	-0.002	Pitch Set Point:	-0.000	Yaw Set Point:	3.138	X_WP:	0.000	Y_WP:	0.000	Y_WP:	1.000	X:	0.021	Y:	-0.490	Z:	0.055	yaw:	-179.800	yaw rate:	-0.637	Roll:	-0.505	Pitch:	14.449	Yaw:	-255.256	Thrust:	75.643
Time:	0.258	Roll Set Point:	-0.002	Pitch Set Point:	-0.000	Yaw Set Point:	3.138	X_WP:	0.000	Y_WP:	0.000	Y_WP:	1.000	X:	0.021	Y:	-0.490	Z:	0.055	yaw:	-179.806	yaw rate:	0.624	Roll:	-0.626	Pitch:	14.466	Yaw:	-255.108	Thrust:	76.662
Time:	0.277	Roll Set Point:	-0.002	Pitch Set Point:	-0.000	Yaw Set Point:	3.138	X_WP:	0.000	Y_WP:	0.000	Y_WP:	1.000	X:	0.021	Y:	-0.490	Z:	0.055	yaw:	-179.801	yaw rate:	-0.516	Roll:	-0.504	Pitch:	14.491	Yaw:	-254.607	Thrust:	77.323
Time:	0.296	Roll Set Point:	-0.002	Pitch Set Point:	-0.000	Yaw Set Point:	3.138	X_WP:	0.000	Y_WP:	0.000	Y_WP:	1.000	X:	0.021	Y:	-0.490	Z:	0.055	yaw:	-179.809	yaw rate:	0.850	Roll:	-0.641	Pitch:	14.509	Yaw:	-255.210	Thrust:	81.790
Time:	0.316	Roll Set Point:	-0.002	Pitch Set Point:	-0.000	Yaw Set Point:	3.138	X_WP:	0.000	Y_WP:	0.000	Y_WP:	1.000	X:	0.021	Y:	-0.490	Z:	0.055	yaw:	-179.802	yaw rate:	-0.710	Roll:	-0.530	Pitch:	14.546	Yaw:	-255.019	Thrust:	83.286
Time:	0.336	Roll Set Point:	-0.002	Pitch Set Point:	-0.000	Yaw Set Point:	3.138	X_WP:	0.000	Y_WP:	0.000	Y_WP:	1.000	X:	0.021	Y:	-0.490	Z:	0.055	yaw:	-179.791	yaw rate:	-1.142	Roll:	-0.462	Pitch:	14.579	Yaw:	-254.834	Thrust:	86.388
Time:	0.357	Roll Set Point:	-0.001	Pitch Set Point:	-0.000	Yaw Set Point:	3.139	X_WP:	0.000	Y_WP:	0.000	Y_WP:	1.000	X:	0.021	Y:	-0.490	Z:	0.055	yaw:	-179.847	yaw rate:	5.653	Roll:	-0.964	Pitch:	14.578	Yaw:	-255.946	Thrust:	89.189
Time:	0.381	Roll Set Point:	-0.002	Pitch Set Point:	-0.000	Yaw Set Point:	3.138	X_WP:	0.000	Y_WP:	0.000	Y_WP:	1.000	X:	0.021	Y:	-0.490	Z:	0.055	yaw:	-179.803	yaw rate:	-4.407	Roll:	-0.324	Pitch:	14.701	Yaw:	-255.356	Thrust:	96.142
Time:	0.396	Roll Set Point:	-0.002	Pitch Set Point:	-0.000	Yaw Set Point:	3.138	X_WP:	0.000	Y_WP:	0.000	Y_WP:	1.000	X:	0.021	Y:	-0.490	Z:	0.055	yaw:	-179.797	yaw rate:	-0.652	Roll:	-0.530	Pitch:	14.563	Yaw:	-254.002	Thrust:	85.390
Time:	0.416	Roll Set Point:	-0.002	Pitch Set Point:	-0.000	Yaw Set Point:	3.138	X_WP:	0.000	Y_WP:	0.000	Y_WP:	1.000	X:	0.021	Y:	-0.490	Z:	0.055	yaw:	-179.798	yaw rate:	0.154	Roll:	-0.569	Pitch:	14.674	Yaw:	-255.191	Thrust:	95.238
Time:	0.437	Roll Set Point:	-0.002	Pitch Set Point:	-0.000	Yaw Set Point:	3.138	X_WP:	0.000	Y_WP:	0.000	Y_WP:	1.000	X:	0.021	Y:	-0.490	Z:	0.055	yaw:	-179.787	yaw rate:	-1.147	Roll:	-0.496	Pitch:	14.711	Yaw:	-254.915	Thrust:	98.833
Time:	0.457	Roll Set Point:	-0.002	Pitch Set Point:	-0.000	Yaw Set Point:	3.138	X_WP:	0.000	Y_WP:	0.000	Y_WP:	1.000	X:	0.021	Y:	-0.490	Z:	0.055	yaw:	-179.799	yaw rate:	1.224	Roll:	-0.665	Pitch:	14.719	Yaw:	-255.300	Thrust:	100.000
Time:	0.475	Roll Set Point:	-0.002	Pitch Set Point:	-0.000	Yaw Set Point:	3.138	X_WP:	0.000	Y_WP:	0.000	Y_WP:	1.000	X:	0.021	Y:	-0.490	Z:	0.055	yaw:	-179.793	yaw rate:	-0.624	Roll:	-0.527	Pitch:	14.695	Yaw:	-254.608	Thrust:	97.640
Time:	0.496	Roll Set Point:	-0.001	Pitch Set Point:	-0.000	Yaw Set Point:	3.139	X_WP:	0.000	Y_WP:	0.000	Y_WP:	1.000	X:	0.021	Y:	-0.490	Z:	0.055	yaw:	-179.855	yaw rate:	6.177	Roll:	-0.996	Pitch:	14.765	Yaw:	-256.037	Thrust:	100.000
Time:	0.517	Roll Set Point:	-0.002	Pitch Set Point:	-0.000	Yaw Set Point:	3.138	X_WP:	0.000	Y_WP:	0.000	Y_WP:	1.000	X:	0.021	Y:	-0.490	Z:	0.055	yaw:	-179.792	yaw rate:	-6.269	Roll:	-0.167	Pitch:	14.835	Yaw:	-254.400	Thrust:	100.000
Time:	0.536	Roll Set Point:	-0.002	Pitch Set Point:	-0.000	Yaw Set Point:	3.138	X_WP:	0.000	Y_WP:	0.000	Y_WP:	1.000	X:	0.021	Y:	-0.490	Z:	0.055	yaw:	-179.808	yaw rate:	1.588	Roll:	-0.713	Pitch:	14.777	Yaw:	-255.089	Thrust:	100.000
Time:	0.556	Roll Set Point:	-0.002	Pitch Set Point:	-0.000	Yaw Set Point:	3.138	X_WP:	0.000	Y_WP:	0.000	Y_WP:	1.000	X:	0.021	Y:	-0.490	Z:	0.055	yaw:	-179.800	yaw rate:	-0.765	Roll:	-0.507	Pitch:	14.838	Yaw:	-254.902	Thrust:	100.000
Time:	0.580	Roll Set Point:	0.001	Pitch Set Point:	0.000	Yaw Set Point:	-3.139	X_WP:	0.000	Y_WP:	0.000	Y_WP:	1.000	X:	0.021	Y:	-0.490	Z:	0.055	yaw:	179.829	yaw rate:	-35962.883	Roll:	-3.275	Pitch:	14.772	Yaw:	4179.884	Thrust:	100.000
Time:	0.596	Roll Set Point:	-0.001	Pitch Set Point:	-0.000	Yaw Set Point:	3.139	X_WP:	0.000	Y_WP:	0.000	Y_WP:	1.000	X:	0.021	Y:	-0.490	Z:	0.055	yaw:	-179.841	yaw rate:	35966.976	Roll:	2.310	Pitch:	15.020	Yaw:	-6033.758	Thrust:	100.000
Time:	0.617	Roll Set Point:	-0.002	Pitch Set Point:	-0.000	Yaw Set Point:	3.138	X_WP:	0.000	Y_WP:	0.000	Y_WP:	1.000	X:	0.021	Y:	-0.490	Z:	0.055	yaw:	-179.803	yaw rate:	-3.807	Roll:	-0.366	Pitch:	14.933	Yaw:	-254.629	Thrust:	100.000
Time:	0.637	Roll Set Point:	-0.002	Pitch Set Point:	-0.000	Yaw Set Point:	3.138	X_WP:	0.000	Y_WP:	0.000	Y_WP:	1.000	X:	0.021	Y:	-0.490	Z:	0.055	yaw:	-179.795	yaw rate:	-0.779	Roll:	-0.513	Pitch:	14.948	Yaw:	-255.123	Thrust:	100.000
Time:	0.659	Roll Set Point:	-0.002	Pitch Set Point:	-0.000	Yaw Set Point:	3.138	X_WP:	0.000	Y_WP:	0.000	Y_WP:	1.000	X:	0.021	Y:	-0.490	Z:	0.055	yaw:	-179.802	yaw rate:	0.636	Roll:	-0.632	Pitch:	15.012	Yaw:	-255.427	Thrust:	100.000
Time:	0.676	Roll Set Point:	-0.002	Pitch Set Point:	-0.000	Yaw Set Point:	3.138	X_WP:	0.000	Y_WP:	0.000	Y_WP:	1.000	X:	0.021	Y:	-0.490	Z:	0.055	yaw:	-179.812	yaw rate:	0.998	Roll:	-0.678	Pitch:	14.853	Yaw:	-254.640	Thrust:	100.000
Time:	0.697	Roll Set Point:	-0.002	Pitch Set Point:	-0.000	Yaw Set Point:	3.138	X_WP:	0.000	Y_WP:	0.000	Y_WP:	1.000	X:	0.021	Y:	-0.490	Z:	0.055	yaw:	-179.798	yaw rate:	-1.391	Roll:	-0.488	Pitch:	14.974	Yaw:	-254.939	Thrust:	100.000
Time:	0.716	Roll Set Point:	-0.002	Pitch Set Point:	-0.000	Yaw Set Point:	3.138	X_WP:	0.000	Y_WP:	0.000	Y_WP:	1.000	X:	0.021	Y:	-0.490	Z:	0.055	yaw:	-179.800	yaw rate:	0.243	Roll:	-0.607	Pitch:	14.940	Yaw:	-255.112	Thrust:	100.000
Time:	0.736	Roll Set Point:	-0.002	Pitch Set Point:	-0.000	Yaw Set Point:	3.138	X_WP:	0.000	Y_WP:	0.000	Y_WP:	1.000	X:	0.021	Y:	-0.490	Z:	0.055	yaw:	-179.803	yaw rate:	0.277	Roll:	-0.595	Pitch:	14.974	Yaw:	-255.118	Thrust:	100.000
Time:	0.756	Roll Set Point:	-0.002	Pitch Set Point:	-0.000	Yaw Set Point:	3.138	X_WP:	0.000	Y_WP:	0.000	Y_WP:	1.000	X:	0.021	Y:	-0.490	Z:	0.055	yaw:	-179.807	yaw rate:	0.405	Roll:	-0.633	Pitch:	14.929	Yaw:	-254.995	Thrust:	100.000
Time:	0.781	Roll Set Point:	-0.002	Pitch Set Point:	-0.000	Yaw Set Point:	3.138	X_WP:	0.000	Y_WP:	0.000	Y_WP:	1.000	X:	0.021	Y:	-0.490	Z:	0.055	yaw:	-179.792	yaw rate:	-1.487	Roll:	-0.489	Pitch:	15.072	Yaw:	-255.835	Thrust:	100.000
Time:	0.796	Roll Set Point:	-0.002	Pitch Set Point:	-0.000	Yaw Set Point:	3.138	X_WP:	0.000	Y_WP:	0.000	Y_WP:	1.000	X:	0.021	Y:	-0.490	Z:	0.055	yaw:	-179.799	yaw rate:	0.725	Roll:	-0.656	Pitch:	14.818	Yaw:	-254.273	Thrust:	100.000
Time:	0.816	Roll Set Point:	-0.002	Pitch Set Point:	-0.000	Yaw Set Point:	3.138	X_WP:	0.000	Y_WP:	0.000	Y_WP:	1.000	X:	0.021	Y:	-0.490	Z:	0.055	yaw:	-179.797	yaw rate:	-0.250	Roll:	-0.556	Pitch:	14.978	Yaw:	-255.029	Thrust:	100.000
Time:	0.837	Roll Set Point:	-0.002	Pitch Set Point:	-0.000	Yaw Set Point:	3.138	X_WP:	0.000	Y_WP:	0.000	Y_WP:	1.000	X:	0.021	Y:	-0.490	Z:	0.055	yaw:	-179.805	yaw rate:	0.871	Roll:	-0.689	Pitch:	14.963	Yaw:	-255.324	Thrust:	100.000
Time:	0.857	Roll Set Point:	-0.002	Pitch Set Point:	-0.000	Yaw Set Point:	3.138	X_WP:	0.000	Y_WP:	0.000	Y_WP:	1.000	X:	0.021	Y:	-0.490	Z:	0.055	yaw:	-179.798	yaw rate:	-0.724	Roll:	-0.529	Pitch:	14.960	Yaw:	-255.002	Thrust:	100.000
Time:	0.876	Roll Set Point:	-0.002	Pitch Set Point:	-0.000	Yaw Set Point:	3.138	X_WP:	0.000	Y_WP:	0.000	Y_WP:	1.000	X:	0.021	Y:	-0.490	Z:	0.055	yaw:	-179.793	yaw rate:	-0.518	Roll:	-0.553	Pitch:	14.945	Yaw:	-254.772	Thrust:	100.000
Time:	0.898	Roll Set Point:	-0.002	Pitch Set Point:	-0.000	Yaw Set Point:	3.138	X_WP:	0.000	Y_WP:	0.000	Y_WP:	1.000	X:	0.021	Y:	-0.490	Z:	0.055	yaw:	-179.797	yaw rate:	0.439	Roll:	-0.623	Pitch:	14.953	Yaw:	-255.354	Thrust:	100.000
Time:	0.917	Roll Set Point:	-0.001	Pitch Set Point:	-0.000	Yaw Set Point:	3.139	X_WP:	0.000	Y_WP:	0.000	Y_WP:	1.000	X:	0.021	Y:	-0.490	Z:	0.055	yaw:	-179.864	yaw rate:	6.612	Roll:	-1.078	Pitch:	14.902	Yaw:	-255.861	Thrust:	100.000
Time:	0.936	Roll Set Point:	-0.001	Pitch Set Point:	-0.000	Yaw Set Point:	3.139	X_WP:	0.000	Y_WP:	0.000	Y_WP:	1.000	X:	0.021	Y:	-0.490	Z:	0.055	yaw:	-179.856	yaw rate:	-0.766	Roll:	-0.552	Pitch:	14.971	Yaw:	-254.955	Thrust:	100.000
Time:	0.956	Roll Set Point:	-0.002	Pitch Set Point:	-0.000	Yaw Set Point:	3.138	X_WP:	0.000	Y_WP:	0.000	Y_WP:	1.000	X:	0.021	Y:	-0.490	Z:	0.055	yaw:	-179.791	yaw rate:	-6.452	Roll:	-0.138	Pitch:	14.964	Yaw:	-254.222	Thrust:	100.000
Time:	0.982	Roll Set Point:	-0.002	Pitch Set Point:	-0.000	Yaw Set Point:	3.138	X_WP:	0.000	Y_WP:	0.000	Y_WP:	1.000	X:	0.021	Y:	-0.490	Z:	0.055	yaw:	-179.798	yaw rate:	0.633	Roll:	-0.668	Pitch:	15.082	Yaw:	-256.039	Thrust:	100.000
Time:	0.996	Roll Set Point:	-0.002	Pitch Set Point:	-0.000	Yaw Set Point:	3.138	X_WP:	0.000	Y_WP:	0.000	Y_WP:	1.000	X:	0.021	Y:	-0.490	Z:	0.055	yaw:	-179.791	yaw rate:	-0.675	Roll:	-0.511	Pitch:	14.811	Yaw:	-253.828	Thrust:	100.000
Time:	1.016	Roll Set Point:	-0.002	Pitch Set Point:	-0.000	Yaw Set Point:	3.138	X_WP:	0.000	Y_WP:	0.000	Y_WP:	1.000	X:	0.021	Y:	-0.490	Z:	0.055	yaw:	-179.804	yaw rate:	1.261	Roll:	-0.713	Pitch:	14.953	Yaw:	-255.260	Thrust:	100.000
Time:	1.037	Roll Set Point:	-0.002	Pitch Set Point:	-0.000	Yaw Set Point:	3.138	X_WP:	0.000	Y_WP:	0.000	Y_WP:	1.000	X:	0.021	Y:	-0.490	Z:	0.055	yaw:	-179.803	yaw rate:	-0.081	Roll:	-0.582	Pitch:	14.968	Yaw:	-255.230	Thrust:	100.000
Time:	1.057	Roll Set Point:	-0.001	Pitch Set Point:	-0.000	Yaw Set Point:	3.139	X_WP:	0.000	Y_WP:	0.000	Y_WP:	1.000	X:	0.021	Y:	-0.490	Z:	0.055	yaw:	-179.835	yaw rate:	3.237	Roll:	-0.821	Pitch:	14.971	Yaw:	-255.574	Thrust:	100.000
Time:	1.076	Roll Set Point:	-0.001	Pitch Set Point:	-0.000	Yaw Set Point:	3.139	X_WP:	0.000	Y_WP:	0.000	Y_WP:	1.000	X:	0.021	Y:	-0.490	Z:	0.055	yaw:	-179.852	yaw rate:	1.717	Roll:	-0.743	Pitch:	14.904	Yaw:	-255.142	Thrust:	100.000
Time:	1.096	Roll Set Point:	-0.002	Pitch Set Point:	-0.000	Yaw Set Point:	3.138	X_WP:	0.000	Y_WP:	0.000	Y_WP:	1.000	X:	0.021	Y:	-0.490	Z:	0.055	yaw:	-179.803	yaw rate:	-4.880	Roll:	-0.287	Pitch:	14.949	Yaw:	-254.411	Thrust:	100.000
Time:	1.116	Roll Set Point:	-0.002	Pitch Set Point:	-0.000	Yaw Set Point:	3.138	X_WP:	0.000	Y_WP:	0.000	Y_WP:	1.000	X:	0.021	Y:	-0.490	Z:	0.055	yaw:	-179.800	yaw rate:	-0.335	Roll:	-0.579	Pitch:	14.971	Yaw:	-254.992	Thrust:	100.000
Time:	1.137	Roll Set Point:	-0.002	Pitch Set Point:	-0.000	Yaw Set Point:	3.138	X_WP:	0.000	Y_WP:	0.000	Y_WP:	1.000	X:	0.021	Y:	-0.490	Z:	0.055	yaw:	-179.811	yaw rate:	1.066	Roll:	-0.706	Pitch:	14.948	Yaw:	-255.181	Thrust:	100.000
Time:	1.156	Roll Set Point:	-0.002	Pitch Set Point:	-0.000	Yaw Set Point:	3.138	X_WP:	0.000	Y_WP:	0.000	Y_WP:	1.000	X:	0.021	Y:	-0.490	Z:	0.055	yaw:	-179.802	yaw rate:	-0.833	Roll:	-0.533	Pitch:	14.949	Yaw:	-254.905	Thrust:	100.000
Time:	1.180	Roll Set Point:	-0.002	Pitch Set Point:	-0.000	Yaw Set Point:	3.138	X_WP:	0.000	Y_WP:	0.000	Y_WP:	1.000	X:	0.021	Y:	-0.490	Z:	0.055	yaw:	-179.795	yaw rate:	-0.745	Roll:	-0.564	Pitch:	15.066	Yaw:	-255.803	Thrust:	100.000
Time:	1.196	Roll Set Point:	-0.002	Pitch Set Point:	-0.000	Yaw Set Point:	3.138	X_WP:	0.000	Y_WP:	0.000	Y_WP:	1.000	X:	0.021	Y:	-0.490	Z:	0.055	yaw:	-179.800	yaw rate:	0.547	Roll:	-0.637	Pitch:	14.839	Yaw:	-254.306	Thrust:	100.000
Time:	1.216	Roll Set Point:	-0.001	Pitch Set Point:	-0.000	Yaw Set Point:	3.139	X_WP:	0.000	Y_WP:	0.000	Y_WP:	1.000	X:	0.021	Y:	-0.490	Z:	0.055	yaw:	-179.866	yaw rate:	6.545	Roll:	-1.085	Pitch:	14.945	Yaw:	-256.085	Thrust:	100.000
Time:	1.237	Roll Set Point:	-0.002	Pitch Set Point:	-0.000	Yaw Set Point:	3.138	X_WP:	0.000	Y_WP:	0.000	Y_WP:	1.000	X:	0.021	Y:	-0.490	Z:	0.055	yaw:	-179.810	yaw rate:	-5.563	Roll:	-0.264	Pitch:	14.999	Yaw:	-254.482	Thrust:	100.000
Time:	1.257	Roll Set Point:	-0.002	Pitch Set Point:	-0.000	Yaw Set Point:	3.138	X_WP:	0.000	Y_WP:	0.000	Y_WP:	1.000	X:	0.021	Y:	-0.490	Z:	0.055	yaw:	-179.803	yaw rate:	-0.721	Roll:	-0.554	Pitch:	14.956	Yaw:	-255.063	Thrust:	100.000
Time:	1.276	Roll Set Point:	-0.001	Pitch Set Point:	-0.000	Yaw Set Point:	3.139	X_WP:	0.000	Y_WP:	0.000	Y_WP:	1.000	X:	0.021	Y:	-0.490	Z:	0.055	yaw:	-179.846	yaw rate:	4.310	Roll:	-0.904	Pitch:	14.889	Yaw:	-255.440	Thrust:	100.000
Time:	1.296	Roll Set Point:	-0.002	Pitch Set Point:	-0.000	Yaw Set Point:	3.138	X_WP:	0.000	Y_WP:	0.000	Y_WP:	1.000	X:	0.021	Y:	-0.490	Z:	0.055	yaw:	-179.806	yaw rate:	-4.030	Roll:	-0.359	Pitch:	14.960	Yaw:	-254.522	Thrust:	100.000
Time:	1.316	Roll Set Point:	-0.002	Pitch Set Point:	-0.000	Yaw Set Point:	3.138	X_WP:	0.000	Y_WP:	0.000	Y_WP:	1.000	X:	0.021	Y:	-0.490	Z:	0.055	yaw:	-179.800	yaw rate:	-0.622	Roll:	-0.587	Pitch:	14.952	Yaw:	-254.889	Thrust:	100.000
Time:	1.336	Roll Set Point:	-0.002	Pitch Set Point:	-0.000	Yaw Set Point:	3.138	X_WP:	0.000	Y_WP:	0.000	Y_WP:	1.000	X:	0.021	Y:	-0.490	Z:	0.055	yaw:	-179.785	yaw rate:	-1.433	Roll:	-0.499	Pitch:	14.963	Yaw:	-255.040	Thrust:	100.000
Time:	1.356	Roll Set Point:	-0.002	Pitch Set Point:	-0.000	Yaw Set Point:	3.138	X_WP:	0.000	Y_WP:	0.000	Y_WP:	1.000	X:	0.021	Y:	-0.490	Z:	0.055	yaw:	-179.804	yaw rate:	1.867	Roll:	-0.758	Pitch:	14.953	Yaw:	-255.257	Thrust:	100.000
Time:	1.378	Roll Set Point:	-0.002	Pitch Set Point:	-0.000	Yaw Set Point:	3.138	X_WP:	0.000	Y_WP:	0.000	Y_WP:	1.000	X:	0.021	Y:	-0.490	Z:	0.055	yaw:	-179.799	yaw rate:	-0.459	Roll:	-0.607	Pitch:	15.005	Yaw:	-255.338	Thrust:	100.000
Time:	1.396	Roll Set Point:	-0.002	Pitch Set Point:	-0.000	Yaw Set Point:	3.138	X_WP:	0.000	Y_WP:	0.000	Y_WP:	1.000	X:	0.021	Y:	-0.490	Z:	0.055	yaw:	-179.792	yaw rate:	-0.698	Roll:	-0.556	Pitch:	14.913	Yaw:	-254.539	Thrust:	100.000
Time:	1.417	Roll Set Point:	-0.002	Pitch Set Point:	-0.000	Yaw Set Point:	3.138	X_WP:	0.000	Y_WP:	0.000	Y_WP:	1.000	X:	0.021	Y:	-0.490	Z:	0.055	yaw:	-179.806	yaw rate:	1.375	Roll:	-0.720	Pitch:	14.948	Yaw:	-255.360	Thrust:	100.000
Time:	1.437	Roll Set Point:	-0.002	Pitch Set Point:	-0.000	Yaw Set Point:	3.138	X_WP:	0.000	Y_WP:	0.000	Y_WP:	1.000	X:	0.021	Y:	-0.490	Z:	0.055	yaw:	-179.809	yaw rate:	0.272	Roll:	-0.651	Pitch:	14.971	Yaw:	-255.153	Thrust:	100.000
Time:	1.457	Roll Set Point:	-0.002	Pitch Set Point:	-0.000	Yaw Set Point:	3.138	X_WP:	0.000	Y_WP:	0.000	Y_WP:	1.000	X:	0.021	Y:	-0.490	Z:	0.055	yaw:	-179.807	yaw rate:	-0.203	Roll:	-0.610	Pitch:	14.970	Yaw:	-255.082	Thrust:	100.000
Time:	1.475	Roll Set Point:	-0.002	Pitch Set Point:	-0.000	Yaw Set Point:	3.138	X_WP:	0.000	Y_WP:	0.000	Y_WP:	1.000	X:	0.021	Y:	-0.490	Z:	0.055	yaw:	-179.800	yaw rate:	-0.666	Roll:	-0.562	Pitch:	14.889	Yaw:	-254.579	Thrust:	100.000
Time:	1.497	Roll Set Point:	-0.002	Pitch Set Point:	-0.000	Yaw Set Point:	3.138	X_WP:	0.000	Y_WP:	0.000	Y_WP:	1.000	X:	0.021	Y:	-0.490	Z:	0.055	yaw:	-179.805	yaw rate:	0.513	Roll:	-0.658	Pitch:	14.981	Yaw:	-255.362	Thrust:	100.000
Time:	1.516	Roll Set Point:	-0.002	Pitch Set Point:	-0.000	Yaw Set Point:	3.138	X_WP:	0.000	Y_WP:	0.000	Y_WP:	1.000	X:	0.021	Y:	-0.490	Z:	0.055	yaw:	-179.799	yaw rate:	-0.656	Roll:	-0.599	Pitch:	14.938	Yaw:	-254.825	Thrust:	100.000
Time:	1.536	Roll Set Point:	-0.002	Pitch Set Point:	-0.000	Yaw Set Point:	3.138	X_WP:	0.000	Y_WP:	0.000	Y_WP:	1.000	X:	0.021	Y:	-0.490	Z:	0.055	yaw:	-179.804	yaw rate:	0.490	Roll:	-0.650	Pitch:	14.936	Yaw:	-255.226	Thrust:	100.000
Time:	1.556	Roll Set Point:	-0.002	Pitch Set Point:	-0.000	Yaw Set Point:	3.138	X_WP:	0.000	Y_WP:	0.000	Y_WP:	1.000	X:	0.021	Y:	-0.490	Z:	0.055	yaw:	-179.787	yaw rate:	-1.687	Roll:	-0.509	Pitch:	14.995	Yaw:	-254.767	Thrust:	100.000
Time:	1.576	Roll Set Point:	-0.002	Pitch Set Point:	-0.000	Yaw Set Point:	3.138	X_WP:	0.000	Y_WP:	0.000	Y_WP:	1.000	X:	0.021	Y:	-0.490	Z:	0.055	yaw:	-179.794	yaw rate:	0.755	Roll:	-0.683	Pitch:	14.949	Yaw:	-255.165	Thrust:	100.000
Time:	1.596	Roll Set Point:	-0.002	Pitch Set Point:	-0.000	Yaw Set Point:	3.138	X_WP:	0.000	Y_WP:	0.000	Y_WP:	1.000	X:	0.021	Y:	-0.490	Z:	0.055	yaw:	-179.805	yaw rate:	1.072	Roll:	-0.720	Pitch:	14.929	Yaw:	-255.095	Thrust:	100.000
Time:	1.617	Roll Set Point:	-0.002	Pitch Set Point:	-0.000	Yaw Set Point:	3.138	X_WP:	0.000	Y_WP:	0.000	Y_WP:	1.000	X:	0.021	Y:	-0.490	Z:	0.055	yaw:	-179.797	yaw rate:	-0.837	Roll:	-0.565	Pitch:	14.982	Yaw:	-255.094	Thrust:	100.000
Time:	1.638	Roll Set Point:	-0.002	Pitch Set Point:	-0.000	Yaw Set Point:	3.138	X_WP:	0.000	Y_WP:	0.000	Y_WP:	1.000	X:	0.021	Y:	-0.490	Z:	0.055	yaw:	-179.817	yaw rate:	2.049	Roll:	-0.785	Pitch:	14.940	Yaw:	-255.413	Thrust:	100.000
Time:	1.658	Roll Set Point:	-0.002	Pitch Set Point:	-0.000	Yaw Set Point:	3.138	X_WP:	0.000	Y_WP:	0.000	Y_WP:	1.000	X:	0.021	Y:	-0.490	Z:	0.055	yaw:	-179.806	yaw rate:	-1.116	Roll:	-0.552	Pitch:	14.991	Yaw:	-254.973	Thrust:	100.000
Time:	1.676	Roll Set Point:	-0.002	Pitch Set Point:	-0.000	Yaw Set Point:	3.138	X_WP:	0.000	Y_WP:	0.000	Y_WP:	1.000	X:	0.021	Y:	-0.490	Z:	0.055	yaw:	-179.805	yaw rate:	-0.071	Roll:	-0.634	Pitch:	14.885	Yaw:	-254.726	Thrust:	100.000
Time:	1.697	Roll Set Point:	-0.002	Pitch Set Point:	-0.000	Yaw Set Point:	3.138	X_WP:	0.000	Y_WP:	0.000	Y_WP:	1.000	X:	0.021	Y:	-0.490	Z:	0.055	yaw:	-179.797	yaw rate:	-0.830	Roll:	-0.579	Pitch:	14.963	Yaw:	-255.013	Thrust:	100.000
Time:	1.717	Roll Set Point:	-0.002	Pitch Set Point:	-0.000	Yaw Set Point:	3.138	X_WP:	0.000	Y_WP:	0.000	Y_WP:	1.000	X:	0.021	Y:	-0.490	Z:	0.055	yaw:	-179.817	yaw rate:	1.954	Roll:	-0.784	Pitch:	14.949	Yaw:	-255.411	Thrust:	100.000
Time:	1.737	Roll Set Point:	-0.002	Pitch Set Point:	-0.000	Yaw Set Point:	3.138	X_WP:	0.000	Y_WP:	0.000	Y_WP:	1.000	X:	0.021	Y:	-0.490	Z:	0.055	yaw:	-179.810	yaw rate:	-0.703	Roll:	-0.582	Pitch:	14.980	Yaw:	-254.965	Thrust:	100.000
Time:	1.756	Roll Set Point:	-0.002	Pitch Set Point:	-0.000	Yaw Set Point:	3.138	X_WP:	0.000	Y_WP:	0.000	Y_WP:	1.000	X:	0.021	Y:	-0.490	Z:	0.055	yaw:	-179.795	yaw rate:	-1.486	Roll:	-0.547	Pitch:	14.922	Yaw:	-254.699	Thrust:	100.000
Time:	1.778	Roll Set Point:	-0.002	Pitch Set Point:	-0.000	Yaw Set Point:	3.138	X_WP:	0.000	Y_WP:	0.000	Y_WP:	1.000	X:	0.021	Y:	-0.490	Z:	0.055	yaw:	-179.788	yaw rate:	-0.650	Roll:	-0.577	Pitch:	15.002	Yaw:	-255.387	Thrust:	100.000
Time:	1.797	Roll Set Point:	-0.002	Pitch Set Point:	-0.000	Yaw Set Point:	3.138	X_WP:	0.000	Y_WP:	0.000	Y_WP:	1.000	X:	0.021	Y:	-0.490	Z:	0.055	yaw:	-179.801	yaw rate:	1.261	Roll:	-0.742	Pitch:	14.947	Yaw:	-255.103	Thrust:	100.000
Time:	1.816	Roll Set Point:	-0.001	Pitch Set Point:	-0.000	Yaw Set Point:	3.139	X_WP:	0.000	Y_WP:	0.000	Y_WP:	1.000	X:	0.021	Y:	-0.490	Z:	0.055	yaw:	-179.850	yaw rate:	4.920	Roll:	-0.981	Pitch:	14.886	Yaw:	-255.576	Thrust:	100.000
Time:	1.838	Roll Set Point:	-0.002	Pitch Set Point:	-0.000	Yaw Set Point:	3.138	X_WP:	0.000	Y_WP:	0.000	Y_WP:	1.000	X:	0.021	Y:	-0.490	Z:	0.055	yaw:	-179.789	yaw rate:	-6.061	Roll:	-0.258	Pitch:	15.015	Yaw:	-254.507	Thrust:	100.000
Time:	1.858	Roll Set Point:	-0.002	Pitch Set Point:	-0.000	Yaw Set Point:	3.138	X_WP:	0.000	Y_WP:	0.000	Y_WP:	1.000	X:	0.021	Y:	-0.490	Z:	0.055	yaw:	-179.812	yaw rate:	2.235	Roll:	-0.806	Pitch:	14.968	Yaw:	-255.485	Thrust:	100.000
Time:	1.876	Roll Set Point:	-0.002	Pitch Set Point:	-0.000	Yaw Set Point:	3.138	X_WP:	0.000	Y_WP:	0.000	Y_WP:	1.000	X:	0.021	Y:	-0.490	Z:	0.055	yaw:	-179.808	yaw rate:	-0.329	Roll:	-0.630	Pitch:	14.862	Yaw:	-254.623	Thrust:	100.000
Time:	1.896	Roll Set Point:	-0.002	Pitch Set Point:	-0.000	Yaw Set Point:	3.138	X_WP:	0.000	Y_WP:	0.000	Y_WP:	1.000	X:	0.021	Y:	-0.490	Z:	0.055	yaw:	-179.801	yaw rate:	-0.733	Roll:	-0.586	Pitch:	14.963	Yaw:	-254.924	Thrust:	100.000
Time:	1.916	Roll Set Point:	-0.002	Pitch Set Point:	-0.000	Yaw Set Point:	3.138	X_WP:	0.000	Y_WP:	0.000	Y_WP:	1.000	X:	0.021	Y:	-0.490	Z:	0.055	yaw:	-179.805	yaw rate:	0.362	Roll:	-0.661	Pitch:	14.975	Yaw:	-255.107	Thrust:	100.000
Time:	1.936	Roll Set Point:	-0.002	Pitch Set Point:	-0.000	Yaw Set Point:	3.138	X_WP:	0.000	Y_WP:	0.000	Y_WP:	1.000	X:	0.021	Y:	-0.490	Z:	0.055	yaw:	-179.796	yaw rate:	-0.827	Roll:	-0.607	Pitch:	14.962	Yaw:	-254.960	Thrust:	100.000
Time:	1.956	Roll Set Point:	-0.001	Pitch Set Point:	-0.000	Yaw Set Point:	3.139	X_WP:	0.000	Y_WP:	0.000	Y_WP:	1.000	X:	0.021	Y:	-0.490	Z:	0.055	yaw:	-179.856	yaw rate:	5.941	Roll:	-1.072	Pitch:	14.926	Yaw:	-255.873	Thrust:	100.000
Time:	1.980	Roll Set Point:	-0.002	Pitch Set Point:	-0.000	Yaw Set Point:	3.138	X_WP:	0.000	Y_WP:	0.000	Y_WP:	1.000	X:	0.021	Y:	-0.490	Z:	0.055	yaw:	-179.800	yaw rate:	-5.571	Roll:	-0.320	Pitch:	15.066	Yaw:	-255.177	Thrust:	100.000
Time:	1.997	Roll Set Point:	-0.002	Pitch Set Point:	-0.000	Yaw Set Point:	3.138	X_WP:	0.000	Y_WP:	0.000	Y_WP:	1.000	X:	0.021	Y:	-0.490	Z:	0.055	yaw:	-179.809	yaw rate:	0.915	Roll:	-0.722	Pitch:	14.852	Yaw:	-254.614	Thrust:	100.000
Time:	2.016	Roll Set Point:	-0.002	Pitch Set Point:	-0.000	Yaw Set Point:	3.138	X_WP:	0.000	Y_WP:	0.000	Y_WP:	1.000	X:	0.021	Y:	-0.490	Z:	0.055	yaw:	-179.805	yaw rate:	-0.390	Roll:	-0.625	Pitch:	14.944	Yaw:	-254.829	Thrust:	100.000
Time:	2.037	Roll Set Point:	-0.002	Pitch Set Point:	-0.000	Yaw Set Point:	3.138	X_WP:	0.000	Y_WP:	0.000	Y_WP:	1.000	X:	0.021	Y:	-0.490	Z:	0.055	yaw:	-179.795	yaw rate:	-1.034	Roll:	-0.576	Pitch:	14.969	Yaw:	-255.085	Thrust:	100.000
Time:	2.058	Roll Set Point:	-0.002	Pitch Set Point:	-0.000	Yaw Set Point:	3.138	X_WP:	0.000	Y_WP:	0.000	Y_WP:	1.000	X:	0.021	Y:	-0.490	Z:	0.055	yaw:	-179.807	yaw rate:	1.222	Roll:	-0.768	Pitch:	14.977	Yaw:	-255.270	Thrust:	100.000
Time:	2.076	Roll Set Point:	-0.002	Pitch Set Point:	-0.000	Yaw Set Point:	3.138	X_WP:	0.000	Y_WP:	0.000	Y_WP:	1.000	X:	0.021	Y:	-0.490	Z:	0.055	yaw:	-179.807	yaw rate:	-0.014	Roll:	-0.615	Pitch:	14.907	Yaw:	-254.791	Thrust:	100.000
Time:	2.097	Roll Set Point:	-0.002	Pitch Set Point:	-0.000	Yaw Set Point:	3.138	X_WP:	0.000	Y_WP:	0.000	Y_WP:	1.000	X:	0.021	Y:	-0.490	Z:	0.055	yaw:	-179.793	yaw rate:	-1.385	Roll:	-0.558	Pitch:	14.982	Yaw:	-255.098	Thrust:	100.000
Time:	2.117	Roll Set Point:	-0.002	Pitch Set Point:	-0.000	Yaw Set Point:	3.138	X_WP:	0.000	Y_WP:	0.000	Y_WP:	1.000	X:	0.021	Y:	-0.490	Z:	0.055	yaw:	-179.801	yaw rate:	0.809	Roll:	-0.740	Pitch:	14.946	Yaw:	-255.069	Thrust:	100.000
Time:	2.136	Roll Set Point:	-0.002	Pitch Set Point:	-0.000	Yaw Set Point:	3.138	X_WP:	0.000	Y_WP:	0.000	Y_WP:	1.000	X:	0.021	Y:	-0.490	Z:	0.055	yaw:	-179.800	yaw rate:	-0.169	Roll:	-0.620	Pitch:	14.939	Yaw:	-254.866	Thrust:	100.000
Time:	2.156	Roll Set Point:	-0.002	Pitch Set Point:	-0.000	Yaw Set Point:	3.138	X_WP:	0.000	Y_WP:	0.000	Y_WP:	1.000	X:	0.021	Y:	-0.490	Z:	0.055	yaw:	-179.803	yaw rate:	0.374	Roll:	-0.692	Pitch:	14.928	Yaw:	-255.062	Thrust:	100.000
Time:	2.181	Roll Set Point:	-0.002	Pitch Set Point:	-0.000	Yaw Set Point:	3.138	X_WP:	0.000	Y_WP:	0.000	Y_WP:	1.000	X:	0.021	Y:	-0.490	Z:	0.055	yaw:	-179.803	yaw rate:	-0.021	Roll:	-0.665	Pitch:	15.062	Yaw:	-255.740	Thrust:	100.000
Time:	2.196	Roll Set Point:	-0.002	Pitch Set Point:	-0.000	Yaw Set Point:	3.138	X_WP:	0.000	Y_WP:	0.000	Y_WP:	1.000	X:	0.021	Y:	-0.490	Z:	0.055	yaw:	-179.802	yaw rate:	-0.113	Roll:	-0.655	Pitch:	14.858	Yaw:	-254.330	Thrust:	100.000
Time:	2.216	Roll Set Point:	-0.002	Pitch Set Point:	-0.000	Yaw Set Point:	3.138	X_WP:	0.000	Y_WP:	0.000	Y_WP:	1.000	X:	0.021	Y:	-0.490	Z:	0.055	yaw:	-179.806	yaw rate:	0.431	Roll:	-0.680	Pitch:	14.949	Yaw:	-255.115	Thrust:	100.000
Time:	2.237	Roll Set Point:	-0.002	Pitch Set Point:	-0.000	Yaw Set Point:	3.138	X_WP:	0.000	Y_WP:	0.000	Y_WP:	1.000	X:	0.021	Y:	-0.490	Z:	0.055	yaw:	-179.813	yaw rate:	0.698	Roll:	-0.730	Pitch:	14.979	Yaw:	-255.285	Thrust:	100.000
Time:	2.257	Roll Set Point:	-0.002	Pitch Set Point:	-0.000	Yaw Set Point:	3.138	X_WP:	0.000	Y_WP:	0.000	Y_WP:	1.000	X:	0.021	Y:	-0.490	Z:	0.055	yaw:	-179.803	yaw rate:	-1.003	Roll:	-0.605	Pitch:	14.990	Yaw:	-255.125	Thrust:	100.000
Time:	2.276	Roll Set Point:	-0.002	Pitch Set Point:	-0.000	Yaw Set Point:	3.138	X_WP:	0.000	Y_WP:	0.000	Y_WP:	1.000	X:	0.021	Y:	-0.490	Z:	0.055	yaw:	-179.795	yaw rate:	-0.820	Roll:	-0.562	Pitch:	14.887	Yaw:	-254.552	Thrust:	100.000
Time:	2.296	Roll Set Point:	-0.002	Pitch Set Point:	-0.000	Yaw Set Point:	3.138	X_WP:	0.000	Y_WP:	0.000	Y_WP:	1.000	X:	0.021	Y:	-0.490	Z:	0.055	yaw:	-179.811	yaw rate:	1.575	Roll:	-0.806	Pitch:	14.940	Yaw:	-255.234	Thrust:	100.000
Time:	2.324	Roll Set Point:	-0.002	Pitch Set Point:	-0.000	Yaw Set Point:	3.138	X_WP:	0.000	Y_WP:	0.000	Y_WP:	1.000	X:	0.021	Y:	-0.490	Z:	0.055	yaw:	-179.800	yaw rate:	-1.067	Roll:	-0.653	Pitch:	15.270	Yaw:	-256.637	Thrust:	100.000
Time:	2.336	Roll Set Point:	-0.002	Pitch Set Point:	-0.000	Yaw Set Point:	3.138	X_WP:	0.000	Y_WP:	0.000	Y_WP:	1.000	X:	0.021	Y:	-0.490	Z:	0.055	yaw:	-179.795	yaw rate:	-0.496	Roll:	-0.534	Pitch:	14.665	Yaw:	-253.298	Thrust:	100.000
Time:	2.356	Roll Set Point:	-0.002	Pitch Set Point:	-0.000	Yaw Set Point:	3.138	X_WP:	0.000	Y_WP:	0.000	Y_WP:	1.000	X:	0.021	Y:	-0.490	Z:	0.055	yaw:	-179.811	yaw rate:	1.594	Roll:	-0.788	Pitch:	14.927	Yaw:	-255.378	Thrust:	100.000
Time:	2.380	Roll Set Point:	-0.002	Pitch Set Point:	-0.000	Yaw Set Point:	3.138	X_WP:	0.000	Y_WP:	0.000	Y_WP:	1.000	X:	0.021	Y:	-0.490	Z:	0.055	yaw:	-179.804	yaw rate:	-0.743	Roll:	-0.649	Pitch:	15.087	Yaw:	-255.529	Thrust:	100.000
Time:	2.396	Roll Set Point:	-0.002	Pitch Set Point:	-0.000	Yaw Set Point:	3.138	X_WP:	0.000	Y_WP:	0.000	Y_WP:	1.000	X:	0.021	Y:	-0.490	Z:	0.055	yaw:	-179.792	yaw rate:	-1.205	Roll:	-0.550	Pitch:	14.844	Yaw:	-254.221	Thrust:	100.000
Time:	2.416	Roll Set Point:	-0.002	Pitch Set Point:	-0.000	Yaw Set Point:	3.138	X_WP:	0.000	Y_WP:	0.000	Y_WP:	1.000	X:	0.021	Y:	-0.490	Z:	0.055	yaw:	-179.797	yaw rate:	0.480	Roll:	-0.694	Pitch:	14.948	Yaw:	-255.087	Thrust:	100.000
Time:	2.437	Roll Set Point:	-0.002	Pitch Set Point:	-0.000	Yaw Set Point:	3.138	X_WP:	0.000	Y_WP:	0.000	Y_WP:	1.000	X:	0.021	Y:	-0.490	Z:	0.055	yaw:	-179.815	yaw rate:	1.799	Roll:	-0.821	Pitch:	14.953	Yaw:	-255.490	Thrust:	100.000
Time:	2.458	Roll Set Point:	-0.002	Pitch Set Point:	-0.000	Yaw Set Point:	3.138	X_WP:	0.000	Y_WP:	0.000	Y_WP:	1.000	X:	0.021	Y:	-0.490	Z:	0.055	yaw:	-179.800	yaw rate:	-1.475	Roll:	-0.555	Pitch:	14.992	Yaw:	-254.926	Thrust:	100.000
Time:	2.476	Roll Set Point:	-0.002	Pitch Set Point:	-0.000	Yaw Set Point:	3.138	X_WP:	0.000	Y_WP:	0.000	Y_WP:	1.000	X:	0.021	Y:	-0.490	Z:	0.055	yaw:	-179.800	yaw rate:	0.048	Roll:	-0.666	Pitch:	14.908	Yaw:	-254.782	Thrust:	100.000
Time:	2.496	Roll Set Point:	-0.002	Pitch Set Point:	-0.000	Yaw Set Point:	3.138	X_WP:	0.000	Y_WP:	0.000	Y_WP:	1.000	X:	0.021	Y:	-0.490	Z:	0.055	yaw:	-179.798	yaw rate:	-0.250	Roll:	-0.659	Pitch:	14.945	Yaw:	-255.123	Thrust:	100.000
Time:	2.516	Roll Set Point:	-0.001	Pitch Set Point:	-0.000	Yaw Set Point:	3.139	X_WP:	0.000	Y_WP:	0.000	Y_WP:	1.000	X:	0.021	Y:	-0.490	Z:	0.055	yaw:	-179.858	yaw rate:	6.018	Roll:	-1.100	Pitch:	14.944	Yaw:	-255.927	Thrust:	100.000
Time:	2.536	Roll Set Point:	-0.002	Pitch Set Point:	-0.000	Yaw Set Point:	3.138	X_WP:	0.000	Y_WP:	0.000	Y_WP:	1.000	X:	0.021	Y:	-0.490	Z:	0.055	yaw:	-179.818	yaw rate:	-3.958	Roll:	-0.423	Pitch:	14.972	Yaw:	-254.570	Thrust:	100.000
Time:	2.556	Roll Set Point:	-0.002	Pitch Set Point:	-0.000	Yaw Set Point:	3.138	X_WP:	0.000	Y_WP:	0.000	Y_WP:	1.000	X:	0.021	Y:	-0.490	Z:	0.055	yaw:	-179.797	yaw rate:	-2.104	Roll:	-0.514	Pitch:	14.964	Yaw:	-254.764	Thrust:	100.000
Time:	2.581	Roll Set Point:	-0.002	Pitch Set Point:	-0.000	Yaw Set Point:	3.138	X_WP:	0.000	Y_WP:	0.000	Y_WP:	1.000	X:	0.021	Y:	-0.490	Z:	0.055	yaw:	-179.810	yaw rate:	1.241	Roll:	-0.796	Pitch:	15.045	Yaw:	-255.871	Thrust:	100.000
Time:	2.596	Roll Set Point:	-0.002	Pitch Set Point:	-0.000	Yaw Set Point:	3.138	X_WP:	0.000	Y_WP:	0.000	Y_WP:	1.000	X:	0.021	Y:	-0.490	Z:	0.055	yaw:	-179.802	yaw rate:	-0.742	Roll:	-0.595	Pitch:	14.844	Yaw:	-254.175	Thrust:	100.000
Time:	2.616	Roll Set Point:	-0.002	Pitch Set Point:	-0.000	Yaw Set Point:	3.138	X_WP:	0.000	Y_WP:	0.000	Y_WP:	1.000	X:	0.021	Y:	-0.490	Z:	0.055	yaw:	-179.793	yaw rate:	-0.966	Roll:	-0.602	Pitch:	14.950	Yaw:	-254.864	Thrust:	100.000
Time:	2.637	Roll Set Point:	-0.001	Pitch Set Point:	-0.000	Yaw Set Point:	3.139	X_WP:	0.000	Y_WP:	0.000	Y_WP:	1.000	X:	0.021	Y:	-0.490	Z:	0.055	yaw:	-179.854	yaw rate:	6.165	Roll:	-1.095	Pitch:	14.933	Yaw:	-256.078	Thrust:	100.000
Time:	2.658	Roll Set Point:	-0.002	Pitch Set Point:	-0.000	Yaw Set Point:	3.138	X_WP:	0.000	Y_WP:	0.000	Y_WP:	1.000	X:	0.021	Y:	-0.490	Z:	0.055	yaw:	-179.808	yaw rate:	-4.624	Roll:	-0.406	Pitch:	15.009	Yaw:	-254.644	Thrust:	100.000
Time:	2.676	Roll Set Point:	-0.002	Pitch Set Point:	-0.000	Yaw Set Point:	3.138	X_WP:	0.000	Y_WP:	0.000	Y_WP:	1.000	X:	0.021	Y:	-0.490	Z:	0.055	yaw:	-179.789	yaw rate:	-1.864	Roll:	-0.495	Pitch:	14.905	Yaw:	-254.395	Thrust:	100.000
Time:	2.696	Roll Set Point:	-0.001	Pitch Set Point:	-0.000	Yaw Set Point:	3.139	X_WP:	0.000	Y_WP:	0.000	Y_WP:	1.000	X:	0.021	Y:	-0.490	Z:	0.055	yaw:	-179.845	yaw rate:	5.608	Roll:	-1.082	Pitch:	14.934	Yaw:	-255.842	Thrust:	100.000
Time:	2.716	Roll Set Point:	-0.002	Pitch Set Point:	-0.000	Yaw Set Point:	3.138	X_WP:	0.000	Y_WP:	0.000	Y_WP:	1.000	X:	0.021	Y:	-0.490	Z:	0.055	yaw:	-179.802	yaw rate:	-4.350	Roll:	-0.396	Pitch:	14.967	Yaw:	-254.500	Thrust:	100.000
Time:	2.736	Roll Set Point:	-0.002	Pitch Set Point:	-0.000	Yaw Set Point:	3.138	X_WP:	0.000	Y_WP:	0.000	Y_WP:	1.000	X:	0.021	Y:	-0.490	Z:	0.055	yaw:	-179.806	yaw rate:	0.406	Roll:	-0.717	Pitch:	14.968	Yaw:	-255.232	Thrust:	100.000
Time:	2.756	Roll Set Point:	-0.002	Pitch Set Point:	-0.000	Yaw Set Point:	3.138	X_WP:	0.000	Y_WP:	0.000	Y_WP:	1.000	X:	0.021	Y:	-0.490	Z:	0.055	yaw:	-179.810	yaw rate:	0.436	Roll:	-0.727	Pitch:	14.931	Yaw:	-255.077	Thrust:	100.000
Time:	2.780	Roll Set Point:	-0.002	Pitch Set Point:	-0.000	Yaw Set Point:	3.138	X_WP:	0.000	Y_WP:	0.000	Y_WP:	1.000	X:	0.021	Y:	-0.490	Z:	0.055	yaw:	-179.815	yaw rate:	0.426	Roll:	-0.733	Pitch:	15.019	Yaw:	-255.605	Thrust:	100.000
Time:	2.796	Roll Set Point:	-0.002	Pitch Set Point:	-0.000	Yaw Set Point:	3.138	X_WP:	0.000	Y_WP:	0.000	Y_WP:	1.000	X:	0.021	Y:	-0.490	Z:	0.055	yaw:	-179.796	yaw rate:	-1.901	Roll:	-0.528	Pitch:	14.899	Yaw:	-254.225	Thrust:	100.000
Time:	2.817	Roll Set Point:	-0.002	Pitch Set Point:	-0.000	Yaw Set Point:	3.138	X_WP:	0.000	Y_WP:	0.000	Y_WP:	1.000	X:	0.021	Y:	-0.490	Z:	0.055	yaw:	-179.801	yaw rate:	0.486	Roll:	-0.719	Pitch:	14.956	Yaw:	-255.243	Thrust:	100.000
Time:	2.837	Roll Set Point:	0.002	Pitch Set Point:	0.000	Yaw Set Point:	-3.139	X_WP:	0.000	Y_WP:	0.000	Y_WP:	1.000	X:	0.021	Y:	-0.490	Z:	0.055	yaw:	179.823	yaw rate:	-35962.358	Roll:	-3.573	Pitch:	14.757	Yaw:	4871.236	Thrust:	100.000
Time:	2.857	Roll Set Point:	-0.002	Pitch Set Point:	-0.000	Yaw Set Point:	3.138	X_WP:	0.000	Y_WP:	0.000	Y_WP:	1.000	X:	0.021	Y:	-0.490	Z:	0.055	yaw:	-179.806	yaw rate:	35962.916	Roll:	2.130	Pitch:	15.171	Yaw:	-4940.958	Thrust:	100.000
Time:	2.875	Roll Set Point:	-0.002	Pitch Set Point:	-0.000	Yaw Set Point:	3.138	X_WP:	0.000	Y_WP:	0.000	Y_WP:	1.000	X:	0.021	Y:	-0.490	Z:	0.055	yaw:	-179.809	yaw rate:	0.293	Roll:	-0.713	Pitch:	14.884	Yaw:	-254.776	Thrust:	100.000
Time:	2.897	Roll Set Point:	-0.002	Pitch Set Point:	-0.000	Yaw Set Point:	3.138	X_WP:	0.000	Y_WP:	0.000	Y_WP:	1.000	X:	0.021	Y:	-0.490	Z:	0.055	yaw:	-179.787	yaw rate:	-2.185	Roll:	-0.527	Pitch:	14.994	Yaw:	-254.897	Thrust:	100.000
Time:	2.916	Roll Set Point:	-0.002	Pitch Set Point:	-0.000	Yaw Set Point:	3.138	X_WP:	0.000	Y_WP:	0.000	Y_WP:	1.000	X:	0.021	Y:	-0.490	Z:	0.055	yaw:	-179.805	yaw rate:	1.827	Roll:	-0.842	Pitch:	14.948	Yaw:	-255.298	Thrust:	100.000
Time:	2.936	Roll Set Point:	-0.002	Pitch Set Point:	-0.000	Yaw Set Point:	3.138	X_WP:	0.000	Y_WP:	0.000	Y_WP:	1.000	X:	0.021	Y:	-0.490	Z:	0.055	yaw:	-179.803	yaw rate:	-0.242	Roll:	-0.687	Pitch:	14.958	Yaw:	-255.067	Thrust:	100.000
Time:	2.956	Roll Set Point:	-0.002	Pitch Set Point:	-0.000	Yaw Set Point:	3.138	X_WP:	0.000	Y_WP:	0.000	Y_WP:	1.000	X:	0.021	Y:	-0.490	Z:	0.055	yaw:	-179.796	yaw rate:	-0.664	Roll:	-0.623	Pitch:	14.940	Yaw:	-254.880	Thrust:	100.000
Time:	2.981	Roll Set Point:	-0.002	Pitch Set Point:	-0.000	Yaw Set Point:	3.138	X_WP:	0.000	Y_WP:	0.000	Y_WP:	1.000	X:	0.021	Y:	-0.490	Z:	0.055	yaw:	-179.796	yaw rate:	-0.025	Roll:	-0.715	Pitch:	15.049	Yaw:	-255.765	Thrust:	100.000
Time:	2.996	Roll Set Point:	-0.002	Pitch Set Point:	-0.000	Yaw Set Point:	3.138	X_WP:	0.000	Y_WP:	0.000	Y_WP:	1.000	X:	0.021	Y:	-0.490	Z:	0.055	yaw:	-179.795	yaw rate:	-0.138	Roll:	-0.679	Pitch:	14.856	Yaw:	-254.287	Thrust:	100.000
Time:	3.016	Roll Set Point:	-0.002	Pitch Set Point:	-0.000	Yaw Set Point:	3.138	X_WP:	0.000	Y_WP:	0.000	Y_WP:	1.000	X:	0.021	Y:	-0.490	Z:	0.055	yaw:	-179.803	yaw rate:	0.856	Roll:	-0.755	Pitch:	14.940	Yaw:	-255.105	Thrust:	100.000
Time:	3.038	Roll Set Point:	-0.002	Pitch Set Point:	-0.000	Yaw Set Point:	3.138	X_WP:	0.000	Y_WP:	0.000	Y_WP:	1.000	X:	0.021	Y:	-0.490	Z:	0.055	yaw:	-179.805	yaw rate:	0.173	Roll:	-0.728	Pitch:	15.022	Yaw:	-255.460	Thrust:	100.000
Time:	3.057	Roll Set Point:	-0.002	Pitch Set Point:	-0.000	Yaw Set Point:	3.138	X_WP:	0.000	Y_WP:	0.000	Y_WP:	1.000	X:	0.021	Y:	-0.490	Z:	0.055	yaw:	-179.798	yaw rate:	-0.672	Roll:	-0.645	Pitch:	14.915	Yaw:	-254.764	Thrust:	100.000
Time:	3.076	Roll Set Point:	-0.002	Pitch Set Point:	-0.000	Yaw Set Point:	3.138	X_WP:	0.000	Y_WP:	0.000	Y_WP:	1.000	X:	0.021	Y:	-0.490	Z:	0.055	yaw:	-179.801	yaw rate:	0.231	Roll:	-0.713	Pitch:	14.904	Yaw:	-255.012	Thrust:	100.000
Time:	3.096	Roll Set Point:	-0.002	Pitch Set Point:	-0.000	Yaw Set Point:	3.138	X_WP:	0.000	Y_WP:	0.000	Y_WP:	1.000	X:	0.021	Y:	-0.490	Z:	0.055	yaw:	-179.797	yaw rate:	-0.401	Roll:	-0.678	Pitch:	14.962	Yaw:	-254.915	Thrust:	100.000
Time:	3.116	Roll Set Point:	-0.002	Pitch Set Point:	-0.000	Yaw Set Point:	3.138	X_WP:	0.000	Y_WP:	0.000	Y_WP:	1.000	X:	0.021	Y:	-0.490	Z:	0.055	yaw:	-179.800	yaw rate:	0.385	Roll:	-0.726	Pitch:	14.963	Yaw:	-255.096	Thrust:	100.000
Time:	3.136	Roll Set Point:	-0.001	Pitch Set Point:	-0.000	Yaw Set Point:	3.139	X_WP:	0.000	Y_WP:	0.000	Y_WP:	1.000	X:	0.021	Y:	-0.490	Z:	0.055	yaw:	-179.838	yaw rate:	3.729	Roll:	-0.943	Pitch:	14.946	Yaw:	-255.644	Thrust:	100.000
Time:	3.157	Roll Set Point:	-0.001	Pitch Set Point:	-0.000	Yaw Set Point:	3.139	X_WP:	0.000	Y_WP:	0.000	Y_WP:	1.000	X:	0.021	Y:	-0.490	Z:	0.055	yaw:	-179.846	yaw rate:	0.841	Roll:	-0.782	Pitch:	14.958	Yaw:	-255.209	Thrust:	100.000
Time:	3.180	Roll Set Point:	-0.002	Pitch Set Point:	-0.000	Yaw Set Point:	3.138	X_WP:	0.000	Y_WP:	0.000	Y_WP:	1.000	X:	0.021	Y:	-0.490	Z:	0.055	yaw:	-179.794	yaw rate:	-5.178	Roll:	-0.418	Pitch:	15.018	Yaw:	-254.917	Thrust:	100.000
Time:	3.197	Roll Set Point:	-0.002	Pitch Set Point:	-0.000	Yaw Set Point:	3.138	X_WP:	0.000	Y_WP:	0.000	Y_WP:	1.000	X:	0.021	Y:	-0.490	Z:	0.055	yaw:	-179.798	yaw rate:	0.356	Roll:	-0.706	Pitch:	14.889	Yaw:	-254.702	Thrust:	100.000
Time:	3.217	Roll Set Point:	-0.002	Pitch Set Point:	-0.000	Yaw Set Point:	3.138	X_WP:	0.000	Y_WP:	0.000	Y_WP:	1.000	X:	0.021	Y:	-0.490	Z:	0.055	yaw:	-179.797	yaw rate:	-0.136	Roll:	-0.707	Pitch:	14.961	Yaw:	-255.033	Thrust:	100.000
Time:	3.238	Roll Set Point:	-0.002	Pitch Set Point:	-0.000	Yaw Set Point:	3.138	X_WP:	0.000	Y_WP:	0.000	Y_WP:	1.000	X:	0.021	Y:	-0.490	Z:	0.055	yaw:	-179.806	yaw rate:	0.891	Roll:	-0.789	Pitch:	14.964	Yaw:	-255.404	Thrust:	100.000
Time:	3.258	Roll Set Point:	-0.002	Pitch Set Point:	-0.000	Yaw Set Point:	3.138	X_WP:	0.000	Y_WP:	0.000	Y_WP:	1.000	X:	0.021	Y:	-0.490	Z:	0.055	yaw:	-179.793	yaw rate:	-1.297	Roll:	-0.608	Pitch:	14.980	Yaw:	-254.826	Thrust:	100.000
Time:	3.276	Roll Set Point:	-0.001	Pitch Set Point:	-0.000	Yaw Set Point:	3.139	X_WP:	0.000	Y_WP:	0.000	Y_WP:	1.000	X:	0.021	Y:	-0.490	Z:	0.055	yaw:	-179.872	yaw rate:	7.899	Roll:	-1.328	Pitch:	14.825	Yaw:	-255.926	Thrust:	100.000
Time:	3.297	Roll Set Point:	-0.002	Pitch Set Point:	-0.000	Yaw Set Point:	3.138	X_WP:	0.000	Y_WP:	0.000	Y_WP:	1.000	X:	0.021	Y:	-0.490	Z:	0.055	yaw:	-179.797	yaw rate:	-7.492	Roll:	-0.242	Pitch:	15.055	Yaw:	-254.299	Thrust:	100.000
Time:	3.317	Roll Set Point:	-0.002	Pitch Set Point:	-0.000	Yaw Set Point:	3.138	X_WP:	0.000	Y_WP:	0.000	Y_WP:	1.000	X:	0.021	Y:	-0.490	Z:	0.055	yaw:	-179.803	yaw rate:	0.641	Roll:	-0.774	Pitch:	14.928	Yaw:	-255.071	Thrust:	100.000
Time:	3.335	Roll Set Point:	-0.002	Pitch Set Point:	-0.000	Yaw Set Point:	3.138	X_WP:	0.000	Y_WP:	0.000	Y_WP:	1.000	X:	0.021	Y:	-0.490	Z:	0.055	yaw:	-179.800	yaw rate:	-0.346	Roll:	-0.673	Pitch:	14.920	Yaw:	-254.788	Thrust:	100.000
Time:	3.356	Roll Set Point:	-0.002	Pitch Set Point:	-0.000	Yaw Set Point:	3.138	X_WP:	0.000	Y_WP:	0.000	Y_WP:	1.000	X:	0.021	Y:	-0.490	Z:	0.055	yaw:	-179.795	yaw rate:	-0.481	Roll:	-0.686	Pitch:	14.983	Yaw:	-255.146	Thrust:	100.000
Time:	3.381	Roll Set Point:	-0.002	Pitch Set Point:	-0.000	Yaw Set Point:	3.138	X_WP:	0.000	Y_WP:	0.000	Y_WP:	1.000	X:	0.021	Y:	-0.490	Z:	0.055	yaw:	-179.811	yaw rate:	1.630	Roll:	-0.847	Pitch:	15.071	Yaw:	-256.106	Thrust:	100.000
Time:	3.396	Roll Set Point:	0.001	Pitch Set Point:	0.000	Yaw Set Point:	-3.139	X_WP:	0.000	Y_WP:	0.000	Y_WP:	1.000	X:	0.021	Y:	-0.490	Z:	0.055	yaw:	179.831	yaw rate:	-35964.178	Roll:	-4.061	Pitch:	14.535	Yaw:	6608.422	Thrust:	100.000
Time:	3.416	Roll Set Point:	-0.002	Pitch Set Point:	-0.000	Yaw Set Point:	3.138	X_WP:	0.000	Y_WP:	0.000	Y_WP:	1.000	X:	0.021	Y:	-0.490	Z:	0.055	yaw:	-179.797	yaw rate:	35962.738	Roll:	2.164	Pitch:	15.173	Yaw:	-4869.363	Thrust:	100.000
Time:	3.437	Roll Set Point:	-0.001	Pitch Set Point:	-0.000	Yaw Set Point:	3.139	X_WP:	0.000	Y_WP:	0.000	Y_WP:	1.000	X:	0.021	Y:	-0.490	Z:	0.055	yaw:	-179.851	yaw rate:	5.438	Roll:	-1.083	Pitch:	14.931	Yaw:	-255.963	Thrust:	100.000
Time:	3.458	Roll Set Point:	-0.002	Pitch Set Point:	-0.000	Yaw Set Point:	3.138	X_WP:	0.000	Y_WP:	0.000	Y_WP:	1.000	X:	0.021	Y:	-0.490	Z:	0.055	yaw:	-179.796	yaw rate:	-5.514	Roll:	-0.374	Pitch:	15.026	Yaw:	-254.600	Thrust:	100.000
Time:	3.476	Roll Set Point:	-0.001	Pitch Set Point:	-0.000	Yaw Set Point:	3.139	X_WP:	0.000	Y_WP:	0.000	Y_WP:	1.000	X:	0.021	Y:	-0.490	Z:	0.055	yaw:	-179.851	yaw rate:	5.518	Roll:	-1.122	Pitch:	14.872	Yaw:	-255.543	Thrust:	100.000
Time:	3.496	Roll Set Point:	-0.002	Pitch Set Point:	-0.000	Yaw Set Point:	3.138	X_WP:	0.000	Y_WP:	0.000	Y_WP:	1.000	X:	0.021	Y:	-0.490	Z:	0.055	yaw:	-179.798	yaw rate:	-5.271	Roll:	-0.354	Pitch:	14.972	Yaw:	-254.370	Thrust:	100.000
