Time:	0.034	Roll Set Point:	-0.072	Pitch Set Point:	1.775	Yaw Set Point:	-0.072	X_WP:	0.000	Y_WP:	0.000	Y_WP:	0.750	X:	0.068	Y:	-0.886	Z:	0.403	yaw:	4.126	yaw rate:	49.220	Roll:	0.121	Pitch:	-25.780	Yaw:	5.762	Thrust:	19.089
Time:	0.050	Roll Set Point:	-0.065	Pitch Set Point:	1.775	Yaw Set Point:	-0.080	X_WP:	0.000	Y_WP:	0.000	Y_WP:	0.750	X:	0.068	Y:	-0.886	Z:	0.403	yaw:	4.602	yaw rate:	-47.527	Roll:	-7.789	Pitch:	-25.672	Yaw:	14.218	Thrust:	19.874
Time:	0.071	Roll Set Point:	-0.073	Pitch Set Point:	1.775	Yaw Set Point:	-0.072	X_WP:	0.000	Y_WP:	0.000	Y_WP:	0.750	X:	0.068	Y:	-0.886	Z:	0.403	yaw:	4.106	yaw rate:	49.541	Roll:	6.568	Pitch:	-25.972	Yaw:	-0.352	Thrust:	20.769
Time:	0.093	Roll Set Point:	-0.063	Pitch Set Point:	1.775	Yaw Set Point:	-0.082	X_WP:	0.000	Y_WP:	0.000	Y_WP:	0.750	X:	0.068	Y:	-0.886	Z:	0.403	yaw:	4.670	yaw rate:	-56.333	Roll:	-7.375	Pitch:	-25.614	Yaw:	13.438	Thrust:	22.145
Time:	0.111	Roll Set Point:	-0.063	Pitch Set Point:	1.775	Yaw Set Point:	-0.081	X_WP:	0.000	Y_WP:	0.000	Y_WP:	0.750	X:	0.068	Y:	-0.886	Z:	0.403	yaw:	4.660	yaw rate:	0.997	Roll:	-0.000	Pitch:	-25.943	Yaw:	6.478	Thrust:	22.222
Time:	0.131	Roll Set Point:	-0.073	Pitch Set Point:	1.775	Yaw Set Point:	-0.071	X_WP:	0.000	Y_WP:	0.000	Y_WP:	0.750	X:	0.068	Y:	-0.886	Z:	0.403	yaw:	4.050	yaw rate:	61.012	Roll:	8.205	Pitch:	-26.169	Yaw:	-2.446	Thrust:	22.876
Time:	0.150	Roll Set Point:	-0.065	Pitch Set Point:	1.775	Yaw Set Point:	-0.080	X_WP:	0.000	Y_WP:	0.000	Y_WP:	0.750	X:	0.068	Y:	-0.886	Z:	0.403	yaw:	4.562	yaw rate:	-51.291	Roll:	-6.638	Pitch:	-26.077	Yaw:	13.209	Thrust:	24.108
Time:	0.171	Roll Set Point:	-0.072	Pitch Set Point:	1.775	Yaw Set Point:	-0.072	X_WP:	0.000	Y_WP:	0.000	Y_WP:	0.750	X:	0.068	Y:	-0.886	Z:	0.403	yaw:	4.123	yaw rate:	43.915	Roll:	6.019	Pitch:	-26.230	Yaw:	0.378	Thrust:	24.936
Time:	0.191	Roll Set Point:	-0.065	Pitch Set Point:	1.775	Yaw Set Point:	-0.080	X_WP:	0.000	Y_WP:	0.000	Y_WP:	0.750	X:	0.068	Y:	-0.886	Z:	0.403	yaw:	4.557	yaw rate:	-43.407	Roll:	-5.887	Pitch:	-25.997	Yaw:	12.411	Thrust:	25.812
Time:	0.211	Roll Set Point:	-0.073	Pitch Set Point:	1.775	Yaw Set Point:	-0.072	X_WP:	0.000	Y_WP:	0.000	Y_WP:	0.750	X:	0.068	Y:	-0.886	Z:	0.403	yaw:	4.098	yaw rate:	45.971	Roll:	6.174	Pitch:	-26.306	Yaw:	0.100	Thrust:	26.535
Time:	0.231	Roll Set Point:	-0.065	Pitch Set Point:	1.775	Yaw Set Point:	-0.080	X_WP:	0.000	Y_WP:	0.000	Y_WP:	0.750	X:	0.068	Y:	-0.886	Z:	0.403	yaw:	4.562	yaw rate:	-46.465	Roll:	-6.472	Pitch:	-26.087	Yaw:	12.760	Thrust:	27.583
Time:	0.251	Roll Set Point:	-0.072	Pitch Set Point:	1.775	Yaw Set Point:	-0.072	X_WP:	0.000	Y_WP:	0.000	Y_WP:	0.750	X:	0.068	Y:	-0.886	Z:	0.403	yaw:	4.139	yaw rate:	42.354	Roll:	5.710	Pitch:	-26.393	Yaw:	0.513	Thrust:	28.061
Time:	0.271	Roll Set Point:	-0.063	Pitch Set Point:	1.775	Yaw Set Point:	-0.081	X_WP:	0.000	Y_WP:	0.000	Y_WP:	0.750	X:	0.068	Y:	-0.886	Z:	0.403	yaw:	4.658	yaw rate:	-51.882	Roll:	-7.362	Pitch:	-25.991	Yaw:	13.676	Thrust:	29.481
Time:	0.292	Roll Set Point:	-0.063	Pitch Set Point:	1.775	Yaw Set Point:	-0.081	X_WP:	0.000	Y_WP:	0.000	Y_WP:	0.750	X:	0.068	Y:	-0.886	Z:	0.403	yaw:	4.640	yaw rate:	1.728	Roll:	0.058	Pitch:	-26.345	Yaw:	6.692	Thrust:	30.558
Time:	0.311	Roll Set Point:	-0.073	Pitch Set Point:	1.775	Yaw Set Point:	-0.071	X_WP:	0.000	Y_WP:	0.000	Y_WP:	0.750	X:	0.068	Y:	-0.886	Z:	0.403	yaw:	4.050	yaw rate:	58.991	Roll:	8.649	Pitch:	-26.558	Yaw:	-1.974	Thrust:	30.177
Time:	0.331	Roll Set Point:	-0.072	Pitch Set Point:	1.775	Yaw Set Point:	-0.072	X_WP:	0.000	Y_WP:	0.000	Y_WP:	0.750	X:	0.068	Y:	-0.886	Z:	0.403	yaw:	4.121	yaw rate:	-7.066	Roll:	-0.545	Pitch:	-26.622	Yaw:	7.158	Thrust:	30.845
Time:	0.351	Roll Set Point:	-0.073	Pitch Set Point:	1.775	Yaw Set Point:	-0.071	X_WP:	0.000	Y_WP:	0.000	Y_WP:	0.750	X:	0.068	Y:	-0.886	Z:	0.403	yaw:	4.059	yaw rate:	6.192	Roll:	0.701	Pitch:	-26.332	Yaw:	5.373	Thrust:	32.944
Time:	0.371	Roll Set Point:	-0.063	Pitch Set Point:	1.775	Yaw Set Point:	-0.081	X_WP:	0.000	Y_WP:	0.000	Y_WP:	0.750	X:	0.068	Y:	-0.886	Z:	0.403	yaw:	4.642	yaw rate:	-58.306	Roll:	-8.017	Pitch:	-26.293	Yaw:	14.477	Thrust:	33.377
Time:	0.393	Roll Set Point:	-0.073	Pitch Set Point:	1.775	Yaw Set Point:	-0.071	X_WP:	0.000	Y_WP:	0.000	Y_WP:	0.750	X:	0.068	Y:	-0.886	Z:	0.403	yaw:	4.053	yaw rate:	58.895	Roll:	7.488	Pitch:	-26.801	Yaw:	-0.896	Thrust:	35.446
Time:	0.411	Roll Set Point:	-0.064	Pitch Set Point:	1.775	Yaw Set Point:	-0.081	X_WP:	0.000	Y_WP:	0.000	Y_WP:	0.750	X:	0.068	Y:	-0.886	Z:	0.403	yaw:	4.620	yaw rate:	-56.658	Roll:	-7.942	Pitch:	-26.486	Yaw:	15.133	Thrust:	33.483
Time:	0.432	Roll Set Point:	-0.072	Pitch Set Point:	1.775	Yaw Set Point:	-0.072	X_WP:	0.000	Y_WP:	0.000	Y_WP:	0.750	X:	0.068	Y:	-0.886	Z:	0.403	yaw:	4.138	yaw rate:	48.192	Roll:	6.522	Pitch:	-26.617	Yaw:	0.283	Thrust:	36.143
Time:	0.452	Roll Set Point:	-0.064	Pitch Set Point:	1.775	Yaw Set Point:	-0.081	X_WP:	0.000	Y_WP:	0.000	Y_WP:	0.750	X:	0.068	Y:	-0.886	Z:	0.403	yaw:	4.620	yaw rate:	-48.190	Roll:	-6.747	Pitch:	-26.202	Yaw:	13.436	Thrust:	36.809
Time:	0.471	Roll Set Point:	-0.073	Pitch Set Point:	1.775	Yaw Set Point:	-0.071	X_WP:	0.000	Y_WP:	0.000	Y_WP:	0.750	X:	0.068	Y:	-0.886	Z:	0.403	yaw:	4.082	yaw rate:	53.771	Roll:	7.859	Pitch:	-26.874	Yaw:	-0.706	Thrust:	37.069
Time:	0.493	Roll Set Point:	-0.063	Pitch Set Point:	1.775	Yaw Set Point:	-0.081	X_WP:	0.000	Y_WP:	0.000	Y_WP:	0.750	X:	0.068	Y:	-0.886	Z:	0.403	yaw:	4.669	yaw rate:	-58.704	Roll:	-7.864	Pitch:	-26.220	Yaw:	14.564	Thrust:	39.513
Time:	0.515	Roll Set Point:	-0.064	Pitch Set Point:	1.775	Yaw Set Point:	-0.080	X_WP:	0.000	Y_WP:	0.000	Y_WP:	0.750	X:	0.068	Y:	-0.886	Z:	0.403	yaw:	4.608	yaw rate:	6.073	Roll:	0.613	Pitch:	-26.559	Yaw:	6.503	Thrust:	40.828
Time:	0.536	Roll Set Point:	-0.073	Pitch Set Point:	1.775	Yaw Set Point:	-0.070	X_WP:	0.000	Y_WP:	0.000	Y_WP:	0.750	X:	0.068	Y:	-0.886	Z:	0.403	yaw:	4.037	yaw rate:	57.179	Roll:	7.309	Pitch:	-26.783	Yaw:	-0.486	Thrust:	41.015
Time:	0.554	Roll Set Point:	-0.072	Pitch Set Point:	1.775	Yaw Set Point:	-0.071	X_WP:	0.000	Y_WP:	0.000	Y_WP:	0.750	X:	0.068	Y:	-0.886	Z:	0.403	yaw:	4.092	yaw rate:	-5.570	Roll:	-0.718	Pitch:	-26.425	Yaw:	7.237	Thrust:	38.907
Time:	0.571	Roll Set Point:	-0.063	Pitch Set Point:	1.775	Yaw Set Point:	-0.081	X_WP:	0.000	Y_WP:	0.000	Y_WP:	0.750	X:	0.068	Y:	-0.886	Z:	0.403	yaw:	4.635	yaw rate:	-54.272	Roll:	-8.439	Pitch:	-26.237	Yaw:	15.483	Thrust:	38.375
Time:	0.591	Roll Set Point:	-0.072	Pitch Set Point:	1.775	Yaw Set Point:	-0.071	X_WP:	0.000	Y_WP:	0.000	Y_WP:	0.750	X:	0.068	Y:	-0.886	Z:	0.403	yaw:	4.075	yaw rate:	55.975	Roll:	7.300	Pitch:	-26.704	Yaw:	-0.613	Thrust:	42.821
Time:	0.611	Roll Set Point:	-0.072	Pitch Set Point:	1.775	Yaw Set Point:	-0.072	X_WP:	0.000	Y_WP:	0.000	Y_WP:	0.750	X:	0.068	Y:	-0.886	Z:	0.403	yaw:	4.097	yaw rate:	-2.175	Roll:	-0.133	Pitch:	-26.533	Yaw:	6.868	Thrust:	42.592
Time:	0.631	Roll Set Point:	-0.073	Pitch Set Point:	1.775	Yaw Set Point:	-0.071	X_WP:	0.000	Y_WP:	0.000	Y_WP:	0.750	X:	0.068	Y:	-0.886	Z:	0.403	yaw:	4.091	yaw rate:	0.641	Roll:	0.468	Pitch:	-26.674	Yaw:	6.550	Thrust:	43.534
Time:	0.651	Roll Set Point:	-0.064	Pitch Set Point:	1.775	Yaw Set Point:	-0.080	X_WP:	0.000	Y_WP:	0.000	Y_WP:	0.750	X:	0.068	Y:	-0.886	Z:	0.403	yaw:	4.612	yaw rate:	-52.143	Roll:	-7.587	Pitch:	-26.184	Yaw:	14.220	Thrust:	45.843
Time:	0.671	Roll Set Point:	-0.064	Pitch Set Point:	1.775	Yaw Set Point:	-0.081	X_WP:	0.000	Y_WP:	0.000	Y_WP:	0.750	X:	0.068	Y:	-0.886	Z:	0.403	yaw:	4.622	yaw rate:	-0.969	Roll:	-0.214	Pitch:	-26.548	Yaw:	7.539	Thrust:	45.464
Time:	0.692	Roll Set Point:	-0.072	Pitch Set Point:	1.775	Yaw Set Point:	-0.072	X_WP:	0.000	Y_WP:	0.000	Y_WP:	0.750	X:	0.068	Y:	-0.886	Z:	0.403	yaw:	4.119	yaw rate:	50.274	Roll:	6.829	Pitch:	-26.862	Yaw:	0.514	Thrust:	47.575
Time:	0.711	Roll Set Point:	-0.063	Pitch Set Point:	1.775	Yaw Set Point:	-0.081	X_WP:	0.000	Y_WP:	0.000	Y_WP:	0.750	X:	0.068	Y:	-0.886	Z:	0.403	yaw:	4.659	yaw rate:	-53.961	Roll:	-7.796	Pitch:	-26.157	Yaw:	14.725	Thrust:	47.137
Time:	0.731	Roll Set Point:	-0.063	Pitch Set Point:	1.775	Yaw Set Point:	-0.081	X_WP:	0.000	Y_WP:	0.000	Y_WP:	0.750	X:	0.068	Y:	-0.886	Z:	0.403	yaw:	4.666	yaw rate:	-0.748	Roll:	-0.257	Pitch:	-26.516	Yaw:	7.692	Thrust:	48.774
Time:	0.751	Roll Set Point:	-0.064	Pitch Set Point:	1.775	Yaw Set Point:	-0.081	X_WP:	0.000	Y_WP:	0.000	Y_WP:	0.750	X:	0.068	Y:	-0.886	Z:	0.403	yaw:	4.623	yaw rate:	4.315	Roll:	0.469	Pitch:	-26.512	Yaw:	6.929	Thrust:	48.052
Time:	0.771	Roll Set Point:	-0.063	Pitch Set Point:	1.775	Yaw Set Point:	-0.081	X_WP:	0.000	Y_WP:	0.000	Y_WP:	0.750	X:	0.068	Y:	-0.886	Z:	0.403	yaw:	4.641	yaw rate:	-1.858	Roll:	-0.367	Pitch:	-26.509	Yaw:	7.845	Thrust:	49.708
Time:	0.791	Roll Set Point:	-0.064	Pitch Set Point:	1.775	Yaw Set Point:	-0.081	X_WP:	0.000	Y_WP:	0.000	Y_WP:	0.750	X:	0.068	Y:	-0.886	Z:	0.403	yaw:	4.625	yaw rate:	1.684	Roll:	0.096	Pitch:	-26.527	Yaw:	7.401	Thrust:	50.836
Time:	0.811	Roll Set Point:	-0.064	Pitch Set Point:	1.775	Yaw Set Point:	-0.081	X_WP:	0.000	Y_WP:	0.000	Y_WP:	0.750	X:	0.068	Y:	-0.886	Z:	0.403	yaw:	4.629	yaw rate:	-0.476	Roll:	-0.184	Pitch:	-26.512	Yaw:	7.735	Thrust:	52.100
Time:	0.831	Roll Set Point:	-0.072	Pitch Set Point:	1.775	Yaw Set Point:	-0.072	X_WP:	0.000	Y_WP:	0.000	Y_WP:	0.750	X:	0.068	Y:	-0.886	Z:	0.403	yaw:	4.098	yaw rate:	53.131	Roll:	7.504	Pitch:	-26.721	Yaw:	0.007	Thrust:	51.395
Time:	0.851	Roll Set Point:	-0.064	Pitch Set Point:	1.775	Yaw Set Point:	-0.081	X_WP:	0.000	Y_WP:	0.000	Y_WP:	0.750	X:	0.068	Y:	-0.886	Z:	0.403	yaw:	4.613	yaw rate:	-51.513	Roll:	-7.087	Pitch:	-26.336	Yaw:	14.588	Thrust:	53.463
Time:	0.871	Roll Set Point:	-0.075	Pitch Set Point:	1.775	Yaw Set Point:	-0.069	X_WP:	0.000	Y_WP:	0.000	Y_WP:	0.750	X:	0.068	Y:	-0.886	Z:	0.403	yaw:	3.966	yaw rate:	64.729	Roll:	9.145	Pitch:	-26.890	Yaw:	-1.365	Thrust:	54.603
Time:	0.892	Roll Set Point:	-0.063	Pitch Set Point:	1.775	Yaw Set Point:	-0.081	X_WP:	0.000	Y_WP:	0.000	Y_WP:	0.750	X:	0.068	Y:	-0.886	Z:	0.403	yaw:	4.631	yaw rate:	-66.522	Roll:	-9.034	Pitch:	-26.172	Yaw:	16.083	Thrust:	56.722
Time:	0.911	Roll Set Point:	-0.063	Pitch Set Point:	1.775	Yaw Set Point:	-0.082	X_WP:	0.000	Y_WP:	0.000	Y_WP:	0.750	X:	0.068	Y:	-0.886	Z:	0.403	yaw:	4.679	yaw rate:	-4.816	Roll:	-0.791	Pitch:	-26.519	Yaw:	8.477	Thrust:	54.838
Time:	0.932	Roll Set Point:	-0.064	Pitch Set Point:	1.775	Yaw Set Point:	-0.081	X_WP:	0.000	Y_WP:	0.000	Y_WP:	0.750	X:	0.068	Y:	-0.886	Z:	0.403	yaw:	4.625	yaw rate:	5.466	Roll:	0.539	Pitch:	-26.537	Yaw:	7.224	Thrust:	58.451
Time:	0.953	Roll Set Point:	-0.063	Pitch Set Point:	1.775	Yaw Set Point:	-0.082	X_WP:	0.000	Y_WP:	0.000	Y_WP:	0.750	X:	0.068	Y:	-0.886	Z:	0.403	yaw:	4.670	yaw rate:	-4.557	Roll:	-0.742	Pitch:	-26.517	Yaw:	8.542	Thrust:	58.110
Time:	0.972	Roll Set Point:	-0.063	Pitch Set Point:	1.775	Yaw Set Point:	-0.081	X_WP:	0.000	Y_WP:	0.000	Y_WP:	0.750	X:	0.068	Y:	-0.886	Z:	0.403	yaw:	4.635	yaw rate:	3.527	Roll:	0.341	Pitch:	-26.553	Yaw:	7.428	Thrust:	57.777
Time:	0.995	Roll Set Point:	-0.064	Pitch Set Point:	1.775	Yaw Set Point:	-0.081	X_WP:	0.000	Y_WP:	0.000	Y_WP:	0.750	X:	0.068	Y:	-0.886	Z:	0.403	yaw:	4.621	yaw rate:	1.386	Roll:	0.065	Pitch:	-26.596	Yaw:	7.916	Thrust:	63.203
Time:	1.012	Roll Set Point:	-0.063	Pitch Set Point:	1.775	Yaw Set Point:	-0.081	X_WP:	0.000	Y_WP:	0.000	Y_WP:	0.750	X:	0.068	Y:	-0.886	Z:	0.403	yaw:	4.648	yaw rate:	-2.738	Roll:	-0.548	Pitch:	-26.378	Yaw:	8.249	Thrust:	55.948
Time:	1.032	Roll Set Point:	-0.072	Pitch Set Point:	1.775	Yaw Set Point:	-0.071	X_WP:	0.000	Y_WP:	0.000	Y_WP:	0.750	X:	0.068	Y:	-0.886	Z:	0.403	yaw:	4.083	yaw rate:	56.582	Roll:	7.744	Pitch:	-26.757	Yaw:	-0.348	Thrust:	59.762
Time:	1.052	Roll Set Point:	-0.073	Pitch Set Point:	1.775	Yaw Set Point:	-0.071	X_WP:	0.000	Y_WP:	0.000	Y_WP:	0.750	X:	0.068	Y:	-0.886	Z:	0.403	yaw:	4.085	yaw rate:	-0.280	Roll:	0.358	Pitch:	-26.709	Yaw:	7.276	Thrust:	60.442
Time:	1.072	Roll Set Point:	-0.065	Pitch Set Point:	1.775	Yaw Set Point:	-0.080	X_WP:	0.000	Y_WP:	0.000	Y_WP:	0.750	X:	0.068	Y:	-0.886	Z:	0.403	yaw:	4.568	yaw rate:	-48.266	Roll:	-6.290	Pitch:	-26.341	Yaw:	14.195	Thrust:	63.400
Time:	1.093	Roll Set Point:	-0.073	Pitch Set Point:	1.775	Yaw Set Point:	-0.071	X_WP:	0.000	Y_WP:	0.000	Y_WP:	0.750	X:	0.068	Y:	-0.886	Z:	0.403	yaw:	4.085	yaw rate:	48.312	Roll:	6.457	Pitch:	-26.696	Yaw:	1.241	Thrust:	64.477
Time:	1.111	Roll Set Point:	-0.072	Pitch Set Point:	1.775	Yaw Set Point:	-0.071	X_WP:	0.000	Y_WP:	0.000	Y_WP:	0.750	X:	0.068	Y:	-0.886	Z:	0.403	yaw:	4.091	yaw rate:	-0.563	Roll:	-0.224	Pitch:	-26.346	Yaw:	7.331	Thrust:	61.250
Time:	1.132	Roll Set Point:	-0.063	Pitch Set Point:	1.775	Yaw Set Point:	-0.081	X_WP:	0.000	Y_WP:	0.000	Y_WP:	0.750	X:	0.068	Y:	-0.886	Z:	0.403	yaw:	4.670	yaw rate:	-57.892	Roll:	-7.876	Pitch:	-26.314	Yaw:	15.607	Thrust:	66.399
Time:	1.153	Roll Set Point:	-0.075	Pitch Set Point:	1.775	Yaw Set Point:	-0.069	X_WP:	0.000	Y_WP:	0.000	Y_WP:	0.750	X:	0.068	Y:	-0.886	Z:	0.403	yaw:	3.929	yaw rate:	74.089	Roll:	10.051	Pitch:	-26.767	Yaw:	-2.094	Thrust:	64.727
Time:	1.172	Roll Set Point:	-0.072	Pitch Set Point:	1.775	Yaw Set Point:	-0.072	X_WP:	0.000	Y_WP:	0.000	Y_WP:	0.750	X:	0.068	Y:	-0.886	Z:	0.403	yaw:	4.140	yaw rate:	-21.180	Roll:	-2.452	Pitch:	-26.666	Yaw:	10.316	Thrust:	68.387
Time:	1.194	Roll Set Point:	-0.073	Pitch Set Point:	1.775	Yaw Set Point:	-0.071	X_WP:	0.000	Y_WP:	0.000	Y_WP:	0.750	X:	0.068	Y:	-0.886	Z:	0.403	yaw:	4.053	yaw rate:	8.733	Roll:	1.020	Pitch:	-26.441	Yaw:	6.516	Thrust:	71.308
Time:	1.212	Roll Set Point:	-0.063	Pitch Set Point:	1.775	Yaw Set Point:	-0.081	X_WP:	0.000	Y_WP:	0.000	Y_WP:	0.750	X:	0.068	Y:	-0.886	Z:	0.403	yaw:	4.638	yaw rate:	-58.526	Roll:	-8.825	Pitch:	-26.168	Yaw:	16.540	Thrust:	61.575
Time:	1.233	Roll Set Point:	-0.064	Pitch Set Point:	1.775	Yaw Set Point:	-0.080	X_WP:	0.000	Y_WP:	0.000	Y_WP:	0.750	X:	0.068	Y:	-0.886	Z:	0.403	yaw:	4.612	yaw rate:	2.629	Roll:	0.243	Pitch:	-26.590	Yaw:	7.988	Thrust:	71.628
Time:	1.253	Roll Set Point:	-0.072	Pitch Set Point:	1.775	Yaw Set Point:	-0.072	X_WP:	0.000	Y_WP:	0.000	Y_WP:	0.750	X:	0.068	Y:	-0.886	Z:	0.403	yaw:	4.097	yaw rate:	51.525	Roll:	7.083	Pitch:	-26.699	Yaw:	0.386	Thrust:	68.516
Time:	1.273	Roll Set Point:	-0.063	Pitch Set Point:	1.775	Yaw Set Point:	-0.081	X_WP:	0.000	Y_WP:	0.000	Y_WP:	0.750	X:	0.068	Y:	-0.886	Z:	0.403	yaw:	4.661	yaw rate:	-56.383	Roll:	-7.517	Pitch:	-26.341	Yaw:	15.394	Thrust:	72.378
Time:	1.292	Roll Set Point:	-0.064	Pitch Set Point:	1.775	Yaw Set Point:	-0.080	X_WP:	0.000	Y_WP:	0.000	Y_WP:	0.750	X:	0.068	Y:	-0.886	Z:	0.403	yaw:	4.603	yaw rate:	5.788	Roll:	0.686	Pitch:	-26.485	Yaw:	7.411	Thrust:	70.571
Time:	1.312	Roll Set Point:	-0.073	Pitch Set Point:	1.775	Yaw Set Point:	-0.072	X_WP:	0.000	Y_WP:	0.000	Y_WP:	0.750	X:	0.068	Y:	-0.886	Z:	0.403	yaw:	4.112	yaw rate:	49.046	Roll:	7.015	Pitch:	-26.879	Yaw:	1.488	Thrust:	70.830
Time:	1.333	Roll Set Point:	-0.066	Pitch Set Point:	1.775	Yaw Set Point:	-0.079	X_WP:	0.000	Y_WP:	0.000	Y_WP:	0.750	X:	0.068	Y:	-0.886	Z:	0.403	yaw:	4.537	yaw rate:	-42.477	Roll:	-5.693	Pitch:	-26.412	Yaw:	13.915	Thrust:	75.544
Time:	1.352	Roll Set Point:	-0.066	Pitch Set Point:	1.775	Yaw Set Point:	-0.079	X_WP:	0.000	Y_WP:	0.000	Y_WP:	0.750	X:	0.068	Y:	-0.886	Z:	0.403	yaw:	4.523	yaw rate:	1.458	Roll:	0.119	Pitch:	-26.499	Yaw:	8.151	Thrust:	74.771
Time:	1.372	Roll Set Point:	-0.065	Pitch Set Point:	1.775	Yaw Set Point:	-0.080	X_WP:	0.000	Y_WP:	0.000	Y_WP:	0.750	X:	0.068	Y:	-0.886	Z:	0.403	yaw:	4.569	yaw rate:	-4.612	Roll:	-0.665	Pitch:	-26.555	Yaw:	8.939	Thrust:	73.120
Time:	1.394	Roll Set Point:	-0.073	Pitch Set Point:	1.775	Yaw Set Point:	-0.071	X_WP:	0.000	Y_WP:	0.000	Y_WP:	0.750	X:	0.068	Y:	-0.886	Z:	0.403	yaw:	4.080	yaw rate:	48.823	Roll:	6.311	Pitch:	-26.700	Yaw:	1.984	Thrust:	80.568
Time:	1.411	Roll Set Point:	-0.066	Pitch Set Point:	1.775	Yaw Set Point:	-0.079	X_WP:	0.000	Y_WP:	0.000	Y_WP:	0.750	X:	0.068	Y:	-0.886	Z:	0.403	yaw:	4.540	yaw rate:	-46.000	Roll:	-6.798	Pitch:	-26.333	Yaw:	14.888	Thrust:	70.285
Time:	1.432	Roll Set Point:	-0.063	Pitch Set Point:	1.775	Yaw Set Point:	-0.081	X_WP:	0.000	Y_WP:	0.000	Y_WP:	0.750	X:	0.068	Y:	-0.886	Z:	0.403	yaw:	4.653	yaw rate:	-11.298	Roll:	-1.916	Pitch:	-26.301	Yaw:	9.995	Thrust:	78.208
Time:	1.452	Roll Set Point:	-0.072	Pitch Set Point:	1.775	Yaw Set Point:	-0.071	X_WP:	0.000	Y_WP:	0.000	Y_WP:	0.750	X:	0.068	Y:	-0.886	Z:	0.403	yaw:	4.095	yaw rate:	55.884	Roll:	7.830	Pitch:	-26.711	Yaw:	0.412	Thrust:	79.638
Time:	1.473	Roll Set Point:	-0.063	Pitch Set Point:	1.775	Yaw Set Point:	-0.081	X_WP:	0.000	Y_WP:	0.000	Y_WP:	0.750	X:	0.068	Y:	-0.886	Z:	0.403	yaw:	4.652	yaw rate:	-55.707	Roll:	-7.348	Pitch:	-26.373	Yaw:	15.724	Thrust:	79.895
Time:	1.493	Roll Set Point:	-0.073	Pitch Set Point:	1.775	Yaw Set Point:	-0.071	X_WP:	0.000	Y_WP:	0.000	Y_WP:	0.750	X:	0.068	Y:	-0.886	Z:	0.403	yaw:	4.064	yaw rate:	58.757	Roll:	7.817	Pitch:	-26.704	Yaw:	0.250	Thrust:	80.043
Time:	1.512	Roll Set Point:	-0.064	Pitch Set Point:	1.775	Yaw Set Point:	-0.081	X_WP:	0.000	Y_WP:	0.000	Y_WP:	0.750	X:	0.068	Y:	-0.886	Z:	0.403	yaw:	4.634	yaw rate:	-56.983	Roll:	-8.078	Pitch:	-26.295	Yaw:	16.299	Thrust:	78.555
Time:	1.532	Roll Set Point:	-0.064	Pitch Set Point:	1.775	Yaw Set Point:	-0.080	X_WP:	0.000	Y_WP:	0.000	Y_WP:	0.750	X:	0.068	Y:	-0.886	Z:	0.403	yaw:	4.608	yaw rate:	2.576	Roll:	0.227	Pitch:	-26.523	Yaw:	8.170	Thrust:	81.976
Time:	1.553	Roll Set Point:	-0.072	Pitch Set Point:	1.775	Yaw Set Point:	-0.072	X_WP:	0.000	Y_WP:	0.000	Y_WP:	0.750	X:	0.068	Y:	-0.886	Z:	0.403	yaw:	4.137	yaw rate:	47.143	Roll:	6.582	Pitch:	-26.880	Yaw:	1.821	Thrust:	85.441
Time:	1.581	Roll Set Point:	-0.065	Pitch Set Point:	1.775	Yaw Set Point:	-0.080	X_WP:	0.000	Y_WP:	0.000	Y_WP:	0.750	X:	0.068	Y:	-0.886	Z:	0.403	yaw:	4.568	yaw rate:	-43.102	Roll:	-4.201	Pitch:	-26.775	Yaw:	13.197	Thrust:	100.000
Time:	1.593	Roll Set Point:	-0.065	Pitch Set Point:	1.775	Yaw Set Point:	-0.080	X_WP:	0.000	Y_WP:	0.000	Y_WP:	0.750	X:	0.068	Y:	-0.886	Z:	0.403	yaw:	4.599	yaw rate:	-3.107	Roll:	-0.740	Pitch:	-26.219	Yaw:	8.322	Thrust:	59.689
Time:	1.612	Roll Set Point:	-0.073	Pitch Set Point:	1.775	Yaw Set Point:	-0.071	X_WP:	0.000	Y_WP:	0.000	Y_WP:	0.750	X:	0.068	Y:	-0.886	Z:	0.403	yaw:	4.065	yaw rate:	53.369	Roll:	8.190	Pitch:	-26.641	Yaw:	-0.121	Thrust:	79.314
Time:	1.633	Roll Set Point:	-0.073	Pitch Set Point:	1.775	Yaw Set Point:	-0.071	X_WP:	0.000	Y_WP:	0.000	Y_WP:	0.750	X:	0.068	Y:	-0.886	Z:	0.403	yaw:	4.048	yaw rate:	1.680	Roll:	0.115	Pitch:	-26.382	Yaw:	7.555	Thrust:	89.627
Time:	1.653	Roll Set Point:	-0.063	Pitch Set Point:	1.775	Yaw Set Point:	-0.081	X_WP:	0.000	Y_WP:	0.000	Y_WP:	0.750	X:	0.068	Y:	-0.886	Z:	0.403	yaw:	4.660	yaw rate:	-61.132	Roll:	-9.092	Pitch:	-26.287	Yaw:	16.560	Thrust:	82.896
Time:	1.673	Roll Set Point:	-0.064	Pitch Set Point:	1.775	Yaw Set Point:	-0.080	X_WP:	0.000	Y_WP:	0.000	Y_WP:	0.750	X:	0.068	Y:	-0.886	Z:	0.403	yaw:	4.595	yaw rate:	6.499	Roll:	0.702	Pitch:	-26.567	Yaw:	7.507	Thrust:	89.351
Time:	1.693	Roll Set Point:	-0.072	Pitch Set Point:	1.775	Yaw Set Point:	-0.072	X_WP:	0.000	Y_WP:	0.000	Y_WP:	0.750	X:	0.068	Y:	-0.886	Z:	0.403	yaw:	4.117	yaw rate:	47.733	Roll:	6.888	Pitch:	-26.862	Yaw:	1.621	Thrust:	88.988
Time:	1.713	Roll Set Point:	-0.063	Pitch Set Point:	1.775	Yaw Set Point:	-0.082	X_WP:	0.000	Y_WP:	0.000	Y_WP:	0.750	X:	0.068	Y:	-0.886	Z:	0.403	yaw:	4.690	yaw rate:	-57.231	Roll:	-8.134	Pitch:	-26.161	Yaw:	16.206	Thrust:	87.333
Time:	1.732	Roll Set Point:	-0.064	Pitch Set Point:	1.775	Yaw Set Point:	-0.080	X_WP:	0.000	Y_WP:	0.000	Y_WP:	0.750	X:	0.068	Y:	-0.886	Z:	0.403	yaw:	4.605	yaw rate:	8.469	Roll:	1.027	Pitch:	-26.516	Yaw:	7.333	Thrust:	90.188
Time:	1.753	Roll Set Point:	-0.072	Pitch Set Point:	1.775	Yaw Set Point:	-0.072	X_WP:	0.000	Y_WP:	0.000	Y_WP:	0.750	X:	0.068	Y:	-0.886	Z:	0.403	yaw:	4.136	yaw rate:	46.899	Roll:	6.675	Pitch:	-26.877	Yaw:	1.898	Thrust:	89.250
Time:	1.773	Roll Set Point:	-0.065	Pitch Set Point:	1.775	Yaw Set Point:	-0.080	X_WP:	0.000	Y_WP:	0.000	Y_WP:	0.750	X:	0.068	Y:	-0.886	Z:	0.403	yaw:	4.587	yaw rate:	-45.088	Roll:	-6.090	Pitch:	-26.403	Yaw:	14.474	Thrust:	92.257
Time:	1.793	Roll Set Point:	-0.063	Pitch Set Point:	1.775	Yaw Set Point:	-0.081	X_WP:	0.000	Y_WP:	0.000	Y_WP:	0.750	X:	0.068	Y:	-0.886	Z:	0.403	yaw:	4.656	yaw rate:	-6.879	Roll:	-1.307	Pitch:	-26.317	Yaw:	9.466	Thrust:	96.833
Time:	1.812	Roll Set Point:	-0.073	Pitch Set Point:	1.775	Yaw Set Point:	-0.071	X_WP:	0.000	Y_WP:	0.000	Y_WP:	0.750	X:	0.068	Y:	-0.886	Z:	0.403	yaw:	4.047	yaw rate:	60.826	Roll:	8.879	Pitch:	-26.691	Yaw:	-0.677	Thrust:	86.627
Time:	1.833	Roll Set Point:	-0.073	Pitch Set Point:	1.775	Yaw Set Point:	-0.071	X_WP:	0.000	Y_WP:	0.000	Y_WP:	0.750	X:	0.068	Y:	-0.886	Z:	0.403	yaw:	4.050	yaw rate:	-0.287	Roll:	0.109	Pitch:	-26.552	Yaw:	7.701	Thrust:	98.355
Time:	1.853	Roll Set Point:	-0.064	Pitch Set Point:	1.775	Yaw Set Point:	-0.081	X_WP:	0.000	Y_WP:	0.000	Y_WP:	0.750	X:	0.068	Y:	-0.886	Z:	0.403	yaw:	4.628	yaw rate:	-57.817	Roll:	-7.998	Pitch:	-26.326	Yaw:	16.250	Thrust:	92.181
Time:	1.872	Roll Set Point:	-0.074	Pitch Set Point:	1.775	Yaw Set Point:	-0.070	X_WP:	0.000	Y_WP:	0.000	Y_WP:	0.750	X:	0.068	Y:	-0.886	Z:	0.403	yaw:	3.997	yaw rate:	63.102	Roll:	8.608	Pitch:	-26.704	Yaw:	-0.376	Thrust:	97.834
Time:	1.892	Roll Set Point:	-0.073	Pitch Set Point:	1.775	Yaw Set Point:	-0.071	X_WP:	0.000	Y_WP:	0.000	Y_WP:	0.750	X:	0.068	Y:	-0.886	Z:	0.403	yaw:	4.095	yaw rate:	-9.770	Roll:	-0.903	Pitch:	-26.684	Yaw:	8.967	Thrust:	93.023
Time:	1.911	Roll Set Point:	-0.073	Pitch Set Point:	1.775	Yaw Set Point:	-0.072	X_WP:	0.000	Y_WP:	0.000	Y_WP:	0.750	X:	0.068	Y:	-0.886	Z:	0.403	yaw:	4.105	yaw rate:	-0.993	Roll:	-0.019	Pitch:	-26.538	Yaw:	7.875	Thrust:	97.926
Time:	1.932	Roll Set Point:	-0.064	Pitch Set Point:	1.775	Yaw Set Point:	-0.081	X_WP:	0.000	Y_WP:	0.000	Y_WP:	0.750	X:	0.068	Y:	-0.886	Z:	0.403	yaw:	4.613	yaw rate:	-50.816	Roll:	-6.962	Pitch:	-26.171	Yaw:	15.035	Thrust:	97.574
Time:	1.951	Roll Set Point:	-0.073	Pitch Set Point:	1.775	Yaw Set Point:	-0.071	X_WP:	0.000	Y_WP:	0.000	Y_WP:	0.750	X:	0.068	Y:	-0.886	Z:	0.403	yaw:	4.053	yaw rate:	55.980	Roll:	7.605	Pitch:	-26.703	Yaw:	0.181	Thrust:	99.658
Time:	1.972	Roll Set Point:	-0.073	Pitch Set Point:	1.775	Yaw Set Point:	-0.071	X_WP:	0.000	Y_WP:	0.000	Y_WP:	0.750	X:	0.068	Y:	-0.886	Z:	0.403	yaw:	4.063	yaw rate:	-0.966	Roll:	0.033	Pitch:	-26.549	Yaw:	7.818	Thrust:	100.000
Time:	1.994	Roll Set Point:	-0.064	Pitch Set Point:	1.775	Yaw Set Point:	-0.080	X_WP:	0.000	Y_WP:	0.000	Y_WP:	0.750	X:	0.068	Y:	-0.886	Z:	0.403	yaw:	4.585	yaw rate:	-52.186	Roll:	-6.480	Pitch:	-26.404	Yaw:	14.792	Thrust:	100.000
Time:	2.012	Roll Set Point:	-0.063	Pitch Set Point:	1.775	Yaw Set Point:	-0.081	X_WP:	0.000	Y_WP:	0.000	Y_WP:	0.750	X:	0.068	Y:	-0.886	Z:	0.403	yaw:	4.654	yaw rate:	-6.931	Roll:	-1.176	Pitch:	-26.454	Yaw:	9.314	Thrust:	94.049
Time:	2.033	Roll Set Point:	-0.063	Pitch Set Point:	1.775	Yaw Set Point:	-0.081	X_WP:	0.000	Y_WP:	0.000	Y_WP:	0.750	X:	0.068	Y:	-0.886	Z:	0.403	yaw:	4.643	yaw rate:	1.128	Roll:	0.016	Pitch:	-26.547	Yaw:	8.509	Thrust:	100.000
Time:	2.055	Roll Set Point:	-0.064	Pitch Set Point:	1.775	Yaw Set Point:	-0.081	X_WP:	0.000	Y_WP:	0.000	Y_WP:	0.750	X:	0.068	Y:	-0.886	Z:	0.403	yaw:	4.627	yaw rate:	1.622	Roll:	0.117	Pitch:	-26.541	Yaw:	8.255	Thrust:	100.000
Time:	2.072	Roll Set Point:	-0.072	Pitch Set Point:	1.775	Yaw Set Point:	-0.072	X_WP:	0.000	Y_WP:	0.000	Y_WP:	0.750	X:	0.068	Y:	-0.886	Z:	0.403	yaw:	4.120	yaw rate:	50.661	Roll:	7.278	Pitch:	-26.819	Yaw:	0.337	Thrust:	96.444
Time:	2.093	Roll Set Point:	-0.073	Pitch Set Point:	1.775	Yaw Set Point:	-0.071	X_WP:	0.000	Y_WP:	0.000	Y_WP:	0.750	X:	0.068	Y:	-0.886	Z:	0.403	yaw:	4.079	yaw rate:	4.064	Roll:	0.650	Pitch:	-26.591	Yaw:	7.288	Thrust:	100.000
Time:	2.111	Roll Set Point:	-0.066	Pitch Set Point:	1.775	Yaw Set Point:	-0.079	X_WP:	0.000	Y_WP:	0.000	Y_WP:	0.750	X:	0.068	Y:	-0.886	Z:	0.403	yaw:	4.544	yaw rate:	-46.466	Roll:	-6.985	Pitch:	-26.360	Yaw:	14.760	Thrust:	99.488
Time:	2.131	Roll Set Point:	-0.072	Pitch Set Point:	1.775	Yaw Set Point:	-0.072	X_WP:	0.000	Y_WP:	0.000	Y_WP:	0.750	X:	0.068	Y:	-0.886	Z:	0.403	yaw:	4.131	yaw rate:	41.323	Roll:	5.551	Pitch:	-26.626	Yaw:	2.326	Thrust:	100.000
Time:	2.152	Roll Set Point:	-0.065	Pitch Set Point:	1.775	Yaw Set Point:	-0.079	X_WP:	0.000	Y_WP:	0.000	Y_WP:	0.750	X:	0.068	Y:	-0.886	Z:	0.403	yaw:	4.554	yaw rate:	-42.325	Roll:	-5.852	Pitch:	-26.364	Yaw:	13.854	Thrust:	100.000
Time:	2.172	Roll Set Point:	-0.072	Pitch Set Point:	1.775	Yaw Set Point:	-0.072	X_WP:	0.000	Y_WP:	0.000	Y_WP:	0.750	X:	0.068	Y:	-0.886	Z:	0.403	yaw:	4.098	yaw rate:	45.642	Roll:	5.859	Pitch:	-26.526	Yaw:	1.750	Thrust:	100.000
Time:	2.194	Roll Set Point:	-0.073	Pitch Set Point:	1.775	Yaw Set Point:	-0.072	X_WP:	0.000	Y_WP:	0.000	Y_WP:	0.750	X:	0.068	Y:	-0.886	Z:	0.403	yaw:	4.113	yaw rate:	-1.518	Roll:	0.175	Pitch:	-26.762	Yaw:	8.123	Thrust:	100.000
Time:	2.212	Roll Set Point:	-0.063	Pitch Set Point:	1.775	Yaw Set Point:	-0.081	X_WP:	0.000	Y_WP:	0.000	Y_WP:	0.750	X:	0.068	Y:	-0.886	Z:	0.403	yaw:	4.643	yaw rate:	-53.022	Roll:	-8.293	Pitch:	-26.113	Yaw:	15.785	Thrust:	100.000
Time:	2.233	Roll Set Point:	-0.063	Pitch Set Point:	1.775	Yaw Set Point:	-0.081	X_WP:	0.000	Y_WP:	0.000	Y_WP:	0.750	X:	0.068	Y:	-0.886	Z:	0.403	yaw:	4.662	yaw rate:	-1.855	Roll:	-0.365	Pitch:	-26.500	Yaw:	8.742	Thrust:	100.000
Time:	2.257	Roll Set Point:	-0.073	Pitch Set Point:	1.775	Yaw Set Point:	-0.071	X_WP:	0.000	Y_WP:	0.000	Y_WP:	0.750	X:	0.068	Y:	-0.886	Z:	0.403	yaw:	4.086	yaw rate:	57.517	Roll:	7.131	Pitch:	-26.970	Yaw:	1.612	Thrust:	100.000
Time:	2.273	Roll Set Point:	-0.066	Pitch Set Point:	1.775	Yaw Set Point:	-0.079	X_WP:	0.000	Y_WP:	0.000	Y_WP:	0.750	X:	0.068	Y:	-0.886	Z:	0.403	yaw:	4.544	yaw rate:	-45.787	Roll:	-7.064	Pitch:	-26.243	Yaw:	14.909	Thrust:	100.000
Time:	2.292	Roll Set Point:	-0.064	Pitch Set Point:	1.775	Yaw Set Point:	-0.081	X_WP:	0.000	Y_WP:	0.000	Y_WP:	0.750	X:	0.068	Y:	-0.886	Z:	0.403	yaw:	4.622	yaw rate:	-7.722	Roll:	-1.495	Pitch:	-26.270	Yaw:	9.426	Thrust:	100.000
Time:	2.316	Roll Set Point:	-0.063	Pitch Set Point:	1.775	Yaw Set Point:	-0.081	X_WP:	0.000	Y_WP:	0.000	Y_WP:	0.750	X:	0.068	Y:	-0.886	Z:	0.403	yaw:	4.644	yaw rate:	-2.285	Roll:	-0.368	Pitch:	-26.658	Yaw:	9.041	Thrust:	100.000
Time:	2.331	Roll Set Point:	-0.072	Pitch Set Point:	1.775	Yaw Set Point:	-0.072	X_WP:	0.000	Y_WP:	0.000	Y_WP:	0.750	X:	0.068	Y:	-0.886	Z:	0.403	yaw:	4.118	yaw rate:	52.591	Roll:	9.818	Pitch:	-26.821	Yaw:	-1.468	Thrust:	93.828
Time:	2.351	Roll Set Point:	-0.072	Pitch Set Point:	1.775	Yaw Set Point:	-0.072	X_WP:	0.000	Y_WP:	0.000	Y_WP:	0.750	X:	0.068	Y:	-0.886	Z:	0.403	yaw:	4.144	yaw rate:	-2.561	Roll:	-0.205	Pitch:	-26.534	Yaw:	8.124	Thrust:	100.000
Time:	2.372	Roll Set Point:	-0.073	Pitch Set Point:	1.775	Yaw Set Point:	-0.071	X_WP:	0.000	Y_WP:	0.000	Y_WP:	0.750	X:	0.068	Y:	-0.886	Z:	0.403	yaw:	4.066	yaw rate:	7.818	Roll:	1.161	Pitch:	-26.502	Yaw:	6.658	Thrust:	100.000
Time:	2.392	Roll Set Point:	-0.063	Pitch Set Point:	1.775	Yaw Set Point:	-0.082	X_WP:	0.000	Y_WP:	0.000	Y_WP:	0.750	X:	0.068	Y:	-0.886	Z:	0.403	yaw:	4.683	yaw rate:	-61.724	Roll:	-8.580	Pitch:	-26.203	Yaw:	16.394	Thrust:	100.000
Time:	2.411	Roll Set Point:	-0.073	Pitch Set Point:	1.775	Yaw Set Point:	-0.072	X_WP:	0.000	Y_WP:	0.000	Y_WP:	0.750	X:	0.068	Y:	-0.886	Z:	0.403	yaw:	4.115	yaw rate:	56.783	Roll:	8.527	Pitch:	-26.889	Yaw:	-0.019	Thrust:	100.000
Time:	2.431	Roll Set Point:	-0.064	Pitch Set Point:	1.775	Yaw Set Point:	-0.080	X_WP:	0.000	Y_WP:	0.000	Y_WP:	0.750	X:	0.068	Y:	-0.886	Z:	0.403	yaw:	4.601	yaw rate:	-48.564	Roll:	-6.691	Pitch:	-26.160	Yaw:	14.728	Thrust:	100.000
Time:	2.451	Roll Set Point:	-0.063	Pitch Set Point:	1.775	Yaw Set Point:	-0.081	X_WP:	0.000	Y_WP:	0.000	Y_WP:	0.750	X:	0.068	Y:	-0.886	Z:	0.403	yaw:	4.638	yaw rate:	-3.712	Roll:	-0.638	Pitch:	-26.484	Yaw:	8.949	Thrust:	100.000
Time:	2.471	Roll Set Point:	-0.073	Pitch Set Point:	1.775	Yaw Set Point:	-0.071	X_WP:	0.000	Y_WP:	0.000	Y_WP:	0.750	X:	0.068	Y:	-0.886	Z:	0.403	yaw:	4.048	yaw rate:	58.974	Roll:	7.654	Pitch:	-26.755	Yaw:	0.017	Thrust:	100.000
Time:	2.491	Roll Set Point:	-0.064	Pitch Set Point:	1.775	Yaw Set Point:	-0.081	X_WP:	0.000	Y_WP:	0.000	Y_WP:	0.750	X:	0.068	Y:	-0.886	Z:	0.403	yaw:	4.629	yaw rate:	-58.025	Roll:	-8.426	Pitch:	-26.293	Yaw:	16.256	Thrust:	100.000
Time:	2.512	Roll Set Point:	-0.073	Pitch Set Point:	1.775	Yaw Set Point:	-0.071	X_WP:	0.000	Y_WP:	0.000	Y_WP:	0.750	X:	0.068	Y:	-0.886	Z:	0.403	yaw:	4.053	yaw rate:	57.552	Roll:	8.029	Pitch:	-26.774	Yaw:	0.505	Thrust:	100.000
Time:	2.532	Roll Set Point:	-0.073	Pitch Set Point:	1.775	Yaw Set Point:	-0.071	X_WP:	0.000	Y_WP:	0.000	Y_WP:	0.750	X:	0.068	Y:	-0.886	Z:	0.403	yaw:	4.094	yaw rate:	-4.086	Roll:	-0.384	Pitch:	-26.647	Yaw:	8.279	Thrust:	100.000
Time:	2.551	Roll Set Point:	-0.073	Pitch Set Point:	1.775	Yaw Set Point:	-0.071	X_WP:	0.000	Y_WP:	0.000	Y_WP:	0.750	X:	0.068	Y:	-0.886	Z:	0.403	yaw:	4.057	yaw rate:	3.667	Roll:	0.393	Pitch:	-26.344	Yaw:	7.038	Thrust:	100.000
Time:	2.571	Roll Set Point:	-0.063	Pitch Set Point:	1.775	Yaw Set Point:	-0.081	X_WP:	0.000	Y_WP:	0.000	Y_WP:	0.750	X:	0.068	Y:	-0.886	Z:	0.403	yaw:	4.641	yaw rate:	-58.363	Roll:	-7.966	Pitch:	-26.325	Yaw:	15.964	Thrust:	100.000
Time:	2.592	Roll Set Point:	-0.063	Pitch Set Point:	1.775	Yaw Set Point:	-0.081	X_WP:	0.000	Y_WP:	0.000	Y_WP:	0.750	X:	0.068	Y:	-0.886	Z:	0.403	yaw:	4.650	yaw rate:	-0.868	Roll:	-0.247	Pitch:	-26.537	Yaw:	8.624	Thrust:	100.000
Time:	2.611	Roll Set Point:	-0.064	Pitch Set Point:	1.775	Yaw Set Point:	-0.081	X_WP:	0.000	Y_WP:	0.000	Y_WP:	0.750	X:	0.068	Y:	-0.886	Z:	0.403	yaw:	4.623	yaw rate:	2.702	Roll:	0.232	Pitch:	-26.476	Yaw:	8.025	Thrust:	100.000
Time:	2.632	Roll Set Point:	-0.064	Pitch Set Point:	1.775	Yaw Set Point:	-0.081	X_WP:	0.000	Y_WP:	0.000	Y_WP:	0.750	X:	0.068	Y:	-0.886	Z:	0.403	yaw:	4.628	yaw rate:	-0.582	Roll:	-0.166	Pitch:	-26.559	Yaw:	8.607	Thrust:	100.000
Time:	2.651	Roll Set Point:	-0.073	Pitch Set Point:	1.775	Yaw Set Point:	-0.072	X_WP:	0.000	Y_WP:	0.000	Y_WP:	0.750	X:	0.068	Y:	-0.886	Z:	0.403	yaw:	4.099	yaw rate:	52.903	Roll:	7.770	Pitch:	-26.847	Yaw:	0.732	Thrust:	100.000
Time:	2.672	Roll Set Point:	-0.063	Pitch Set Point:	1.775	Yaw Set Point:	-0.081	X_WP:	0.000	Y_WP:	0.000	Y_WP:	0.750	X:	0.068	Y:	-0.886	Z:	0.403	yaw:	4.652	yaw rate:	-55.303	Roll:	-7.448	Pitch:	-26.253	Yaw:	15.582	Thrust:	100.000
Time:	2.691	Roll Set Point:	-0.064	Pitch Set Point:	1.775	Yaw Set Point:	-0.081	X_WP:	0.000	Y_WP:	0.000	Y_WP:	0.750	X:	0.068	Y:	-0.886	Z:	0.403	yaw:	4.630	yaw rate:	2.212	Roll:	0.194	Pitch:	-26.494	Yaw:	8.079	Thrust:	100.000
Time:	2.711	Roll Set Point:	-0.073	Pitch Set Point:	1.775	Yaw Set Point:	-0.071	X_WP:	0.000	Y_WP:	0.000	Y_WP:	0.750	X:	0.068	Y:	-0.886	Z:	0.403	yaw:	4.058	yaw rate:	57.194	Roll:	8.392	Pitch:	-26.849	Yaw:	0.093	Thrust:	100.000
Time:	2.732	Roll Set Point:	-0.063	Pitch Set Point:	1.775	Yaw Set Point:	-0.081	X_WP:	0.000	Y_WP:	0.000	Y_WP:	0.750	X:	0.068	Y:	-0.886	Z:	0.403	yaw:	4.656	yaw rate:	-59.762	Roll:	-7.960	Pitch:	-26.236	Yaw:	16.134	Thrust:	100.000
Time:	2.751	Roll Set Point:	-0.064	Pitch Set Point:	1.775	Yaw Set Point:	-0.080	X_WP:	0.000	Y_WP:	0.000	Y_WP:	0.750	X:	0.068	Y:	-0.886	Z:	0.403	yaw:	4.604	yaw rate:	5.163	Roll:	0.597	Pitch:	-26.517	Yaw:	7.633	Thrust:	100.000
Time:	2.771	Roll Set Point:	-0.064	Pitch Set Point:	1.775	Yaw Set Point:	-0.081	X_WP:	0.000	Y_WP:	0.000	Y_WP:	0.750	X:	0.068	Y:	-0.886	Z:	0.403	yaw:	4.617	yaw rate:	-1.300	Roll:	-0.268	Pitch:	-26.545	Yaw:	8.633	Thrust:	100.000
Time:	2.791	Roll Set Point:	-0.063	Pitch Set Point:	1.775	Yaw Set Point:	-0.081	X_WP:	0.000	Y_WP:	0.000	Y_WP:	0.750	X:	0.068	Y:	-0.886	Z:	0.403	yaw:	4.642	yaw rate:	-2.509	Roll:	-0.477	Pitch:	-26.515	Yaw:	8.827	Thrust:	100.000
Time:	2.811	Roll Set Point:	-0.064	Pitch Set Point:	1.775	Yaw Set Point:	-0.080	X_WP:	0.000	Y_WP:	0.000	Y_WP:	0.750	X:	0.068	Y:	-0.886	Z:	0.403	yaw:	4.604	yaw rate:	3.818	Roll:	0.407	Pitch:	-26.465	Yaw:	7.936	Thrust:	100.000
Time:	2.831	Roll Set Point:	-0.073	Pitch Set Point:	1.775	Yaw Set Point:	-0.072	X_WP:	0.000	Y_WP:	0.000	Y_WP:	0.750	X:	0.068	Y:	-0.886	Z:	0.403	yaw:	4.097	yaw rate:	50.682	Roll:	7.028	Pitch:	-26.899	Yaw:	1.122	Thrust:	100.000
Time:	2.851	Roll Set Point:	-0.065	Pitch Set Point:	1.775	Yaw Set Point:	-0.080	X_WP:	0.000	Y_WP:	0.000	Y_WP:	0.750	X:	0.068	Y:	-0.886	Z:	0.403	yaw:	4.585	yaw rate:	-48.783	Roll:	-6.765	Pitch:	-26.380	Yaw:	14.777	Thrust:	100.000
Time:	2.871	Roll Set Point:	-0.063	Pitch Set Point:	1.775	Yaw Set Point:	-0.081	X_WP:	0.000	Y_WP:	0.000	Y_WP:	0.750	X:	0.068	Y:	-0.886	Z:	0.403	yaw:	4.642	yaw rate:	-5.720	Roll:	-1.167	Pitch:	-26.296	Yaw:	9.196	Thrust:	100.000
Time:	2.892	Roll Set Point:	-0.063	Pitch Set Point:	1.775	Yaw Set Point:	-0.082	X_WP:	0.000	Y_WP:	0.000	Y_WP:	0.750	X:	0.068	Y:	-0.886	Z:	0.403	yaw:	4.684	yaw rate:	-4.194	Roll:	-0.678	Pitch:	-26.558	Yaw:	9.199	Thrust:	100.000
Time:	2.911	Roll Set Point:	-0.073	Pitch Set Point:	1.775	Yaw Set Point:	-0.071	X_WP:	0.000	Y_WP:	0.000	Y_WP:	0.750	X:	0.068	Y:	-0.886	Z:	0.403	yaw:	4.070	yaw rate:	61.405	Roll:	9.402	Pitch:	-26.894	Yaw:	-0.900	Thrust:	100.000
Time:	2.932	Roll Set Point:	-0.073	Pitch Set Point:	1.775	Yaw Set Point:	-0.071	X_WP:	0.000	Y_WP:	0.000	Y_WP:	0.750	X:	0.068	Y:	-0.886	Z:	0.403	yaw:	4.072	yaw rate:	-0.181	Roll:	0.111	Pitch:	-26.505	Yaw:	7.751	Thrust:	100.000
Time:	2.951	Roll Set Point:	-0.065	Pitch Set Point:	1.775	Yaw Set Point:	-0.080	X_WP:	0.000	Y_WP:	0.000	Y_WP:	0.750	X:	0.068	Y:	-0.886	Z:	0.403	yaw:	4.561	yaw rate:	-48.883	Roll:	-6.873	Pitch:	-26.367	Yaw:	15.050	Thrust:	100.000
Time:	2.971	Roll Set Point:	-0.073	Pitch Set Point:	1.775	Yaw Set Point:	-0.071	X_WP:	0.000	Y_WP:	0.000	Y_WP:	0.750	X:	0.068	Y:	-0.886	Z:	0.403	yaw:	4.039	yaw rate:	52.153	Roll:	6.741	Pitch:	-26.550	Yaw:	1.242	Thrust:	100.000
Time:	2.991	Roll Set Point:	-0.073	Pitch Set Point:	1.775	Yaw Set Point:	-0.072	X_WP:	0.000	Y_WP:	0.000	Y_WP:	0.750	X:	0.068	Y:	-0.886	Z:	0.403	yaw:	4.112	yaw rate:	-7.231	Roll:	-0.613	Pitch:	-26.635	Yaw:	8.669	Thrust:	100.000
Time:	3.010	Roll Set Point:	-0.063	Pitch Set Point:	1.775	Yaw Set Point:	-0.081	X_WP:	0.000	Y_WP:	0.000	Y_WP:	0.750	X:	0.068	Y:	-0.886	Z:	0.403	yaw:	4.634	yaw rate:	-52.252	Roll:	-7.497	Pitch:	-26.168	Yaw:	15.501	Thrust:	100.000
Time:	3.032	Roll Set Point:	-0.063	Pitch Set Point:	1.775	Yaw Set Point:	-0.081	X_WP:	0.000	Y_WP:	0.000	Y_WP:	0.750	X:	0.068	Y:	-0.886	Z:	0.403	yaw:	4.668	yaw rate:	-3.341	Roll:	-0.571	Pitch:	-26.555	Yaw:	9.006	Thrust:	100.000
Time:	3.051	Roll Set Point:	-0.063	Pitch Set Point:	1.775	Yaw Set Point:	-0.081	X_WP:	0.000	Y_WP:	0.000	Y_WP:	0.750	X:	0.068	Y:	-0.886	Z:	0.403	yaw:	4.636	yaw rate:	3.117	Roll:	0.287	Pitch:	-26.534	Yaw:	8.111	Thrust:	100.000
Time:	3.072	Roll Set Point:	-0.064	Pitch Set Point:	1.775	Yaw Set Point:	-0.081	X_WP:	0.000	Y_WP:	0.000	Y_WP:	0.750	X:	0.068	Y:	-0.886	Z:	0.403	yaw:	4.626	yaw rate:	1.042	Roll:	0.033	Pitch:	-26.526	Yaw:	8.349	Thrust:	100.000
Time:	3.092	Roll Set Point:	-0.073	Pitch Set Point:	1.775	Yaw Set Point:	-0.071	X_WP:	0.000	Y_WP:	0.000	Y_WP:	0.750	X:	0.068	Y:	-0.886	Z:	0.403	yaw:	4.068	yaw rate:	55.858	Roll:	7.283	Pitch:	-26.721	Yaw:	0.626	Thrust:	100.000
Time:	3.111	Roll Set Point:	-0.064	Pitch Set Point:	1.775	Yaw Set Point:	-0.080	X_WP:	0.000	Y_WP:	0.000	Y_WP:	0.750	X:	0.068	Y:	-0.886	Z:	0.403	yaw:	4.596	yaw rate:	-52.881	Roll:	-8.139	Pitch:	-26.283	Yaw:	15.655	Thrust:	100.000
Time:	3.132	Roll Set Point:	-0.072	Pitch Set Point:	1.775	Yaw Set Point:	-0.071	X_WP:	0.000	Y_WP:	0.000	Y_WP:	0.750	X:	0.068	Y:	-0.886	Z:	0.403	yaw:	4.084	yaw rate:	51.217	Roll:	6.621	Pitch:	-26.714	Yaw:	1.342	Thrust:	100.000
Time:	3.152	Roll Set Point:	-0.064	Pitch Set Point:	1.775	Yaw Set Point:	-0.081	X_WP:	0.000	Y_WP:	0.000	Y_WP:	0.750	X:	0.068	Y:	-0.886	Z:	0.403	yaw:	4.623	yaw rate:	-53.928	Roll:	-7.677	Pitch:	-26.311	Yaw:	15.873	Thrust:	100.000
Time:	3.172	Roll Set Point:	-0.064	Pitch Set Point:	1.775	Yaw Set Point:	-0.080	X_WP:	0.000	Y_WP:	0.000	Y_WP:	0.750	X:	0.068	Y:	-0.886	Z:	0.403	yaw:	4.599	yaw rate:	2.443	Roll:	0.165	Pitch:	-26.523	Yaw:	8.276	Thrust:	100.000
Time:	3.192	Roll Set Point:	-0.063	Pitch Set Point:	1.775	Yaw Set Point:	-0.081	X_WP:	0.000	Y_WP:	0.000	Y_WP:	0.750	X:	0.068	Y:	-0.886	Z:	0.403	yaw:	4.657	yaw rate:	-5.831	Roll:	-0.888	Pitch:	-26.556	Yaw:	9.273	Thrust:	100.000
Time:	3.210	Roll Set Point:	-0.063	Pitch Set Point:	1.775	Yaw Set Point:	-0.081	X_WP:	0.000	Y_WP:	0.000	Y_WP:	0.750	X:	0.068	Y:	-0.886	Z:	0.403	yaw:	4.649	yaw rate:	0.797	Roll:	-0.033	Pitch:	-26.468	Yaw:	8.206	Thrust:	100.000
Time:	3.231	Roll Set Point:	-0.073	Pitch Set Point:	1.775	Yaw Set Point:	-0.070	X_WP:	0.000	Y_WP:	0.000	Y_WP:	0.750	X:	0.068	Y:	-0.886	Z:	0.403	yaw:	4.036	yaw rate:	61.305	Roll:	8.271	Pitch:	-26.699	Yaw:	-0.003	Thrust:	100.000
Time:	3.252	Roll Set Point:	-0.072	Pitch Set Point:	1.775	Yaw Set Point:	-0.072	X_WP:	0.000	Y_WP:	0.000	Y_WP:	0.750	X:	0.068	Y:	-0.886	Z:	0.403	yaw:	4.121	yaw rate:	-8.452	Roll:	-0.749	Pitch:	-26.681	Yaw:	8.872	Thrust:	100.000
Time:	3.272	Roll Set Point:	-0.073	Pitch Set Point:	1.775	Yaw Set Point:	-0.071	X_WP:	0.000	Y_WP:	0.000	Y_WP:	0.750	X:	0.068	Y:	-0.886	Z:	0.403	yaw:	4.066	yaw rate:	5.478	Roll:	0.858	Pitch:	-26.574	Yaw:	6.971	Thrust:	100.000
Time:	3.293	Roll Set Point:	-0.065	Pitch Set Point:	1.775	Yaw Set Point:	-0.080	X_WP:	0.000	Y_WP:	0.000	Y_WP:	0.750	X:	0.068	Y:	-0.886	Z:	0.403	yaw:	4.595	yaw rate:	-52.855	Roll:	-6.772	Pitch:	-26.432	Yaw:	15.048	Thrust:	100.000
Time:	3.311	Roll Set Point:	-0.064	Pitch Set Point:	1.775	Yaw Set Point:	-0.081	X_WP:	0.000	Y_WP:	0.000	Y_WP:	0.750	X:	0.068	Y:	-0.886	Z:	0.403	yaw:	4.623	yaw rate:	-2.837	Roll:	-0.843	Pitch:	-26.232	Yaw:	8.681	Thrust:	100.000
Time:	3.331	Roll Set Point:	-0.072	Pitch Set Point:	1.775	Yaw Set Point:	-0.072	X_WP:	0.000	Y_WP:	0.000	Y_WP:	0.750	X:	0.068	Y:	-0.886	Z:	0.403	yaw:	4.121	yaw rate:	50.214	Roll:	7.281	Pitch:	-26.918	Yaw:	1.267	Thrust:	100.000
Time:	3.351	Roll Set Point:	-0.073	Pitch Set Point:	1.775	Yaw Set Point:	-0.071	X_WP:	0.000	Y_WP:	0.000	Y_WP:	0.750	X:	0.068	Y:	-0.886	Z:	0.403	yaw:	4.091	yaw rate:	2.959	Roll:	0.517	Pitch:	-26.505	Yaw:	7.269	Thrust:	100.000
Time:	3.371	Roll Set Point:	-0.063	Pitch Set Point:	1.775	Yaw Set Point:	-0.081	X_WP:	0.000	Y_WP:	0.000	Y_WP:	0.750	X:	0.068	Y:	-0.886	Z:	0.403	yaw:	4.639	yaw rate:	-54.815	Roll:	-7.745	Pitch:	-26.149	Yaw:	15.634	Thrust:	100.000
Time:	3.392	Roll Set Point:	-0.064	Pitch Set Point:	1.775	Yaw Set Point:	-0.081	X_WP:	0.000	Y_WP:	0.000	Y_WP:	0.750	X:	0.068	Y:	-0.886	Z:	0.403	yaw:	4.628	yaw rate:	1.092	Roll:	0.030	Pitch:	-26.570	Yaw:	8.455	Thrust:	100.000
Time:	3.411	Roll Set Point:	-0.072	Pitch Set Point:	1.775	Yaw Set Point:	-0.072	X_WP:	0.000	Y_WP:	0.000	Y_WP:	0.750	X:	0.068	Y:	-0.886	Z:	0.403	yaw:	4.112	yaw rate:	51.692	Roll:	7.393	Pitch:	-26.690	Yaw:	0.106	Thrust:	100.000
Time:	3.431	Roll Set Point:	-0.063	Pitch Set Point:	1.775	Yaw Set Point:	-0.081	X_WP:	0.000	Y_WP:	0.000	Y_WP:	0.750	X:	0.068	Y:	-0.886	Z:	0.403	yaw:	4.635	yaw rate:	-52.312	Roll:	-7.027	Pitch:	-26.356	Yaw:	15.094	Thrust:	100.000
Time:	3.450	Roll Set Point:	-0.064	Pitch Set Point:	1.775	Yaw Set Point:	-0.081	X_WP:	0.000	Y_WP:	0.000	Y_WP:	0.750	X:	0.068	Y:	-0.886	Z:	0.403	yaw:	4.622	yaw rate:	1.214	Roll:	0.056	Pitch:	-26.483	Yaw:	8.198	Thrust:	100.000
Time:	3.471	Roll Set Point:	-0.066	Pitch Set Point:	1.775	Yaw Set Point:	-0.079	X_WP:	0.000	Y_WP:	0.000	Y_WP:	0.750	X:	0.068	Y:	-0.886	Z:	0.403	yaw:	4.547	yaw rate:	7.591	Roll:	1.185	Pitch:	-26.780	Yaw:	7.516	Thrust:	100.000
Time:	3.492	Roll Set Point:	-0.063	Pitch Set Point:	1.775	Yaw Set Point:	-0.081	X_WP:	0.000	Y_WP:	0.000	Y_WP:	0.750	X:	0.068	Y:	-0.886	Z:	0.403	yaw:	4.645	yaw rate:	-9.855	Roll:	-1.662	Pitch:	-26.335	Yaw:	9.807	Thrust:	100.000
Time:	3.511	Roll Set Point:	-0.072	Pitch Set Point:	1.775	Yaw Set Point:	-0.072	X_WP:	0.000	Y_WP:	0.000	Y_WP:	0.750	X:	0.068	Y:	-0.886	Z:	0.403	yaw:	4.128	yaw rate:	51.743	Roll:	8.008	Pitch:	-26.797	Yaw:	-0.056	Thrust:	100.000
Time:	3.531	Roll Set Point:	-0.063	Pitch Set Point:	1.775	Yaw Set Point:	-0.081	X_WP:	0.000	Y_WP:	0.000	Y_WP:	0.750	X:	0.068	Y:	-0.886	Z:	0.403	yaw:	4.662	yaw rate:	-53.471	Roll:	-7.362	Pitch:	-26.271	Yaw:	15.250	Thrust:	100.000
Time:	3.555	Roll Set Point:	-0.072	Pitch Set Point:	1.775	Yaw Set Point:	-0.072	X_WP:	0.000	Y_WP:	0.000	Y_WP:	0.750	X:	0.068	Y:	-0.886	Z:	0.403	yaw:	4.125	yaw rate:	53.741	Roll:	6.878	Pitch:	-26.924	Yaw:	2.169	Thrust:	100.000
Time:	3.571	Roll Set Point:	-0.073	Pitch Set Point:	1.775	Yaw Set Point:	-0.071	X_WP:	0.000	Y_WP:	0.000	Y_WP:	0.750	X:	0.068	Y:	-0.886	Z:	0.403	yaw:	4.079	yaw rate:	4.639	Roll:	0.832	Pitch:	-26.427	Yaw:	6.564	Thrust:	100.000
Time:	3.593	Roll Set Point:	-0.073	Pitch Set Point:	1.775	Yaw Set Point:	-0.071	X_WP:	0.000	Y_WP:	0.000	Y_WP:	0.750	X:	0.068	Y:	-0.886	Z:	0.403	yaw:	4.074	yaw rate:	0.457	Roll:	-0.053	Pitch:	-26.419	Yaw:	7.802	Thrust:	100.000
Time:	3.611	Roll Set Point:	-0.072	Pitch Set Point:	1.775	Yaw Set Point:	-0.072	X_WP:	0.000	Y_WP:	0.000	Y_WP:	0.750	X:	0.068	Y:	-0.886	Z:	0.403	yaw:	4.122	yaw rate:	-4.792	Roll:	-0.307	Pitch:	-26.664	Yaw:	8.258	Thrust:	100.000
Time:	3.631	Roll Set Point:	-0.072	Pitch Set Point:	1.775	Yaw Set Point:	-0.072	X_WP:	0.000	Y_WP:	0.000	Y_WP:	0.750	X:	0.068	Y:	-0.886	Z:	0.403	yaw:	4.131	yaw rate:	-0.877	Roll:	0.006	Pitch:	-26.530	Yaw:	7.905	Thrust:	100.000
Time:	3.651	Roll Set Point:	-0.065	Pitch Set Point:	1.775	Yaw Set Point:	-0.080	X_WP:	0.000	Y_WP:	0.000	Y_WP:	0.750	X:	0.068	Y:	-0.886	Z:	0.403	yaw:	4.568	yaw rate:	-43.774	Roll:	-6.066	Pitch:	-26.397	Yaw:	14.076	Thrust:	100.000
Time:	3.672	Roll Set Point:	-0.065	Pitch Set Point:	1.775	Yaw Set Point:	-0.080	X_WP:	0.000	Y_WP:	0.000	Y_WP:	0.750	X:	0.068	Y:	-0.886	Z:	0.403	yaw:	4.599	yaw rate:	-3.036	Roll:	-0.488	Pitch:	-26.506	Yaw:	8.807	Thrust:	100.000
Time:	3.692	Roll Set Point:	-0.073	Pitch Set Point:	1.775	Yaw Set Point:	-0.071	X_WP:	0.000	Y_WP:	0.000	Y_WP:	0.750	X:	0.068	Y:	-0.886	Z:	0.403	yaw:	4.091	yaw rate:	50.764	Roll:	7.023	Pitch:	-26.711	Yaw:	1.423	Thrust:	100.000
Time:	3.711	Roll Set Point:	-0.073	Pitch Set Point:	1.775	Yaw Set Point:	-0.071	X_WP:	0.000	Y_WP:	0.000	Y_WP:	0.750	X:	0.068	Y:	-0.886	Z:	0.403	yaw:	4.053	yaw rate:	3.847	Roll:	0.394	Pitch:	-26.309	Yaw:	7.007	Thrust:	100.000
Time:	3.731	Roll Set Point:	-0.063	Pitch Set Point:	1.775	Yaw Set Point:	-0.082	X_WP:	0.000	Y_WP:	0.000	Y_WP:	0.750	X:	0.068	Y:	-0.886	Z:	0.403	yaw:	4.685	yaw rate:	-63.195	Roll:	-8.633	Pitch:	-26.348	Yaw:	16.661	Thrust:	100.000
Time:	3.751	Roll Set Point:	-0.064	Pitch Set Point:	1.775	Yaw Set Point:	-0.081	X_WP:	0.000	Y_WP:	0.000	Y_WP:	0.750	X:	0.068	Y:	-0.886	Z:	0.403	yaw:	4.623	yaw rate:	6.158	Roll:	0.701	Pitch:	-26.508	Yaw:	7.535	Thrust:	100.000
Time:	3.772	Roll Set Point:	-0.064	Pitch Set Point:	1.775	Yaw Set Point:	-0.081	X_WP:	0.000	Y_WP:	0.000	Y_WP:	0.750	X:	0.068	Y:	-0.886	Z:	0.403	yaw:	4.633	yaw rate:	-0.956	Roll:	-0.219	Pitch:	-26.559	Yaw:	8.686	Thrust:	100.000
Time:	3.791	Roll Set Point:	-0.063	Pitch Set Point:	1.775	Yaw Set Point:	-0.081	X_WP:	0.000	Y_WP:	0.000	Y_WP:	0.750	X:	0.068	Y:	-0.886	Z:	0.403	yaw:	4.645	yaw rate:	-1.220	Roll:	-0.306	Pitch:	-26.501	Yaw:	8.606	Thrust:	100.000
Time:	3.811	Roll Set Point:	-0.063	Pitch Set Point:	1.775	Yaw Set Point:	-0.082	X_WP:	0.000	Y_WP:	0.000	Y_WP:	0.750	X:	0.068	Y:	-0.886	Z:	0.403	yaw:	4.673	yaw rate:	-2.856	Roll:	-0.542	Pitch:	-26.473	Yaw:	8.865	Thrust:	100.000
Time:	3.832	Roll Set Point:	-0.072	Pitch Set Point:	1.775	Yaw Set Point:	-0.071	X_WP:	0.000	Y_WP:	0.000	Y_WP:	0.750	X:	0.068	Y:	-0.886	Z:	0.403	yaw:	4.083	yaw rate:	59.038	Roll:	7.908	Pitch:	-26.780	Yaw:	0.668	Thrust:	100.000
Time:	3.851	Roll Set Point:	-0.073	Pitch Set Point:	1.775	Yaw Set Point:	-0.072	X_WP:	0.000	Y_WP:	0.000	Y_WP:	0.750	X:	0.068	Y:	-0.886	Z:	0.403	yaw:	4.099	yaw rate:	-1.571	Roll:	0.173	Pitch:	-26.640	Yaw:	7.783	Thrust:	100.000
Time:	3.872	Roll Set Point:	-0.066	Pitch Set Point:	1.775	Yaw Set Point:	-0.079	X_WP:	0.000	Y_WP:	0.000	Y_WP:	0.750	X:	0.068	Y:	-0.886	Z:	0.403	yaw:	4.522	yaw rate:	-42.343	Roll:	-5.440	Pitch:	-26.424	Yaw:	13.662	Thrust:	100.000
Time:	3.894	Roll Set Point:	-0.073	Pitch Set Point:	1.775	Yaw Set Point:	-0.072	X_WP:	0.000	Y_WP:	0.000	Y_WP:	0.750	X:	0.068	Y:	-0.886	Z:	0.403	yaw:	4.107	yaw rate:	41.479	Roll:	5.452	Pitch:	-26.719	Yaw:	2.838	Thrust:	100.000
Time:	3.913	Roll Set Point:	-0.073	Pitch Set Point:	1.775	Yaw Set Point:	-0.071	X_WP:	0.000	Y_WP:	0.000	Y_WP:	0.750	X:	0.068	Y:	-0.886	Z:	0.403	yaw:	4.057	yaw rate:	4.993	Roll:	0.894	Pitch:	-26.510	Yaw:	6.854	Thrust:	100.000
Time:	3.934	Roll Set Point:	-0.063	Pitch Set Point:	1.775	Yaw Set Point:	-0.082	X_WP:	0.000	Y_WP:	0.000	Y_WP:	0.750	X:	0.068	Y:	-0.886	Z:	0.403	yaw:	4.683	yaw rate:	-62.568	Roll:	-7.941	Pitch:	-26.231	Yaw:	16.111	Thrust:	100.000
Time:	3.953	Roll Set Point:	-0.063	Pitch Set Point:	1.775	Yaw Set Point:	-0.081	X_WP:	0.000	Y_WP:	0.000	Y_WP:	0.750	X:	0.068	Y:	-0.886	Z:	0.403	yaw:	4.653	yaw rate:	3.004	Roll:	0.302	Pitch:	-26.460	Yaw:	7.933	Thrust:	100.000
Time:	3.973	Roll Set Point:	-0.064	Pitch Set Point:	1.775	Yaw Set Point:	-0.080	X_WP:	0.000	Y_WP:	0.000	Y_WP:	0.750	X:	0.068	Y:	-0.886	Z:	0.403	yaw:	4.602	yaw rate:	5.112	Roll:	0.575	Pitch:	-26.556	Yaw:	7.777	Thrust:	100.000
Time:	3.994	Roll Set Point:	-0.073	Pitch Set Point:	1.775	Yaw Set Point:	-0.072	X_WP:	0.000	Y_WP:	0.000	Y_WP:	0.750	X:	0.068	Y:	-0.886	Z:	0.403	yaw:	4.109	yaw rate:	49.324	Roll:	6.511	Pitch:	-26.896	Yaw:	1.727	Thrust:	100.000
Time:	4.011	Roll Set Point:	-0.063	Pitch Set Point:	1.775	Yaw Set Point:	-0.081	X_WP:	0.000	Y_WP:	0.000	Y_WP:	0.750	X:	0.068	Y:	-0.886	Z:	0.403	yaw:	4.638	yaw rate:	-52.949	Roll:	-9.115	Pitch:	-25.958	Yaw:	16.336	Thrust:	100.000
Time:	4.031	Roll Set Point:	-0.063	Pitch Set Point:	1.775	Yaw Set Point:	-0.081	X_WP:	0.000	Y_WP:	0.000	Y_WP:	0.750	X:	0.068	Y:	-0.886	Z:	0.403	yaw:	4.638	yaw rate:	0.040	Roll:	-0.118	Pitch:	-26.569	Yaw:	8.476	Thrust:	100.000
Time:	4.051	Roll Set Point:	-0.073	Pitch Set Point:	1.775	Yaw Set Point:	-0.071	X_WP:	0.000	Y_WP:	0.000	Y_WP:	0.750	X:	0.068	Y:	-0.886	Z:	0.403	yaw:	4.084	yaw rate:	55.344	Roll:	7.987	Pitch:	-26.848	Yaw:	0.536	Thrust:	100.000
Time:	4.071	Roll Set Point:	-0.066	Pitch Set Point:	1.775	Yaw Set Point:	-0.079	X_WP:	0.000	Y_WP:	0.000	Y_WP:	0.750	X:	0.068	Y:	-0.886	Z:	0.403	yaw:	4.532	yaw rate:	-44.773	Roll:	-5.994	Pitch:	-26.440	Yaw:	14.220	Thrust:	100.000
Time:	4.092	Roll Set Point:	-0.073	Pitch Set Point:	1.775	Yaw Set Point:	-0.071	X_WP:	0.000	Y_WP:	0.000	Y_WP:	0.750	X:	0.068	Y:	-0.886	Z:	0.403	yaw:	4.069	yaw rate:	46.352	Roll:	5.814	Pitch:	-26.503	Yaw:	1.815	Thrust:	100.000
Time:	4.113	Roll Set Point:	-0.063	Pitch Set Point:	1.775	Yaw Set Point:	-0.081	X_WP:	0.000	Y_WP:	0.000	Y_WP:	0.750	X:	0.068	Y:	-0.886	Z:	0.403	yaw:	4.648	yaw rate:	-57.909	Roll:	-7.958	Pitch:	-26.348	Yaw:	15.834	Thrust:	100.000
Time:	4.132	Roll Set Point:	-0.063	Pitch Set Point:	1.775	Yaw Set Point:	-0.081	X_WP:	0.000	Y_WP:	0.000	Y_WP:	0.750	X:	0.068	Y:	-0.886	Z:	0.403	yaw:	4.657	yaw rate:	-0.968	Roll:	-0.276	Pitch:	-26.522	Yaw:	8.602	Thrust:	100.000
Time:	4.153	Roll Set Point:	-0.063	Pitch Set Point:	1.775	Yaw Set Point:	-0.081	X_WP:	0.000	Y_WP:	0.000	Y_WP:	0.750	X:	0.068	Y:	-0.886	Z:	0.403	yaw:	4.661	yaw rate:	-0.401	Roll:	-0.174	Pitch:	-26.493	Yaw:	8.576	Thrust:	100.000
Time:	4.173	Roll Set Point:	-0.073	Pitch Set Point:	1.775	Yaw Set Point:	-0.070	X_WP:	0.000	Y_WP:	0.000	Y_WP:	0.750	X:	0.068	Y:	-0.886	Z:	0.403	yaw:	4.027	yaw rate:	63.469	Roll:	8.484	Pitch:	-26.713	Yaw:	-0.459	Thrust:	100.000
Time:	4.193	Roll Set Point:	-0.072	Pitch Set Point:	1.775	Yaw Set Point:	-0.072	X_WP:	0.000	Y_WP:	0.000	Y_WP:	0.750	X:	0.068	Y:	-0.886	Z:	0.403	yaw:	4.102	yaw rate:	-7.489	Roll:	-0.833	Pitch:	-26.584	Yaw:	8.713	Thrust:	100.000
Time:	4.211	Roll Set Point:	-0.064	Pitch Set Point:	1.775	Yaw Set Point:	-0.081	X_WP:	0.000	Y_WP:	0.000	Y_WP:	0.750	X:	0.068	Y:	-0.886	Z:	0.403	yaw:	4.623	yaw rate:	-52.098	Roll:	-7.888	Pitch:	-26.249	Yaw:	15.770	Thrust:	100.000
Time:	4.232	Roll Set Point:	-0.063	Pitch Set Point:	1.775	Yaw Set Point:	-0.081	X_WP:	0.000	Y_WP:	0.000	Y_WP:	0.750	X:	0.068	Y:	-0.886	Z:	0.403	yaw:	4.659	yaw rate:	-3.649	Roll:	-0.585	Pitch:	-26.507	Yaw:	9.026	Thrust:	100.000
Time:	4.253	Roll Set Point:	-0.064	Pitch Set Point:	1.775	Yaw Set Point:	-0.080	X_WP:	0.000	Y_WP:	0.000	Y_WP:	0.750	X:	0.068	Y:	-0.886	Z:	0.403	yaw:	4.598	yaw rate:	6.151	Roll:	0.644	Pitch:	-26.536	Yaw:	7.712	Thrust:	100.000
Time:	4.272	Roll Set Point:	-0.063	Pitch Set Point:	1.775	Yaw Set Point:	-0.081	X_WP:	0.000	Y_WP:	0.000	Y_WP:	0.750	X:	0.068	Y:	-0.886	Z:	0.403	yaw:	4.639	yaw rate:	-4.114	Roll:	-0.639	Pitch:	-26.555	Yaw:	8.985	Thrust:	100.000
Time:	4.292	Roll Set Point:	-0.063	Pitch Set Point:	1.775	Yaw Set Point:	-0.082	X_WP:	0.000	Y_WP:	0.000	Y_WP:	0.750	X:	0.068	Y:	-0.886	Z:	0.403	yaw:	4.678	yaw rate:	-3.949	Roll:	-0.675	Pitch:	-26.490	Yaw:	9.055	Thrust:	100.000
Time:	4.310	Roll Set Point:	-0.064	Pitch Set Point:	1.775	Yaw Set Point:	-0.081	X_WP:	0.000	Y_WP:	0.000	Y_WP:	0.750	X:	0.068	Y:	-0.886	Z:	0.403	yaw:	4.621	yaw rate:	5.703	Roll:	0.695	Pitch:	-26.466	Yaw:	7.425	Thrust:	100.000
Time:	4.331	Roll Set Point:	-0.063	Pitch Set Point:	1.775	Yaw Set Point:	-0.082	X_WP:	0.000	Y_WP:	0.000	Y_WP:	0.750	X:	0.068	Y:	-0.886	Z:	0.403	yaw:	4.673	yaw rate:	-5.168	Roll:	-0.813	Pitch:	-26.529	Yaw:	9.244	Thrust:	100.000
Time:	4.351	Roll Set Point:	-0.063	Pitch Set Point:	1.775	Yaw Set Point:	-0.081	X_WP:	0.000	Y_WP:	0.000	Y_WP:	0.750	X:	0.068	Y:	-0.886	Z:	0.403	yaw:	4.653	yaw rate:	2.022	Roll:	0.134	Pitch:	-26.497	Yaw:	8.261	Thrust:	100.000
Time:	4.371	Roll Set Point:	-0.064	Pitch Set Point:	1.775	Yaw Set Point:	-0.081	X_WP:	0.000	Y_WP:	0.000	Y_WP:	0.750	X:	0.068	Y:	-0.886	Z:	0.403	yaw:	4.619	yaw rate:	3.341	Roll:	0.326	Pitch:	-26.547	Yaw:	8.001	Thrust:	100.000
Time:	4.392	Roll Set Point:	-0.073	Pitch Set Point:	1.775	Yaw Set Point:	-0.071	X_WP:	0.000	Y_WP:	0.000	Y_WP:	0.750	X:	0.068	Y:	-0.886	Z:	0.403	yaw:	4.065	yaw rate:	55.372	Roll:	7.360	Pitch:	-26.742	Yaw:	0.716	Thrust:	100.000
Time:	4.411	Roll Set Point:	-0.063	Pitch Set Point:	1.775	Yaw Set Point:	-0.081	X_WP:	0.000	Y_WP:	0.000	Y_WP:	0.750	X:	0.068	Y:	-0.886	Z:	0.403	yaw:	4.649	yaw rate:	-58.389	Roll:	-8.086	Pitch:	-26.290	Yaw:	16.364	Thrust:	100.000
Time:	4.432	Roll Set Point:	-0.064	Pitch Set Point:	1.775	Yaw Set Point:	-0.080	X_WP:	0.000	Y_WP:	0.000	Y_WP:	0.750	X:	0.068	Y:	-0.886	Z:	0.403	yaw:	4.593	yaw rate:	5.613	Roll:	0.615	Pitch:	-26.532	Yaw:	7.815	Thrust:	100.000
Time:	4.452	Roll Set Point:	-0.063	Pitch Set Point:	1.775	Yaw Set Point:	-0.081	X_WP:	0.000	Y_WP:	0.000	Y_WP:	0.750	X:	0.068	Y:	-0.886	Z:	0.403	yaw:	4.644	yaw rate:	-5.114	Roll:	-0.791	Pitch:	-26.505	Yaw:	9.158	Thrust:	100.000
Time:	4.472	Roll Set Point:	-0.065	Pitch Set Point:	1.775	Yaw Set Point:	-0.080	X_WP:	0.000	Y_WP:	0.000	Y_WP:	0.750	X:	0.068	Y:	-0.886	Z:	0.403	yaw:	4.568	yaw rate:	7.584	Roll:	1.217	Pitch:	-26.756	Yaw:	7.302	Thrust:	100.000
Time:	4.492	Roll Set Point:	-0.063	Pitch Set Point:	1.775	Yaw Set Point:	-0.081	X_WP:	0.000	Y_WP:	0.000	Y_WP:	0.750	X:	0.068	Y:	-0.886	Z:	0.403	yaw:	4.637	yaw rate:	-6.806	Roll:	-1.281	Pitch:	-26.315	Yaw:	9.396	Thrust:	100.000
Time:	4.512	Roll Set Point:	-0.073	Pitch Set Point:	1.775	Yaw Set Point:	-0.070	X_WP:	0.000	Y_WP:	0.000	Y_WP:	0.750	X:	0.068	Y:	-0.886	Z:	0.403	yaw:	4.023	yaw rate:	61.342	Roll:	8.727	Pitch:	-26.666	Yaw:	-0.558	Thrust:	100.000
Time:	4.532	Roll Set Point:	-0.063	Pitch Set Point:	1.775	Yaw Set Point:	-0.081	X_WP:	0.000	Y_WP:	0.000	Y_WP:	0.750	X:	0.068	Y:	-0.886	Z:	0.403	yaw:	4.647	yaw rate:	-62.349	Roll:	-8.195	Pitch:	-26.411	Yaw:	16.566	Thrust:	100.000
Time:	4.552	Roll Set Point:	-0.064	Pitch Set Point:	1.775	Yaw Set Point:	-0.080	X_WP:	0.000	Y_WP:	0.000	Y_WP:	0.750	X:	0.068	Y:	-0.886	Z:	0.403	yaw:	4.583	yaw rate:	6.312	Roll:	0.785	Pitch:	-26.509	Yaw:	7.511	Thrust:	100.000
Time:	4.572	Roll Set Point:	-0.063	Pitch Set Point:	1.775	Yaw Set Point:	-0.081	X_WP:	0.000	Y_WP:	0.000	Y_WP:	0.750	X:	0.068	Y:	-0.886	Z:	0.403	yaw:	4.648	yaw rate:	-6.492	Roll:	-0.957	Pitch:	-26.525	Yaw:	9.379	Thrust:	100.000
Time:	4.592	Roll Set Point:	-0.072	Pitch Set Point:	1.775	Yaw Set Point:	-0.072	X_WP:	0.000	Y_WP:	0.000	Y_WP:	0.750	X:	0.068	Y:	-0.886	Z:	0.403	yaw:	4.137	yaw rate:	51.135	Roll:	7.406	Pitch:	-26.870	Yaw:	0.930	Thrust:	100.000
Time:	4.612	Roll Set Point:	-0.064	Pitch Set Point:	1.775	Yaw Set Point:	-0.081	X_WP:	0.000	Y_WP:	0.000	Y_WP:	0.750	X:	0.068	Y:	-0.886	Z:	0.403	yaw:	4.633	yaw rate:	-49.562	Roll:	-7.394	Pitch:	-26.172	Yaw:	15.033	Thrust:	100.000
Time:	4.633	Roll Set Point:	-0.063	Pitch Set Point:	1.775	Yaw Set Point:	-0.081	X_WP:	0.000	Y_WP:	0.000	Y_WP:	0.750	X:	0.068	Y:	-0.886	Z:	0.403	yaw:	4.660	yaw rate:	-2.774	Roll:	-0.491	Pitch:	-26.528	Yaw:	8.920	Thrust:	100.000
Time:	4.652	Roll Set Point:	-0.063	Pitch Set Point:	1.775	Yaw Set Point:	-0.081	X_WP:	0.000	Y_WP:	0.000	Y_WP:	0.750	X:	0.068	Y:	-0.886	Z:	0.403	yaw:	4.636	yaw rate:	2.408	Roll:	0.211	Pitch:	-26.489	Yaw:	8.180	Thrust:	100.000
Time:	4.672	Roll Set Point:	-0.063	Pitch Set Point:	1.775	Yaw Set Point:	-0.081	X_WP:	0.000	Y_WP:	0.000	Y_WP:	0.750	X:	0.068	Y:	-0.886	Z:	0.403	yaw:	4.644	yaw rate:	-0.722	Roll:	-0.246	Pitch:	-26.508	Yaw:	8.559	Thrust:	100.000
Time:	4.692	Roll Set Point:	-0.064	Pitch Set Point:	1.775	Yaw Set Point:	-0.081	X_WP:	0.000	Y_WP:	0.000	Y_WP:	0.750	X:	0.068	Y:	-0.886	Z:	0.403	yaw:	4.618	yaw rate:	2.513	Roll:	0.233	Pitch:	-26.540	Yaw:	8.109	Thrust:	100.000
Time:	4.711	Roll Set Point:	-0.072	Pitch Set Point:	1.775	Yaw Set Point:	-0.072	X_WP:	0.000	Y_WP:	0.000	Y_WP:	0.750	X:	0.068	Y:	-0.886	Z:	0.403	yaw:	4.143	yaw rate:	47.502	Roll:	6.761	Pitch:	-26.868	Yaw:	1.173	Thrust:	100.000
Time:	4.732	Roll Set Point:	-0.065	Pitch Set Point:	1.775	Yaw Set Point:	-0.080	X_WP:	0.000	Y_WP:	0.000	Y_WP:	0.750	X:	0.068	Y:	-0.886	Z:	0.403	yaw:	4.572	yaw rate:	-42.843	Roll:	-5.799	Pitch:	-26.374	Yaw:	13.862	Thrust:	100.000
Time:	4.760	Roll Set Point:	-0.064	Pitch Set Point:	1.775	Yaw Set Point:	-0.081	X_WP:	0.000	Y_WP:	0.000	Y_WP:	0.750	X:	0.068	Y:	-0.886	Z:	0.403	yaw:	4.625	yaw rate:	-5.325	Roll:	-1.162	Pitch:	-26.340	Yaw:	9.739	Thrust:	100.000
Time:	4.772	Roll Set Point:	-0.063	Pitch Set Point:	1.775	Yaw Set Point:	-0.081	X_WP:	0.000	Y_WP:	0.000	Y_WP:	0.750	X:	0.068	Y:	-0.886	Z:	0.403	yaw:	4.652	yaw rate:	-2.708	Roll:	-0.463	Pitch:	-26.537	Yaw:	8.306	Thrust:	100.000
Time:	4.793	Roll Set Point:	-0.063	Pitch Set Point:	1.775	Yaw Set Point:	-0.081	X_WP:	0.000	Y_WP:	0.000	Y_WP:	0.750	X:	0.068	Y:	-0.886	Z:	0.403	yaw:	4.642	yaw rate:	1.053	Roll:	0.002	Pitch:	-26.565	Yaw:	8.457	Thrust:	100.000
Time:	4.811	Roll Set Point:	-0.063	Pitch Set Point:	1.775	Yaw Set Point:	-0.082	X_WP:	0.000	Y_WP:	0.000	Y_WP:	0.750	X:	0.068	Y:	-0.886	Z:	0.403	yaw:	4.671	yaw rate:	-2.959	Roll:	-0.582	Pitch:	-26.424	Yaw:	8.764	Thrust:	100.000
Time:	4.832	Roll Set Point:	-0.064	Pitch Set Point:	1.775	Yaw Set Point:	-0.080	X_WP:	0.000	Y_WP:	0.000	Y_WP:	0.750	X:	0.068	Y:	-0.886	Z:	0.403	yaw:	4.601	yaw rate:	7.060	Roll:	0.863	Pitch:	-26.587	Yaw:	7.596	Thrust:	100.000
Time:	4.852	Roll Set Point:	-0.063	Pitch Set Point:	1.775	Yaw Set Point:	-0.081	X_WP:	0.000	Y_WP:	0.000	Y_WP:	0.750	X:	0.068	Y:	-0.886	Z:	0.403	yaw:	4.658	yaw rate:	-5.723	Roll:	-0.912	Pitch:	-26.481	Yaw:	9.237	Thrust:	100.000
Time:	4.872	Roll Set Point:	-0.075	Pitch Set Point:	1.775	Yaw Set Point:	-0.068	X_WP:	0.000	Y_WP:	0.000	Y_WP:	0.750	X:	0.068	Y:	-0.886	Z:	0.403	yaw:	3.905	yaw rate:	75.273	Roll:	10.211	Pitch:	-26.748	Yaw:	-2.246	Thrust:	100.000
Time:	4.892	Roll Set Point:	-0.072	Pitch Set Point:	1.775	Yaw Set Point:	-0.071	X_WP:	0.000	Y_WP:	0.000	Y_WP:	0.750	X:	0.068	Y:	-0.886	Z:	0.403	yaw:	4.082	yaw rate:	-17.655	Roll:	-2.153	Pitch:	-26.518	Yaw:	10.003	Thrust:	100.000
Time:	4.912	Roll Set Point:	-0.072	Pitch Set Point:	1.775	Yaw Set Point:	-0.072	X_WP:	0.000	Y_WP:	0.000	Y_WP:	0.750	X:	0.068	Y:	-0.886	Z:	0.403	yaw:	4.107	yaw rate:	-2.559	Roll:	-0.241	Pitch:	-26.481	Yaw:	8.023	Thrust:	100.000
Time:	4.932	Roll Set Point:	-0.063	Pitch Set Point:	1.775	Yaw Set Point:	-0.081	X_WP:	0.000	Y_WP:	0.000	Y_WP:	0.750	X:	0.068	Y:	-0.886	Z:	0.403	yaw:	4.645	yaw rate:	-53.730	Roll:	-7.040	Pitch:	-26.363	Yaw:	15.416	Thrust:	100.000
Time:	4.952	Roll Set Point:	-0.065	Pitch Set Point:	1.775	Yaw Set Point:	-0.080	X_WP:	0.000	Y_WP:	0.000	Y_WP:	0.750	X:	0.068	Y:	-0.886	Z:	0.403	yaw:	4.573	yaw rate:	7.159	Roll:	1.153	Pitch:	-26.734	Yaw:	7.332	Thrust:	100.000
Time:	4.972	Roll Set Point:	-0.064	Pitch Set Point:	1.775	Yaw Set Point:	-0.081	X_WP:	0.000	Y_WP:	0.000	Y_WP:	0.750	X:	0.068	Y:	-0.886	Z:	0.403	yaw:	4.633	yaw rate:	-6.014	Roll:	-1.200	Pitch:	-26.331	Yaw:	9.298	Thrust:	100.000
Time:	4.993	Roll Set Point:	-0.063	Pitch Set Point:	1.775	Yaw Set Point:	-0.081	X_WP:	0.000	Y_WP:	0.000	Y_WP:	0.750	X:	0.068	Y:	-0.886	Z:	0.403	yaw:	4.638	yaw rate:	-0.498	Roll:	-0.186	Pitch:	-26.537	Yaw:	8.603	Thrust:	100.000
Time:	5.013	Roll Set Point:	-0.063	Pitch Set Point:	1.775	Yaw Set Point:	-0.081	X_WP:	0.000	Y_WP:	0.000	Y_WP:	0.750	X:	0.068	Y:	-0.886	Z:	0.403	yaw:	4.656	yaw rate:	-1.786	Roll:	-0.390	Pitch:	-26.524	Yaw:	8.723	Thrust:	100.000
Time:	5.037	Roll Set Point:	-0.072	Pitch Set Point:	1.775	Yaw Set Point:	-0.072	X_WP:	0.000	Y_WP:	0.000	Y_WP:	0.750	X:	0.068	Y:	-0.886	Z:	0.403	yaw:	4.147	yaw rate:	50.902	Roll:	6.424	Pitch:	-26.937	Yaw:	2.665	Thrust:	100.000
Time:	5.055	Roll Set Point:	-0.073	Pitch Set Point:	1.775	Yaw Set Point:	-0.071	X_WP:	0.000	Y_WP:	0.000	Y_WP:	0.750	X:	0.068	Y:	-0.886	Z:	0.403	yaw:	4.069	yaw rate:	7.806	Roll:	1.075	Pitch:	-26.218	Yaw:	6.013	Thrust:	100.000
Time:	5.075	Roll Set Point:	-0.063	Pitch Set Point:	1.775	Yaw Set Point:	-0.081	X_WP:	0.000	Y_WP:	0.000	Y_WP:	0.750	X:	0.068	Y:	-0.886	Z:	0.403	yaw:	4.661	yaw rate:	-59.237	Roll:	-7.663	Pitch:	-26.383	Yaw:	15.930	Thrust:	100.000
Time:	5.095	Roll Set Point:	-0.063	Pitch Set Point:	1.775	Yaw Set Point:	-0.081	X_WP:	0.000	Y_WP:	0.000	Y_WP:	0.750	X:	0.068	Y:	-0.886	Z:	0.403	yaw:	4.649	yaw rate:	1.225	Roll:	0.012	Pitch:	-26.534	Yaw:	8.387	Thrust:	100.000
Time:	5.115	Roll Set Point:	-0.073	Pitch Set Point:	1.775	Yaw Set Point:	-0.072	X_WP:	0.000	Y_WP:	0.000	Y_WP:	0.750	X:	0.068	Y:	-0.886	Z:	0.403	yaw:	4.113	yaw rate:	53.601	Roll:	8.193	Pitch:	-26.859	Yaw:	0.283	Thrust:	100.000
Time:	5.133	Roll Set Point:	-0.065	Pitch Set Point:	1.775	Yaw Set Point:	-0.080	X_WP:	0.000	Y_WP:	0.000	Y_WP:	0.750	X:	0.068	Y:	-0.886	Z:	0.403	yaw:	4.571	yaw rate:	-45.781	Roll:	-6.571	Pitch:	-26.370	Yaw:	14.591	Thrust:	100.000
Time:	5.154	Roll Set Point:	-0.065	Pitch Set Point:	1.775	Yaw Set Point:	-0.080	X_WP:	0.000	Y_WP:	0.000	Y_WP:	0.750	X:	0.068	Y:	-0.886	Z:	0.403	yaw:	4.558	yaw rate:	1.255	Roll:	0.072	Pitch:	-26.496	Yaw:	8.210	Thrust:	100.000
Time:	5.173	Roll Set Point:	-0.065	Pitch Set Point:	1.775	Yaw Set Point:	-0.080	X_WP:	0.000	Y_WP:	0.000	Y_WP:	0.750	X:	0.068	Y:	-0.886	Z:	0.403	yaw:	4.555	yaw rate:	0.321	Roll:	-0.036	Pitch:	-26.526	Yaw:	8.318	Thrust:	100.000
Time:	5.194	Roll Set Point:	-0.063	Pitch Set Point:	1.775	Yaw Set Point:	-0.081	X_WP:	0.000	Y_WP:	0.000	Y_WP:	0.750	X:	0.068	Y:	-0.886	Z:	0.403	yaw:	4.656	yaw rate:	-10.109	Roll:	-1.659	Pitch:	-26.385	Yaw:	9.864	Thrust:	100.000
Time:	5.212	Roll Set Point:	-0.063	Pitch Set Point:	1.775	Yaw Set Point:	-0.081	X_WP:	0.000	Y_WP:	0.000	Y_WP:	0.750	X:	0.068	Y:	-0.886	Z:	0.403	yaw:	4.649	yaw rate:	0.699	Roll:	-0.020	Pitch:	-26.451	Yaw:	8.217	Thrust:	100.000
Time:	5.234	Roll Set Point:	-0.063	Pitch Set Point:	1.775	Yaw Set Point:	-0.082	X_WP:	0.000	Y_WP:	0.000	Y_WP:	0.750	X:	0.068	Y:	-0.886	Z:	0.403	yaw:	4.694	yaw rate:	-4.452	Roll:	-0.706	Pitch:	-26.583	Yaw:	9.253	Thrust:	100.000
Time:	5.251	Roll Set Point:	-0.063	Pitch Set Point:	1.775	Yaw Set Point:	-0.081	X_WP:	0.000	Y_WP:	0.000	Y_WP:	0.750	X:	0.068	Y:	-0.886	Z:	0.403	yaw:	4.654	yaw rate:	3.983	Roll:	0.438	Pitch:	-26.403	Yaw:	7.668	Thrust:	100.000
Time:	5.272	Roll Set Point:	-0.073	Pitch Set Point:	1.775	Yaw Set Point:	-0.071	X_WP:	0.000	Y_WP:	0.000	Y_WP:	0.750	X:	0.068	Y:	-0.886	Z:	0.403	yaw:	4.062	yaw rate:	59.231	Roll:	8.100	Pitch:	-26.751	Yaw:	0.191	Thrust:	100.000
Time:	5.294	Roll Set Point:	-0.063	Pitch Set Point:	1.775	Yaw Set Point:	-0.082	X_WP:	0.000	Y_WP:	0.000	Y_WP:	0.750	X:	0.068	Y:	-0.886	Z:	0.403	yaw:	4.674	yaw rate:	-61.264	Roll:	-7.780	Pitch:	-26.433	Yaw:	15.993	Thrust:	100.000
