Time:	0.035	Roll Set Point:	-0.014	Pitch Set Point:	-0.017	Yaw Set Point:	-1.508	X_WP:	0.000	Y_WP:	0.000	Y_WP:	0.750	X:	-0.001	Y:	0.015	Z:	0.048	yaw:	86.403	yaw rate:	1.422	Roll:	0.432	Pitch:	0.059	Yaw:	120.641	Thrust:	38.613
Time:	0.053	Roll Set Point:	-0.014	Pitch Set Point:	-0.017	Yaw Set Point:	-1.508	X_WP:	0.000	Y_WP:	0.000	Y_WP:	0.750	X:	-0.001	Y:	0.015	Z:	0.048	yaw:	86.416	yaw rate:	-1.295	Roll:	0.415	Pitch:	0.018	Yaw:	121.402	Thrust:	40.159
Time:	0.073	Roll Set Point:	-0.014	Pitch Set Point:	-0.017	Yaw Set Point:	-1.512	X_WP:	0.000	Y_WP:	0.000	Y_WP:	0.750	X:	-0.001	Y:	0.015	Z:	0.047	yaw:	86.617	yaw rate:	-20.175	Roll:	0.535	Pitch:	-0.031	Yaw:	124.770	Thrust:	43.354
Time:	0.096	Roll Set Point:	-0.014	Pitch Set Point:	-0.017	Yaw Set Point:	-1.510	X_WP:	0.000	Y_WP:	0.000	Y_WP:	0.750	X:	-0.001	Y:	0.015	Z:	0.048	yaw:	86.519	yaw rate:	9.874	Roll:	0.130	Pitch:	0.042	Yaw:	121.661	Thrust:	42.524
Time:	0.114	Roll Set Point:	-0.014	Pitch Set Point:	-0.017	Yaw Set Point:	-1.513	X_WP:	0.000	Y_WP:	0.000	Y_WP:	0.750	X:	-0.001	Y:	0.015	Z:	0.048	yaw:	86.697	yaw rate:	-17.842	Roll:	0.587	Pitch:	0.106	Yaw:	125.435	Thrust:	45.531
Time:	0.134	Roll Set Point:	-0.014	Pitch Set Point:	-0.017	Yaw Set Point:	-1.520	X_WP:	0.000	Y_WP:	0.000	Y_WP:	0.750	X:	-0.001	Y:	0.015	Z:	0.048	yaw:	87.065	yaw rate:	-36.798	Roll:	0.745	Pitch:	0.011	Yaw:	128.432	Thrust:	47.665
Time:	0.154	Roll Set Point:	-0.014	Pitch Set Point:	-0.017	Yaw Set Point:	-1.515	X_WP:	0.000	Y_WP:	0.000	Y_WP:	0.750	X:	-0.001	Y:	0.015	Z:	0.048	yaw:	86.829	yaw rate:	23.590	Roll:	0.200	Pitch:	-0.028	Yaw:	120.296	Thrust:	48.079
Time:	0.174	Roll Set Point:	-0.014	Pitch Set Point:	-0.017	Yaw Set Point:	-1.517	X_WP:	0.000	Y_WP:	0.000	Y_WP:	0.750	X:	-0.001	Y:	0.015	Z:	0.048	yaw:	86.891	yaw rate:	-6.168	Roll:	0.368	Pitch:	0.020	Yaw:	124.094	Thrust:	50.785
Time:	0.194	Roll Set Point:	-0.014	Pitch Set Point:	-0.017	Yaw Set Point:	-1.514	X_WP:	0.000	Y_WP:	0.000	Y_WP:	0.750	X:	-0.001	Y:	0.015	Z:	0.048	yaw:	86.729	yaw rate:	16.144	Roll:	0.758	Pitch:	0.219	Yaw:	120.995	Thrust:	52.573
Time:	0.213	Roll Set Point:	-0.014	Pitch Set Point:	-0.017	Yaw Set Point:	-1.513	X_WP:	0.000	Y_WP:	0.000	Y_WP:	0.750	X:	-0.001	Y:	0.015	Z:	0.047	yaw:	86.683	yaw rate:	4.663	Roll:	0.356	Pitch:	0.195	Yaw:	122.325	Thrust:	53.672
Time:	0.234	Roll Set Point:	-0.014	Pitch Set Point:	-0.017	Yaw Set Point:	-1.514	X_WP:	0.000	Y_WP:	0.000	Y_WP:	0.750	X:	-0.001	Y:	0.015	Z:	0.048	yaw:	86.719	yaw rate:	-3.612	Roll:	0.629	Pitch:	0.015	Yaw:	123.651	Thrust:	56.314
Time:	0.254	Roll Set Point:	-0.014	Pitch Set Point:	-0.018	Yaw Set Point:	-1.511	X_WP:	0.000	Y_WP:	0.000	Y_WP:	0.750	X:	-0.001	Y:	0.016	Z:	0.048	yaw:	86.560	yaw rate:	15.882	Roll:	0.615	Pitch:	0.032	Yaw:	120.706	Thrust:	56.549
Time:	0.274	Roll Set Point:	-0.015	Pitch Set Point:	-0.018	Yaw Set Point:	-1.497	X_WP:	0.000	Y_WP:	0.000	Y_WP:	0.750	X:	-0.001	Y:	0.016	Z:	0.047	yaw:	85.780	yaw rate:	78.031	Roll:	0.727	Pitch:	0.219	Yaw:	111.469	Thrust:	59.101
Time:	0.296	Roll Set Point:	-0.015	Pitch Set Point:	-0.019	Yaw Set Point:	-1.490	X_WP:	0.000	Y_WP:	0.000	Y_WP:	0.750	X:	-0.001	Y:	0.016	Z:	0.048	yaw:	85.390	yaw rate:	38.993	Roll:	0.759	Pitch:	0.171	Yaw:	116.817	Thrust:	62.306
Time:	0.314	Roll Set Point:	-0.016	Pitch Set Point:	-0.019	Yaw Set Point:	-1.447	X_WP:	0.000	Y_WP:	0.000	Y_WP:	0.750	X:	-0.000	Y:	0.017	Z:	0.048	yaw:	82.889	yaw rate:	250.109	Roll:	1.118	Pitch:	0.218	Yaw:	79.694	Thrust:	58.730
Time:	0.334	Roll Set Point:	-0.018	Pitch Set Point:	-0.020	Yaw Set Point:	-1.418	X_WP:	0.000	Y_WP:	0.000	Y_WP:	0.750	X:	0.000	Y:	0.018	Z:	0.048	yaw:	81.241	yaw rate:	164.782	Roll:	1.110	Pitch:	0.127	Yaw:	95.082	Thrust:	63.959
Time:	0.354	Roll Set Point:	-0.019	Pitch Set Point:	-0.021	Yaw Set Point:	-1.371	X_WP:	0.000	Y_WP:	0.000	Y_WP:	0.750	X:	0.001	Y:	0.018	Z:	0.049	yaw:	78.540	yaw rate:	270.078	Roll:	1.004	Pitch:	0.402	Yaw:	76.774	Thrust:	64.273
Time:	0.374	Roll Set Point:	-0.021	Pitch Set Point:	-0.022	Yaw Set Point:	-1.337	X_WP:	0.000	Y_WP:	0.000	Y_WP:	0.750	X:	0.002	Y:	0.019	Z:	0.050	yaw:	76.623	yaw rate:	191.704	Roll:	1.656	Pitch:	0.154	Yaw:	82.761	Thrust:	64.966
Time:	0.395	Roll Set Point:	-0.023	Pitch Set Point:	-0.025	Yaw Set Point:	-1.272	X_WP:	0.000	Y_WP:	0.000	Y_WP:	0.750	X:	0.002	Y:	0.021	Z:	0.051	yaw:	72.874	yaw rate:	374.937	Roll:	1.623	Pitch:	0.925	Yaw:	57.268	Thrust:	66.669
Time:	0.414	Roll Set Point:	-0.025	Pitch Set Point:	-0.027	Yaw Set Point:	-1.241	X_WP:	0.000	Y_WP:	0.000	Y_WP:	0.750	X:	0.003	Y:	0.022	Z:	0.054	yaw:	71.104	yaw rate:	176.927	Roll:	2.007	Pitch:	0.460	Yaw:	77.128	Thrust:	63.357
Time:	0.434	Roll Set Point:	-0.027	Pitch Set Point:	-0.029	Yaw Set Point:	-1.178	X_WP:	0.000	Y_WP:	0.000	Y_WP:	0.750	X:	0.004	Y:	0.024	Z:	0.057	yaw:	67.472	yaw rate:	363.267	Roll:	1.752	Pitch:	1.023	Yaw:	48.776	Thrust:	63.890
Time:	0.454	Roll Set Point:	-0.029	Pitch Set Point:	-0.031	Yaw Set Point:	-1.137	X_WP:	0.000	Y_WP:	0.000	Y_WP:	0.750	X:	0.005	Y:	0.025	Z:	0.061	yaw:	65.141	yaw rate:	233.103	Roll:	1.660	Pitch:	0.847	Yaw:	61.866	Thrust:	64.440
Time:	0.474	Roll Set Point:	-0.031	Pitch Set Point:	-0.033	Yaw Set Point:	-1.098	X_WP:	0.000	Y_WP:	0.000	Y_WP:	0.750	X:	0.005	Y:	0.026	Z:	0.066	yaw:	62.890	yaw rate:	225.048	Roll:	1.602	Pitch:	0.869	Yaw:	60.276	Thrust:	63.993
Time:	0.497	Roll Set Point:	-0.033	Pitch Set Point:	-0.035	Yaw Set Point:	-1.057	X_WP:	0.000	Y_WP:	0.000	Y_WP:	0.750	X:	0.006	Y:	0.027	Z:	0.071	yaw:	60.543	yaw rate:	234.669	Roll:	1.820	Pitch:	0.807	Yaw:	60.548	Thrust:	70.758
Time:	0.514	Roll Set Point:	-0.035	Pitch Set Point:	-0.036	Yaw Set Point:	-1.016	X_WP:	0.000	Y_WP:	0.000	Y_WP:	0.750	X:	0.007	Y:	0.028	Z:	0.077	yaw:	58.217	yaw rate:	232.667	Roll:	1.726	Pitch:	0.894	Yaw:	47.616	Thrust:	56.919
Time:	0.534	Roll Set Point:	-0.038	Pitch Set Point:	-0.039	Yaw Set Point:	-0.984	X_WP:	0.000	Y_WP:	0.000	Y_WP:	0.750	X:	0.009	Y:	0.030	Z:	0.084	yaw:	56.389	yaw rate:	182.768	Roll:	2.391	Pitch:	0.911	Yaw:	56.743	Thrust:	60.779
Time:	0.553	Roll Set Point:	-0.041	Pitch Set Point:	-0.041	Yaw Set Point:	-0.949	X_WP:	0.000	Y_WP:	0.000	Y_WP:	0.750	X:	0.010	Y:	0.031	Z:	0.093	yaw:	54.371	yaw rate:	201.838	Roll:	2.354	Pitch:	1.058	Yaw:	50.611	Thrust:	61.168
Time:	0.573	Roll Set Point:	-0.044	Pitch Set Point:	-0.043	Yaw Set Point:	-0.941	X_WP:	0.000	Y_WP:	0.000	Y_WP:	0.750	X:	0.011	Y:	0.033	Z:	0.101	yaw:	53.906	yaw rate:	46.476	Roll:	2.641	Pitch:	0.278	Yaw:	71.128	Thrust:	60.121
Time:	0.594	Roll Set Point:	-0.047	Pitch Set Point:	-0.045	Yaw Set Point:	-0.916	X_WP:	0.000	Y_WP:	0.000	Y_WP:	0.750	X:	0.013	Y:	0.034	Z:	0.111	yaw:	52.486	yaw rate:	142.028	Roll:	2.438	Pitch:	0.797	Yaw:	57.215	Thrust:	62.264
Time:	0.614	Roll Set Point:	-0.051	Pitch Set Point:	-0.047	Yaw Set Point:	-0.885	X_WP:	0.000	Y_WP:	0.000	Y_WP:	0.750	X:	0.014	Y:	0.036	Z:	0.121	yaw:	50.699	yaw rate:	178.665	Roll:	2.548	Pitch:	1.173	Yaw:	49.717	Thrust:	61.901
Time:	0.634	Roll Set Point:	-0.054	Pitch Set Point:	-0.050	Yaw Set Point:	-0.858	X_WP:	0.000	Y_WP:	0.000	Y_WP:	0.750	X:	0.016	Y:	0.037	Z:	0.131	yaw:	49.164	yaw rate:	153.507	Roll:	2.781	Pitch:	1.107	Yaw:	50.313	Thrust:	59.816
Time:	0.654	Roll Set Point:	-0.058	Pitch Set Point:	-0.052	Yaw Set Point:	-0.810	X_WP:	0.000	Y_WP:	0.000	Y_WP:	0.750	X:	0.018	Y:	0.038	Z:	0.142	yaw:	46.424	yaw rate:	273.990	Roll:	2.541	Pitch:	1.471	Yaw:	31.076	Thrust:	59.938
Time:	0.674	Roll Set Point:	-0.061	Pitch Set Point:	-0.055	Yaw Set Point:	-0.782	X_WP:	0.000	Y_WP:	0.000	Y_WP:	0.750	X:	0.019	Y:	0.040	Z:	0.153	yaw:	44.825	yaw rate:	159.914	Roll:	2.950	Pitch:	1.443	Yaw:	43.311	Thrust:	60.256
Time:	0.697	Roll Set Point:	-0.065	Pitch Set Point:	-0.058	Yaw Set Point:	-0.755	X_WP:	0.000	Y_WP:	0.000	Y_WP:	0.750	X:	0.021	Y:	0.042	Z:	0.164	yaw:	43.274	yaw rate:	155.123	Roll:	2.846	Pitch:	1.287	Yaw:	44.718	Thrust:	68.971
Time:	0.714	Roll Set Point:	-0.069	Pitch Set Point:	-0.061	Yaw Set Point:	-0.734	X_WP:	0.000	Y_WP:	0.000	Y_WP:	0.750	X:	0.023	Y:	0.044	Z:	0.175	yaw:	42.043	yaw rate:	123.043	Roll:	3.315	Pitch:	1.644	Yaw:	42.438	Thrust:	54.402
Time:	0.735	Roll Set Point:	-0.072	Pitch Set Point:	-0.063	Yaw Set Point:	-0.708	X_WP:	0.000	Y_WP:	0.000	Y_WP:	0.750	X:	0.024	Y:	0.045	Z:	0.187	yaw:	40.593	yaw rate:	145.019	Roll:	2.952	Pitch:	1.490	Yaw:	40.311	Thrust:	64.205
Time:	0.754	Roll Set Point:	-0.076	Pitch Set Point:	-0.067	Yaw Set Point:	-0.681	X_WP:	0.000	Y_WP:	0.000	Y_WP:	0.750	X:	0.026	Y:	0.047	Z:	0.199	yaw:	39.025	yaw rate:	156.830	Roll:	2.943	Pitch:	1.959	Yaw:	35.448	Thrust:	58.878
Time:	0.773	Roll Set Point:	-0.079	Pitch Set Point:	-0.069	Yaw Set Point:	-0.658	X_WP:	0.000	Y_WP:	0.000	Y_WP:	0.750	X:	0.028	Y:	0.048	Z:	0.212	yaw:	37.685	yaw rate:	133.982	Roll:	3.185	Pitch:	1.693	Yaw:	36.157	Thrust:	56.913
Time:	0.794	Roll Set Point:	-0.083	Pitch Set Point:	-0.072	Yaw Set Point:	-0.644	X_WP:	0.000	Y_WP:	0.000	Y_WP:	0.750	X:	0.030	Y:	0.050	Z:	0.224	yaw:	36.919	yaw rate:	76.632	Roll:	3.452	Pitch:	1.499	Yaw:	43.946	Thrust:	62.708
Time:	0.814	Roll Set Point:	-0.087	Pitch Set Point:	-0.075	Yaw Set Point:	-0.626	X_WP:	0.000	Y_WP:	0.000	Y_WP:	0.750	X:	0.031	Y:	0.051	Z:	0.237	yaw:	35.867	yaw rate:	105.154	Roll:	3.220	Pitch:	1.793	Yaw:	37.545	Thrust:	58.380
Time:	0.834	Roll Set Point:	-0.090	Pitch Set Point:	-0.077	Yaw Set Point:	-0.605	X_WP:	0.000	Y_WP:	0.000	Y_WP:	0.750	X:	0.033	Y:	0.053	Z:	0.250	yaw:	34.665	yaw rate:	120.181	Roll:	3.246	Pitch:	1.643	Yaw:	35.442	Thrust:	66.331
Time:	0.854	Roll Set Point:	-0.094	Pitch Set Point:	-0.080	Yaw Set Point:	-0.590	X_WP:	0.000	Y_WP:	0.000	Y_WP:	0.750	X:	0.035	Y:	0.054	Z:	0.264	yaw:	33.799	yaw rate:	86.593	Roll:	3.415	Pitch:	1.726	Yaw:	37.123	Thrust:	56.014
Time:	0.873	Roll Set Point:	-0.098	Pitch Set Point:	-0.082	Yaw Set Point:	-0.565	X_WP:	0.000	Y_WP:	0.000	Y_WP:	0.750	X:	0.037	Y:	0.055	Z:	0.277	yaw:	32.382	yaw rate:	141.756	Roll:	3.105	Pitch:	1.737	Yaw:	28.919	Thrust:	63.015
Time:	0.897	Roll Set Point:	-0.101	Pitch Set Point:	-0.084	Yaw Set Point:	-0.552	X_WP:	0.000	Y_WP:	0.000	Y_WP:	0.750	X:	0.038	Y:	0.056	Z:	0.290	yaw:	31.610	yaw rate:	77.190	Roll:	3.157	Pitch:	1.705	Yaw:	37.895	Thrust:	77.845
Time:	0.914	Roll Set Point:	-0.104	Pitch Set Point:	-0.086	Yaw Set Point:	-0.530	X_WP:	0.000	Y_WP:	0.000	Y_WP:	0.750	X:	0.040	Y:	0.057	Z:	0.304	yaw:	30.380	yaw rate:	122.977	Roll:	3.237	Pitch:	1.746	Yaw:	25.489	Thrust:	47.882
Time:	0.934	Roll Set Point:	-0.107	Pitch Set Point:	-0.088	Yaw Set Point:	-0.517	X_WP:	0.000	Y_WP:	0.000	Y_WP:	0.750	X:	0.042	Y:	0.058	Z:	0.318	yaw:	29.623	yaw rate:	75.760	Roll:	3.253	Pitch:	1.774	Yaw:	32.828	Thrust:	56.146
Time:	0.955	Roll Set Point:	-0.110	Pitch Set Point:	-0.089	Yaw Set Point:	-0.499	X_WP:	0.000	Y_WP:	0.000	Y_WP:	0.750	X:	0.044	Y:	0.059	Z:	0.332	yaw:	28.571	yaw rate:	105.125	Roll:	3.104	Pitch:	1.622	Yaw:	28.581	Thrust:	64.764
Time:	0.974	Roll Set Point:	-0.113	Pitch Set Point:	-0.091	Yaw Set Point:	-0.477	X_WP:	0.000	Y_WP:	0.000	Y_WP:	0.750	X:	0.046	Y:	0.059	Z:	0.346	yaw:	27.338	yaw rate:	123.365	Roll:	3.028	Pitch:	1.969	Yaw:	23.946	Thrust:	61.795
Time:	0.994	Roll Set Point:	-0.116	Pitch Set Point:	-0.092	Yaw Set Point:	-0.466	X_WP:	0.000	Y_WP:	0.000	Y_WP:	0.750	X:	0.047	Y:	0.060	Z:	0.360	yaw:	26.723	yaw rate:	61.470	Roll:	3.102	Pitch:	1.369	Yaw:	31.652	Thrust:	62.642
Time:	1.014	Roll Set Point:	-0.119	Pitch Set Point:	-0.093	Yaw Set Point:	-0.461	X_WP:	0.000	Y_WP:	0.000	Y_WP:	0.750	X:	0.049	Y:	0.061	Z:	0.374	yaw:	26.410	yaw rate:	31.263	Roll:	3.494	Pitch:	1.189	Yaw:	34.609	Thrust:	56.047
Time:	1.034	Roll Set Point:	-0.122	Pitch Set Point:	-0.095	Yaw Set Point:	-0.448	X_WP:	0.000	Y_WP:	0.000	Y_WP:	0.750	X:	0.050	Y:	0.061	Z:	0.388	yaw:	25.662	yaw rate:	74.879	Roll:	3.082	Pitch:	1.696	Yaw:	28.159	Thrust:	66.461
Time:	1.054	Roll Set Point:	-0.124	Pitch Set Point:	-0.095	Yaw Set Point:	-0.431	X_WP:	0.000	Y_WP:	0.000	Y_WP:	0.750	X:	0.052	Y:	0.061	Z:	0.402	yaw:	24.721	yaw rate:	94.003	Roll:	2.863	Pitch:	1.509	Yaw:	24.317	Thrust:	65.026
Time:	1.074	Roll Set Point:	-0.127	Pitch Set Point:	-0.095	Yaw Set Point:	-0.432	X_WP:	0.000	Y_WP:	0.000	Y_WP:	0.750	X:	0.053	Y:	0.061	Z:	0.416	yaw:	24.736	yaw rate:	-1.462	Roll:	3.346	Pitch:	0.683	Yaw:	36.678	Thrust:	60.305
Time:	1.097	Roll Set Point:	-0.129	Pitch Set Point:	-0.097	Yaw Set Point:	-0.378	X_WP:	0.000	Y_WP:	0.000	Y_WP:	0.750	X:	0.055	Y:	0.061	Z:	0.430	yaw:	21.647	yaw rate:	308.875	Roll:	2.278	Pitch:	3.203	Yaw:	-3.254	Thrust:	76.026
Time:	1.114	Roll Set Point:	-0.131	Pitch Set Point:	-0.097	Yaw Set Point:	-0.380	X_WP:	0.000	Y_WP:	0.000	Y_WP:	0.750	X:	0.056	Y:	0.061	Z:	0.444	yaw:	21.770	yaw rate:	-12.249	Roll:	3.249	Pitch:	0.816	Yaw:	33.979	Thrust:	45.869
Time:	1.136	Roll Set Point:	-0.133	Pitch Set Point:	-0.097	Yaw Set Point:	-0.368	X_WP:	0.000	Y_WP:	0.000	Y_WP:	0.750	X:	0.057	Y:	0.061	Z:	0.459	yaw:	21.097	yaw rate:	67.290	Roll:	2.809	Pitch:	1.307	Yaw:	23.477	Thrust:	69.710
Time:	1.155	Roll Set Point:	-0.134	Pitch Set Point:	-0.098	Yaw Set Point:	-0.343	X_WP:	0.000	Y_WP:	0.000	Y_WP:	0.750	X:	0.059	Y:	0.061	Z:	0.474	yaw:	19.681	yaw rate:	141.612	Roll:	2.445	Pitch:	2.086	Yaw:	9.281	Thrust:	51.782
Time:	1.174	Roll Set Point:	-0.136	Pitch Set Point:	-0.097	Yaw Set Point:	-0.345	X_WP:	0.000	Y_WP:	0.000	Y_WP:	0.750	X:	0.060	Y:	0.061	Z:	0.489	yaw:	19.746	yaw rate:	-6.521	Roll:	3.058	Pitch:	0.674	Yaw:	30.418	Thrust:	59.287
Time:	1.194	Roll Set Point:	-0.138	Pitch Set Point:	-0.097	Yaw Set Point:	-0.343	X_WP:	0.000	Y_WP:	0.000	Y_WP:	0.750	X:	0.060	Y:	0.060	Z:	0.504	yaw:	19.651	yaw rate:	9.457	Roll:	2.906	Pitch:	0.738	Yaw:	28.261	Thrust:	62.159
Time:	1.214	Roll Set Point:	-0.139	Pitch Set Point:	-0.097	Yaw Set Point:	-0.329	X_WP:	0.000	Y_WP:	0.000	Y_WP:	0.750	X:	0.061	Y:	0.060	Z:	0.519	yaw:	18.874	yaw rate:	77.734	Roll:	2.592	Pitch:	1.452	Yaw:	18.360	Thrust:	61.233
Time:	1.234	Roll Set Point:	-0.140	Pitch Set Point:	-0.096	Yaw Set Point:	-0.320	X_WP:	0.000	Y_WP:	0.000	Y_WP:	0.750	X:	0.062	Y:	0.059	Z:	0.534	yaw:	18.340	yaw rate:	53.372	Roll:	2.680	Pitch:	1.157	Yaw:	20.491	Thrust:	54.677
Time:	1.253	Roll Set Point:	-0.141	Pitch Set Point:	-0.096	Yaw Set Point:	-0.313	X_WP:	0.000	Y_WP:	0.000	Y_WP:	0.750	X:	0.063	Y:	0.059	Z:	0.549	yaw:	17.920	yaw rate:	42.080	Roll:	2.618	Pitch:	0.919	Yaw:	21.250	Thrust:	56.671
Time:	1.273	Roll Set Point:	-0.142	Pitch Set Point:	-0.097	Yaw Set Point:	-0.285	X_WP:	0.000	Y_WP:	0.000	Y_WP:	0.750	X:	0.064	Y:	0.059	Z:	0.563	yaw:	16.343	yaw rate:	157.660	Roll:	2.192	Pitch:	2.439	Yaw:	4.285	Thrust:	60.321
Time:	1.297	Roll Set Point:	-0.142	Pitch Set Point:	-0.096	Yaw Set Point:	-0.273	X_WP:	0.000	Y_WP:	0.000	Y_WP:	0.750	X:	0.064	Y:	0.058	Z:	0.578	yaw:	15.661	yaw rate:	68.209	Roll:	2.296	Pitch:	1.129	Yaw:	16.489	Thrust:	75.805
Time:	1.314	Roll Set Point:	-0.142	Pitch Set Point:	-0.097	Yaw Set Point:	-0.246	X_WP:	0.000	Y_WP:	0.000	Y_WP:	0.750	X:	0.065	Y:	0.057	Z:	0.593	yaw:	14.114	yaw rate:	154.657	Roll:	1.833	Pitch:	2.553	Yaw:	-2.138	Thrust:	34.008
Time:	1.334	Roll Set Point:	-0.144	Pitch Set Point:	-0.094	Yaw Set Point:	-0.265	X_WP:	0.000	Y_WP:	0.000	Y_WP:	0.750	X:	0.066	Y:	0.057	Z:	0.608	yaw:	15.211	yaw rate:	-109.685	Roll:	3.565	Pitch:	-0.448	Yaw:	37.685	Thrust:	62.488
Time:	1.353	Roll Set Point:	-0.144	Pitch Set Point:	-0.093	Yaw Set Point:	-0.250	X_WP:	0.000	Y_WP:	0.000	Y_WP:	0.750	X:	0.066	Y:	0.056	Z:	0.623	yaw:	14.300	yaw rate:	91.165	Roll:	2.015	Pitch:	1.303	Yaw:	9.616	Thrust:	53.507
Time:	1.373	Roll Set Point:	-0.146	Pitch Set Point:	-0.092	Yaw Set Point:	-0.256	X_WP:	0.000	Y_WP:	0.000	Y_WP:	0.750	X:	0.067	Y:	0.055	Z:	0.637	yaw:	14.694	yaw rate:	-39.436	Roll:	3.130	Pitch:	0.232	Yaw:	27.714	Thrust:	56.691
Time:	1.394	Roll Set Point:	-0.145	Pitch Set Point:	-0.092	Yaw Set Point:	-0.222	X_WP:	0.000	Y_WP:	0.000	Y_WP:	0.750	X:	0.067	Y:	0.054	Z:	0.653	yaw:	12.698	yaw rate:	199.620	Roll:	1.213	Pitch:	2.386	Yaw:	-5.139	Thrust:	56.567
Time:	1.413	Roll Set Point:	-0.146	Pitch Set Point:	-0.091	Yaw Set Point:	-0.223	X_WP:	0.000	Y_WP:	0.000	Y_WP:	0.750	X:	0.068	Y:	0.053	Z:	0.668	yaw:	12.787	yaw rate:	-8.964	Roll:	2.816	Pitch:	0.285	Yaw:	20.993	Thrust:	53.584
Time:	1.433	Roll Set Point:	-0.146	Pitch Set Point:	-0.089	Yaw Set Point:	-0.228	X_WP:	0.000	Y_WP:	0.000	Y_WP:	0.750	X:	0.068	Y:	0.053	Z:	0.681	yaw:	13.082	yaw rate:	-29.510	Roll:	2.680	Pitch:	0.322	Yaw:	24.099	Thrust:	59.755
Time:	1.454	Roll Set Point:	-0.147	Pitch Set Point:	-0.088	Yaw Set Point:	-0.222	X_WP:	0.000	Y_WP:	0.000	Y_WP:	0.750	X:	0.069	Y:	0.052	Z:	0.695	yaw:	12.720	yaw rate:	36.204	Roll:	2.651	Pitch:	0.752	Yaw:	14.764	Thrust:	52.030
Time:	1.473	Roll Set Point:	-0.147	Pitch Set Point:	-0.087	Yaw Set Point:	-0.217	X_WP:	0.000	Y_WP:	0.000	Y_WP:	0.750	X:	0.069	Y:	0.051	Z:	0.709	yaw:	12.452	yaw rate:	26.809	Roll:	2.405	Pitch:	0.695	Yaw:	16.115	Thrust:	61.335
Time:	1.497	Roll Set Point:	-0.146	Pitch Set Point:	-0.086	Yaw Set Point:	-0.203	X_WP:	0.000	Y_WP:	0.000	Y_WP:	0.750	X:	0.069	Y:	0.050	Z:	0.723	yaw:	11.628	yaw rate:	82.448	Roll:	1.840	Pitch:	1.118	Yaw:	9.239	Thrust:	70.511
Time:	1.513	Roll Set Point:	-0.147	Pitch Set Point:	-0.084	Yaw Set Point:	-0.203	X_WP:	0.000	Y_WP:	0.000	Y_WP:	0.750	X:	0.069	Y:	0.050	Z:	0.736	yaw:	11.656	yaw rate:	-2.822	Roll:	2.405	Pitch:	0.342	Yaw:	18.365	Thrust:	36.949
Time:	1.534	Roll Set Point:	-0.147	Pitch Set Point:	-0.083	Yaw Set Point:	-0.190	X_WP:	0.000	Y_WP:	0.000	Y_WP:	0.750	X:	0.069	Y:	0.049	Z:	0.749	yaw:	10.868	yaw rate:	78.845	Roll:	2.131	Pitch:	1.162	Yaw:	7.230	Thrust:	58.585
Time:	1.553	Roll Set Point:	-0.146	Pitch Set Point:	-0.082	Yaw Set Point:	-0.176	X_WP:	0.000	Y_WP:	0.000	Y_WP:	0.750	X:	0.069	Y:	0.048	Z:	0.763	yaw:	10.075	yaw rate:	79.296	Roll:	1.692	Pitch:	1.147	Yaw:	5.526	Thrust:	53.324
Time:	1.574	Roll Set Point:	-0.146	Pitch Set Point:	-0.080	Yaw Set Point:	-0.186	X_WP:	0.000	Y_WP:	0.000	Y_WP:	0.750	X:	0.069	Y:	0.047	Z:	0.775	yaw:	10.671	yaw rate:	-59.668	Roll:	2.686	Pitch:	-0.163	Yaw:	24.550	Thrust:	58.168
Time:	1.594	Roll Set Point:	-0.146	Pitch Set Point:	-0.079	Yaw Set Point:	-0.177	X_WP:	0.000	Y_WP:	0.000	Y_WP:	0.750	X:	0.069	Y:	0.046	Z:	0.788	yaw:	10.159	yaw rate:	51.229	Roll:	2.183	Pitch:	0.622	Yaw:	9.503	Thrust:	54.539
Time:	1.614	Roll Set Point:	-0.146	Pitch Set Point:	-0.077	Yaw Set Point:	-0.177	X_WP:	0.000	Y_WP:	0.000	Y_WP:	0.750	X:	0.069	Y:	0.045	Z:	0.800	yaw:	10.113	yaw rate:	4.554	Roll:	2.285	Pitch:	0.363	Yaw:	15.480	Thrust:	52.287
Time:	1.634	Roll Set Point:	-0.145	Pitch Set Point:	-0.076	Yaw Set Point:	-0.161	X_WP:	0.000	Y_WP:	0.000	Y_WP:	0.750	X:	0.069	Y:	0.044	Z:	0.812	yaw:	9.211	yaw rate:	90.225	Roll:	1.599	Pitch:	1.342	Yaw:	3.635	Thrust:	59.600
Time:	1.654	Roll Set Point:	-0.144	Pitch Set Point:	-0.075	Yaw Set Point:	-0.156	X_WP:	0.000	Y_WP:	0.000	Y_WP:	0.750	X:	0.069	Y:	0.043	Z:	0.824	yaw:	8.925	yaw rate:	28.576	Roll:	1.977	Pitch:	0.638	Yaw:	10.611	Thrust:	46.315
Time:	1.674	Roll Set Point:	-0.143	Pitch Set Point:	-0.074	Yaw Set Point:	-0.153	X_WP:	0.000	Y_WP:	0.000	Y_WP:	0.750	X:	0.069	Y:	0.042	Z:	0.835	yaw:	8.755	yaw rate:	17.030	Roll:	2.086	Pitch:	0.444	Yaw:	11.866	Thrust:	56.085
Time:	1.696	Roll Set Point:	-0.143	Pitch Set Point:	-0.072	Yaw Set Point:	-0.149	X_WP:	0.000	Y_WP:	0.000	Y_WP:	0.750	X:	0.069	Y:	0.042	Z:	0.846	yaw:	8.538	yaw rate:	21.724	Roll:	2.097	Pitch:	0.640	Yaw:	11.587	Thrust:	63.166
Time:	1.714	Roll Set Point:	-0.143	Pitch Set Point:	-0.071	Yaw Set Point:	-0.145	X_WP:	0.000	Y_WP:	0.000	Y_WP:	0.750	X:	0.069	Y:	0.041	Z:	0.857	yaw:	8.303	yaw rate:	23.544	Roll:	2.173	Pitch:	0.632	Yaw:	9.978	Thrust:	45.851
Time:	1.734	Roll Set Point:	-0.142	Pitch Set Point:	-0.070	Yaw Set Point:	-0.143	X_WP:	0.000	Y_WP:	0.000	Y_WP:	0.750	X:	0.069	Y:	0.040	Z:	0.867	yaw:	8.220	yaw rate:	8.257	Roll:	2.043	Pitch:	0.592	Yaw:	12.414	Thrust:	55.210
Time:	1.754	Roll Set Point:	-0.141	Pitch Set Point:	-0.069	Yaw Set Point:	-0.136	X_WP:	0.000	Y_WP:	0.000	Y_WP:	0.750	X:	0.068	Y:	0.039	Z:	0.878	yaw:	7.810	yaw rate:	41.006	Roll:	1.761	Pitch:	0.660	Yaw:	7.448	Thrust:	51.789
Time:	1.774	Roll Set Point:	-0.141	Pitch Set Point:	-0.068	Yaw Set Point:	-0.134	X_WP:	0.000	Y_WP:	0.000	Y_WP:	0.750	X:	0.068	Y:	0.039	Z:	0.887	yaw:	7.668	yaw rate:	14.188	Roll:	2.140	Pitch:	0.537	Yaw:	10.833	Thrust:	53.268
Time:	1.794	Roll Set Point:	-0.140	Pitch Set Point:	-0.067	Yaw Set Point:	-0.130	X_WP:	0.000	Y_WP:	0.000	Y_WP:	0.750	X:	0.068	Y:	0.038	Z:	0.897	yaw:	7.449	yaw rate:	21.867	Roll:	1.752	Pitch:	0.828	Yaw:	9.634	Thrust:	56.027
Time:	1.813	Roll Set Point:	-0.138	Pitch Set Point:	-0.066	Yaw Set Point:	-0.132	X_WP:	0.000	Y_WP:	0.000	Y_WP:	0.750	X:	0.067	Y:	0.038	Z:	0.906	yaw:	7.546	yaw rate:	-9.714	Roll:	1.695	Pitch:	0.283	Yaw:	13.778	Thrust:	47.593
Time:	1.834	Roll Set Point:	-0.139	Pitch Set Point:	-0.065	Yaw Set Point:	-0.144	X_WP:	0.000	Y_WP:	0.000	Y_WP:	0.750	X:	0.067	Y:	0.037	Z:	0.915	yaw:	8.270	yaw rate:	-72.401	Roll:	2.538	Pitch:	-0.053	Yaw:	22.637	Thrust:	59.063
Time:	1.853	Roll Set Point:	-0.137	Pitch Set Point:	-0.065	Yaw Set Point:	-0.122	X_WP:	0.000	Y_WP:	0.000	Y_WP:	0.750	X:	0.067	Y:	0.037	Z:	0.922	yaw:	6.971	yaw rate:	129.968	Roll:	1.366	Pitch:	1.763	Yaw:	-5.977	Thrust:	51.855
Time:	1.874	Roll Set Point:	-0.135	Pitch Set Point:	-0.065	Yaw Set Point:	-0.116	X_WP:	0.000	Y_WP:	0.000	Y_WP:	0.750	X:	0.066	Y:	0.036	Z:	0.930	yaw:	6.658	yaw rate:	31.290	Roll:	1.469	Pitch:	1.048	Yaw:	7.244	Thrust:	54.183
Time:	1.896	Roll Set Point:	-0.135	Pitch Set Point:	-0.064	Yaw Set Point:	-0.125	X_WP:	0.000	Y_WP:	0.000	Y_WP:	0.750	X:	0.066	Y:	0.036	Z:	0.938	yaw:	7.153	yaw rate:	-49.514	Roll:	2.240	Pitch:	0.330	Yaw:	18.022	Thrust:	64.910
Time:	1.914	Roll Set Point:	-0.134	Pitch Set Point:	-0.062	Yaw Set Point:	-0.115	X_WP:	0.000	Y_WP:	0.000	Y_WP:	0.750	X:	0.065	Y:	0.035	Z:	0.945	yaw:	6.568	yaw rate:	58.539	Roll:	1.502	Pitch:	0.608	Yaw:	2.294	Thrust:	41.238
Time:	1.934	Roll Set Point:	-0.133	Pitch Set Point:	-0.062	Yaw Set Point:	-0.123	X_WP:	0.000	Y_WP:	0.000	Y_WP:	0.750	X:	0.065	Y:	0.035	Z:	0.952	yaw:	7.027	yaw rate:	-45.898	Roll:	1.881	Pitch:	0.644	Yaw:	17.719	Thrust:	55.956
Time:	1.953	Roll Set Point:	-0.131	Pitch Set Point:	-0.062	Yaw Set Point:	-0.104	X_WP:	0.000	Y_WP:	0.000	Y_WP:	0.750	X:	0.064	Y:	0.035	Z:	0.958	yaw:	5.943	yaw rate:	108.383	Roll:	1.241	Pitch:	1.495	Yaw:	-4.485	Thrust:	50.212
Time:	1.973	Roll Set Point:	-0.131	Pitch Set Point:	-0.062	Yaw Set Point:	-0.107	X_WP:	0.000	Y_WP:	0.000	Y_WP:	0.750	X:	0.064	Y:	0.034	Z:	0.965	yaw:	6.125	yaw rate:	-18.263	Roll:	1.913	Pitch:	0.507	Yaw:	12.945	Thrust:	52.708
Time:	1.994	Roll Set Point:	-0.130	Pitch Set Point:	-0.062	Yaw Set Point:	-0.108	X_WP:	0.000	Y_WP:	0.000	Y_WP:	0.750	X:	0.063	Y:	0.034	Z:	0.971	yaw:	6.209	yaw rate:	-8.365	Roll:	1.834	Pitch:	1.000	Yaw:	11.805	Thrust:	54.532
Time:	2.015	Roll Set Point:	-0.128	Pitch Set Point:	-0.062	Yaw Set Point:	-0.095	X_WP:	0.000	Y_WP:	0.000	Y_WP:	0.750	X:	0.062	Y:	0.034	Z:	0.977	yaw:	5.462	yaw rate:	74.749	Roll:	1.314	Pitch:	1.267	Yaw:	-0.223	Thrust:	53.706
Time:	2.035	Roll Set Point:	-0.127	Pitch Set Point:	-0.062	Yaw Set Point:	-0.089	X_WP:	0.000	Y_WP:	0.000	Y_WP:	0.750	X:	0.062	Y:	0.034	Z:	0.982	yaw:	5.110	yaw rate:	35.154	Roll:	1.561	Pitch:	1.081	Yaw:	4.520	Thrust:	52.054
Time:	2.053	Roll Set Point:	-0.126	Pitch Set Point:	-0.062	Yaw Set Point:	-0.090	X_WP:	0.000	Y_WP:	0.000	Y_WP:	0.750	X:	0.061	Y:	0.034	Z:	0.987	yaw:	5.136	yaw rate:	-2.568	Roll:	1.675	Pitch:	0.999	Yaw:	9.440	Thrust:	48.910
Time:	2.074	Roll Set Point:	-0.125	Pitch Set Point:	-0.062	Yaw Set Point:	-0.093	X_WP:	0.000	Y_WP:	0.000	Y_WP:	0.750	X:	0.061	Y:	0.034	Z:	0.992	yaw:	5.314	yaw rate:	-17.875	Roll:	1.743	Pitch:	0.984	Yaw:	11.755	Thrust:	53.292
Time:	2.096	Roll Set Point:	-0.123	Pitch Set Point:	-0.062	Yaw Set Point:	-0.091	X_WP:	0.000	Y_WP:	0.000	Y_WP:	0.750	X:	0.060	Y:	0.034	Z:	0.996	yaw:	5.226	yaw rate:	8.841	Roll:	1.628	Pitch:	0.993	Yaw:	8.533	Thrust:	61.269
Time:	2.114	Roll Set Point:	-0.122	Pitch Set Point:	-0.063	Yaw Set Point:	-0.070	X_WP:	0.000	Y_WP:	0.000	Y_WP:	0.750	X:	0.060	Y:	0.034	Z:	1.000	yaw:	4.030	yaw rate:	119.556	Roll:	1.051	Pitch:	2.024	Yaw:	-10.208	Thrust:	46.110
Time:	2.134	Roll Set Point:	-0.121	Pitch Set Point:	-0.062	Yaw Set Point:	-0.076	X_WP:	0.000	Y_WP:	0.000	Y_WP:	0.750	X:	0.059	Y:	0.034	Z:	1.004	yaw:	4.344	yaw rate:	-31.307	Roll:	1.691	Pitch:	0.608	Yaw:	12.210	Thrust:	48.846
Time:	2.154	Roll Set Point:	-0.120	Pitch Set Point:	-0.063	Yaw Set Point:	-0.074	X_WP:	0.000	Y_WP:	0.000	Y_WP:	0.750	X:	0.059	Y:	0.034	Z:	1.007	yaw:	4.253	yaw rate:	9.017	Roll:	1.502	Pitch:	1.246	Yaw:	6.874	Thrust:	51.656
Time:	2.173	Roll Set Point:	-0.119	Pitch Set Point:	-0.063	Yaw Set Point:	-0.078	X_WP:	0.000	Y_WP:	0.000	Y_WP:	0.750	X:	0.058	Y:	0.034	Z:	1.010	yaw:	4.468	yaw rate:	-21.470	Roll:	1.710	Pitch:	1.088	Yaw:	11.088	Thrust:	53.012
Time:	2.194	Roll Set Point:	-0.117	Pitch Set Point:	-0.064	Yaw Set Point:	-0.065	X_WP:	0.000	Y_WP:	0.000	Y_WP:	0.750	X:	0.057	Y:	0.034	Z:	1.012	yaw:	3.723	yaw rate:	74.520	Roll:	1.187	Pitch:	1.537	Yaw:	-2.252	Thrust:	54.755
Time:	2.213	Roll Set Point:	-0.116	Pitch Set Point:	-0.064	Yaw Set Point:	-0.066	X_WP:	0.000	Y_WP:	0.000	Y_WP:	0.750	X:	0.057	Y:	0.034	Z:	1.014	yaw:	3.754	yaw rate:	-3.130	Roll:	1.532	Pitch:	1.103	Yaw:	7.592	Thrust:	50.292
Time:	2.234	Roll Set Point:	-0.115	Pitch Set Point:	-0.065	Yaw Set Point:	-0.070	X_WP:	0.000	Y_WP:	0.000	Y_WP:	0.750	X:	0.056	Y:	0.034	Z:	1.016	yaw:	4.016	yaw rate:	-26.158	Roll:	1.740	Pitch:	1.154	Yaw:	10.984	Thrust:	55.724
Time:	2.254	Roll Set Point:	-0.114	Pitch Set Point:	-0.065	Yaw Set Point:	-0.067	X_WP:	0.000	Y_WP:	0.000	Y_WP:	0.750	X:	0.056	Y:	0.035	Z:	1.017	yaw:	3.851	yaw rate:	16.490	Roll:	1.458	Pitch:	1.348	Yaw:	5.126	Thrust:	52.036
Time:	2.273	Roll Set Point:	-0.113	Pitch Set Point:	-0.066	Yaw Set Point:	-0.065	X_WP:	0.000	Y_WP:	0.000	Y_WP:	0.750	X:	0.055	Y:	0.035	Z:	1.018	yaw:	3.730	yaw rate:	12.053	Roll:	1.356	Pitch:	1.424	Yaw:	5.610	Thrust:	53.725
Time:	2.296	Roll Set Point:	-0.112	Pitch Set Point:	-0.066	Yaw Set Point:	-0.064	X_WP:	0.000	Y_WP:	0.000	Y_WP:	0.750	X:	0.055	Y:	0.035	Z:	1.018	yaw:	3.642	yaw rate:	8.819	Roll:	1.731	Pitch:	1.133	Yaw:	6.257	Thrust:	61.681
Time:	2.321	Roll Set Point:	-0.111	Pitch Set Point:	-0.067	Yaw Set Point:	-0.053	X_WP:	0.000	Y_WP:	0.000	Y_WP:	0.750	X:	0.054	Y:	0.035	Z:	1.017	yaw:	3.062	yaw rate:	58.018	Roll:	1.477	Pitch:	1.460	Yaw:	0.829	Thrust:	73.015
Time:	2.334	Roll Set Point:	-0.110	Pitch Set Point:	-0.067	Yaw Set Point:	-0.052	X_WP:	0.000	Y_WP:	0.000	Y_WP:	0.750	X:	0.054	Y:	0.035	Z:	1.017	yaw:	2.968	yaw rate:	9.404	Roll:	1.222	Pitch:	1.589	Yaw:	3.567	Thrust:	32.729
Time:	2.353	Roll Set Point:	-0.109	Pitch Set Point:	-0.068	Yaw Set Point:	-0.049	X_WP:	0.000	Y_WP:	0.000	Y_WP:	0.750	X:	0.054	Y:	0.035	Z:	1.016	yaw:	2.825	yaw rate:	14.304	Roll:	1.444	Pitch:	1.389	Yaw:	3.921	Thrust:	52.122
Time:	2.373	Roll Set Point:	-0.108	Pitch Set Point:	-0.069	Yaw Set Point:	-0.046	X_WP:	0.000	Y_WP:	0.000	Y_WP:	0.750	X:	0.053	Y:	0.036	Z:	1.015	yaw:	2.634	yaw rate:	19.074	Roll:	1.387	Pitch:	1.511	Yaw:	3.189	Thrust:	54.526
Time:	2.394	Roll Set Point:	-0.107	Pitch Set Point:	-0.069	Yaw Set Point:	-0.052	X_WP:	0.000	Y_WP:	0.000	Y_WP:	0.750	X:	0.053	Y:	0.036	Z:	1.014	yaw:	2.959	yaw rate:	-32.519	Roll:	1.764	Pitch:	1.204	Yaw:	10.283	Thrust:	55.825
Time:	2.414	Roll Set Point:	-0.106	Pitch Set Point:	-0.070	Yaw Set Point:	-0.051	X_WP:	0.000	Y_WP:	0.000	Y_WP:	0.750	X:	0.052	Y:	0.036	Z:	1.013	yaw:	2.922	yaw rate:	3.758	Roll:	1.431	Pitch:	1.422	Yaw:	5.555	Thrust:	54.715
Time:	2.434	Roll Set Point:	-0.105	Pitch Set Point:	-0.071	Yaw Set Point:	-0.047	X_WP:	0.000	Y_WP:	0.000	Y_WP:	0.750	X:	0.052	Y:	0.037	Z:	1.011	yaw:	2.683	yaw rate:	23.840	Roll:	1.505	Pitch:	1.543	Yaw:	2.732	Thrust:	55.775
Time:	2.454	Roll Set Point:	-0.104	Pitch Set Point:	-0.071	Yaw Set Point:	-0.041	X_WP:	0.000	Y_WP:	0.000	Y_WP:	0.750	X:	0.051	Y:	0.037	Z:	1.008	yaw:	2.349	yaw rate:	33.396	Roll:	1.322	Pitch:	1.451	Yaw:	0.796	Thrust:	54.296
Time:	2.474	Roll Set Point:	-0.104	Pitch Set Point:	-0.072	Yaw Set Point:	-0.045	X_WP:	0.000	Y_WP:	0.000	Y_WP:	0.750	X:	0.051	Y:	0.037	Z:	1.006	yaw:	2.587	yaw rate:	-23.748	Roll:	1.664	Pitch:	1.386	Yaw:	8.769	Thrust:	52.654
Time:	2.496	Roll Set Point:	-0.103	Pitch Set Point:	-0.071	Yaw Set Point:	-0.054	X_WP:	0.000	Y_WP:	0.000	Y_WP:	0.750	X:	0.051	Y:	0.037	Z:	1.003	yaw:	3.075	yaw rate:	-48.782	Roll:	1.840	Pitch:	0.812	Yaw:	12.184	Thrust:	63.142
Time:	2.514	Roll Set Point:	-0.102	Pitch Set Point:	-0.072	Yaw Set Point:	-0.044	X_WP:	0.000	Y_WP:	0.000	Y_WP:	0.750	X:	0.050	Y:	0.037	Z:	1.001	yaw:	2.513	yaw rate:	56.163	Roll:	1.141	Pitch:	1.973	Yaw:	-2.876	Thrust:	49.356
Time:	2.534	Roll Set Point:	-0.101	Pitch Set Point:	-0.073	Yaw Set Point:	-0.044	X_WP:	0.000	Y_WP:	0.000	Y_WP:	0.750	X:	0.050	Y:	0.038	Z:	0.997	yaw:	2.496	yaw rate:	1.701	Roll:	1.583	Pitch:	1.452	Yaw:	5.185	Thrust:	53.727
Time:	2.554	Roll Set Point:	-0.100	Pitch Set Point:	-0.073	Yaw Set Point:	-0.029	X_WP:	0.000	Y_WP:	0.000	Y_WP:	0.750	X:	0.049	Y:	0.037	Z:	0.994	yaw:	1.659	yaw rate:	83.732	Roll:	0.855	Pitch:	1.618	Yaw:	-6.241	Thrust:	56.864
Time:	2.574	Roll Set Point:	-0.099	Pitch Set Point:	-0.074	Yaw Set Point:	-0.035	X_WP:	0.000	Y_WP:	0.000	Y_WP:	0.750	X:	0.049	Y:	0.038	Z:	0.991	yaw:	2.017	yaw rate:	-35.866	Roll:	1.775	Pitch:	1.365	Yaw:	9.548	Thrust:	54.754
Time:	2.594	Roll Set Point:	-0.099	Pitch Set Point:	-0.073	Yaw Set Point:	-0.050	X_WP:	0.000	Y_WP:	0.000	Y_WP:	0.750	X:	0.049	Y:	0.038	Z:	0.987	yaw:	2.875	yaw rate:	-85.746	Roll:	2.078	Pitch:	0.504	Yaw:	16.898	Thrust:	58.078
Time:	2.613	Roll Set Point:	-0.098	Pitch Set Point:	-0.074	Yaw Set Point:	-0.040	X_WP:	0.000	Y_WP:	0.000	Y_WP:	0.750	X:	0.048	Y:	0.038	Z:	0.982	yaw:	2.281	yaw rate:	59.403	Roll:	1.134	Pitch:	1.655	Yaw:	-3.097	Thrust:	53.725
Time:	2.634	Roll Set Point:	-0.098	Pitch Set Point:	-0.074	Yaw Set Point:	-0.045	X_WP:	0.000	Y_WP:	0.000	Y_WP:	0.750	X:	0.048	Y:	0.038	Z:	0.978	yaw:	2.579	yaw rate:	-29.818	Roll:	1.824	Pitch:	1.451	Yaw:	9.443	Thrust:	57.857
Time:	2.654	Roll Set Point:	-0.097	Pitch Set Point:	-0.076	Yaw Set Point:	-0.038	X_WP:	0.000	Y_WP:	0.000	Y_WP:	0.750	X:	0.048	Y:	0.039	Z:	0.973	yaw:	2.169	yaw rate:	41.008	Roll:	1.390	Pitch:	1.917	Yaw:	-0.391	Thrust:	56.054
Time:	2.674	Roll Set Point:	-0.097	Pitch Set Point:	-0.077	Yaw Set Point:	-0.021	X_WP:	0.000	Y_WP:	0.000	Y_WP:	0.750	X:	0.048	Y:	0.039	Z:	0.969	yaw:	1.202	yaw rate:	96.663	Roll:	1.182	Pitch:	2.401	Yaw:	-9.307	Thrust:	55.504
Time:	2.696	Roll Set Point:	-0.096	Pitch Set Point:	-0.077	Yaw Set Point:	-0.035	X_WP:	0.000	Y_WP:	0.000	Y_WP:	0.750	X:	0.048	Y:	0.039	Z:	0.964	yaw:	1.977	yaw rate:	-77.510	Roll:	1.919	Pitch:	0.796	Yaw:	13.947	Thrust:	62.132
Time:	2.713	Roll Set Point:	-0.096	Pitch Set Point:	-0.077	Yaw Set Point:	-0.029	X_WP:	0.000	Y_WP:	0.000	Y_WP:	0.750	X:	0.047	Y:	0.039	Z:	0.958	yaw:	1.665	yaw rate:	31.193	Roll:	1.390	Pitch:	1.377	Yaw:	-0.783	Thrust:	52.035
Time:	2.734	Roll Set Point:	-0.096	Pitch Set Point:	-0.078	Yaw Set Point:	-0.029	X_WP:	0.000	Y_WP:	0.000	Y_WP:	0.750	X:	0.047	Y:	0.040	Z:	0.953	yaw:	1.682	yaw rate:	-1.649	Roll:	1.730	Pitch:	1.746	Yaw:	4.639	Thrust:	58.568
Time:	2.753	Roll Set Point:	-0.095	Pitch Set Point:	-0.079	Yaw Set Point:	-0.025	X_WP:	0.000	Y_WP:	0.000	Y_WP:	0.750	X:	0.047	Y:	0.040	Z:	0.948	yaw:	1.431	yaw rate:	25.063	Roll:	1.506	Pitch:	1.736	Yaw:	0.514	Thrust:	55.327
Time:	2.773	Roll Set Point:	-0.094	Pitch Set Point:	-0.080	Yaw Set Point:	-0.004	X_WP:	0.000	Y_WP:	0.000	Y_WP:	0.750	X:	0.047	Y:	0.040	Z:	0.942	yaw:	0.255	yaw rate:	117.615	Roll:	0.929	Pitch:	2.381	Yaw:	-13.130	Thrust:	57.089
Time:	2.795	Roll Set Point:	-0.095	Pitch Set Point:	-0.080	Yaw Set Point:	-0.025	X_WP:	0.000	Y_WP:	0.000	Y_WP:	0.750	X:	0.047	Y:	0.040	Z:	0.937	yaw:	1.447	yaw rate:	-119.235	Roll:	2.444	Pitch:	0.613	Yaw:	18.702	Thrust:	59.712
Time:	2.814	Roll Set Point:	-0.094	Pitch Set Point:	-0.081	Yaw Set Point:	-0.001	X_WP:	0.000	Y_WP:	0.000	Y_WP:	0.750	X:	0.047	Y:	0.041	Z:	0.931	yaw:	0.081	yaw rate:	136.661	Roll:	0.804	Pitch:	2.636	Yaw:	-16.598	Thrust:	56.913
Time:	2.834	Roll Set Point:	-0.095	Pitch Set Point:	-0.080	Yaw Set Point:	-0.024	X_WP:	0.000	Y_WP:	0.000	Y_WP:	0.750	X:	0.047	Y:	0.041	Z:	0.925	yaw:	1.390	yaw rate:	-130.903	Roll:	2.537	Pitch:	0.399	Yaw:	21.222	Thrust:	57.602
Time:	2.854	Roll Set Point:	-0.094	Pitch Set Point:	-0.081	Yaw Set Point:	-0.019	X_WP:	0.000	Y_WP:	0.000	Y_WP:	0.750	X:	0.047	Y:	0.041	Z:	0.919	yaw:	1.071	yaw rate:	31.932	Roll:	1.461	Pitch:	1.784	Yaw:	-0.623	Thrust:	58.192
Time:	2.874	Roll Set Point:	-0.094	Pitch Set Point:	-0.081	Yaw Set Point:	-0.018	X_WP:	0.000	Y_WP:	0.000	Y_WP:	0.750	X:	0.047	Y:	0.041	Z:	0.913	yaw:	1.015	yaw rate:	5.537	Roll:	1.687	Pitch:	1.503	Yaw:	2.724	Thrust:	58.309
Time:	2.896	Roll Set Point:	-0.093	Pitch Set Point:	-0.083	Yaw Set Point:	0.002	X_WP:	0.000	Y_WP:	0.000	Y_WP:	0.750	X:	0.047	Y:	0.041	Z:	0.907	yaw:	-0.141	yaw rate:	115.583	Roll:	1.092	Pitch:	2.356	Yaw:	-12.029	Thrust:	61.243
Time:	2.914	Roll Set Point:	-0.093	Pitch Set Point:	-0.085	Yaw Set Point:	0.030	X_WP:	0.000	Y_WP:	0.000	Y_WP:	0.750	X:	0.047	Y:	0.042	Z:	0.900	yaw:	-1.709	yaw rate:	156.826	Roll:	1.284	Pitch:	3.011	Yaw:	-23.003	Thrust:	54.151
Time:	2.933	Roll Set Point:	-0.094	Pitch Set Point:	-0.083	Yaw Set Point:	-0.002	X_WP:	0.000	Y_WP:	0.000	Y_WP:	0.750	X:	0.047	Y:	0.042	Z:	0.894	yaw:	0.120	yaw rate:	-182.860	Roll:	2.623	Pitch:	-0.015	Yaw:	26.876	Thrust:	58.315
Time:	2.954	Roll Set Point:	-0.093	Pitch Set Point:	-0.084	Yaw Set Point:	0.009	X_WP:	0.000	Y_WP:	0.000	Y_WP:	0.750	X:	0.047	Y:	0.042	Z:	0.888	yaw:	-0.523	yaw rate:	64.279	Roll:	1.336	Pitch:	1.934	Yaw:	-6.892	Thrust:	58.188
Time:	2.974	Roll Set Point:	-0.094	Pitch Set Point:	-0.082	Yaw Set Point:	0.000	X_WP:	0.000	Y_WP:	0.000	Y_WP:	0.750	X:	0.047	Y:	0.041	Z:	0.882	yaw:	-0.020	yaw rate:	-50.259	Roll:	1.977	Pitch:	0.377	Yaw:	8.636	Thrust:	56.895
Time:	2.994	Roll Set Point:	-0.094	Pitch Set Point:	-0.081	Yaw Set Point:	-0.007	X_WP:	0.000	Y_WP:	0.000	Y_WP:	0.750	X:	0.047	Y:	0.041	Z:	0.877	yaw:	0.424	yaw rate:	-44.448	Roll:	2.176	Pitch:	1.093	Yaw:	8.313	Thrust:	57.513
Time:	3.014	Roll Set Point:	-0.094	Pitch Set Point:	-0.080	Yaw Set Point:	-0.006	X_WP:	0.000	Y_WP:	0.000	Y_WP:	0.750	X:	0.047	Y:	0.040	Z:	0.871	yaw:	0.365	yaw rate:	5.890	Roll:	1.692	Pitch:	0.927	Yaw:	1.672	Thrust:	57.434
Time:	3.034	Roll Set Point:	-0.095	Pitch Set Point:	-0.081	Yaw Set Point:	-0.010	X_WP:	0.000	Y_WP:	0.000	Y_WP:	0.750	X:	0.047	Y:	0.041	Z:	0.865	yaw:	0.575	yaw rate:	-20.979	Roll:	2.109	Pitch:	1.753	Yaw:	5.523	Thrust:	58.184
Time:	3.054	Roll Set Point:	-0.095	Pitch Set Point:	-0.082	Yaw Set Point:	-0.008	X_WP:	0.000	Y_WP:	0.000	Y_WP:	0.750	X:	0.047	Y:	0.041	Z:	0.859	yaw:	0.463	yaw rate:	11.223	Roll:	1.763	Pitch:	1.602	Yaw:	1.186	Thrust:	57.702
Time:	3.074	Roll Set Point:	-0.095	Pitch Set Point:	-0.081	Yaw Set Point:	-0.009	X_WP:	0.000	Y_WP:	0.000	Y_WP:	0.750	X:	0.047	Y:	0.041	Z:	0.853	yaw:	0.515	yaw rate:	-5.234	Roll:	1.784	Pitch:	1.110	Yaw:	3.401	Thrust:	57.198
Time:	3.096	Roll Set Point:	-0.095	Pitch Set Point:	-0.081	Yaw Set Point:	-0.004	X_WP:	0.000	Y_WP:	0.000	Y_WP:	0.750	X:	0.047	Y:	0.040	Z:	0.847	yaw:	0.218	yaw rate:	29.711	Roll:	1.814	Pitch:	1.219	Yaw:	-1.106	Thrust:	62.337
Time:	3.114	Roll Set Point:	-0.095	Pitch Set Point:	-0.082	Yaw Set Point:	-0.009	X_WP:	0.000	Y_WP:	0.000	Y_WP:	0.750	X:	0.047	Y:	0.041	Z:	0.841	yaw:	0.538	yaw rate:	-32.022	Roll:	2.056	Pitch:	1.686	Yaw:	7.149	Thrust:	54.980
Time:	3.134	Roll Set Point:	-0.095	Pitch Set Point:	-0.082	Yaw Set Point:	-0.003	X_WP:	0.000	Y_WP:	0.000	Y_WP:	0.750	X:	0.048	Y:	0.041	Z:	0.835	yaw:	0.156	yaw rate:	38.219	Roll:	1.677	Pitch:	1.818	Yaw:	-2.814	Thrust:	57.889
Time:	3.154	Roll Set Point:	-0.095	Pitch Set Point:	-0.082	Yaw Set Point:	-0.001	X_WP:	0.000	Y_WP:	0.000	Y_WP:	0.750	X:	0.048	Y:	0.041	Z:	0.829	yaw:	0.045	yaw rate:	11.139	Roll:	1.780	Pitch:	1.394	Yaw:	0.642	Thrust:	58.654
Time:	3.173	Roll Set Point:	-0.095	Pitch Set Point:	-0.083	Yaw Set Point:	0.018	X_WP:	0.000	Y_WP:	0.000	Y_WP:	0.750	X:	0.048	Y:	0.041	Z:	0.823	yaw:	-1.053	yaw rate:	109.750	Roll:	1.213	Pitch:	2.212	Yaw:	-14.801	Thrust:	56.335
Time:	3.194	Roll Set Point:	-0.096	Pitch Set Point:	-0.082	Yaw Set Point:	-0.007	X_WP:	0.000	Y_WP:	0.000	Y_WP:	0.750	X:	0.048	Y:	0.041	Z:	0.816	yaw:	0.423	yaw rate:	-147.632	Roll:	2.806	Pitch:	0.249	Yaw:	20.947	Thrust:	61.203
Time:	3.214	Roll Set Point:	-0.096	Pitch Set Point:	-0.084	Yaw Set Point:	0.008	X_WP:	0.000	Y_WP:	0.000	Y_WP:	0.750	X:	0.048	Y:	0.042	Z:	0.811	yaw:	-0.442	yaw rate:	86.516	Roll:	1.412	Pitch:	2.645	Yaw:	-10.322	Thrust:	56.632
Time:	3.234	Roll Set Point:	-0.096	Pitch Set Point:	-0.082	Yaw Set Point:	0.001	X_WP:	0.000	Y_WP:	0.000	Y_WP:	0.750	X:	0.048	Y:	0.041	Z:	0.805	yaw:	-0.073	yaw rate:	-36.831	Roll:	2.107	Pitch:	0.760	Yaw:	6.640	Thrust:	59.068
Time:	3.253	Roll Set Point:	-0.096	Pitch Set Point:	-0.084	Yaw Set Point:	0.013	X_WP:	0.000	Y_WP:	0.000	Y_WP:	0.750	X:	0.048	Y:	0.042	Z:	0.799	yaw:	-0.717	yaw rate:	64.317	Roll:	1.437	Pitch:	2.354	Yaw:	-7.948	Thrust:	57.692
Time:	3.273	Roll Set Point:	-0.097	Pitch Set Point:	-0.082	Yaw Set Point:	0.002	X_WP:	0.000	Y_WP:	0.000	Y_WP:	0.750	X:	0.048	Y:	0.041	Z:	0.793	yaw:	-0.125	yaw rate:	-59.197	Roll:	2.278	Pitch:	0.547	Yaw:	9.567	Thrust:	59.291
Time:	3.296	Roll Set Point:	-0.096	Pitch Set Point:	-0.084	Yaw Set Point:	0.015	X_WP:	0.000	Y_WP:	0.000	Y_WP:	0.750	X:	0.048	Y:	0.042	Z:	0.787	yaw:	-0.836	yaw rate:	71.103	Roll:	1.554	Pitch:	2.247	Yaw:	-7.042	Thrust:	62.946
Time:	3.314	Roll Set Point:	-0.097	Pitch Set Point:	-0.082	Yaw Set Point:	0.003	X_WP:	0.000	Y_WP:	0.000	Y_WP:	0.750	X:	0.049	Y:	0.041	Z:	0.781	yaw:	-0.171	yaw rate:	-66.440	Roll:	2.451	Pitch:	0.402	Yaw:	11.382	Thrust:	56.697
Time:	3.334	Roll Set Point:	-0.097	Pitch Set Point:	-0.083	Yaw Set Point:	0.004	X_WP:	0.000	Y_WP:	0.000	Y_WP:	0.750	X:	0.049	Y:	0.041	Z:	0.776	yaw:	-0.247	yaw rate:	7.533	Roll:	1.890	Pitch:	1.588	Yaw:	0.593	Thrust:	59.013
Time:	3.354	Roll Set Point:	-0.098	Pitch Set Point:	-0.082	Yaw Set Point:	0.002	X_WP:	0.000	Y_WP:	0.000	Y_WP:	0.750	X:	0.049	Y:	0.041	Z:	0.770	yaw:	-0.128	yaw rate:	-11.860	Roll:	2.089	Pitch:	1.159	Yaw:	3.367	Thrust:	60.477
Time:	3.374	Roll Set Point:	-0.098	Pitch Set Point:	-0.082	Yaw Set Point:	0.002	X_WP:	0.000	Y_WP:	0.000	Y_WP:	0.750	X:	0.049	Y:	0.041	Z:	0.765	yaw:	-0.131	yaw rate:	0.321	Roll:	2.093	Pitch:	1.275	Yaw:	1.696	Thrust:	58.105
Time:	3.394	Roll Set Point:	-0.098	Pitch Set Point:	-0.084	Yaw Set Point:	0.015	X_WP:	0.000	Y_WP:	0.000	Y_WP:	0.750	X:	0.049	Y:	0.042	Z:	0.759	yaw:	-0.880	yaw rate:	74.829	Roll:	1.411	Pitch:	2.851	Yaw:	-8.775	Thrust:	61.667
Time:	3.414	Roll Set Point:	-0.099	Pitch Set Point:	-0.081	Yaw Set Point:	0.001	X_WP:	0.000	Y_WP:	0.000	Y_WP:	0.750	X:	0.049	Y:	0.041	Z:	0.754	yaw:	-0.055	yaw rate:	-82.422	Roll:	2.634	Pitch:	-0.253	Yaw:	12.785	Thrust:	55.625
Time:	3.434	Roll Set Point:	-0.098	Pitch Set Point:	-0.083	Yaw Set Point:	0.014	X_WP:	0.000	Y_WP:	0.000	Y_WP:	0.750	X:	0.049	Y:	0.041	Z:	0.749	yaw:	-0.783	yaw rate:	72.796	Roll:	1.442	Pitch:	2.409	Yaw:	-8.605	Thrust:	61.121
Time:	3.454	Roll Set Point:	-0.099	Pitch Set Point:	-0.081	Yaw Set Point:	0.007	X_WP:	0.000	Y_WP:	0.000	Y_WP:	0.750	X:	0.050	Y:	0.040	Z:	0.744	yaw:	-0.418	yaw rate:	-36.483	Roll:	2.405	Pitch:	0.562	Yaw:	6.287	Thrust:	58.382
Time:	3.473	Roll Set Point:	-0.099	Pitch Set Point:	-0.083	Yaw Set Point:	0.012	X_WP:	0.000	Y_WP:	0.000	Y_WP:	0.750	X:	0.050	Y:	0.041	Z:	0.739	yaw:	-0.683	yaw rate:	26.469	Roll:	1.622	Pitch:	2.159	Yaw:	-2.433	Thrust:	59.451
Time:	3.496	Roll Set Point:	-0.100	Pitch Set Point:	-0.080	Yaw Set Point:	-0.003	X_WP:	0.000	Y_WP:	0.000	Y_WP:	0.750	X:	0.050	Y:	0.040	Z:	0.734	yaw:	0.174	yaw rate:	-85.668	Roll:	2.724	Pitch:	0.273	Yaw:	12.149	Thrust:	65.198
Time:	3.514	Roll Set Point:	-0.099	Pitch Set Point:	-0.081	Yaw Set Point:	0.013	X_WP:	0.000	Y_WP:	0.000	Y_WP:	0.750	X:	0.050	Y:	0.040	Z:	0.729	yaw:	-0.752	yaw rate:	92.525	Roll:	1.036	Pitch:	2.040	Yaw:	-12.793	Thrust:	55.376
Time:	3.534	Roll Set Point:	-0.100	Pitch Set Point:	-0.082	Yaw Set Point:	0.016	X_WP:	0.000	Y_WP:	0.000	Y_WP:	0.750	X:	0.050	Y:	0.041	Z:	0.725	yaw:	-0.900	yaw rate:	14.828	Roll:	2.016	Pitch:	2.055	Yaw:	-1.237	Thrust:	60.184
Time:	3.553	Roll Set Point:	-0.100	Pitch Set Point:	-0.080	Yaw Set Point:	0.004	X_WP:	0.000	Y_WP:	0.000	Y_WP:	0.750	X:	0.050	Y:	0.040	Z:	0.720	yaw:	-0.230	yaw rate:	-66.987	Roll:	2.425	Pitch:	0.315	Yaw:	10.862	Thrust:	59.189
Time:	3.574	Roll Set Point:	-0.100	Pitch Set Point:	-0.080	Yaw Set Point:	0.013	X_WP:	0.000	Y_WP:	0.000	Y_WP:	0.750	X:	0.050	Y:	0.040	Z:	0.715	yaw:	-0.757	yaw rate:	52.645	Roll:	1.699	Pitch:	1.691	Yaw:	-5.953	Thrust:	59.885
Time:	3.594	Roll Set Point:	-0.100	Pitch Set Point:	-0.082	Yaw Set Point:	0.017	X_WP:	0.000	Y_WP:	0.000	Y_WP:	0.750	X:	0.050	Y:	0.041	Z:	0.711	yaw:	-0.979	yaw rate:	22.258	Roll:	1.868	Pitch:	2.149	Yaw:	-2.193	Thrust:	60.207
Time:	3.614	Roll Set Point:	-0.102	Pitch Set Point:	-0.080	Yaw Set Point:	0.010	X_WP:	0.000	Y_WP:	0.000	Y_WP:	0.750	X:	0.051	Y:	0.040	Z:	0.706	yaw:	-0.545	yaw rate:	-43.465	Roll:	2.772	Pitch:	0.621	Yaw:	6.906	Thrust:	62.381
Time:	3.634	Roll Set Point:	-0.102	Pitch Set Point:	-0.079	Yaw Set Point:	-0.007	X_WP:	0.000	Y_WP:	0.000	Y_WP:	0.750	X:	0.051	Y:	0.040	Z:	0.703	yaw:	0.402	yaw rate:	-94.699	Roll:	2.171	Pitch:	0.568	Yaw:	14.785	Thrust:	58.012
Time:	3.654	Roll Set Point:	-0.101	Pitch Set Point:	-0.084	Yaw Set Point:	0.026	X_WP:	0.000	Y_WP:	0.000	Y_WP:	0.750	X:	0.051	Y:	0.041	Z:	0.697	yaw:	-1.466	yaw rate:	186.819	Roll:	0.873	Pitch:	4.285	Yaw:	-25.752	Thrust:	62.679
Time:	3.674	Roll Set Point:	-0.101	Pitch Set Point:	-0.081	Yaw Set Point:	0.011	X_WP:	0.000	Y_WP:	0.000	Y_WP:	0.750	X:	0.051	Y:	0.040	Z:	0.695	yaw:	-0.602	yaw rate:	-86.382	Roll:	2.508	Pitch:	-0.209	Yaw:	12.173	Thrust:	56.854
Time:	3.696	Roll Set Point:	-0.101	Pitch Set Point:	-0.080	Yaw Set Point:	0.003	X_WP:	0.000	Y_WP:	0.000	Y_WP:	0.750	X:	0.051	Y:	0.040	Z:	0.692	yaw:	-0.188	yaw rate:	-41.403	Roll:	2.196	Pitch:	1.028	Yaw:	6.709	Thrust:	65.181
Time:	3.714	Roll Set Point:	-0.102	Pitch Set Point:	-0.080	Yaw Set Point:	0.002	X_WP:	0.000	Y_WP:	0.000	Y_WP:	0.750	X:	0.051	Y:	0.040	Z:	0.688	yaw:	-0.096	yaw rate:	-9.209	Roll:	2.067	Pitch:	1.309	Yaw:	2.923	Thrust:	55.133
Time:	3.733	Roll Set Point:	-0.101	Pitch Set Point:	-0.082	Yaw Set Point:	0.031	X_WP:	0.000	Y_WP:	0.000	Y_WP:	0.750	X:	0.051	Y:	0.040	Z:	0.685	yaw:	-1.748	yaw rate:	165.221	Roll:	1.222	Pitch:	3.283	Yaw:	-22.450	Thrust:	59.512
Time:	3.753	Roll Set Point:	-0.101	Pitch Set Point:	-0.083	Yaw Set Point:	0.026	X_WP:	0.000	Y_WP:	0.000	Y_WP:	0.750	X:	0.051	Y:	0.041	Z:	0.682	yaw:	-1.500	yaw rate:	-24.750	Roll:	1.996	Pitch:	1.407	Yaw:	3.081	Thrust:	58.579
Time:	3.774	Roll Set Point:	-0.102	Pitch Set Point:	-0.081	Yaw Set Point:	0.011	X_WP:	0.000	Y_WP:	0.000	Y_WP:	0.750	X:	0.051	Y:	0.040	Z:	0.679	yaw:	-0.651	yaw rate:	-84.964	Roll:	2.594	Pitch:	0.619	Yaw:	11.879	Thrust:	61.536
Time:	3.794	Roll Set Point:	-0.102	Pitch Set Point:	-0.082	Yaw Set Point:	0.013	X_WP:	0.000	Y_WP:	0.000	Y_WP:	0.750	X:	0.051	Y:	0.041	Z:	0.676	yaw:	-0.751	yaw rate:	10.028	Roll:	1.876	Pitch:	1.906	Yaw:	-0.401	Thrust:	60.992
Time:	3.815	Roll Set Point:	-0.101	Pitch Set Point:	-0.084	Yaw Set Point:	0.023	X_WP:	0.000	Y_WP:	0.000	Y_WP:	0.750	X:	0.051	Y:	0.041	Z:	0.673	yaw:	-1.300	yaw rate:	54.930	Roll:	1.656	Pitch:	2.368	Yaw:	-6.675	Thrust:	62.476
Time:	3.835	Roll Set Point:	-0.101	Pitch Set Point:	-0.084	Yaw Set Point:	0.035	X_WP:	0.000	Y_WP:	0.000	Y_WP:	0.750	X:	0.051	Y:	0.041	Z:	0.670	yaw:	-2.000	yaw rate:	69.918	Roll:	1.457	Pitch:	1.748	Yaw:	-10.346	Thrust:	59.013
Time:	3.854	Roll Set Point:	-0.101	Pitch Set Point:	-0.084	Yaw Set Point:	0.029	X_WP:	0.000	Y_WP:	0.000	Y_WP:	0.750	X:	0.051	Y:	0.041	Z:	0.667	yaw:	-1.676	yaw rate:	-32.397	Roll:	2.090	Pitch:	1.743	Yaw:	3.879	Thrust:	59.694
Time:	3.874	Roll Set Point:	-0.101	Pitch Set Point:	-0.085	Yaw Set Point:	0.031	X_WP:	0.000	Y_WP:	0.000	Y_WP:	0.750	X:	0.051	Y:	0.042	Z:	0.665	yaw:	-1.772	yaw rate:	9.601	Roll:	1.863	Pitch:	1.725	Yaw:	-1.791	Thrust:	62.171
Time:	3.896	Roll Set Point:	-0.101	Pitch Set Point:	-0.085	Yaw Set Point:	0.032	X_WP:	0.000	Y_WP:	0.000	Y_WP:	0.750	X:	0.051	Y:	0.042	Z:	0.662	yaw:	-1.823	yaw rate:	5.157	Roll:	1.931	Pitch:	1.736	Yaw:	-1.245	Thrust:	63.411
Time:	3.914	Roll Set Point:	-0.101	Pitch Set Point:	-0.085	Yaw Set Point:	0.022	X_WP:	0.000	Y_WP:	0.000	Y_WP:	0.750	X:	0.051	Y:	0.042	Z:	0.660	yaw:	-1.287	yaw rate:	-53.651	Roll:	2.207	Pitch:	1.167	Yaw:	7.357	Thrust:	58.518
Time:	3.935	Roll Set Point:	-0.101	Pitch Set Point:	-0.086	Yaw Set Point:	0.028	X_WP:	0.000	Y_WP:	0.000	Y_WP:	0.750	X:	0.051	Y:	0.042	Z:	0.657	yaw:	-1.624	yaw rate:	33.745	Roll:	1.847	Pitch:	2.121	Yaw:	-4.774	Thrust:	60.473
Time:	3.954	Roll Set Point:	-0.101	Pitch Set Point:	-0.086	Yaw Set Point:	0.028	X_WP:	0.000	Y_WP:	0.000	Y_WP:	0.750	X:	0.051	Y:	0.042	Z:	0.655	yaw:	-1.614	yaw rate:	-1.011	Roll:	2.009	Pitch:	1.659	Yaw:	-0.391	Thrust:	59.835
Time:	3.974	Roll Set Point:	-0.101	Pitch Set Point:	-0.086	Yaw Set Point:	0.025	X_WP:	0.000	Y_WP:	0.000	Y_WP:	0.750	X:	0.051	Y:	0.042	Z:	0.654	yaw:	-1.404	yaw rate:	-21.017	Roll:	2.170	Pitch:	1.361	Yaw:	2.603	Thrust:	59.490
Time:	3.994	Roll Set Point:	-0.102	Pitch Set Point:	-0.086	Yaw Set Point:	0.019	X_WP:	0.000	Y_WP:	0.000	Y_WP:	0.750	X:	0.051	Y:	0.042	Z:	0.652	yaw:	-1.099	yaw rate:	-30.498	Roll:	2.261	Pitch:	1.435	Yaw:	4.156	Thrust:	63.129
Time:	4.014	Roll Set Point:	-0.102	Pitch Set Point:	-0.086	Yaw Set Point:	0.021	X_WP:	0.000	Y_WP:	0.000	Y_WP:	0.750	X:	0.051	Y:	0.042	Z:	0.650	yaw:	-1.194	yaw rate:	9.482	Roll:	1.904	Pitch:	1.505	Yaw:	-1.201	Thrust:	59.539
Time:	4.035	Roll Set Point:	-0.101	Pitch Set Point:	-0.086	Yaw Set Point:	0.030	X_WP:	0.000	Y_WP:	0.000	Y_WP:	0.750	X:	0.051	Y:	0.042	Z:	0.648	yaw:	-1.710	yaw rate:	51.672	Roll:	1.706	Pitch:	1.743	Yaw:	-6.948	Thrust:	64.088
Time:	4.053	Roll Set Point:	-0.102	Pitch Set Point:	-0.085	Yaw Set Point:	0.018	X_WP:	0.000	Y_WP:	0.000	Y_WP:	0.750	X:	0.051	Y:	0.042	Z:	0.647	yaw:	-1.024	yaw rate:	-68.596	Roll:	2.307	Pitch:	1.153	Yaw:	9.804	Thrust:	57.239
Time:	4.073	Roll Set Point:	-0.102	Pitch Set Point:	-0.085	Yaw Set Point:	0.015	X_WP:	0.000	Y_WP:	0.000	Y_WP:	0.750	X:	0.051	Y:	0.042	Z:	0.646	yaw:	-0.835	yaw rate:	-18.932	Roll:	2.243	Pitch:	1.215	Yaw:	3.058	Thrust:	61.091
Time:	4.096	Roll Set Point:	-0.101	Pitch Set Point:	-0.086	Yaw Set Point:	0.027	X_WP:	0.000	Y_WP:	0.000	Y_WP:	0.750	X:	0.051	Y:	0.043	Z:	0.645	yaw:	-1.526	yaw rate:	69.111	Roll:	1.544	Pitch:	2.563	Yaw:	-8.086	Thrust:	66.287
Time:	4.114	Roll Set Point:	-0.101	Pitch Set Point:	-0.086	Yaw Set Point:	0.026	X_WP:	0.000	Y_WP:	0.000	Y_WP:	0.750	X:	0.051	Y:	0.043	Z:	0.644	yaw:	-1.472	yaw rate:	-5.476	Roll:	2.031	Pitch:	1.448	Yaw:	0.290	Thrust:	55.900
Time:	4.134	Roll Set Point:	-0.102	Pitch Set Point:	-0.085	Yaw Set Point:	0.012	X_WP:	0.000	Y_WP:	0.000	Y_WP:	0.750	X:	0.051	Y:	0.042	Z:	0.644	yaw:	-0.666	yaw rate:	-80.576	Roll:	2.556	Pitch:	0.641	Yaw:	11.525	Thrust:	60.016
Time:	4.154	Roll Set Point:	-0.101	Pitch Set Point:	-0.086	Yaw Set Point:	0.031	X_WP:	0.000	Y_WP:	0.000	Y_WP:	0.750	X:	0.051	Y:	0.042	Z:	0.643	yaw:	-1.764	yaw rate:	109.790	Roll:	1.310	Pitch:	2.419	Yaw:	-14.575	Thrust:	61.361
Time:	4.173	Roll Set Point:	-0.102	Pitch Set Point:	-0.086	Yaw Set Point:	0.015	X_WP:	0.000	Y_WP:	0.000	Y_WP:	0.750	X:	0.051	Y:	0.043	Z:	0.643	yaw:	-0.877	yaw rate:	-88.643	Roll:	2.658	Pitch:	1.266	Yaw:	12.645	Thrust:	57.963
Time:	4.194	Roll Set Point:	-0.102	Pitch Set Point:	-0.086	Yaw Set Point:	0.018	X_WP:	0.000	Y_WP:	0.000	Y_WP:	0.750	X:	0.051	Y:	0.042	Z:	0.643	yaw:	-1.039	yaw rate:	16.226	Roll:	1.873	Pitch:	1.527	Yaw:	-1.790	Thrust:	61.405
Time:	4.213	Roll Set Point:	-0.102	Pitch Set Point:	-0.086	Yaw Set Point:	0.018	X_WP:	0.000	Y_WP:	0.000	Y_WP:	0.750	X:	0.051	Y:	0.042	Z:	0.643	yaw:	-1.053	yaw rate:	1.324	Roll:	2.011	Pitch:	1.590	Yaw:	-0.039	Thrust:	57.717
Time:	4.234	Roll Set Point:	-0.102	Pitch Set Point:	-0.086	Yaw Set Point:	0.016	X_WP:	0.000	Y_WP:	0.000	Y_WP:	0.750	X:	0.051	Y:	0.042	Z:	0.643	yaw:	-0.896	yaw rate:	-15.658	Roll:	2.087	Pitch:	1.450	Yaw:	2.465	Thrust:	63.019
Time:	4.254	Roll Set Point:	-0.101	Pitch Set Point:	-0.086	Yaw Set Point:	0.029	X_WP:	0.000	Y_WP:	0.000	Y_WP:	0.750	X:	0.051	Y:	0.042	Z:	0.643	yaw:	-1.669	yaw rate:	77.308	Roll:	1.397	Pitch:	1.873	Yaw:	-10.521	Thrust:	61.384
Time:	4.273	Roll Set Point:	-0.101	Pitch Set Point:	-0.085	Yaw Set Point:	0.030	X_WP:	0.000	Y_WP:	0.000	Y_WP:	0.750	X:	0.051	Y:	0.042	Z:	0.643	yaw:	-1.717	yaw rate:	4.742	Roll:	1.902	Pitch:	1.551	Yaw:	-1.454	Thrust:	58.382
Time:	4.297	Roll Set Point:	-0.101	Pitch Set Point:	-0.086	Yaw Set Point:	0.022	X_WP:	0.000	Y_WP:	0.000	Y_WP:	0.750	X:	0.051	Y:	0.042	Z:	0.644	yaw:	-1.235	yaw rate:	-48.208	Roll:	2.307	Pitch:	1.549	Yaw:	5.644	Thrust:	69.064
Time:	4.314	Roll Set Point:	-0.101	Pitch Set Point:	-0.085	Yaw Set Point:	0.021	X_WP:	0.000	Y_WP:	0.000	Y_WP:	0.750	X:	0.051	Y:	0.042	Z:	0.644	yaw:	-1.182	yaw rate:	-5.272	Roll:	1.841	Pitch:	1.456	Yaw:	0.563	Thrust:	52.661
Time:	4.334	Roll Set Point:	-0.101	Pitch Set Point:	-0.085	Yaw Set Point:	0.020	X_WP:	0.000	Y_WP:	0.000	Y_WP:	0.750	X:	0.051	Y:	0.042	Z:	0.644	yaw:	-1.121	yaw rate:	-6.101	Roll:	2.013	Pitch:	1.534	Yaw:	0.887	Thrust:	61.808
Time:	4.354	Roll Set Point:	-0.101	Pitch Set Point:	-0.084	Yaw Set Point:	0.008	X_WP:	0.000	Y_WP:	0.000	Y_WP:	0.750	X:	0.051	Y:	0.042	Z:	0.645	yaw:	-0.451	yaw rate:	-66.963	Roll:	2.328	Pitch:	0.614	Yaw:	9.841	Thrust:	60.292
Time:	4.374	Roll Set Point:	-0.100	Pitch Set Point:	-0.084	Yaw Set Point:	0.015	X_WP:	0.000	Y_WP:	0.000	Y_WP:	0.750	X:	0.050	Y:	0.041	Z:	0.645	yaw:	-0.855	yaw rate:	40.378	Roll:	1.641	Pitch:	1.559	Yaw:	-5.007	Thrust:	59.720
Time:	4.394	Roll Set Point:	-0.100	Pitch Set Point:	-0.084	Yaw Set Point:	0.007	X_WP:	0.000	Y_WP:	0.000	Y_WP:	0.750	X:	0.050	Y:	0.042	Z:	0.646	yaw:	-0.388	yaw rate:	-46.735	Roll:	2.216	Pitch:	1.412	Yaw:	7.179	Thrust:	60.107
Time:	4.415	Roll Set Point:	-0.100	Pitch Set Point:	-0.084	Yaw Set Point:	0.015	X_WP:	0.000	Y_WP:	0.000	Y_WP:	0.750	X:	0.050	Y:	0.042	Z:	0.647	yaw:	-0.868	yaw rate:	47.989	Roll:	1.639	Pitch:	2.108	Yaw:	-5.857	Thrust:	60.300
Time:	4.434	Roll Set Point:	-0.099	Pitch Set Point:	-0.084	Yaw Set Point:	0.026	X_WP:	0.000	Y_WP:	0.000	Y_WP:	0.750	X:	0.050	Y:	0.041	Z:	0.648	yaw:	-1.478	yaw rate:	61.023	Roll:	1.508	Pitch:	1.586	Yaw:	-8.181	Thrust:	61.599
Time:	4.453	Roll Set Point:	-0.099	Pitch Set Point:	-0.084	Yaw Set Point:	0.019	X_WP:	0.000	Y_WP:	0.000	Y_WP:	0.750	X:	0.050	Y:	0.042	Z:	0.649	yaw:	-1.084	yaw rate:	-39.341	Roll:	2.064	Pitch:	1.548	Yaw:	5.397	Thrust:	57.946
Time:	4.475	Roll Set Point:	-0.098	Pitch Set Point:	-0.083	Yaw Set Point:	0.030	X_WP:	0.000	Y_WP:	0.000	Y_WP:	0.750	X:	0.050	Y:	0.041	Z:	0.651	yaw:	-1.695	yaw rate:	61.090	Roll:	1.483	Pitch:	1.437	Yaw:	-8.744	Thrust:	60.458
Time:	4.497	Roll Set Point:	-0.099	Pitch Set Point:	-0.082	Yaw Set Point:	0.008	X_WP:	0.000	Y_WP:	0.000	Y_WP:	0.750	X:	0.050	Y:	0.041	Z:	0.652	yaw:	-0.453	yaw rate:	-124.260	Roll:	2.665	Pitch:	0.814	Yaw:	15.102	Thrust:	70.967
Time:	4.513	Roll Set Point:	-0.099	Pitch Set Point:	-0.082	Yaw Set Point:	0.006	X_WP:	0.000	Y_WP:	0.000	Y_WP:	0.750	X:	0.049	Y:	0.041	Z:	0.653	yaw:	-0.370	yaw rate:	-8.250	Roll:	1.741	Pitch:	1.324	Yaw:	2.093	Thrust:	49.572
Time:	4.533	Roll Set Point:	-0.098	Pitch Set Point:	-0.082	Yaw Set Point:	0.006	X_WP:	0.000	Y_WP:	0.000	Y_WP:	0.750	X:	0.049	Y:	0.041	Z:	0.654	yaw:	-0.339	yaw rate:	-3.110	Roll:	1.942	Pitch:	1.350	Yaw:	1.514	Thrust:	61.171
Time:	4.553	Roll Set Point:	-0.097	Pitch Set Point:	-0.081	Yaw Set Point:	0.017	X_WP:	0.000	Y_WP:	0.000	Y_WP:	0.750	X:	0.049	Y:	0.040	Z:	0.655	yaw:	-0.951	yaw rate:	61.184	Roll:	1.465	Pitch:	1.476	Yaw:	-7.702	Thrust:	60.760
Time:	4.574	Roll Set Point:	-0.097	Pitch Set Point:	-0.081	Yaw Set Point:	0.009	X_WP:	0.000	Y_WP:	0.000	Y_WP:	0.750	X:	0.049	Y:	0.040	Z:	0.657	yaw:	-0.539	yaw rate:	-41.191	Roll:	2.099	Pitch:	1.435	Yaw:	6.172	Thrust:	59.989
Time:	4.594	Roll Set Point:	-0.097	Pitch Set Point:	-0.081	Yaw Set Point:	0.010	X_WP:	0.000	Y_WP:	0.000	Y_WP:	0.750	X:	0.049	Y:	0.040	Z:	0.659	yaw:	-0.555	yaw rate:	1.648	Roll:	1.991	Pitch:	1.664	Yaw:	0.602	Thrust:	61.484
Time:	4.614	Roll Set Point:	-0.097	Pitch Set Point:	-0.081	Yaw Set Point:	0.010	X_WP:	0.000	Y_WP:	0.000	Y_WP:	0.750	X:	0.049	Y:	0.040	Z:	0.661	yaw:	-0.575	yaw rate:	1.935	Roll:	1.686	Pitch:	1.309	Yaw:	0.477	Thrust:	58.926
Time:	4.635	Roll Set Point:	-0.096	Pitch Set Point:	-0.080	Yaw Set Point:	0.002	X_WP:	0.000	Y_WP:	0.000	Y_WP:	0.750	X:	0.048	Y:	0.040	Z:	0.662	yaw:	-0.113	yaw rate:	-46.173	Roll:	1.933	Pitch:	1.086	Yaw:	7.201	Thrust:	64.703
Time:	4.653	Roll Set Point:	-0.095	Pitch Set Point:	-0.082	Yaw Set Point:	0.025	X_WP:	0.000	Y_WP:	0.000	Y_WP:	0.750	X:	0.048	Y:	0.040	Z:	0.664	yaw:	-1.439	yaw rate:	132.582	Roll:	0.917	Pitch:	3.041	Yaw:	-19.440	Thrust:	54.656
Time:	4.673	Roll Set Point:	-0.094	Pitch Set Point:	-0.082	Yaw Set Point:	0.026	X_WP:	0.000	Y_WP:	0.000	Y_WP:	0.750	X:	0.048	Y:	0.040	Z:	0.666	yaw:	-1.464	yaw rate:	2.503	Roll:	1.782	Pitch:	1.484	Yaw:	-0.818	Thrust:	61.012
Time:	4.697	Roll Set Point:	-0.095	Pitch Set Point:	-0.079	Yaw Set Point:	0.006	X_WP:	0.000	Y_WP:	0.000	Y_WP:	0.750	X:	0.047	Y:	0.039	Z:	0.668	yaw:	-0.335	yaw rate:	-112.891	Roll:	2.504	Pitch:	0.235	Yaw:	13.921	Thrust:	70.062
Time:	4.715	Roll Set Point:	-0.093	Pitch Set Point:	-0.082	Yaw Set Point:	0.029	X_WP:	0.000	Y_WP:	0.000	Y_WP:	0.750	X:	0.047	Y:	0.040	Z:	0.669	yaw:	-1.689	yaw rate:	135.445	Roll:	0.453	Pitch:	3.625	Yaw:	-22.195	Thrust:	52.457
Time:	4.734	Roll Set Point:	-0.093	Pitch Set Point:	-0.082	Yaw Set Point:	0.034	X_WP:	0.000	Y_WP:	0.000	Y_WP:	0.750	X:	0.047	Y:	0.040	Z:	0.671	yaw:	-1.971	yaw rate:	28.156	Roll:	2.083	Pitch:	1.465	Yaw:	-4.921	Thrust:	60.302
Time:	4.756	Roll Set Point:	-0.093	Pitch Set Point:	-0.081	Yaw Set Point:	0.023	X_WP:	0.000	Y_WP:	0.000	Y_WP:	0.750	X:	0.047	Y:	0.040	Z:	0.673	yaw:	-1.327	yaw rate:	-64.431	Roll:	1.814	Pitch:	1.028	Yaw:	7.268	Thrust:	59.138
Time:	4.773	Roll Set Point:	-0.092	Pitch Set Point:	-0.081	Yaw Set Point:	0.021	X_WP:	0.000	Y_WP:	0.000	Y_WP:	0.750	X:	0.047	Y:	0.040	Z:	0.675	yaw:	-1.188	yaw rate:	-13.823	Roll:	1.895	Pitch:	1.302	Yaw:	1.738	Thrust:	59.981
Time:	4.794	Roll Set Point:	-0.092	Pitch Set Point:	-0.080	Yaw Set Point:	0.026	X_WP:	0.000	Y_WP:	0.000	Y_WP:	0.750	X:	0.046	Y:	0.039	Z:	0.677	yaw:	-1.471	yaw rate:	28.234	Roll:	1.618	Pitch:	1.302	Yaw:	-4.143	Thrust:	60.032
Time:	4.814	Roll Set Point:	-0.092	Pitch Set Point:	-0.079	Yaw Set Point:	0.005	X_WP:	0.000	Y_WP:	0.000	Y_WP:	0.750	X:	0.046	Y:	0.039	Z:	0.679	yaw:	-0.299	yaw rate:	-117.216	Roll:	2.512	Pitch:	0.665	Yaw:	16.581	Thrust:	61.532
Time:	4.834	Roll Set Point:	-0.092	Pitch Set Point:	-0.078	Yaw Set Point:	0.005	X_WP:	0.000	Y_WP:	0.000	Y_WP:	0.750	X:	0.046	Y:	0.039	Z:	0.682	yaw:	-0.296	yaw rate:	-0.230	Roll:	1.803	Pitch:	1.392	Yaw:	1.119	Thrust:	61.065
Time:	4.854	Roll Set Point:	-0.092	Pitch Set Point:	-0.078	Yaw Set Point:	0.005	X_WP:	0.000	Y_WP:	0.000	Y_WP:	0.750	X:	0.046	Y:	0.039	Z:	0.684	yaw:	-0.268	yaw rate:	-2.829	Roll:	1.741	Pitch:	1.346	Yaw:	1.443	Thrust:	54.759
Time:	4.875	Roll Set Point:	-0.091	Pitch Set Point:	-0.077	Yaw Set Point:	-0.004	X_WP:	0.000	Y_WP:	0.000	Y_WP:	0.750	X:	0.046	Y:	0.038	Z:	0.686	yaw:	0.235	yaw rate:	-50.309	Roll:	1.964	Pitch:	0.866	Yaw:	8.149	Thrust:	66.685
Time:	4.896	Roll Set Point:	-0.091	Pitch Set Point:	-0.077	Yaw Set Point:	-0.002	X_WP:	0.000	Y_WP:	0.000	Y_WP:	0.750	X:	0.045	Y:	0.038	Z:	0.689	yaw:	0.089	yaw rate:	14.554	Roll:	1.760	Pitch:	1.516	Yaw:	-0.046	Thrust:	63.129
Time:	4.914	Roll Set Point:	-0.090	Pitch Set Point:	-0.077	Yaw Set Point:	-0.001	X_WP:	0.000	Y_WP:	0.000	Y_WP:	0.750	X:	0.045	Y:	0.039	Z:	0.691	yaw:	0.048	yaw rate:	4.188	Roll:	1.513	Pitch:	1.894	Yaw:	0.774	Thrust:	54.495
Time:	4.934	Roll Set Point:	-0.089	Pitch Set Point:	-0.078	Yaw Set Point:	0.019	X_WP:	0.000	Y_WP:	0.000	Y_WP:	0.750	X:	0.045	Y:	0.039	Z:	0.694	yaw:	-1.080	yaw rate:	112.765	Roll:	1.345	Pitch:	2.174	Yaw:	-15.008	Thrust:	56.514
Time:	4.954	Roll Set Point:	-0.089	Pitch Set Point:	-0.078	Yaw Set Point:	0.019	X_WP:	0.000	Y_WP:	0.000	Y_WP:	0.750	X:	0.045	Y:	0.038	Z:	0.697	yaw:	-1.105	yaw rate:	2.471	Roll:	1.652	Pitch:	1.428	Yaw:	-0.370	Thrust:	60.195
Time:	4.973	Roll Set Point:	-0.089	Pitch Set Point:	-0.077	Yaw Set Point:	0.007	X_WP:	0.000	Y_WP:	0.000	Y_WP:	0.750	X:	0.045	Y:	0.038	Z:	0.700	yaw:	-0.414	yaw rate:	-69.108	Roll:	2.265	Pitch:	0.765	Yaw:	10.268	Thrust:	56.563
Time:	4.994	Roll Set Point:	-0.088	Pitch Set Point:	-0.077	Yaw Set Point:	0.011	X_WP:	0.000	Y_WP:	0.000	Y_WP:	0.750	X:	0.044	Y:	0.038	Z:	0.703	yaw:	-0.620	yaw rate:	20.644	Roll:	1.602	Pitch:	1.614	Yaw:	-2.060	Thrust:	59.371
Time:	5.013	Roll Set Point:	-0.087	Pitch Set Point:	-0.078	Yaw Set Point:	0.023	X_WP:	0.000	Y_WP:	0.000	Y_WP:	0.750	X:	0.044	Y:	0.038	Z:	0.705	yaw:	-1.323	yaw rate:	70.305	Roll:	1.281	Pitch:	2.248	Yaw:	-9.972	Thrust:	56.106
Time:	5.035	Roll Set Point:	-0.087	Pitch Set Point:	-0.077	Yaw Set Point:	0.024	X_WP:	0.000	Y_WP:	0.000	Y_WP:	0.750	X:	0.044	Y:	0.038	Z:	0.708	yaw:	-1.401	yaw rate:	7.754	Roll:	1.684	Pitch:	1.472	Yaw:	-1.290	Thrust:	64.444
Time:	5.055	Roll Set Point:	-0.086	Pitch Set Point:	-0.077	Yaw Set Point:	0.025	X_WP:	0.000	Y_WP:	0.000	Y_WP:	0.750	X:	0.044	Y:	0.038	Z:	0.710	yaw:	-1.455	yaw rate:	5.391	Roll:	1.706	Pitch:	1.551	Yaw:	-1.263	Thrust:	58.995
Time:	5.075	Roll Set Point:	-0.086	Pitch Set Point:	-0.077	Yaw Set Point:	0.031	X_WP:	0.000	Y_WP:	0.000	Y_WP:	0.750	X:	0.044	Y:	0.038	Z:	0.713	yaw:	-1.790	yaw rate:	33.555	Roll:	1.718	Pitch:	1.338	Yaw:	-5.587	Thrust:	58.412
Time:	5.097	Roll Set Point:	-0.086	Pitch Set Point:	-0.076	Yaw Set Point:	0.031	X_WP:	0.000	Y_WP:	0.000	Y_WP:	0.750	X:	0.044	Y:	0.038	Z:	0.715	yaw:	-1.748	yaw rate:	-4.256	Roll:	1.851	Pitch:	1.454	Yaw:	-0.385	Thrust:	67.676
Time:	5.114	Roll Set Point:	-0.086	Pitch Set Point:	-0.077	Yaw Set Point:	0.013	X_WP:	0.000	Y_WP:	0.000	Y_WP:	0.750	X:	0.043	Y:	0.038	Z:	0.717	yaw:	-0.730	yaw rate:	-101.797	Roll:	2.212	Pitch:	1.161	Yaw:	15.515	Thrust:	53.418
Time:	5.136	Roll Set Point:	-0.087	Pitch Set Point:	-0.075	Yaw Set Point:	0.013	X_WP:	0.000	Y_WP:	0.000	Y_WP:	0.750	X:	0.043	Y:	0.037	Z:	0.720	yaw:	-0.718	yaw rate:	-1.151	Roll:	2.073	Pitch:	0.944	Yaw:	0.579	Thrust:	60.159
Time:	5.154	Roll Set Point:	-0.086	Pitch Set Point:	-0.075	Yaw Set Point:	0.012	X_WP:	0.000	Y_WP:	0.000	Y_WP:	0.750	X:	0.043	Y:	0.037	Z:	0.722	yaw:	-0.700	yaw rate:	-1.840	Roll:	1.793	Pitch:	1.572	Yaw:	0.602	Thrust:	56.262
Time:	5.174	Roll Set Point:	-0.086	Pitch Set Point:	-0.075	Yaw Set Point:	0.023	X_WP:	0.000	Y_WP:	0.000	Y_WP:	0.750	X:	0.043	Y:	0.037	Z:	0.725	yaw:	-1.321	yaw rate:	62.167	Roll:	1.444	Pitch:	1.778	Yaw:	-8.644	Thrust:	58.444
Time:	5.195	Roll Set Point:	-0.086	Pitch Set Point:	-0.075	Yaw Set Point:	0.028	X_WP:	0.000	Y_WP:	0.000	Y_WP:	0.750	X:	0.043	Y:	0.037	Z:	0.728	yaw:	-1.627	yaw rate:	30.516	Roll:	1.848	Pitch:	1.614	Yaw:	-4.746	Thrust:	60.016
Time:	5.215	Roll Set Point:	-0.086	Pitch Set Point:	-0.076	Yaw Set Point:	0.019	X_WP:	0.000	Y_WP:	0.000	Y_WP:	0.750	X:	0.043	Y:	0.038	Z:	0.731	yaw:	-1.069	yaw rate:	-55.706	Roll:	2.211	Pitch:	1.599	Yaw:	7.176	Thrust:	58.132
Time:	5.235	Roll Set Point:	-0.086	Pitch Set Point:	-0.075	Yaw Set Point:	0.008	X_WP:	0.000	Y_WP:	0.000	Y_WP:	0.750	X:	0.043	Y:	0.037	Z:	0.733	yaw:	-0.487	yaw rate:	-58.277	Roll:	2.193	Pitch:	0.822	Yaw:	8.311	Thrust:	59.715
Time:	5.254	Roll Set Point:	-0.086	Pitch Set Point:	-0.074	Yaw Set Point:	0.002	X_WP:	0.000	Y_WP:	0.000	Y_WP:	0.750	X:	0.043	Y:	0.037	Z:	0.735	yaw:	-0.105	yaw rate:	-38.149	Roll:	2.057	Pitch:	0.949	Yaw:	6.294	Thrust:	57.645
Time:	5.275	Roll Set Point:	-0.086	Pitch Set Point:	-0.073	Yaw Set Point:	0.014	X_WP:	0.000	Y_WP:	0.000	Y_WP:	0.750	X:	0.043	Y:	0.036	Z:	0.737	yaw:	-0.786	yaw rate:	68.123	Roll:	1.725	Pitch:	1.612	Yaw:	-8.563	Thrust:	59.809
Time:	5.298	Roll Set Point:	-0.086	Pitch Set Point:	-0.077	Yaw Set Point:	0.009	X_WP:	0.000	Y_WP:	0.000	Y_WP:	0.750	X:	0.043	Y:	0.038	Z:	0.739	yaw:	-0.538	yaw rate:	-24.849	Roll:	1.987	Pitch:	2.906	Yaw:	3.610	Thrust:	69.285
Time:	5.315	Roll Set Point:	-0.086	Pitch Set Point:	-0.077	Yaw Set Point:	0.015	X_WP:	0.000	Y_WP:	0.000	Y_WP:	0.750	X:	0.043	Y:	0.038	Z:	0.741	yaw:	-0.864	yaw rate:	32.565	Roll:	1.452	Pitch:	1.768	Yaw:	-4.965	Thrust:	50.952
Time:	5.335	Roll Set Point:	-0.086	Pitch Set Point:	-0.075	Yaw Set Point:	0.020	X_WP:	0.000	Y_WP:	0.000	Y_WP:	0.750	X:	0.044	Y:	0.037	Z:	0.744	yaw:	-1.133	yaw rate:	26.931	Roll:	2.209	Pitch:	0.822	Yaw:	-3.845	Thrust:	57.067
Time:	5.355	Roll Set Point:	-0.087	Pitch Set Point:	-0.074	Yaw Set Point:	0.005	X_WP:	0.000	Y_WP:	0.000	Y_WP:	0.750	X:	0.044	Y:	0.037	Z:	0.745	yaw:	-0.280	yaw rate:	-85.244	Roll:	2.568	Pitch:	0.539	Yaw:	12.385	Thrust:	57.977
