Time:	0.053	Roll Set Point:	0.004	Pitch Set Point:	-0.025	Yaw Set Point:	0.268	X_WP:	0.000	Y_WP:	0.000	Y_WP:	0.500	X:	-0.000	Y:	0.013	Z:	0.058	yaw:	-15.363	yaw rate:	0.379	Roll:	-0.150	Pitch:	0.488	Yaw:	-21.451	Thrust:	24.332
Time:	0.064	Roll Set Point:	0.004	Pitch Set Point:	-0.025	Yaw Set Point:	0.268	X_WP:	0.000	Y_WP:	0.000	Y_WP:	0.500	X:	-0.000	Y:	0.013	Z:	0.058	yaw:	-15.354	yaw rate:	-0.850	Roll:	-0.184	Pitch:	0.503	Yaw:	-21.308	Thrust:	25.021
Time:	0.076	Roll Set Point:	0.004	Pitch Set Point:	-0.025	Yaw Set Point:	0.268	X_WP:	0.000	Y_WP:	0.000	Y_WP:	0.500	X:	-0.000	Y:	0.013	Z:	0.058	yaw:	-15.359	yaw rate:	0.470	Roll:	-0.133	Pitch:	0.481	Yaw:	-21.676	Thrust:	25.561
Time:	0.090	Roll Set Point:	0.004	Pitch Set Point:	-0.025	Yaw Set Point:	0.268	X_WP:	0.000	Y_WP:	0.000	Y_WP:	0.500	X:	-0.000	Y:	0.013	Z:	0.058	yaw:	-15.346	yaw rate:	-1.271	Roll:	-0.198	Pitch:	0.495	Yaw:	-21.417	Thrust:	26.449
Time:	0.112	Roll Set Point:	0.004	Pitch Set Point:	-0.025	Yaw Set Point:	0.269	X_WP:	0.000	Y_WP:	0.000	Y_WP:	0.500	X:	-0.000	Y:	0.013	Z:	0.058	yaw:	-15.400	yaw rate:	5.349	Roll:	-0.150	Pitch:	0.575	Yaw:	-22.619	Thrust:	29.079
Time:	0.123	Roll Set Point:	0.004	Pitch Set Point:	-0.025	Yaw Set Point:	0.268	X_WP:	0.000	Y_WP:	0.000	Y_WP:	0.500	X:	-0.000	Y:	0.013	Z:	0.058	yaw:	-15.358	yaw rate:	0.262	Roll:	-0.160	Pitch:	0.537	Yaw:	-20.820	Thrust:	27.497
Time:	0.134	Roll Set Point:	0.004	Pitch Set Point:	-0.025	Yaw Set Point:	0.269	X_WP:	0.000	Y_WP:	0.000	Y_WP:	0.500	X:	-0.000	Y:	0.013	Z:	0.058	yaw:	-15.402	yaw rate:	4.415	Roll:	-0.203	Pitch:	0.442	Yaw:	-22.874	Thrust:	27.619
Time:	0.145	Roll Set Point:	0.004	Pitch Set Point:	-0.025	Yaw Set Point:	0.268	X_WP:	0.000	Y_WP:	0.000	Y_WP:	0.500	X:	-0.000	Y:	0.013	Z:	0.058	yaw:	-15.379	yaw rate:	-2.255	Roll:	-0.176	Pitch:	0.542	Yaw:	-21.346	Thrust:	28.619
Time:	0.163	Roll Set Point:	0.004	Pitch Set Point:	-0.025	Yaw Set Point:	0.269	X_WP:	0.000	Y_WP:	0.000	Y_WP:	0.500	X:	-0.000	Y:	0.013	Z:	0.058	yaw:	-15.397	yaw rate:	1.827	Roll:	-0.170	Pitch:	0.560	Yaw:	-22.512	Thrust:	31.495
Time:	0.184	Roll Set Point:	0.004	Pitch Set Point:	-0.025	Yaw Set Point:	0.268	X_WP:	0.000	Y_WP:	0.000	Y_WP:	0.500	X:	-0.000	Y:	0.013	Z:	0.058	yaw:	-15.375	yaw rate:	-10.071	Roll:	-0.197	Pitch:	0.653	Yaw:	-22.239	Thrust:	34.396
Time:	0.197	Roll Set Point:	0.004	Pitch Set Point:	-0.025	Yaw Set Point:	0.268	X_WP:	0.000	Y_WP:	0.000	Y_WP:	0.500	X:	-0.000	Y:	0.013	Z:	0.058	yaw:	-15.378	yaw rate:	0.293	Roll:	-0.200	Pitch:	0.594	Yaw:	-22.255	Thrust:	32.159
Time:	0.208	Roll Set Point:	0.004	Pitch Set Point:	-0.025	Yaw Set Point:	0.269	X_WP:	0.000	Y_WP:	0.000	Y_WP:	0.500	X:	-0.000	Y:	0.013	Z:	0.058	yaw:	-15.397	yaw rate:	4.517	Roll:	-0.135	Pitch:	0.486	Yaw:	-22.610	Thrust:	30.410
Time:	0.219	Roll Set Point:	0.004	Pitch Set Point:	-0.025	Yaw Set Point:	0.269	X_WP:	0.000	Y_WP:	0.000	Y_WP:	0.500	X:	-0.000	Y:	0.013	Z:	0.058	yaw:	-15.409	yaw rate:	1.185	Roll:	-0.131	Pitch:	0.488	Yaw:	-22.492	Thrust:	30.973
Time:	0.233	Roll Set Point:	0.004	Pitch Set Point:	-0.025	Yaw Set Point:	0.268	X_WP:	0.000	Y_WP:	0.000	Y_WP:	0.500	X:	-0.000	Y:	0.013	Z:	0.057	yaw:	-15.364	yaw rate:	-4.526	Roll:	-0.155	Pitch:	0.547	Yaw:	-21.460	Thrust:	33.719
Time:	0.245	Roll Set Point:	0.004	Pitch Set Point:	-0.025	Yaw Set Point:	0.269	X_WP:	0.000	Y_WP:	0.000	Y_WP:	0.500	X:	-0.000	Y:	0.013	Z:	0.058	yaw:	-15.408	yaw rate:	4.447	Roll:	-0.182	Pitch:	0.728	Yaw:	-23.385	Thrust:	33.524
Time:	0.255	Roll Set Point:	0.004	Pitch Set Point:	-0.025	Yaw Set Point:	0.269	X_WP:	0.000	Y_WP:	0.000	Y_WP:	0.500	X:	-0.000	Y:	0.013	Z:	0.058	yaw:	-15.416	yaw rate:	0.795	Roll:	-0.063	Pitch:	0.628	Yaw:	-22.540	Thrust:	32.221
Time:	0.266	Roll Set Point:	0.004	Pitch Set Point:	-0.025	Yaw Set Point:	0.269	X_WP:	0.000	Y_WP:	0.000	Y_WP:	0.500	X:	-0.000	Y:	0.013	Z:	0.058	yaw:	-15.429	yaw rate:	1.273	Roll:	-0.287	Pitch:	0.584	Yaw:	-22.823	Thrust:	33.823
Time:	0.277	Roll Set Point:	0.004	Pitch Set Point:	-0.025	Yaw Set Point:	0.268	X_WP:	0.000	Y_WP:	0.000	Y_WP:	0.500	X:	-0.000	Y:	0.013	Z:	0.058	yaw:	-15.371	yaw rate:	-5.830	Roll:	-0.259	Pitch:	0.625	Yaw:	-20.935	Thrust:	34.518
Time:	0.293	Roll Set Point:	0.004	Pitch Set Point:	-0.025	Yaw Set Point:	0.268	X_WP:	0.000	Y_WP:	0.000	Y_WP:	0.500	X:	-0.000	Y:	0.013	Z:	0.058	yaw:	-15.382	yaw rate:	1.128	Roll:	-0.080	Pitch:	0.555	Yaw:	-23.237	Thrust:	39.806
Time:	0.312	Roll Set Point:	0.004	Pitch Set Point:	-0.025	Yaw Set Point:	0.269	X_WP:	0.000	Y_WP:	0.000	Y_WP:	0.500	X:	-0.000	Y:	0.013	Z:	0.058	yaw:	-15.399	yaw rate:	3.745	Roll:	-0.217	Pitch:	0.760	Yaw:	-23.683	Thrust:	43.366
Time:	0.324	Roll Set Point:	0.004	Pitch Set Point:	-0.025	Yaw Set Point:	0.270	X_WP:	0.000	Y_WP:	0.000	Y_WP:	0.500	X:	-0.000	Y:	0.013	Z:	0.058	yaw:	-15.468	yaw rate:	6.846	Roll:	-0.173	Pitch:	0.719	Yaw:	-24.385	Thrust:	36.745
Time:	0.334	Roll Set Point:	0.004	Pitch Set Point:	-0.025	Yaw Set Point:	0.269	X_WP:	0.000	Y_WP:	0.000	Y_WP:	0.500	X:	-0.000	Y:	0.013	Z:	0.058	yaw:	-15.402	yaw rate:	-6.547	Roll:	-0.070	Pitch:	0.673	Yaw:	-21.117	Thrust:	36.046
Time:	0.345	Roll Set Point:	0.004	Pitch Set Point:	-0.025	Yaw Set Point:	0.270	X_WP:	0.000	Y_WP:	0.000	Y_WP:	0.500	X:	-0.000	Y:	0.013	Z:	0.058	yaw:	-15.454	yaw rate:	5.127	Roll:	-0.355	Pitch:	0.512	Yaw:	-24.097	Thrust:	36.940
Time:	0.356	Roll Set Point:	0.004	Pitch Set Point:	-0.025	Yaw Set Point:	0.270	X_WP:	0.000	Y_WP:	0.000	Y_WP:	0.500	X:	-0.000	Y:	0.013	Z:	0.058	yaw:	-15.445	yaw rate:	-0.914	Roll:	-0.176	Pitch:	0.669	Yaw:	-22.710	Thrust:	37.688
Time:	0.378	Roll Set Point:	0.004	Pitch Set Point:	-0.025	Yaw Set Point:	0.269	X_WP:	0.000	Y_WP:	0.000	Y_WP:	0.500	X:	-0.000	Y:	0.013	Z:	0.058	yaw:	-15.399	yaw rate:	-4.530	Roll:	-0.195	Pitch:	0.852	Yaw:	-23.888	Thrust:	53.099
Time:	0.389	Roll Set Point:	0.004	Pitch Set Point:	-0.025	Yaw Set Point:	0.269	X_WP:	0.000	Y_WP:	0.000	Y_WP:	0.500	X:	-0.000	Y:	0.013	Z:	0.058	yaw:	-15.429	yaw rate:	-0.398	Roll:	-0.303	Pitch:	0.614	Yaw:	-23.687	Thrust:	38.024
Time:	0.399	Roll Set Point:	0.004	Pitch Set Point:	-0.025	Yaw Set Point:	0.269	X_WP:	0.000	Y_WP:	0.000	Y_WP:	0.500	X:	-0.000	Y:	0.013	Z:	0.058	yaw:	-15.439	yaw rate:	1.034	Roll:	-0.228	Pitch:	0.678	Yaw:	-23.286	Thrust:	38.776
Time:	0.410	Roll Set Point:	0.004	Pitch Set Point:	-0.025	Yaw Set Point:	0.270	X_WP:	0.000	Y_WP:	0.000	Y_WP:	0.500	X:	-0.000	Y:	0.013	Z:	0.058	yaw:	-15.453	yaw rate:	1.380	Roll:	-0.187	Pitch:	0.597	Yaw:	-23.448	Thrust:	39.655
Time:	0.421	Roll Set Point:	0.004	Pitch Set Point:	-0.025	Yaw Set Point:	0.269	X_WP:	0.000	Y_WP:	0.000	Y_WP:	0.500	X:	-0.000	Y:	0.013	Z:	0.058	yaw:	-15.413	yaw rate:	-4.026	Roll:	-0.013	Pitch:	0.874	Yaw:	-22.224	Thrust:	40.828
Time:	0.438	Roll Set Point:	0.004	Pitch Set Point:	-0.025	Yaw Set Point:	0.269	X_WP:	0.000	Y_WP:	0.000	Y_WP:	0.500	X:	-0.000	Y:	0.013	Z:	0.058	yaw:	-15.441	yaw rate:	2.782	Roll:	-0.233	Pitch:	0.718	Yaw:	-24.642	Thrust:	48.078
Time:	0.449	Roll Set Point:	0.004	Pitch Set Point:	-0.025	Yaw Set Point:	0.269	X_WP:	0.000	Y_WP:	0.000	Y_WP:	0.500	X:	-0.000	Y:	0.013	Z:	0.058	yaw:	-15.395	yaw rate:	-4.583	Roll:	-0.270	Pitch:	0.707	Yaw:	-22.196	Thrust:	44.441
Time:	0.460	Roll Set Point:	0.004	Pitch Set Point:	-0.025	Yaw Set Point:	0.269	X_WP:	0.000	Y_WP:	0.000	Y_WP:	0.500	X:	-0.000	Y:	0.013	Z:	0.058	yaw:	-15.419	yaw rate:	2.454	Roll:	-0.141	Pitch:	0.652	Yaw:	-23.949	Thrust:	42.707
Time:	0.472	Roll Set Point:	0.004	Pitch Set Point:	-0.025	Yaw Set Point:	0.269	X_WP:	0.000	Y_WP:	0.000	Y_WP:	0.500	X:	-0.000	Y:	0.013	Z:	0.058	yaw:	-15.414	yaw rate:	-0.485	Roll:	-0.196	Pitch:	0.807	Yaw:	-23.397	Thrust:	43.416
Time:	0.482	Roll Set Point:	0.004	Pitch Set Point:	-0.025	Yaw Set Point:	0.269	X_WP:	0.000	Y_WP:	0.000	Y_WP:	0.500	X:	-0.000	Y:	0.013	Z:	0.058	yaw:	-15.429	yaw rate:	1.480	Roll:	-0.224	Pitch:	0.759	Yaw:	-23.807	Thrust:	43.293
Time:	0.494	Roll Set Point:	0.004	Pitch Set Point:	-0.025	Yaw Set Point:	0.269	X_WP:	0.000	Y_WP:	0.000	Y_WP:	0.500	X:	-0.000	Y:	0.013	Z:	0.058	yaw:	-15.428	yaw rate:	-0.156	Roll:	-0.246	Pitch:	0.740	Yaw:	-23.706	Thrust:	44.220
Time:	0.509	Roll Set Point:	0.004	Pitch Set Point:	-0.025	Yaw Set Point:	0.268	X_WP:	0.000	Y_WP:	0.000	Y_WP:	0.500	X:	-0.000	Y:	0.013	Z:	0.058	yaw:	-15.377	yaw rate:	-6.809	Roll:	-0.138	Pitch:	0.821	Yaw:	-23.287	Thrust:	53.123
Time:	0.520	Roll Set Point:	0.004	Pitch Set Point:	-0.025	Yaw Set Point:	0.269	X_WP:	0.000	Y_WP:	0.000	Y_WP:	0.500	X:	-0.000	Y:	0.013	Z:	0.058	yaw:	-15.402	yaw rate:	2.546	Roll:	-0.270	Pitch:	0.803	Yaw:	-24.315	Thrust:	46.211
Time:	0.532	Roll Set Point:	0.004	Pitch Set Point:	-0.025	Yaw Set Point:	0.269	X_WP:	0.000	Y_WP:	0.000	Y_WP:	0.500	X:	-0.000	Y:	0.013	Z:	0.058	yaw:	-15.390	yaw rate:	-1.243	Roll:	-0.266	Pitch:	0.746	Yaw:	-23.502	Thrust:	46.014
Time:	0.543	Roll Set Point:	0.004	Pitch Set Point:	-0.025	Yaw Set Point:	0.269	X_WP:	0.000	Y_WP:	0.000	Y_WP:	0.500	X:	-0.000	Y:	0.013	Z:	0.058	yaw:	-15.388	yaw rate:	-0.202	Roll:	-0.105	Pitch:	0.697	Yaw:	-23.540	Thrust:	45.621
Time:	0.555	Roll Set Point:	0.004	Pitch Set Point:	-0.025	Yaw Set Point:	0.269	X_WP:	0.000	Y_WP:	0.000	Y_WP:	0.500	X:	-0.000	Y:	0.013	Z:	0.058	yaw:	-15.437	yaw rate:	4.928	Roll:	-0.266	Pitch:	0.840	Yaw:	-25.143	Thrust:	52.184
Time:	0.578	Roll Set Point:	0.004	Pitch Set Point:	-0.025	Yaw Set Point:	0.269	X_WP:	0.000	Y_WP:	0.000	Y_WP:	0.500	X:	-0.000	Y:	0.013	Z:	0.058	yaw:	-15.388	yaw rate:	-4.904	Roll:	-0.220	Pitch:	1.096	Yaw:	-25.432	Thrust:	71.223
Time:	0.588	Roll Set Point:	0.004	Pitch Set Point:	-0.025	Yaw Set Point:	0.268	X_WP:	0.000	Y_WP:	0.000	Y_WP:	0.500	X:	-0.000	Y:	0.013	Z:	0.058	yaw:	-15.362	yaw rate:	-2.534	Roll:	-0.233	Pitch:	0.698	Yaw:	-22.796	Thrust:	47.372
Time:	0.599	Roll Set Point:	0.004	Pitch Set Point:	-0.025	Yaw Set Point:	0.268	X_WP:	0.000	Y_WP:	0.000	Y_WP:	0.500	X:	-0.000	Y:	0.013	Z:	0.058	yaw:	-15.372	yaw rate:	0.905	Roll:	-0.254	Pitch:	0.868	Yaw:	-23.795	Thrust:	47.694
Time:	0.610	Roll Set Point:	0.004	Pitch Set Point:	-0.025	Yaw Set Point:	0.269	X_WP:	0.000	Y_WP:	0.000	Y_WP:	0.500	X:	-0.000	Y:	0.013	Z:	0.058	yaw:	-15.397	yaw rate:	-0.156	Roll:	-0.135	Pitch:	0.806	Yaw:	-24.225	Thrust:	48.155
Time:	0.621	Roll Set Point:	0.004	Pitch Set Point:	-0.025	Yaw Set Point:	0.268	X_WP:	0.000	Y_WP:	0.000	Y_WP:	0.500	X:	-0.000	Y:	0.013	Z:	0.058	yaw:	-15.355	yaw rate:	-4.186	Roll:	-0.237	Pitch:	0.733	Yaw:	-22.795	Thrust:	51.242
Time:	0.641	Roll Set Point:	0.003	Pitch Set Point:	-0.025	Yaw Set Point:	0.267	X_WP:	0.000	Y_WP:	0.000	Y_WP:	0.500	X:	-0.000	Y:	0.013	Z:	0.058	yaw:	-15.308	yaw rate:	-4.702	Roll:	-0.126	Pitch:	1.050	Yaw:	-24.779	Thrust:	72.368
Time:	0.653	Roll Set Point:	0.003	Pitch Set Point:	-0.025	Yaw Set Point:	0.266	X_WP:	0.000	Y_WP:	0.000	Y_WP:	0.500	X:	0.000	Y:	0.013	Z:	0.058	yaw:	-15.234	yaw rate:	-7.366	Roll:	-0.061	Pitch:	0.816	Yaw:	-22.074	Thrust:	53.441
Time:	0.663	Roll Set Point:	0.003	Pitch Set Point:	-0.025	Yaw Set Point:	0.265	X_WP:	0.000	Y_WP:	0.000	Y_WP:	0.500	X:	0.000	Y:	0.013	Z:	0.058	yaw:	-15.164	yaw rate:	-7.058	Roll:	0.295	Pitch:	0.791	Yaw:	-21.515	Thrust:	50.599
Time:	0.674	Roll Set Point:	0.002	Pitch Set Point:	-0.025	Yaw Set Point:	0.257	X_WP:	0.000	Y_WP:	0.000	Y_WP:	0.500	X:	0.001	Y:	0.012	Z:	0.058	yaw:	-14.741	yaw rate:	-22.546	Roll:	1.196	Pitch:	0.353	Yaw:	-12.746	Thrust:	50.701
Time:	0.685	Roll Set Point:	0.002	Pitch Set Point:	-0.024	Yaw Set Point:	0.256	X_WP:	0.000	Y_WP:	0.000	Y_WP:	0.500	X:	0.001	Y:	0.012	Z:	0.058	yaw:	-14.649	yaw rate:	-9.203	Roll:	0.355	Pitch:	0.575	Yaw:	-20.200	Thrust:	52.079
Time:	0.696	Roll Set Point:	0.002	Pitch Set Point:	-0.024	Yaw Set Point:	0.256	X_WP:	0.000	Y_WP:	0.000	Y_WP:	0.500	X:	0.001	Y:	0.012	Z:	0.058	yaw:	-14.640	yaw rate:	-0.934	Roll:	0.158	Pitch:	0.582	Yaw:	-22.546	Thrust:	53.802
Time:	0.712	Roll Set Point:	0.001	Pitch Set Point:	-0.024	Yaw Set Point:	0.254	X_WP:	0.000	Y_WP:	0.000	Y_WP:	0.500	X:	0.001	Y:	0.012	Z:	0.059	yaw:	-14.568	yaw rate:	-7.213	Roll:	0.067	Pitch:	0.594	Yaw:	-22.093	Thrust:	64.484
Time:	0.722	Roll Set Point:	0.000	Pitch Set Point:	-0.023	Yaw Set Point:	0.253	X_WP:	0.000	Y_WP:	0.000	Y_WP:	0.500	X:	0.001	Y:	0.012	Z:	0.059	yaw:	-14.519	yaw rate:	-4.904	Roll:	1.026	Pitch:	0.256	Yaw:	-21.316	Thrust:	52.884
Time:	0.734	Roll Set Point:	0.000	Pitch Set Point:	-0.023	Yaw Set Point:	0.254	X_WP:	0.000	Y_WP:	0.000	Y_WP:	0.500	X:	0.001	Y:	0.012	Z:	0.059	yaw:	-14.544	yaw rate:	2.530	Roll:	0.351	Pitch:	0.818	Yaw:	-23.114	Thrust:	53.824
Time:	0.744	Roll Set Point:	-0.000	Pitch Set Point:	-0.023	Yaw Set Point:	0.251	X_WP:	0.000	Y_WP:	0.000	Y_WP:	0.500	X:	0.002	Y:	0.012	Z:	0.059	yaw:	-14.374	yaw rate:	-17.060	Roll:	0.676	Pitch:	0.633	Yaw:	-18.102	Thrust:	54.660
Time:	0.756	Roll Set Point:	-0.001	Pitch Set Point:	-0.023	Yaw Set Point:	0.249	X_WP:	0.000	Y_WP:	0.000	Y_WP:	0.500	X:	0.002	Y:	0.011	Z:	0.060	yaw:	-14.283	yaw rate:	-9.054	Roll:	0.558	Pitch:	0.771	Yaw:	-20.380	Thrust:	57.994
Time:	0.775	Roll Set Point:	-0.002	Pitch Set Point:	-0.023	Yaw Set Point:	0.247	X_WP:	0.000	Y_WP:	0.000	Y_WP:	0.500	X:	0.002	Y:	0.011	Z:	0.060	yaw:	-14.133	yaw rate:	-15.007	Roll:	0.346	Pitch:	1.011	Yaw:	-21.338	Thrust:	78.887
Time:	0.786	Roll Set Point:	-0.003	Pitch Set Point:	-0.022	Yaw Set Point:	0.234	X_WP:	0.000	Y_WP:	0.000	Y_WP:	0.500	X:	0.003	Y:	0.011	Z:	0.060	yaw:	-13.407	yaw rate:	-72.628	Roll:	2.401	Pitch:	0.435	Yaw:	-4.662	Thrust:	57.881
Time:	0.797	Roll Set Point:	-0.005	Pitch Set Point:	-0.022	Yaw Set Point:	0.228	X_WP:	0.000	Y_WP:	0.000	Y_WP:	0.500	X:	0.004	Y:	0.011	Z:	0.061	yaw:	-13.040	yaw rate:	-36.652	Roll:	1.752	Pitch:	0.809	Yaw:	-10.614	Thrust:	54.317
Time:	0.807	Roll Set Point:	-0.006	Pitch Set Point:	-0.022	Yaw Set Point:	0.221	X_WP:	0.000	Y_WP:	0.000	Y_WP:	0.500	X:	0.004	Y:	0.011	Z:	0.061	yaw:	-12.655	yaw rate:	-38.556	Roll:	1.867	Pitch:	0.507	Yaw:	-10.768	Thrust:	58.199
Time:	0.819	Roll Set Point:	-0.007	Pitch Set Point:	-0.021	Yaw Set Point:	0.212	X_WP:	0.000	Y_WP:	0.000	Y_WP:	0.500	X:	0.005	Y:	0.010	Z:	0.061	yaw:	-12.166	yaw rate:	-48.837	Roll:	1.518	Pitch:	0.371	Yaw:	-8.028	Thrust:	60.585
Time:	0.838	Roll Set Point:	-0.008	Pitch Set Point:	-0.021	Yaw Set Point:	0.203	X_WP:	0.000	Y_WP:	0.000	Y_WP:	0.500	X:	0.005	Y:	0.010	Z:	0.061	yaw:	-11.635	yaw rate:	-53.124	Roll:	1.421	Pitch:	1.014	Yaw:	-12.511	Thrust:	84.106
Time:	0.849	Roll Set Point:	-0.010	Pitch Set Point:	-0.021	Yaw Set Point:	0.192	X_WP:	0.000	Y_WP:	0.000	Y_WP:	0.500	X:	0.006	Y:	0.010	Z:	0.061	yaw:	-10.988	yaw rate:	-64.655	Roll:	1.993	Pitch:	0.581	Yaw:	-2.991	Thrust:	61.938
Time:	0.859	Roll Set Point:	-0.013	Pitch Set Point:	-0.020	Yaw Set Point:	0.172	X_WP:	0.000	Y_WP:	0.000	Y_WP:	0.500	X:	0.007	Y:	0.009	Z:	0.061	yaw:	-9.857	yaw rate:	-113.110	Roll:	5.459	Pitch:	-0.446	Yaw:	13.764	Thrust:	57.504
Time:	0.871	Roll Set Point:	-0.015	Pitch Set Point:	-0.019	Yaw Set Point:	0.163	X_WP:	0.000	Y_WP:	0.000	Y_WP:	0.500	X:	0.008	Y:	0.009	Z:	0.061	yaw:	-9.345	yaw rate:	-51.261	Roll:	2.841	Pitch:	0.458	Yaw:	-4.574	Thrust:	65.541
Time:	0.881	Roll Set Point:	-0.017	Pitch Set Point:	-0.019	Yaw Set Point:	0.154	X_WP:	0.000	Y_WP:	0.000	Y_WP:	0.500	X:	0.009	Y:	0.009	Z:	0.061	yaw:	-8.836	yaw rate:	-50.899	Roll:	3.271	Pitch:	0.098	Yaw:	-1.061	Thrust:	58.664
Time:	0.894	Roll Set Point:	-0.019	Pitch Set Point:	-0.018	Yaw Set Point:	0.144	X_WP:	0.000	Y_WP:	0.000	Y_WP:	0.500	X:	0.010	Y:	0.008	Z:	0.061	yaw:	-8.241	yaw rate:	-59.478	Roll:	3.770	Pitch:	-0.197	Yaw:	-0.981	Thrust:	62.457
Time:	0.909	Roll Set Point:	-0.022	Pitch Set Point:	-0.017	Yaw Set Point:	0.134	X_WP:	0.000	Y_WP:	0.000	Y_WP:	0.500	X:	0.011	Y:	0.008	Z:	0.061	yaw:	-7.681	yaw rate:	-55.985	Roll:	2.549	Pitch:	0.487	Yaw:	-4.811	Thrust:	82.841
Time:	0.924	Roll Set Point:	-0.029	Pitch Set Point:	-0.015	Yaw Set Point:	0.104	X_WP:	0.000	Y_WP:	0.000	Y_WP:	0.500	X:	0.015	Y:	0.007	Z:	0.061	yaw:	-5.982	yaw rate:	-115.915	Roll:	9.570	Pitch:	-1.129	Yaw:	20.535	Thrust:	76.108
Time:	0.934	Roll Set Point:	-0.032	Pitch Set Point:	-0.014	Yaw Set Point:	0.094	X_WP:	0.000	Y_WP:	0.000	Y_WP:	0.500	X:	0.016	Y:	0.006	Z:	0.061	yaw:	-5.404	yaw rate:	-57.870	Roll:	4.055	Pitch:	-0.551	Yaw:	4.729	Thrust:	63.087
Time:	0.945	Roll Set Point:	-0.035	Pitch Set Point:	-0.014	Yaw Set Point:	0.087	X_WP:	0.000	Y_WP:	0.000	Y_WP:	0.500	X:	0.018	Y:	0.006	Z:	0.061	yaw:	-4.964	yaw rate:	-43.939	Roll:	4.501	Pitch:	-0.087	Yaw:	1.259	Thrust:	65.108
Time:	0.957	Roll Set Point:	-0.038	Pitch Set Point:	-0.013	Yaw Set Point:	0.075	X_WP:	0.000	Y_WP:	0.000	Y_WP:	0.500	X:	0.019	Y:	0.006	Z:	0.061	yaw:	-4.299	yaw rate:	-66.508	Roll:	5.057	Pitch:	-0.790	Yaw:	6.064	Thrust:	65.696
Time:	0.978	Roll Set Point:	-0.041	Pitch Set Point:	-0.012	Yaw Set Point:	0.067	X_WP:	0.000	Y_WP:	0.000	Y_WP:	0.500	X:	0.021	Y:	0.005	Z:	0.061	yaw:	-3.863	yaw rate:	-43.590	Roll:	3.141	Pitch:	0.617	Yaw:	-3.971	Thrust:	100.000
Time:	0.988	Roll Set Point:	-0.048	Pitch Set Point:	-0.010	Yaw Set Point:	0.049	X_WP:	0.000	Y_WP:	0.000	Y_WP:	0.500	X:	0.024	Y:	0.004	Z:	0.062	yaw:	-2.821	yaw rate:	-61.193	Roll:	10.117	Pitch:	-2.243	Yaw:	21.275	Thrust:	64.069
Time:	0.998	Roll Set Point:	-0.052	Pitch Set Point:	-0.009	Yaw Set Point:	0.040	X_WP:	0.000	Y_WP:	0.000	Y_WP:	0.500	X:	0.026	Y:	0.004	Z:	0.062	yaw:	-2.303	yaw rate:	-51.757	Roll:	6.326	Pitch:	-1.173	Yaw:	8.274	Thrust:	61.382
Time:	1.009	Roll Set Point:	-0.055	Pitch Set Point:	-0.008	Yaw Set Point:	0.034	X_WP:	0.000	Y_WP:	0.000	Y_WP:	0.500	X:	0.028	Y:	0.004	Z:	0.063	yaw:	-1.951	yaw rate:	-35.256	Roll:	6.363	Pitch:	-0.560	Yaw:	3.942	Thrust:	63.152
Time:	1.021	Roll Set Point:	-0.059	Pitch Set Point:	-0.007	Yaw Set Point:	0.027	X_WP:	0.000	Y_WP:	0.000	Y_WP:	0.500	X:	0.029	Y:	0.003	Z:	0.064	yaw:	-1.552	yaw rate:	-39.871	Roll:	6.185	Pitch:	-0.653	Yaw:	4.102	Thrust:	69.504
Time:	1.034	Roll Set Point:	-0.066	Pitch Set Point:	-0.005	Yaw Set Point:	0.014	X_WP:	0.000	Y_WP:	0.000	Y_WP:	0.500	X:	0.033	Y:	0.002	Z:	0.066	yaw:	-0.776	yaw rate:	-77.589	Roll:	10.206	Pitch:	-1.824	Yaw:	11.156	Thrust:	70.752
Time:	1.047	Roll Set Point:	-0.070	Pitch Set Point:	-0.004	Yaw Set Point:	0.008	X_WP:	0.000	Y_WP:	0.000	Y_WP:	0.500	X:	0.035	Y:	0.002	Z:	0.067	yaw:	-0.444	yaw rate:	-33.252	Roll:	5.335	Pitch:	-0.452	Yaw:	3.102	Thrust:	77.922
Time:	1.057	Roll Set Point:	-0.074	Pitch Set Point:	-0.004	Yaw Set Point:	0.002	X_WP:	0.000	Y_WP:	0.000	Y_WP:	0.500	X:	0.037	Y:	0.002	Z:	0.068	yaw:	-0.111	yaw rate:	-33.278	Roll:	7.727	Pitch:	-1.174	Yaw:	6.533	Thrust:	59.615
Time:	1.068	Roll Set Point:	-0.079	Pitch Set Point:	-0.003	Yaw Set Point:	-0.003	X_WP:	0.000	Y_WP:	0.000	Y_WP:	0.500	X:	0.039	Y:	0.001	Z:	0.070	yaw:	0.165	yaw rate:	-27.628	Roll:	7.711	Pitch:	-1.045	Yaw:	5.307	Thrust:	60.060
Time:	1.079	Roll Set Point:	-0.083	Pitch Set Point:	-0.002	Yaw Set Point:	-0.009	X_WP:	0.000	Y_WP:	0.000	Y_WP:	0.500	X:	0.041	Y:	0.001	Z:	0.071	yaw:	0.504	yaw rate:	-33.847	Roll:	7.450	Pitch:	-1.234	Yaw:	6.597	Thrust:	64.329
Time:	1.091	Roll Set Point:	-0.087	Pitch Set Point:	-0.001	Yaw Set Point:	-0.013	X_WP:	0.000	Y_WP:	0.000	Y_WP:	0.500	X:	0.043	Y:	0.001	Z:	0.073	yaw:	0.752	yaw rate:	-24.802	Roll:	7.691	Pitch:	-0.945	Yaw:	4.043	Thrust:	68.881
Time:	1.106	Roll Set Point:	-0.091	Pitch Set Point:	0.000	Yaw Set Point:	-0.019	X_WP:	0.000	Y_WP:	0.000	Y_WP:	0.500	X:	0.046	Y:	0.000	Z:	0.075	yaw:	1.083	yaw rate:	-33.128	Roll:	6.672	Pitch:	-0.783	Yaw:	4.569	Thrust:	79.179
Time:	1.117	Roll Set Point:	-0.096	Pitch Set Point:	0.001	Yaw Set Point:	-0.023	X_WP:	0.000	Y_WP:	0.000	Y_WP:	0.500	X:	0.048	Y:	0.000	Z:	0.077	yaw:	1.311	yaw rate:	-22.814	Roll:	7.351	Pitch:	-0.694	Yaw:	4.728	Thrust:	68.612
Time:	1.128	Roll Set Point:	-0.100	Pitch Set Point:	0.002	Yaw Set Point:	-0.026	X_WP:	0.000	Y_WP:	0.000	Y_WP:	0.500	X:	0.050	Y:	-0.000	Z:	0.079	yaw:	1.485	yaw rate:	-17.405	Roll:	8.259	Pitch:	-0.863	Yaw:	3.996	Thrust:	63.881
Time:	1.139	Roll Set Point:	-0.114	Pitch Set Point:	0.004	Yaw Set Point:	-0.035	X_WP:	0.000	Y_WP:	0.000	Y_WP:	0.500	X:	0.057	Y:	-0.001	Z:	0.087	yaw:	2.030	yaw rate:	-13.096	Roll:	20.561	Pitch:	-3.776	Yaw:	13.586	Thrust:	43.138
Time:	1.149	Roll Set Point:	-0.118	Pitch Set Point:	0.005	Yaw Set Point:	-0.040	X_WP:	0.000	Y_WP:	0.000	Y_WP:	0.500	X:	0.059	Y:	-0.001	Z:	0.089	yaw:	2.318	yaw rate:	-28.775	Roll:	8.790	Pitch:	-1.375	Yaw:	8.311	Thrust:	59.248
Time:	1.164	Roll Set Point:	-0.123	Pitch Set Point:	0.006	Yaw Set Point:	-0.043	X_WP:	0.000	Y_WP:	0.000	Y_WP:	0.500	X:	0.061	Y:	-0.002	Z:	0.092	yaw:	2.462	yaw rate:	-14.361	Roll:	7.945	Pitch:	-0.714	Yaw:	3.148	Thrust:	78.623
Time:	1.180	Roll Set Point:	-0.127	Pitch Set Point:	0.007	Yaw Set Point:	-0.046	X_WP:	0.000	Y_WP:	0.000	Y_WP:	0.500	X:	0.064	Y:	-0.002	Z:	0.095	yaw:	2.634	yaw rate:	-17.236	Roll:	6.947	Pitch:	-0.415	Yaw:	3.350	Thrust:	91.612
Time:	1.191	Roll Set Point:	-0.136	Pitch Set Point:	0.008	Yaw Set Point:	-0.054	X_WP:	0.000	Y_WP:	0.000	Y_WP:	0.500	X:	0.068	Y:	-0.002	Z:	0.101	yaw:	3.082	yaw rate:	-44.788	Roll:	14.309	Pitch:	-3.247	Yaw:	12.473	Thrust:	50.670
Time:	1.202	Roll Set Point:	-0.140	Pitch Set Point:	0.009	Yaw Set Point:	-0.055	X_WP:	0.000	Y_WP:	0.000	Y_WP:	0.500	X:	0.070	Y:	-0.003	Z:	0.105	yaw:	3.151	yaw rate:	-6.851	Roll:	9.723	Pitch:	-0.919	Yaw:	4.060	Thrust:	58.260
Time:	1.212	Roll Set Point:	-0.145	Pitch Set Point:	0.009	Yaw Set Point:	-0.054	X_WP:	0.000	Y_WP:	0.000	Y_WP:	0.500	X:	0.073	Y:	-0.003	Z:	0.108	yaw:	3.107	yaw rate:	4.350	Roll:	9.530	Pitch:	-0.558	Yaw:	1.230	Thrust:	58.138
Time:	1.224	Roll Set Point:	-0.149	Pitch Set Point:	0.010	Yaw Set Point:	-0.060	X_WP:	0.000	Y_WP:	0.000	Y_WP:	0.500	X:	0.075	Y:	-0.003	Z:	0.111	yaw:	3.435	yaw rate:	-32.798	Roll:	8.680	Pitch:	-1.771	Yaw:	9.849	Thrust:	65.927
Time:	1.245	Roll Set Point:	-0.153	Pitch Set Point:	0.011	Yaw Set Point:	-0.057	X_WP:	0.000	Y_WP:	0.000	Y_WP:	0.500	X:	0.077	Y:	-0.003	Z:	0.115	yaw:	3.245	yaw rate:	19.025	Roll:	7.217	Pitch:	0.436	Yaw:	-1.810	Thrust:	100.000
Time:	1.255	Roll Set Point:	-0.161	Pitch Set Point:	0.012	Yaw Set Point:	-0.058	X_WP:	0.000	Y_WP:	0.000	Y_WP:	0.500	X:	0.081	Y:	-0.004	Z:	0.122	yaw:	3.312	yaw rate:	-6.688	Roll:	15.605	Pitch:	-2.081	Yaw:	4.474	Thrust:	39.117
Time:	1.267	Roll Set Point:	-0.165	Pitch Set Point:	0.013	Yaw Set Point:	-0.060	X_WP:	0.000	Y_WP:	0.000	Y_WP:	0.500	X:	0.083	Y:	-0.004	Z:	0.125	yaw:	3.466	yaw rate:	-15.469	Roll:	8.789	Pitch:	-1.512	Yaw:	5.954	Thrust:	68.054
Time:	1.277	Roll Set Point:	-0.169	Pitch Set Point:	0.013	Yaw Set Point:	-0.057	X_WP:	0.000	Y_WP:	0.000	Y_WP:	0.500	X:	0.085	Y:	-0.004	Z:	0.129	yaw:	3.256	yaw rate:	21.070	Roll:	9.398	Pitch:	0.244	Yaw:	-2.664	Thrust:	58.268
Time:	1.289	Roll Set Point:	-0.173	Pitch Set Point:	0.013	Yaw Set Point:	-0.053	X_WP:	0.000	Y_WP:	0.000	Y_WP:	0.500	X:	0.087	Y:	-0.004	Z:	0.132	yaw:	3.037	yaw rate:	21.853	Roll:	8.921	Pitch:	0.338	Yaw:	-2.749	Thrust:	68.199
Time:	1.309	Roll Set Point:	-0.176	Pitch Set Point:	0.014	Yaw Set Point:	-0.056	X_WP:	0.000	Y_WP:	0.000	Y_WP:	0.500	X:	0.088	Y:	-0.004	Z:	0.136	yaw:	3.211	yaw rate:	-17.425	Roll:	7.469	Pitch:	-0.598	Yaw:	3.199	Thrust:	100.000
Time:	1.320	Roll Set Point:	-0.187	Pitch Set Point:	0.015	Yaw Set Point:	-0.047	X_WP:	0.000	Y_WP:	0.000	Y_WP:	0.500	X:	0.094	Y:	-0.005	Z:	0.147	yaw:	2.676	yaw rate:	32.491	Roll:	18.354	Pitch:	-0.181	Yaw:	-10.586	Thrust:	36.184
Time:	1.331	Roll Set Point:	-0.190	Pitch Set Point:	0.015	Yaw Set Point:	-0.042	X_WP:	0.000	Y_WP:	0.000	Y_WP:	0.500	X:	0.095	Y:	-0.005	Z:	0.150	yaw:	2.417	yaw rate:	25.920	Roll:	9.158	Pitch:	0.273	Yaw:	-4.977	Thrust:	59.305
Time:	1.342	Roll Set Point:	-0.193	Pitch Set Point:	0.015	Yaw Set Point:	-0.039	X_WP:	0.000	Y_WP:	0.000	Y_WP:	0.500	X:	0.097	Y:	-0.006	Z:	0.154	yaw:	2.256	yaw rate:	16.073	Roll:	9.208	Pitch:	-0.254	Yaw:	-2.669	Thrust:	62.899
Time:	1.354	Roll Set Point:	-0.196	Pitch Set Point:	0.016	Yaw Set Point:	-0.036	X_WP:	0.000	Y_WP:	0.000	Y_WP:	0.500	X:	0.098	Y:	-0.006	Z:	0.157	yaw:	2.081	yaw rate:	17.506	Roll:	8.724	Pitch:	0.022	Yaw:	-3.034	Thrust:	72.242
Time:	1.379	Roll Set Point:	-0.199	Pitch Set Point:	0.016	Yaw Set Point:	-0.034	X_WP:	0.000	Y_WP:	0.000	Y_WP:	0.500	X:	0.100	Y:	-0.006	Z:	0.161	yaw:	1.947	yaw rate:	13.409	Roll:	8.118	Pitch:	0.383	Yaw:	-3.143	Thrust:	100.000
Time:	1.389	Roll Set Point:	-0.205	Pitch Set Point:	0.017	Yaw Set Point:	-0.027	X_WP:	0.000	Y_WP:	0.000	Y_WP:	0.500	X:	0.103	Y:	-0.007	Z:	0.167	yaw:	1.550	yaw rate:	39.653	Roll:	13.072	Pitch:	-0.365	Yaw:	-9.578	Thrust:	52.305
Time:	1.400	Roll Set Point:	-0.208	Pitch Set Point:	0.017	Yaw Set Point:	-0.023	X_WP:	0.000	Y_WP:	0.000	Y_WP:	0.500	X:	0.104	Y:	-0.007	Z:	0.170	yaw:	1.325	yaw rate:	22.513	Roll:	9.160	Pitch:	0.407	Yaw:	-5.533	Thrust:	60.512
Time:	1.411	Roll Set Point:	-0.211	Pitch Set Point:	0.017	Yaw Set Point:	-0.019	X_WP:	0.000	Y_WP:	0.000	Y_WP:	0.500	X:	0.106	Y:	-0.008	Z:	0.173	yaw:	1.064	yaw rate:	26.068	Roll:	9.470	Pitch:	0.206	Yaw:	-6.877	Thrust:	63.268
Time:	1.422	Roll Set Point:	-0.213	Pitch Set Point:	0.018	Yaw Set Point:	-0.017	X_WP:	0.000	Y_WP:	0.000	Y_WP:	0.500	X:	0.107	Y:	-0.008	Z:	0.176	yaw:	0.969	yaw rate:	9.536	Roll:	8.843	Pitch:	-0.573	Yaw:	-2.895	Thrust:	66.681
Time:	1.435	Roll Set Point:	-0.216	Pitch Set Point:	0.018	Yaw Set Point:	-0.015	X_WP:	0.000	Y_WP:	0.000	Y_WP:	0.500	X:	0.108	Y:	-0.008	Z:	0.179	yaw:	0.840	yaw rate:	12.918	Roll:	8.809	Pitch:	-0.593	Yaw:	-3.733	Thrust:	80.687
Time:	1.453	Roll Set Point:	-0.218	Pitch Set Point:	0.019	Yaw Set Point:	-0.009	X_WP:	0.000	Y_WP:	0.000	Y_WP:	0.500	X:	0.109	Y:	-0.009	Z:	0.182	yaw:	0.513	yaw rate:	32.662	Roll:	8.691	Pitch:	0.718	Yaw:	-7.188	Thrust:	100.000
Time:	1.466	Roll Set Point:	-0.222	Pitch Set Point:	0.020	Yaw Set Point:	-0.005	X_WP:	0.000	Y_WP:	0.000	Y_WP:	0.500	X:	0.111	Y:	-0.010	Z:	0.188	yaw:	0.272	yaw rate:	24.086	Roll:	11.357	Pitch:	-1.026	Yaw:	-7.131	Thrust:	59.954
Time:	1.476	Roll Set Point:	-0.224	Pitch Set Point:	0.020	Yaw Set Point:	-0.003	X_WP:	0.000	Y_WP:	0.000	Y_WP:	0.500	X:	0.112	Y:	-0.010	Z:	0.190	yaw:	0.148	yaw rate:	12.430	Roll:	8.745	Pitch:	-0.629	Yaw:	-4.700	Thrust:	65.016
Time:	1.486	Roll Set Point:	-0.226	Pitch Set Point:	0.021	Yaw Set Point:	0.001	X_WP:	0.000	Y_WP:	0.000	Y_WP:	0.500	X:	0.113	Y:	-0.011	Z:	0.193	yaw:	-0.038	yaw rate:	18.647	Roll:	8.544	Pitch:	-0.345	Yaw:	-6.698	Thrust:	65.068
Time:	1.501	Roll Set Point:	-0.229	Pitch Set Point:	0.022	Yaw Set Point:	0.005	X_WP:	0.000	Y_WP:	0.000	Y_WP:	0.500	X:	0.115	Y:	-0.012	Z:	0.199	yaw:	-0.309	yaw rate:	27.047	Roll:	10.443	Pitch:	-1.087	Yaw:	-7.876	Thrust:	75.645
Time:	1.514	Roll Set Point:	-0.231	Pitch Set Point:	0.023	Yaw Set Point:	0.009	X_WP:	0.000	Y_WP:	0.000	Y_WP:	0.500	X:	0.115	Y:	-0.012	Z:	0.202	yaw:	-0.515	yaw rate:	20.653	Roll:	8.310	Pitch:	-0.103	Yaw:	-7.146	Thrust:	89.870
Time:	1.525	Roll Set Point:	-0.232	Pitch Set Point:	0.024	Yaw Set Point:	0.012	X_WP:	0.000	Y_WP:	0.000	Y_WP:	0.500	X:	0.116	Y:	-0.013	Z:	0.205	yaw:	-0.666	yaw rate:	15.096	Roll:	8.336	Pitch:	-0.818	Yaw:	-6.521	Thrust:	66.072
Time:	1.535	Roll Set Point:	-0.233	Pitch Set Point:	0.025	Yaw Set Point:	0.011	X_WP:	0.000	Y_WP:	0.000	Y_WP:	0.500	X:	0.117	Y:	-0.013	Z:	0.208	yaw:	-0.618	yaw rate:	-4.885	Roll:	7.898	Pitch:	-2.148	Yaw:	-1.542	Thrust:	65.646
Time:	1.546	Roll Set Point:	-0.234	Pitch Set Point:	0.026	Yaw Set Point:	0.015	X_WP:	0.000	Y_WP:	0.000	Y_WP:	0.500	X:	0.117	Y:	-0.014	Z:	0.211	yaw:	-0.834	yaw rate:	21.680	Roll:	8.176	Pitch:	-0.301	Yaw:	-8.300	Thrust:	67.551
Time:	1.558	Roll Set Point:	-0.235	Pitch Set Point:	0.027	Yaw Set Point:	0.017	X_WP:	0.000	Y_WP:	0.000	Y_WP:	0.500	X:	0.117	Y:	-0.014	Z:	0.214	yaw:	-0.947	yaw rate:	11.257	Roll:	7.730	Pitch:	-1.033	Yaw:	-5.917	Thrust:	68.212
Time:	1.579	Roll Set Point:	-0.236	Pitch Set Point:	0.028	Yaw Set Point:	0.017	X_WP:	0.000	Y_WP:	0.000	Y_WP:	0.500	X:	0.118	Y:	-0.015	Z:	0.217	yaw:	-0.971	yaw rate:	2.450	Roll:	8.870	Pitch:	-0.719	Yaw:	-5.349	Thrust:	100.000
Time:	1.590	Roll Set Point:	-0.238	Pitch Set Point:	0.032	Yaw Set Point:	0.022	X_WP:	0.000	Y_WP:	0.000	Y_WP:	0.500	X:	0.119	Y:	-0.017	Z:	0.230	yaw:	-1.234	yaw rate:	4.658	Roll:	9.247	Pitch:	-5.224	Yaw:	-10.062	Thrust:	28.474
Time:	1.601	Roll Set Point:	-0.238	Pitch Set Point:	0.033	Yaw Set Point:	0.023	X_WP:	0.000	Y_WP:	0.000	Y_WP:	0.500	X:	0.119	Y:	-0.018	Z:	0.234	yaw:	-1.333	yaw rate:	9.933	Roll:	7.083	Pitch:	-1.292	Yaw:	-6.185	Thrust:	67.283
Time:	1.612	Roll Set Point:	-0.238	Pitch Set Point:	0.034	Yaw Set Point:	0.023	X_WP:	0.000	Y_WP:	0.000	Y_WP:	0.500	X:	0.119	Y:	-0.019	Z:	0.237	yaw:	-1.343	yaw rate:	1.039	Roll:	6.873	Pitch:	-1.909	Yaw:	-4.106	Thrust:	70.517
Time:	1.625	Roll Set Point:	-0.238	Pitch Set Point:	0.036	Yaw Set Point:	0.024	X_WP:	0.000	Y_WP:	0.000	Y_WP:	0.500	X:	0.119	Y:	-0.019	Z:	0.241	yaw:	-1.396	yaw rate:	5.307	Roll:	7.496	Pitch:	-1.634	Yaw:	-5.377	Thrust:	82.065
Time:	1.647	Roll Set Point:	-0.237	Pitch Set Point:	0.037	Yaw Set Point:	0.026	X_WP:	0.000	Y_WP:	0.000	Y_WP:	0.500	X:	0.118	Y:	-0.020	Z:	0.244	yaw:	-1.480	yaw rate:	8.394	Roll:	9.015	Pitch:	-0.792	Yaw:	-6.951	Thrust:	100.000
Time:	1.658	Roll Set Point:	-0.236	Pitch Set Point:	0.039	Yaw Set Point:	0.026	X_WP:	0.000	Y_WP:	0.000	Y_WP:	0.500	X:	0.118	Y:	-0.021	Z:	0.252	yaw:	-1.504	yaw rate:	-1.354	Roll:	6.245	Pitch:	-3.565	Yaw:	-4.710	Thrust:	54.683
Time:	1.670	Roll Set Point:	-0.235	Pitch Set Point:	0.042	Yaw Set Point:	0.026	X_WP:	0.000	Y_WP:	0.000	Y_WP:	0.500	X:	0.117	Y:	-0.022	Z:	0.260	yaw:	-1.486	yaw rate:	-1.787	Roll:	5.488	Pitch:	-3.980	Yaw:	-3.765	Thrust:	54.291
Time:	1.681	Roll Set Point:	-0.234	Pitch Set Point:	0.043	Yaw Set Point:	0.027	X_WP:	0.000	Y_WP:	0.000	Y_WP:	0.500	X:	0.117	Y:	-0.023	Z:	0.264	yaw:	-1.534	yaw rate:	4.841	Roll:	6.231	Pitch:	-1.807	Yaw:	-5.309	Thrust:	64.893
Time:	1.695	Roll Set Point:	-0.233	Pitch Set Point:	0.044	Yaw Set Point:	0.028	X_WP:	0.000	Y_WP:	0.000	Y_WP:	0.500	X:	0.116	Y:	-0.023	Z:	0.268	yaw:	-1.626	yaw rate:	9.208	Roll:	6.854	Pitch:	-1.468	Yaw:	-6.555	Thrust:	79.310
Time:	1.709	Roll Set Point:	-0.232	Pitch Set Point:	0.045	Yaw Set Point:	0.028	X_WP:	0.000	Y_WP:	0.000	Y_WP:	0.500	X:	0.116	Y:	-0.024	Z:	0.272	yaw:	-1.632	yaw rate:	0.549	Roll:	7.296	Pitch:	-1.762	Yaw:	-4.960	Thrust:	94.005
Time:	1.720	Roll Set Point:	-0.231	Pitch Set Point:	0.046	Yaw Set Point:	0.028	X_WP:	0.000	Y_WP:	0.000	Y_WP:	0.500	X:	0.115	Y:	-0.025	Z:	0.277	yaw:	-1.618	yaw rate:	-1.331	Roll:	5.669	Pitch:	-2.286	Yaw:	-4.035	Thrust:	65.677
Time:	1.731	Roll Set Point:	-0.230	Pitch Set Point:	0.047	Yaw Set Point:	0.029	X_WP:	0.000	Y_WP:	0.000	Y_WP:	0.500	X:	0.115	Y:	-0.025	Z:	0.282	yaw:	-1.660	yaw rate:	4.172	Roll:	5.628	Pitch:	-1.950	Yaw:	-5.305	Thrust:	59.360
Time:	1.742	Roll Set Point:	-0.227	Pitch Set Point:	0.049	Yaw Set Point:	0.028	X_WP:	0.000	Y_WP:	0.000	Y_WP:	0.500	X:	0.113	Y:	-0.026	Z:	0.291	yaw:	-1.603	yaw rate:	3.435	Roll:	3.655	Pitch:	-4.036	Yaw:	-2.925	Thrust:	43.168
Time:	1.753	Roll Set Point:	-0.226	Pitch Set Point:	0.051	Yaw Set Point:	0.026	X_WP:	0.000	Y_WP:	0.000	Y_WP:	0.500	X:	0.113	Y:	-0.027	Z:	0.296	yaw:	-1.516	yaw rate:	-8.739	Roll:	5.392	Pitch:	-2.991	Yaw:	-2.336	Thrust:	67.307
Time:	1.775	Roll Set Point:	-0.225	Pitch Set Point:	0.051	Yaw Set Point:	0.029	X_WP:	0.000	Y_WP:	0.000	Y_WP:	0.500	X:	0.112	Y:	-0.027	Z:	0.301	yaw:	-1.671	yaw rate:	15.526	Roll:	8.753	Pitch:	-0.732	Yaw:	-8.192	Thrust:	100.000
Time:	1.787	Roll Set Point:	-0.221	Pitch Set Point:	0.053	Yaw Set Point:	0.027	X_WP:	0.000	Y_WP:	0.000	Y_WP:	0.500	X:	0.110	Y:	-0.028	Z:	0.311	yaw:	-1.558	yaw rate:	2.232	Roll:	3.896	Pitch:	-3.548	Yaw:	-2.054	Thrust:	51.648
Time:	1.798	Roll Set Point:	-0.219	Pitch Set Point:	0.054	Yaw Set Point:	0.026	X_WP:	0.000	Y_WP:	0.000	Y_WP:	0.500	X:	0.109	Y:	-0.028	Z:	0.316	yaw:	-1.474	yaw rate:	-8.391	Roll:	4.729	Pitch:	-2.463	Yaw:	-2.371	Thrust:	61.685
Time:	1.809	Roll Set Point:	-0.217	Pitch Set Point:	0.055	Yaw Set Point:	0.025	X_WP:	0.000	Y_WP:	0.000	Y_WP:	0.500	X:	0.108	Y:	-0.029	Z:	0.321	yaw:	-1.433	yaw rate:	-4.173	Roll:	4.630	Pitch:	-2.334	Yaw:	-3.061	Thrust:	60.085
Time:	1.820	Roll Set Point:	-0.216	Pitch Set Point:	0.056	Yaw Set Point:	0.025	X_WP:	0.000	Y_WP:	0.000	Y_WP:	0.500	X:	0.108	Y:	-0.029	Z:	0.326	yaw:	-1.421	yaw rate:	-1.169	Roll:	4.731	Pitch:	-2.039	Yaw:	-3.785	Thrust:	65.021
Time:	1.844	Roll Set Point:	-0.214	Pitch Set Point:	0.057	Yaw Set Point:	0.023	X_WP:	0.000	Y_WP:	0.000	Y_WP:	0.500	X:	0.107	Y:	-0.030	Z:	0.331	yaw:	-1.303	yaw rate:	-11.793	Roll:	8.606	Pitch:	-1.742	Yaw:	-4.971	Thrust:	100.000
Time:	1.855	Roll Set Point:	-0.208	Pitch Set Point:	0.059	Yaw Set Point:	0.021	X_WP:	0.000	Y_WP:	0.000	Y_WP:	0.500	X:	0.104	Y:	-0.030	Z:	0.345	yaw:	-1.183	yaw rate:	-11.939	Roll:	0.104	Pitch:	-3.844	Yaw:	-0.751	Thrust:	19.578
Time:	1.865	Roll Set Point:	-0.206	Pitch Set Point:	0.059	Yaw Set Point:	0.020	X_WP:	0.000	Y_WP:	0.000	Y_WP:	0.500	X:	0.103	Y:	-0.031	Z:	0.349	yaw:	-1.144	yaw rate:	-3.939	Roll:	3.777	Pitch:	-1.976	Yaw:	-2.618	Thrust:	53.899
Time:	1.876	Roll Set Point:	-0.204	Pitch Set Point:	0.060	Yaw Set Point:	0.019	X_WP:	0.000	Y_WP:	0.000	Y_WP:	0.500	X:	0.102	Y:	-0.031	Z:	0.354	yaw:	-1.065	yaw rate:	-7.870	Roll:	4.009	Pitch:	-2.046	Yaw:	-1.345	Thrust:	58.658
Time:	1.887	Roll Set Point:	-0.202	Pitch Set Point:	0.060	Yaw Set Point:	0.017	X_WP:	0.000	Y_WP:	0.000	Y_WP:	0.500	X:	0.101	Y:	-0.031	Z:	0.358	yaw:	-0.951	yaw rate:	-11.489	Roll:	4.239	Pitch:	-2.322	Yaw:	-0.713	Thrust:	63.641
Time:	1.900	Roll Set Point:	-0.201	Pitch Set Point:	0.060	Yaw Set Point:	0.017	X_WP:	0.000	Y_WP:	0.000	Y_WP:	0.500	X:	0.100	Y:	-0.031	Z:	0.362	yaw:	-0.965	yaw rate:	1.440	Roll:	4.543	Pitch:	-1.240	Yaw:	-4.216	Thrust:	79.448
Time:	1.913	Roll Set Point:	-0.199	Pitch Set Point:	0.061	Yaw Set Point:	0.016	X_WP:	0.000	Y_WP:	0.000	Y_WP:	0.500	X:	0.099	Y:	-0.031	Z:	0.366	yaw:	-0.941	yaw rate:	-2.393	Roll:	5.887	Pitch:	-1.545	Yaw:	-3.324	Thrust:	83.906
Time:	1.924	Roll Set Point:	-0.195	Pitch Set Point:	0.061	Yaw Set Point:	0.012	X_WP:	0.000	Y_WP:	0.000	Y_WP:	0.500	X:	0.097	Y:	-0.031	Z:	0.373	yaw:	-0.675	yaw rate:	-26.568	Roll:	1.142	Pitch:	-2.649	Yaw:	3.533	Thrust:	45.517
Time:	1.934	Roll Set Point:	-0.193	Pitch Set Point:	0.062	Yaw Set Point:	0.009	X_WP:	0.000	Y_WP:	0.000	Y_WP:	0.500	X:	0.096	Y:	-0.031	Z:	0.377	yaw:	-0.526	yaw rate:	-14.898	Roll:	3.642	Pitch:	-2.201	Yaw:	1.221	Thrust:	57.807
Time:	1.944	Roll Set Point:	-0.191	Pitch Set Point:	0.062	Yaw Set Point:	0.009	X_WP:	0.000	Y_WP:	0.000	Y_WP:	0.500	X:	0.095	Y:	-0.031	Z:	0.381	yaw:	-0.530	yaw rate:	0.374	Roll:	3.847	Pitch:	-1.055	Yaw:	-2.864	Thrust:	61.586
Time:	1.955	Roll Set Point:	-0.189	Pitch Set Point:	0.062	Yaw Set Point:	0.007	X_WP:	0.000	Y_WP:	0.000	Y_WP:	0.500	X:	0.095	Y:	-0.031	Z:	0.384	yaw:	-0.427	yaw rate:	-10.303	Roll:	3.480	Pitch:	-1.574	Yaw:	0.165	Thrust:	57.857
Time:	1.975	Roll Set Point:	-0.188	Pitch Set Point:	0.062	Yaw Set Point:	0.006	X_WP:	0.000	Y_WP:	0.000	Y_WP:	0.500	X:	0.094	Y:	-0.031	Z:	0.387	yaw:	-0.329	yaw rate:	-9.833	Roll:	7.260	Pitch:	-1.594	Yaw:	-3.287	Thrust:	100.000
Time:	1.986	Roll Set Point:	-0.186	Pitch Set Point:	0.061	Yaw Set Point:	0.006	X_WP:	0.000	Y_WP:	0.000	Y_WP:	0.500	X:	0.093	Y:	-0.031	Z:	0.391	yaw:	-0.332	yaw rate:	0.360	Roll:	4.563	Pitch:	-0.770	Yaw:	-2.579	Thrust:	61.786
Time:	1.996	Roll Set Point:	-0.182	Pitch Set Point:	0.061	Yaw Set Point:	0.004	X_WP:	0.000	Y_WP:	0.000	Y_WP:	0.500	X:	0.091	Y:	-0.031	Z:	0.397	yaw:	-0.220	yaw rate:	-11.212	Roll:	0.836	Pitch:	-0.919	Yaw:	0.448	Thrust:	48.865
Time:	2.007	Roll Set Point:	-0.181	Pitch Set Point:	0.060	Yaw Set Point:	0.004	X_WP:	0.000	Y_WP:	0.000	Y_WP:	0.500	X:	0.090	Y:	-0.030	Z:	0.400	yaw:	-0.209	yaw rate:	-1.074	Roll:	3.837	Pitch:	-0.713	Yaw:	-2.065	Thrust:	59.279
Time:	2.017	Roll Set Point:	-0.179	Pitch Set Point:	0.060	Yaw Set Point:	0.002	X_WP:	0.000	Y_WP:	0.000	Y_WP:	0.500	X:	0.090	Y:	-0.030	Z:	0.404	yaw:	-0.134	yaw rate:	-7.515	Roll:	3.890	Pitch:	-0.937	Yaw:	-0.347	Thrust:	66.999
Time:	2.041	Roll Set Point:	-0.178	Pitch Set Point:	0.060	Yaw Set Point:	0.000	X_WP:	0.000	Y_WP:	0.000	Y_WP:	0.500	X:	0.089	Y:	-0.030	Z:	0.406	yaw:	-0.026	yaw rate:	-10.879	Roll:	6.517	Pitch:	-1.408	Yaw:	-3.002	Thrust:	100.000
Time:	2.052	Roll Set Point:	-0.174	Pitch Set Point:	0.058	Yaw Set Point:	-0.002	X_WP:	0.000	Y_WP:	0.000	Y_WP:	0.500	X:	0.087	Y:	-0.029	Z:	0.412	yaw:	0.111	yaw rate:	-7.754	Roll:	4.982	Pitch:	-0.504	Yaw:	0.804	Thrust:	68.801
Time:	2.063	Roll Set Point:	-0.173	Pitch Set Point:	0.058	Yaw Set Point:	-0.003	X_WP:	0.000	Y_WP:	0.000	Y_WP:	0.500	X:	0.087	Y:	-0.029	Z:	0.415	yaw:	0.168	yaw rate:	-5.674	Roll:	3.951	Pitch:	-0.776	Yaw:	-0.546	Thrust:	68.370
Time:	2.073	Roll Set Point:	-0.170	Pitch Set Point:	0.057	Yaw Set Point:	-0.005	X_WP:	0.000	Y_WP:	0.000	Y_WP:	0.500	X:	0.085	Y:	-0.028	Z:	0.420	yaw:	0.309	yaw rate:	-5.782	Roll:	2.396	Pitch:	0.396	Yaw:	1.739	Thrust:	56.420
Time:	2.084	Roll Set Point:	-0.169	Pitch Set Point:	0.056	Yaw Set Point:	-0.006	X_WP:	0.000	Y_WP:	0.000	Y_WP:	0.500	X:	0.085	Y:	-0.028	Z:	0.423	yaw:	0.344	yaw rate:	-3.533	Roll:	4.165	Pitch:	-0.448	Yaw:	-0.669	Thrust:	65.005
Time:	2.096	Roll Set Point:	-0.168	Pitch Set Point:	0.055	Yaw Set Point:	-0.005	X_WP:	0.000	Y_WP:	0.000	Y_WP:	0.500	X:	0.084	Y:	-0.027	Z:	0.425	yaw:	0.309	yaw rate:	3.463	Roll:	4.426	Pitch:	0.030	Yaw:	-2.577	Thrust:	72.021
Time:	2.110	Roll Set Point:	-0.166	Pitch Set Point:	0.054	Yaw Set Point:	-0.006	X_WP:	0.000	Y_WP:	0.000	Y_WP:	0.500	X:	0.083	Y:	-0.027	Z:	0.428	yaw:	0.361	yaw rate:	-5.193	Roll:	5.803	Pitch:	-0.725	Yaw:	-1.355	Thrust:	94.765
Time:	2.121	Roll Set Point:	-0.164	Pitch Set Point:	0.052	Yaw Set Point:	-0.009	X_WP:	0.000	Y_WP:	0.000	Y_WP:	0.500	X:	0.082	Y:	-0.026	Z:	0.434	yaw:	0.488	yaw rate:	-12.710	Roll:	2.463	Pitch:	0.980	Yaw:	1.823	Thrust:	52.247
Time:	2.132	Roll Set Point:	-0.163	Pitch Set Point:	0.051	Yaw Set Point:	-0.010	X_WP:	0.000	Y_WP:	0.000	Y_WP:	0.500	X:	0.082	Y:	-0.025	Z:	0.436	yaw:	0.553	yaw rate:	-6.461	Roll:	4.309	Pitch:	-0.078	Yaw:	0.183	Thrust:	67.535
Time:	2.142	Roll Set Point:	-0.162	Pitch Set Point:	0.050	Yaw Set Point:	-0.010	X_WP:	0.000	Y_WP:	0.000	Y_WP:	0.500	X:	0.081	Y:	-0.025	Z:	0.439	yaw:	0.555	yaw rate:	-0.162	Roll:	4.449	Pitch:	0.052	Yaw:	-1.235	Thrust:	64.458
Time:	2.155	Roll Set Point:	-0.161	Pitch Set Point:	0.049	Yaw Set Point:	-0.008	X_WP:	0.000	Y_WP:	0.000	Y_WP:	0.500	X:	0.081	Y:	-0.024	Z:	0.442	yaw:	0.459	yaw rate:	9.572	Roll:	5.047	Pitch:	0.330	Yaw:	-3.761	Thrust:	77.987
Time:	2.175	Roll Set Point:	-0.160	Pitch Set Point:	0.047	Yaw Set Point:	-0.006	X_WP:	0.000	Y_WP:	0.000	Y_WP:	0.500	X:	0.080	Y:	-0.024	Z:	0.445	yaw:	0.318	yaw rate:	14.057	Roll:	7.602	Pitch:	-0.191	Yaw:	-5.200	Thrust:	100.000
Time:	2.186	Roll Set Point:	-0.159	Pitch Set Point:	0.047	Yaw Set Point:	-0.010	X_WP:	0.000	Y_WP:	0.000	Y_WP:	0.500	X:	0.080	Y:	-0.023	Z:	0.448	yaw:	0.578	yaw rate:	-25.925	Roll:	4.670	Pitch:	-0.994	Yaw:	4.555	Thrust:	69.430
Time:	2.197	Roll Set Point:	-0.158	Pitch Set Point:	0.046	Yaw Set Point:	-0.009	X_WP:	0.000	Y_WP:	0.000	Y_WP:	0.500	X:	0.079	Y:	-0.022	Z:	0.451	yaw:	0.534	yaw rate:	4.348	Roll:	4.560	Pitch:	0.447	Yaw:	-2.396	Thrust:	65.722
Time:	2.209	Roll Set Point:	-0.156	Pitch Set Point:	0.044	Yaw Set Point:	-0.012	X_WP:	0.000	Y_WP:	0.000	Y_WP:	0.500	X:	0.078	Y:	-0.021	Z:	0.458	yaw:	0.710	yaw rate:	-11.364	Roll:	3.877	Pitch:	0.997	Yaw:	2.849	Thrust:	55.664
Time:	2.221	Roll Set Point:	-0.155	Pitch Set Point:	0.041	Yaw Set Point:	-0.013	X_WP:	0.000	Y_WP:	0.000	Y_WP:	0.500	X:	0.078	Y:	-0.020	Z:	0.464	yaw:	0.762	yaw rate:	-5.192	Roll:	3.874	Pitch:	1.830	Yaw:	-0.102	Thrust:	54.551
Time:	2.234	Roll Set Point:	-0.154	Pitch Set Point:	0.040	Yaw Set Point:	-0.011	X_WP:	0.000	Y_WP:	0.000	Y_WP:	0.500	X:	0.077	Y:	-0.019	Z:	0.468	yaw:	0.622	yaw rate:	13.986	Roll:	5.530	Pitch:	0.785	Yaw:	-4.422	Thrust:	75.535
Time:	2.248	Roll Set Point:	-0.154	Pitch Set Point:	0.039	Yaw Set Point:	-0.011	X_WP:	0.000	Y_WP:	0.000	Y_WP:	0.500	X:	0.077	Y:	-0.019	Z:	0.472	yaw:	0.658	yaw rate:	-3.604	Roll:	6.357	Pitch:	-0.351	Yaw:	-1.077	Thrust:	94.069
Time:	2.259	Roll Set Point:	-0.153	Pitch Set Point:	0.038	Yaw Set Point:	-0.011	X_WP:	0.000	Y_WP:	0.000	Y_WP:	0.500	X:	0.077	Y:	-0.018	Z:	0.475	yaw:	0.637	yaw rate:	2.089	Roll:	4.934	Pitch:	0.494	Yaw:	-1.736	Thrust:	55.516
Time:	2.269	Roll Set Point:	-0.153	Pitch Set Point:	0.036	Yaw Set Point:	-0.012	X_WP:	0.000	Y_WP:	0.000	Y_WP:	0.500	X:	0.076	Y:	-0.018	Z:	0.479	yaw:	0.669	yaw rate:	-3.219	Roll:	4.995	Pitch:	0.416	Yaw:	-0.263	Thrust:	61.458
Time:	2.280	Roll Set Point:	-0.152	Pitch Set Point:	0.035	Yaw Set Point:	-0.015	X_WP:	0.000	Y_WP:	0.000	Y_WP:	0.500	X:	0.076	Y:	-0.017	Z:	0.483	yaw:	0.832	yaw rate:	-16.331	Roll:	4.951	Pitch:	-0.248	Yaw:	3.506	Thrust:	57.643
Time:	2.296	Roll Set Point:	-0.152	Pitch Set Point:	0.034	Yaw Set Point:	-0.014	X_WP:	0.000	Y_WP:	0.000	Y_WP:	0.500	X:	0.076	Y:	-0.017	Z:	0.487	yaw:	0.778	yaw rate:	5.415	Roll:	6.543	Pitch:	-0.044	Yaw:	-2.837	Thrust:	100.000
Time:	2.311	Roll Set Point:	-0.151	Pitch Set Point:	0.033	Yaw Set Point:	-0.013	X_WP:	0.000	Y_WP:	0.000	Y_WP:	0.500	X:	0.076	Y:	-0.016	Z:	0.491	yaw:	0.772	yaw rate:	0.670	Roll:	6.452	Pitch:	-0.250	Yaw:	-1.882	Thrust:	92.508
Time:	2.322	Roll Set Point:	-0.150	Pitch Set Point:	0.029	Yaw Set Point:	-0.011	X_WP:	0.000	Y_WP:	0.000	Y_WP:	0.500	X:	0.075	Y:	-0.014	Z:	0.503	yaw:	0.654	yaw rate:	7.248	Roll:	4.055	Pitch:	4.123	Yaw:	-3.961	Thrust:	24.412
Time:	2.333	Roll Set Point:	-0.149	Pitch Set Point:	0.028	Yaw Set Point:	-0.013	X_WP:	0.000	Y_WP:	0.000	Y_WP:	0.500	X:	0.075	Y:	-0.014	Z:	0.508	yaw:	0.721	yaw rate:	-6.666	Roll:	5.011	Pitch:	0.319	Yaw:	0.686	Thrust:	53.990
Time:	2.343	Roll Set Point:	-0.149	Pitch Set Point:	0.028	Yaw Set Point:	-0.015	X_WP:	0.000	Y_WP:	0.000	Y_WP:	0.500	X:	0.075	Y:	-0.013	Z:	0.512	yaw:	0.849	yaw rate:	-12.816	Roll:	5.302	Pitch:	-0.105	Yaw:	2.122	Thrust:	59.158
Time:	2.355	Roll Set Point:	-0.149	Pitch Set Point:	0.026	Yaw Set Point:	-0.013	X_WP:	0.000	Y_WP:	0.000	Y_WP:	0.500	X:	0.075	Y:	-0.013	Z:	0.516	yaw:	0.748	yaw rate:	10.133	Roll:	5.292	Pitch:	0.848	Yaw:	-3.426	Thrust:	60.531
Time:	2.374	Roll Set Point:	-0.149	Pitch Set Point:	0.026	Yaw Set Point:	-0.014	X_WP:	0.000	Y_WP:	0.000	Y_WP:	0.500	X:	0.074	Y:	-0.012	Z:	0.520	yaw:	0.804	yaw rate:	-5.631	Roll:	7.431	Pitch:	-0.773	Yaw:	-1.566	Thrust:	100.000
Time:	2.385	Roll Set Point:	-0.148	Pitch Set Point:	0.025	Yaw Set Point:	-0.015	X_WP:	0.000	Y_WP:	0.000	Y_WP:	0.500	X:	0.074	Y:	-0.012	Z:	0.524	yaw:	0.870	yaw rate:	-6.563	Roll:	5.947	Pitch:	-0.187	Yaw:	0.364	Thrust:	70.768
Time:	2.397	Roll Set Point:	-0.148	Pitch Set Point:	0.023	Yaw Set Point:	-0.015	X_WP:	0.000	Y_WP:	0.000	Y_WP:	0.500	X:	0.074	Y:	-0.011	Z:	0.533	yaw:	0.864	yaw rate:	-8.832	Roll:	4.925	Pitch:	1.901	Yaw:	-1.091	Thrust:	40.420
Time:	2.408	Roll Set Point:	-0.148	Pitch Set Point:	0.021	Yaw Set Point:	-0.014	X_WP:	0.000	Y_WP:	0.000	Y_WP:	0.500	X:	0.074	Y:	-0.010	Z:	0.537	yaw:	0.827	yaw rate:	3.635	Roll:	5.522	Pitch:	0.537	Yaw:	-1.769	Thrust:	61.514
Time:	2.419	Roll Set Point:	-0.148	Pitch Set Point:	0.021	Yaw Set Point:	-0.014	X_WP:	0.000	Y_WP:	0.000	Y_WP:	0.500	X:	0.074	Y:	-0.010	Z:	0.541	yaw:	0.826	yaw rate:	0.094	Roll:	5.310	Pitch:	0.339	Yaw:	-0.939	Thrust:	57.579
Time:	2.432	Roll Set Point:	-0.147	Pitch Set Point:	0.020	Yaw Set Point:	-0.014	X_WP:	0.000	Y_WP:	0.000	Y_WP:	0.500	X:	0.074	Y:	-0.009	Z:	0.545	yaw:	0.823	yaw rate:	0.348	Roll:	6.030	Pitch:	0.043	Yaw:	-1.262	Thrust:	69.223
Time:	2.447	Roll Set Point:	-0.147	Pitch Set Point:	0.018	Yaw Set Point:	-0.016	X_WP:	0.000	Y_WP:	0.000	Y_WP:	0.500	X:	0.074	Y:	-0.008	Z:	0.553	yaw:	0.901	yaw rate:	-7.812	Roll:	6.529	Pitch:	0.201	Yaw:	-0.179	Thrust:	76.525
Time:	2.457	Roll Set Point:	-0.147	Pitch Set Point:	0.017	Yaw Set Point:	-0.014	X_WP:	0.000	Y_WP:	0.000	Y_WP:	0.500	X:	0.074	Y:	-0.008	Z:	0.557	yaw:	0.826	yaw rate:	7.450	Roll:	5.404	Pitch:	0.580	Yaw:	-2.657	Thrust:	53.926
Time:	2.468	Roll Set Point:	-0.147	Pitch Set Point:	0.016	Yaw Set Point:	-0.014	X_WP:	0.000	Y_WP:	0.000	Y_WP:	0.500	X:	0.073	Y:	-0.008	Z:	0.561	yaw:	0.809	yaw rate:	1.693	Roll:	5.545	Pitch:	0.284	Yaw:	-1.321	Thrust:	56.427
Time:	2.478	Roll Set Point:	-0.147	Pitch Set Point:	0.016	Yaw Set Point:	-0.015	X_WP:	0.000	Y_WP:	0.000	Y_WP:	0.500	X:	0.073	Y:	-0.007	Z:	0.565	yaw:	0.836	yaw rate:	-2.620	Roll:	5.414	Pitch:	0.101	Yaw:	-0.024	Thrust:	48.167
Time:	2.491	Roll Set Point:	-0.147	Pitch Set Point:	0.015	Yaw Set Point:	-0.015	X_WP:	0.000	Y_WP:	0.000	Y_WP:	0.500	X:	0.073	Y:	-0.007	Z:	0.569	yaw:	0.849	yaw rate:	-1.303	Roll:	6.089	Pitch:	-0.296	Yaw:	-0.962	Thrust:	71.828
Time:	2.511	Roll Set Point:	-0.147	Pitch Set Point:	0.015	Yaw Set Point:	-0.017	X_WP:	0.000	Y_WP:	0.000	Y_WP:	0.500	X:	0.073	Y:	-0.007	Z:	0.572	yaw:	0.964	yaw rate:	-11.494	Roll:	7.803	Pitch:	-1.076	Yaw:	-0.734	Thrust:	100.000
Time:	2.522	Roll Set Point:	-0.146	Pitch Set Point:	0.013	Yaw Set Point:	-0.017	X_WP:	0.000	Y_WP:	0.000	Y_WP:	0.500	X:	0.073	Y:	-0.006	Z:	0.584	yaw:	0.999	yaw rate:	1.162	Roll:	5.038	Pitch:	1.616	Yaw:	0.211	Thrust:	24.643
Time:	2.533	Roll Set Point:	-0.146	Pitch Set Point:	0.012	Yaw Set Point:	-0.016	X_WP:	0.000	Y_WP:	0.000	Y_WP:	0.500	X:	0.073	Y:	-0.005	Z:	0.587	yaw:	0.916	yaw rate:	8.332	Roll:	5.550	Pitch:	0.396	Yaw:	-2.726	Thrust:	54.970
Time:	2.543	Roll Set Point:	-0.146	Pitch Set Point:	0.011	Yaw Set Point:	-0.017	X_WP:	0.000	Y_WP:	0.000	Y_WP:	0.500	X:	0.073	Y:	-0.005	Z:	0.591	yaw:	0.949	yaw rate:	-3.253	Roll:	5.485	Pitch:	-0.161	Yaw:	0.293	Thrust:	48.266
Time:	2.555	Roll Set Point:	-0.146	Pitch Set Point:	0.011	Yaw Set Point:	-0.017	X_WP:	0.000	Y_WP:	0.000	Y_WP:	0.500	X:	0.073	Y:	-0.005	Z:	0.595	yaw:	0.958	yaw rate:	-0.908	Roll:	5.596	Pitch:	-0.135	Yaw:	-0.681	Thrust:	63.486
Time:	2.573	Roll Set Point:	-0.146	Pitch Set Point:	0.011	Yaw Set Point:	-0.018	X_WP:	0.000	Y_WP:	0.000	Y_WP:	0.500	X:	0.073	Y:	-0.005	Z:	0.598	yaw:	1.048	yaw rate:	-9.057	Roll:	7.187	Pitch:	-1.188	Yaw:	-0.524	Thrust:	100.000
Time:	2.586	Roll Set Point:	-0.146	Pitch Set Point:	0.010	Yaw Set Point:	-0.019	X_WP:	0.000	Y_WP:	0.000	Y_WP:	0.500	X:	0.073	Y:	-0.005	Z:	0.602	yaw:	1.064	yaw rate:	-1.621	Roll:	5.945	Pitch:	-0.441	Yaw:	-0.149	Thrust:	59.182
Time:	2.596	Roll Set Point:	-0.146	Pitch Set Point:	0.010	Yaw Set Point:	-0.017	X_WP:	0.000	Y_WP:	0.000	Y_WP:	0.500	X:	0.073	Y:	-0.004	Z:	0.605	yaw:	0.997	yaw rate:	6.733	Roll:	5.483	Pitch:	0.114	Yaw:	-2.236	Thrust:	58.271
Time:	2.607	Roll Set Point:	-0.145	Pitch Set Point:	0.010	Yaw Set Point:	-0.018	X_WP:	0.000	Y_WP:	0.000	Y_WP:	0.500	X:	0.073	Y:	-0.004	Z:	0.609	yaw:	1.035	yaw rate:	-3.789	Roll:	5.467	Pitch:	-0.721	Yaw:	0.340	Thrust:	54.530
Time:	2.619	Roll Set Point:	-0.145	Pitch Set Point:	0.010	Yaw Set Point:	-0.020	X_WP:	0.000	Y_WP:	0.000	Y_WP:	0.500	X:	0.073	Y:	-0.004	Z:	0.612	yaw:	1.162	yaw rate:	-12.722	Roll:	5.799	Pitch:	-1.071	Yaw:	2.325	Thrust:	56.955
Time:	2.642	Roll Set Point:	-0.145	Pitch Set Point:	0.009	Yaw Set Point:	-0.021	X_WP:	0.000	Y_WP:	0.000	Y_WP:	0.500	X:	0.073	Y:	-0.004	Z:	0.618	yaw:	1.208	yaw rate:	-4.608	Roll:	7.086	Pitch:	-1.057	Yaw:	-1.968	Thrust:	100.000
Time:	2.654	Roll Set Point:	-0.145	Pitch Set Point:	0.008	Yaw Set Point:	-0.020	X_WP:	0.000	Y_WP:	0.000	Y_WP:	0.500	X:	0.072	Y:	-0.003	Z:	0.627	yaw:	1.158	yaw rate:	4.568	Roll:	6.890	Pitch:	0.124	Yaw:	-1.657	Thrust:	48.299
Time:	2.664	Roll Set Point:	-0.144	Pitch Set Point:	0.008	Yaw Set Point:	-0.021	X_WP:	0.000	Y_WP:	0.000	Y_WP:	0.500	X:	0.072	Y:	-0.003	Z:	0.630	yaw:	1.192	yaw rate:	-3.444	Roll:	5.003	Pitch:	-0.578	Yaw:	0.756	Thrust:	46.779
Time:	2.675	Roll Set Point:	-0.144	Pitch Set Point:	0.008	Yaw Set Point:	-0.020	X_WP:	0.000	Y_WP:	0.000	Y_WP:	0.500	X:	0.072	Y:	-0.003	Z:	0.633	yaw:	1.171	yaw rate:	2.095	Roll:	5.135	Pitch:	-0.410	Yaw:	-0.844	Thrust:	54.568
Time:	2.689	Roll Set Point:	-0.144	Pitch Set Point:	0.008	Yaw Set Point:	-0.021	X_WP:	0.000	Y_WP:	0.000	Y_WP:	0.500	X:	0.072	Y:	-0.003	Z:	0.636	yaw:	1.192	yaw rate:	-2.053	Roll:	5.911	Pitch:	-0.852	Yaw:	-0.378	Thrust:	73.656
Time:	2.711	Roll Set Point:	-0.144	Pitch Set Point:	0.008	Yaw Set Point:	-0.021	X_WP:	0.000	Y_WP:	0.000	Y_WP:	0.500	X:	0.072	Y:	-0.003	Z:	0.639	yaw:	1.193	yaw rate:	-0.109	Roll:	6.746	Pitch:	-1.090	Yaw:	-2.269	Thrust:	100.000
Time:	2.722	Roll Set Point:	-0.143	Pitch Set Point:	0.007	Yaw Set Point:	-0.022	X_WP:	0.000	Y_WP:	0.000	Y_WP:	0.500	X:	0.072	Y:	-0.003	Z:	0.644	yaw:	1.284	yaw rate:	-9.116	Roll:	6.752	Pitch:	-0.966	Yaw:	1.805	Thrust:	59.873
Time:	2.733	Roll Set Point:	-0.143	Pitch Set Point:	0.008	Yaw Set Point:	-0.024	X_WP:	0.000	Y_WP:	0.000	Y_WP:	0.500	X:	0.071	Y:	-0.003	Z:	0.646	yaw:	1.394	yaw rate:	-10.976	Roll:	5.280	Pitch:	-1.140	Yaw:	2.751	Thrust:	52.039
Time:	2.743	Roll Set Point:	-0.142	Pitch Set Point:	0.007	Yaw Set Point:	-0.024	X_WP:	0.000	Y_WP:	0.000	Y_WP:	0.500	X:	0.071	Y:	-0.003	Z:	0.649	yaw:	1.374	yaw rate:	1.964	Roll:	4.972	Pitch:	-0.565	Yaw:	-0.373	Thrust:	46.751
Time:	2.754	Roll Set Point:	-0.142	Pitch Set Point:	0.007	Yaw Set Point:	-0.024	X_WP:	0.000	Y_WP:	0.000	Y_WP:	0.500	X:	0.071	Y:	-0.003	Z:	0.651	yaw:	1.394	yaw rate:	-2.024	Roll:	5.161	Pitch:	-0.784	Yaw:	0.421	Thrust:	56.336
Time:	2.774	Roll Set Point:	-0.142	Pitch Set Point:	0.007	Yaw Set Point:	-0.024	X_WP:	0.000	Y_WP:	0.000	Y_WP:	0.500	X:	0.071	Y:	-0.003	Z:	0.654	yaw:	1.348	yaw rate:	4.633	Roll:	7.160	Pitch:	-1.093	Yaw:	-2.198	Thrust:	100.000
Time:	2.784	Roll Set Point:	-0.140	Pitch Set Point:	0.007	Yaw Set Point:	-0.024	X_WP:	0.000	Y_WP:	0.000	Y_WP:	0.500	X:	0.070	Y:	-0.003	Z:	0.661	yaw:	1.357	yaw rate:	-3.398	Roll:	3.984	Pitch:	-0.307	Yaw:	0.260	Thrust:	34.155
Time:	2.796	Roll Set Point:	-0.140	Pitch Set Point:	0.007	Yaw Set Point:	-0.025	X_WP:	0.000	Y_WP:	0.000	Y_WP:	0.500	X:	0.070	Y:	-0.003	Z:	0.663	yaw:	1.410	yaw rate:	-5.329	Roll:	4.898	Pitch:	-0.878	Yaw:	1.150	Thrust:	57.455
Time:	2.809	Roll Set Point:	-0.139	Pitch Set Point:	0.007	Yaw Set Point:	-0.024	X_WP:	0.000	Y_WP:	0.000	Y_WP:	0.500	X:	0.070	Y:	-0.003	Z:	0.665	yaw:	1.367	yaw rate:	4.250	Roll:	5.607	Pitch:	-0.801	Yaw:	-1.285	Thrust:	71.284
Time:	2.821	Roll Set Point:	-0.139	Pitch Set Point:	0.007	Yaw Set Point:	-0.025	X_WP:	0.000	Y_WP:	0.000	Y_WP:	0.500	X:	0.070	Y:	-0.003	Z:	0.667	yaw:	1.455	yaw rate:	-8.761	Roll:	4.909	Pitch:	-1.275	Yaw:	2.007	Thrust:	53.774
Time:	2.844	Roll Set Point:	-0.138	Pitch Set Point:	0.007	Yaw Set Point:	-0.025	X_WP:	0.000	Y_WP:	0.000	Y_WP:	0.500	X:	0.069	Y:	-0.003	Z:	0.669	yaw:	1.455	yaw rate:	-0.000	Roll:	5.692	Pitch:	-1.044	Yaw:	-1.824	Thrust:	100.000
Time:	2.856	Roll Set Point:	-0.137	Pitch Set Point:	0.007	Yaw Set Point:	-0.025	X_WP:	0.000	Y_WP:	0.000	Y_WP:	0.500	X:	0.069	Y:	-0.002	Z:	0.674	yaw:	1.459	yaw rate:	-3.854	Roll:	7.429	Pitch:	-1.110	Yaw:	-0.142	Thrust:	70.953
Time:	2.868	Roll Set Point:	-0.135	Pitch Set Point:	0.007	Yaw Set Point:	-0.027	X_WP:	0.000	Y_WP:	0.000	Y_WP:	0.500	X:	0.068	Y:	-0.003	Z:	0.679	yaw:	1.534	yaw rate:	2.698	Roll:	2.963	Pitch:	-1.048	Yaw:	1.968	Thrust:	38.513
Time:	2.879	Roll Set Point:	-0.135	Pitch Set Point:	0.006	Yaw Set Point:	-0.026	X_WP:	0.000	Y_WP:	0.000	Y_WP:	0.500	X:	0.067	Y:	-0.002	Z:	0.681	yaw:	1.480	yaw rate:	5.391	Roll:	4.710	Pitch:	-0.261	Yaw:	-1.137	Thrust:	54.493
Time:	2.891	Roll Set Point:	-0.134	Pitch Set Point:	0.007	Yaw Set Point:	-0.028	X_WP:	0.000	Y_WP:	0.000	Y_WP:	0.500	X:	0.067	Y:	-0.002	Z:	0.683	yaw:	1.621	yaw rate:	-14.116	Roll:	4.469	Pitch:	-1.480	Yaw:	3.715	Thrust:	52.828
Time:	2.911	Roll Set Point:	-0.133	Pitch Set Point:	0.007	Yaw Set Point:	-0.028	X_WP:	0.000	Y_WP:	0.000	Y_WP:	0.500	X:	0.067	Y:	-0.002	Z:	0.685	yaw:	1.614	yaw rate:	0.733	Roll:	7.335	Pitch:	-1.294	Yaw:	-1.451	Thrust:	100.000
Time:	2.922	Roll Set Point:	-0.132	Pitch Set Point:	0.006	Yaw Set Point:	-0.028	X_WP:	0.000	Y_WP:	0.000	Y_WP:	0.500	X:	0.066	Y:	-0.002	Z:	0.689	yaw:	1.585	yaw rate:	2.879	Roll:	3.210	Pitch:	-0.201	Yaw:	-0.355	Thrust:	44.098
Time:	2.932	Roll Set Point:	-0.131	Pitch Set Point:	0.006	Yaw Set Point:	-0.029	X_WP:	0.000	Y_WP:	0.000	Y_WP:	0.500	X:	0.066	Y:	-0.002	Z:	0.691	yaw:	1.679	yaw rate:	-9.396	Roll:	4.477	Pitch:	-1.197	Yaw:	2.906	Thrust:	48.677
Time:	2.943	Roll Set Point:	-0.130	Pitch Set Point:	0.006	Yaw Set Point:	-0.028	X_WP:	0.000	Y_WP:	0.000	Y_WP:	0.500	X:	0.065	Y:	-0.002	Z:	0.692	yaw:	1.606	yaw rate:	7.276	Roll:	3.920	Pitch:	-0.207	Yaw:	-1.357	Thrust:	51.660
Time:	2.955	Roll Set Point:	-0.129	Pitch Set Point:	0.006	Yaw Set Point:	-0.028	X_WP:	0.000	Y_WP:	0.000	Y_WP:	0.500	X:	0.065	Y:	-0.002	Z:	0.694	yaw:	1.603	yaw rate:	0.376	Roll:	4.265	Pitch:	-0.590	Yaw:	0.210	Thrust:	55.149
Time:	2.973	Roll Set Point:	-0.129	Pitch Set Point:	0.006	Yaw Set Point:	-0.030	X_WP:	0.000	Y_WP:	0.000	Y_WP:	0.500	X:	0.064	Y:	-0.002	Z:	0.695	yaw:	1.715	yaw rate:	-11.291	Roll:	5.818	Pitch:	-1.460	Yaw:	0.981	Thrust:	98.655
Time:	2.984	Roll Set Point:	-0.127	Pitch Set Point:	0.006	Yaw Set Point:	-0.030	X_WP:	0.000	Y_WP:	0.000	Y_WP:	0.500	X:	0.064	Y:	-0.002	Z:	0.698	yaw:	1.738	yaw rate:	-21.298	Roll:	4.686	Pitch:	-0.339	Yaw:	0.974	Thrust:	51.327
Time:	2.996	Roll Set Point:	-0.126	Pitch Set Point:	0.005	Yaw Set Point:	-0.029	X_WP:	0.000	Y_WP:	0.000	Y_WP:	0.500	X:	0.063	Y:	-0.002	Z:	0.699	yaw:	1.648	yaw rate:	8.973	Roll:	3.978	Pitch:	-0.071	Yaw:	-1.667	Thrust:	59.260
Time:	3.007	Roll Set Point:	-0.125	Pitch Set Point:	0.005	Yaw Set Point:	-0.030	X_WP:	0.000	Y_WP:	0.000	Y_WP:	0.500	X:	0.063	Y:	-0.002	Z:	0.700	yaw:	1.709	yaw rate:	-6.095	Roll:	4.291	Pitch:	-0.779	Yaw:	1.992	Thrust:	53.399
Time:	3.019	Roll Set Point:	-0.124	Pitch Set Point:	0.005	Yaw Set Point:	-0.029	X_WP:	0.000	Y_WP:	0.000	Y_WP:	0.500	X:	0.062	Y:	-0.001	Z:	0.701	yaw:	1.672	yaw rate:	3.710	Roll:	4.039	Pitch:	-0.192	Yaw:	-0.452	Thrust:	54.384
Time:	3.032	Roll Set Point:	-0.124	Pitch Set Point:	0.005	Yaw Set Point:	-0.030	X_WP:	0.000	Y_WP:	0.000	Y_WP:	0.500	X:	0.062	Y:	-0.001	Z:	0.701	yaw:	1.732	yaw rate:	-6.043	Roll:	4.570	Pitch:	-0.794	Yaw:	1.596	Thrust:	66.351
Time:	3.046	Roll Set Point:	-0.122	Pitch Set Point:	0.004	Yaw Set Point:	-0.031	X_WP:	0.000	Y_WP:	0.000	Y_WP:	0.500	X:	0.061	Y:	-0.001	Z:	0.703	yaw:	1.794	yaw rate:	-6.206	Roll:	5.123	Pitch:	-0.637	Yaw:	1.242	Thrust:	72.823
Time:	3.057	Roll Set Point:	-0.122	Pitch Set Point:	0.004	Yaw Set Point:	-0.033	X_WP:	0.000	Y_WP:	0.000	Y_WP:	0.500	X:	0.061	Y:	-0.001	Z:	0.703	yaw:	1.866	yaw rate:	-7.136	Roll:	4.213	Pitch:	-0.847	Yaw:	2.608	Thrust:	50.942
Time:	3.070	Roll Set Point:	-0.121	Pitch Set Point:	0.004	Yaw Set Point:	-0.032	X_WP:	0.000	Y_WP:	0.000	Y_WP:	0.500	X:	0.060	Y:	-0.001	Z:	0.704	yaw:	1.850	yaw rate:	1.560	Roll:	3.887	Pitch:	-0.207	Yaw:	0.063	Thrust:	47.255
Time:	3.081	Roll Set Point:	-0.120	Pitch Set Point:	0.003	Yaw Set Point:	-0.031	X_WP:	0.000	Y_WP:	0.000	Y_WP:	0.500	X:	0.060	Y:	-0.001	Z:	0.704	yaw:	1.754	yaw rate:	9.572	Roll:	4.370	Pitch:	0.166	Yaw:	-1.671	Thrust:	68.957
Time:	3.092	Roll Set Point:	-0.119	Pitch Set Point:	0.002	Yaw Set Point:	-0.031	X_WP:	0.000	Y_WP:	0.000	Y_WP:	0.500	X:	0.059	Y:	-0.000	Z:	0.705	yaw:	1.749	yaw rate:	0.561	Roll:	3.732	Pitch:	-0.015	Yaw:	0.517	Thrust:	47.396
Time:	3.112	Roll Set Point:	-0.118	Pitch Set Point:	0.002	Yaw Set Point:	-0.032	X_WP:	0.000	Y_WP:	0.000	Y_WP:	0.500	X:	0.059	Y:	-0.000	Z:	0.705	yaw:	1.845	yaw rate:	-9.671	Roll:	7.267	Pitch:	-1.435	Yaw:	0.473	Thrust:	100.000
Time:	3.124	Roll Set Point:	-0.117	Pitch Set Point:	0.002	Yaw Set Point:	-0.032	X_WP:	0.000	Y_WP:	0.000	Y_WP:	0.500	X:	0.059	Y:	0.000	Z:	0.705	yaw:	1.850	yaw rate:	-0.518	Roll:	4.176	Pitch:	0.153	Yaw:	0.738	Thrust:	60.353
Time:	3.135	Roll Set Point:	-0.117	Pitch Set Point:	0.001	Yaw Set Point:	-0.033	X_WP:	0.000	Y_WP:	0.000	Y_WP:	0.500	X:	0.058	Y:	0.000	Z:	0.705	yaw:	1.888	yaw rate:	-3.716	Roll:	4.220	Pitch:	-0.526	Yaw:	1.991	Thrust:	48.403
Time:	3.145	Roll Set Point:	-0.116	Pitch Set Point:	0.001	Yaw Set Point:	-0.032	X_WP:	0.000	Y_WP:	0.000	Y_WP:	0.500	X:	0.058	Y:	0.001	Z:	0.705	yaw:	1.843	yaw rate:	4.483	Roll:	4.214	Pitch:	0.171	Yaw:	-0.245	Thrust:	53.192
Time:	3.156	Roll Set Point:	-0.116	Pitch Set Point:	0.000	Yaw Set Point:	-0.032	X_WP:	0.000	Y_WP:	0.000	Y_WP:	0.500	X:	0.058	Y:	0.001	Z:	0.705	yaw:	1.812	yaw rate:	3.106	Roll:	4.068	Pitch:	0.049	Yaw:	0.034	Thrust:	54.120
Time:	3.175	Roll Set Point:	-0.115	Pitch Set Point:	-0.000	Yaw Set Point:	-0.030	X_WP:	0.000	Y_WP:	0.000	Y_WP:	0.500	X:	0.058	Y:	0.001	Z:	0.704	yaw:	1.736	yaw rate:	7.567	Roll:	6.823	Pitch:	-0.744	Yaw:	-1.646	Thrust:	100.000
Time:	3.187	Roll Set Point:	-0.114	Pitch Set Point:	-0.001	Yaw Set Point:	-0.032	X_WP:	0.000	Y_WP:	0.000	Y_WP:	0.500	X:	0.057	Y:	0.001	Z:	0.704	yaw:	1.827	yaw rate:	-9.898	Roll:	4.108	Pitch:	0.084	Yaw:	2.616	Thrust:	55.977
Time:	3.198	Roll Set Point:	-0.113	Pitch Set Point:	-0.002	Yaw Set Point:	-0.031	X_WP:	0.000	Y_WP:	0.000	Y_WP:	0.500	X:	0.057	Y:	0.002	Z:	0.703	yaw:	1.765	yaw rate:	6.258	Roll:	3.928	Pitch:	1.073	Yaw:	-0.751	Thrust:	59.562
Time:	3.208	Roll Set Point:	-0.113	Pitch Set Point:	-0.002	Yaw Set Point:	-0.031	X_WP:	0.000	Y_WP:	0.000	Y_WP:	0.500	X:	0.057	Y:	0.002	Z:	0.702	yaw:	1.750	yaw rate:	1.449	Roll:	4.548	Pitch:	-0.082	Yaw:	0.431	Thrust:	51.939
Time:	3.226	Roll Set Point:	-0.113	Pitch Set Point:	-0.003	Yaw Set Point:	-0.031	X_WP:	0.000	Y_WP:	0.000	Y_WP:	0.500	X:	0.057	Y:	0.002	Z:	0.702	yaw:	1.789	yaw rate:	-3.917	Roll:	6.266	Pitch:	-0.864	Yaw:	0.437	Thrust:	82.829
Time:	3.247	Roll Set Point:	-0.113	Pitch Set Point:	-0.003	Yaw Set Point:	-0.030	X_WP:	0.000	Y_WP:	0.000	Y_WP:	0.500	X:	0.056	Y:	0.003	Z:	0.701	yaw:	1.707	yaw rate:	8.264	Roll:	7.066	Pitch:	-0.786	Yaw:	-1.975	Thrust:	100.000
Time:	3.259	Roll Set Point:	-0.112	Pitch Set Point:	-0.004	Yaw Set Point:	-0.029	X_WP:	0.000	Y_WP:	0.000	Y_WP:	0.500	X:	0.056	Y:	0.003	Z:	0.699	yaw:	1.669	yaw rate:	3.778	Roll:	5.344	Pitch:	0.474	Yaw:	-0.388	Thrust:	67.649
Time:	3.271	Roll Set Point:	-0.112	Pitch Set Point:	-0.005	Yaw Set Point:	-0.030	X_WP:	0.000	Y_WP:	0.000	Y_WP:	0.500	X:	0.056	Y:	0.003	Z:	0.699	yaw:	1.695	yaw rate:	-2.607	Roll:	4.740	Pitch:	-0.122	Yaw:	1.173	Thrust:	55.097
Time:	3.283	Roll Set Point:	-0.112	Pitch Set Point:	-0.005	Yaw Set Point:	-0.031	X_WP:	0.000	Y_WP:	0.000	Y_WP:	0.500	X:	0.056	Y:	0.003	Z:	0.698	yaw:	1.765	yaw rate:	-6.972	Roll:	5.243	Pitch:	-0.374	Yaw:	2.566	Thrust:	55.606
Time:	3.298	Roll Set Point:	-0.112	Pitch Set Point:	-0.006	Yaw Set Point:	-0.029	X_WP:	0.000	Y_WP:	0.000	Y_WP:	0.500	X:	0.056	Y:	0.004	Z:	0.697	yaw:	1.669	yaw rate:	9.619	Roll:	5.081	Pitch:	0.038	Yaw:	-1.674	Thrust:	76.959
Time:	3.313	Roll Set Point:	-0.112	Pitch Set Point:	-0.007	Yaw Set Point:	-0.029	X_WP:	0.000	Y_WP:	0.000	Y_WP:	0.500	X:	0.056	Y:	0.004	Z:	0.695	yaw:	1.639	yaw rate:	2.955	Roll:	6.652	Pitch:	-0.071	Yaw:	-0.582	Thrust:	81.951
Time:	3.324	Roll Set Point:	-0.112	Pitch Set Point:	-0.007	Yaw Set Point:	-0.029	X_WP:	0.000	Y_WP:	0.000	Y_WP:	0.500	X:	0.056	Y:	0.004	Z:	0.693	yaw:	1.689	yaw rate:	-4.972	Roll:	5.407	Pitch:	0.136	Yaw:	1.854	Thrust:	59.062
Time:	3.336	Roll Set Point:	-0.112	Pitch Set Point:	-0.008	Yaw Set Point:	-0.029	X_WP:	0.000	Y_WP:	0.000	Y_WP:	0.500	X:	0.056	Y:	0.005	Z:	0.692	yaw:	1.681	yaw rate:	0.804	Roll:	5.037	Pitch:	0.002	Yaw:	0.414	Thrust:	56.758
Time:	3.349	Roll Set Point:	-0.112	Pitch Set Point:	-0.008	Yaw Set Point:	-0.028	X_WP:	0.000	Y_WP:	0.000	Y_WP:	0.500	X:	0.056	Y:	0.005	Z:	0.691	yaw:	1.598	yaw rate:	8.218	Roll:	5.610	Pitch:	0.224	Yaw:	-1.384	Thrust:	67.255
Time:	3.361	Roll Set Point:	-0.113	Pitch Set Point:	-0.008	Yaw Set Point:	-0.031	X_WP:	0.000	Y_WP:	0.000	Y_WP:	0.500	X:	0.056	Y:	0.005	Z:	0.690	yaw:	1.788	yaw rate:	-18.993	Roll:	5.701	Pitch:	-0.982	Yaw:	4.822	Thrust:	59.607
Time:	3.375	Roll Set Point:	-0.113	Pitch Set Point:	-0.009	Yaw Set Point:	-0.029	X_WP:	0.000	Y_WP:	0.000	Y_WP:	0.500	X:	0.056	Y:	0.005	Z:	0.689	yaw:	1.653	yaw rate:	13.540	Roll:	5.404	Pitch:	0.346	Yaw:	-2.319	Thrust:	69.273
Time:	3.386	Roll Set Point:	-0.113	Pitch Set Point:	-0.010	Yaw Set Point:	-0.029	X_WP:	0.000	Y_WP:	0.000	Y_WP:	0.500	X:	0.056	Y:	0.006	Z:	0.687	yaw:	1.669	yaw rate:	-3.846	Roll:	5.840	Pitch:	0.569	Yaw:	0.899	Thrust:	56.867
Time:	3.398	Roll Set Point:	-0.113	Pitch Set Point:	-0.010	Yaw Set Point:	-0.030	X_WP:	0.000	Y_WP:	0.000	Y_WP:	0.500	X:	0.056	Y:	0.006	Z:	0.687	yaw:	1.731	yaw rate:	-6.170	Roll:	5.161	Pitch:	-0.491	Yaw:	2.242	Thrust:	57.723
Time:	3.410	Roll Set Point:	-0.113	Pitch Set Point:	-0.010	Yaw Set Point:	-0.031	X_WP:	0.000	Y_WP:	0.000	Y_WP:	0.500	X:	0.056	Y:	0.006	Z:	0.686	yaw:	1.762	yaw rate:	-3.172	Roll:	5.493	Pitch:	-0.071	Yaw:	1.263	Thrust:	58.311
Time:	3.424	Roll Set Point:	-0.113	Pitch Set Point:	-0.011	Yaw Set Point:	-0.030	X_WP:	0.000	Y_WP:	0.000	Y_WP:	0.500	X:	0.057	Y:	0.006	Z:	0.685	yaw:	1.722	yaw rate:	4.072	Roll:	5.800	Pitch:	0.015	Yaw:	-0.422	Thrust:	71.103
Time:	3.448	Roll Set Point:	-0.113	Pitch Set Point:	-0.011	Yaw Set Point:	-0.032	X_WP:	0.000	Y_WP:	0.000	Y_WP:	0.500	X:	0.057	Y:	0.006	Z:	0.684	yaw:	1.832	yaw rate:	-11.040	Roll:	8.347	Pitch:	-1.355	Yaw:	0.417	Thrust:	100.000
