Time:	0.032	Roll Set Point:	0.165	Pitch Set Point:	-0.438	Yaw Set Point:	0.004	X_WP:	0.000	Y_WP:	0.000	Y_WP:	-0.100	X:	-0.082	Y:	0.219	Z:	0.047	yaw:	-0.247	yaw rate:	1.810	Roll:	-2.072	Pitch:	5.466	Yaw:	-0.344	Thrust:	0.000
Time:	0.043	Roll Set Point:	0.165	Pitch Set Point:	-0.438	Yaw Set Point:	0.005	X_WP:	0.000	Y_WP:	0.000	Y_WP:	-0.100	X:	-0.082	Y:	0.219	Z:	0.047	yaw:	-0.261	yaw rate:	1.403	Roll:	-2.128	Pitch:	5.450	Yaw:	-0.713	Thrust:	0.000
Time:	0.054	Roll Set Point:	0.165	Pitch Set Point:	-0.438	Yaw Set Point:	0.004	X_WP:	0.000	Y_WP:	0.000	Y_WP:	-0.100	X:	-0.082	Y:	0.219	Z:	0.047	yaw:	-0.215	yaw rate:	-4.532	Roll:	-1.976	Pitch:	5.475	Yaw:	0.778	Thrust:	0.000
Time:	0.064	Roll Set Point:	0.165	Pitch Set Point:	-0.438	Yaw Set Point:	0.004	X_WP:	0.000	Y_WP:	0.000	Y_WP:	-0.100	X:	-0.082	Y:	0.219	Z:	0.047	yaw:	-0.239	yaw rate:	2.332	Roll:	-2.114	Pitch:	5.471	Yaw:	-0.916	Thrust:	0.000
Time:	0.081	Roll Set Point:	0.165	Pitch Set Point:	-0.438	Yaw Set Point:	0.005	X_WP:	0.000	Y_WP:	0.000	Y_WP:	-0.100	X:	-0.082	Y:	0.219	Z:	0.047	yaw:	-0.264	yaw rate:	2.539	Roll:	-2.116	Pitch:	5.461	Yaw:	-0.776	Thrust:	0.000
Time:	0.097	Roll Set Point:	0.165	Pitch Set Point:	-0.438	Yaw Set Point:	0.004	X_WP:	0.000	Y_WP:	0.000	Y_WP:	-0.100	X:	-0.082	Y:	0.219	Z:	0.047	yaw:	-0.238	yaw rate:	-2.565	Roll:	-2.053	Pitch:	5.465	Yaw:	0.078	Thrust:	0.000
Time:	0.109	Roll Set Point:	0.165	Pitch Set Point:	-0.438	Yaw Set Point:	0.004	X_WP:	0.000	Y_WP:	0.000	Y_WP:	-0.100	X:	-0.082	Y:	0.219	Z:	0.047	yaw:	-0.252	yaw rate:	1.324	Roll:	-2.111	Pitch:	5.460	Yaw:	-0.634	Thrust:	0.000
Time:	0.120	Roll Set Point:	0.165	Pitch Set Point:	-0.438	Yaw Set Point:	0.004	X_WP:	0.000	Y_WP:	0.000	Y_WP:	-0.100	X:	-0.082	Y:	0.219	Z:	0.047	yaw:	-0.214	yaw rate:	-3.780	Roll:	-1.975	Pitch:	5.509	Yaw:	0.590	Thrust:	0.000
Time:	0.131	Roll Set Point:	0.165	Pitch Set Point:	-0.438	Yaw Set Point:	0.004	X_WP:	0.000	Y_WP:	0.000	Y_WP:	-0.100	X:	-0.082	Y:	0.219	Z:	0.047	yaw:	-0.238	yaw rate:	2.456	Roll:	-2.130	Pitch:	5.434	Yaw:	-0.943	Thrust:	0.000
Time:	0.144	Roll Set Point:	0.165	Pitch Set Point:	-0.438	Yaw Set Point:	0.004	X_WP:	0.000	Y_WP:	0.000	Y_WP:	-0.100	X:	-0.082	Y:	0.219	Z:	0.047	yaw:	-0.235	yaw rate:	-0.314	Roll:	-2.044	Pitch:	5.513	Yaw:	-0.269	Thrust:	0.000
Time:	0.161	Roll Set Point:	0.165	Pitch Set Point:	-0.438	Yaw Set Point:	0.004	X_WP:	0.000	Y_WP:	0.000	Y_WP:	-0.100	X:	-0.082	Y:	0.219	Z:	0.047	yaw:	-0.233	yaw rate:	-0.243	Roll:	-2.087	Pitch:	5.463	Yaw:	-0.303	Thrust:	0.000
Time:	0.171	Roll Set Point:	0.165	Pitch Set Point:	-0.438	Yaw Set Point:	0.004	X_WP:	0.000	Y_WP:	0.000	Y_WP:	-0.100	X:	-0.082	Y:	0.219	Z:	0.047	yaw:	-0.215	yaw rate:	-1.748	Roll:	-2.048	Pitch:	5.473	Yaw:	0.124	Thrust:	0.000
Time:	0.182	Roll Set Point:	0.165	Pitch Set Point:	-0.438	Yaw Set Point:	0.004	X_WP:	0.000	Y_WP:	0.000	Y_WP:	-0.100	X:	-0.082	Y:	0.219	Z:	0.047	yaw:	-0.241	yaw rate:	2.586	Roll:	-2.078	Pitch:	5.484	Yaw:	-1.022	Thrust:	0.000
Time:	0.192	Roll Set Point:	0.165	Pitch Set Point:	-0.438	Yaw Set Point:	0.004	X_WP:	0.000	Y_WP:	0.000	Y_WP:	-0.100	X:	-0.082	Y:	0.219	Z:	0.047	yaw:	-0.230	yaw rate:	-1.119	Roll:	-2.100	Pitch:	5.465	Yaw:	-0.071	Thrust:	0.000
Time:	0.203	Roll Set Point:	0.165	Pitch Set Point:	-0.438	Yaw Set Point:	0.004	X_WP:	0.000	Y_WP:	0.000	Y_WP:	-0.100	X:	-0.082	Y:	0.219	Z:	0.047	yaw:	-0.228	yaw rate:	-0.209	Roll:	-2.062	Pitch:	5.464	Yaw:	-0.278	Thrust:	0.000
Time:	0.214	Roll Set Point:	0.165	Pitch Set Point:	-0.438	Yaw Set Point:	0.005	X_WP:	0.000	Y_WP:	0.000	Y_WP:	-0.100	X:	-0.082	Y:	0.219	Z:	0.047	yaw:	-0.272	yaw rate:	4.390	Roll:	-2.154	Pitch:	5.467	Yaw:	-1.390	Thrust:	0.000
Time:	0.228	Roll Set Point:	0.165	Pitch Set Point:	-0.438	Yaw Set Point:	0.004	X_WP:	0.000	Y_WP:	0.000	Y_WP:	-0.100	X:	-0.082	Y:	0.219	Z:	0.047	yaw:	-0.225	yaw rate:	-4.705	Roll:	-2.010	Pitch:	5.492	Yaw:	0.612	Thrust:	0.000
Time:	0.239	Roll Set Point:	0.165	Pitch Set Point:	-0.438	Yaw Set Point:	0.005	X_WP:	0.000	Y_WP:	0.000	Y_WP:	-0.100	X:	-0.082	Y:	0.219	Z:	0.047	yaw:	-0.272	yaw rate:	4.745	Roll:	-2.209	Pitch:	5.437	Yaw:	-1.522	Thrust:	0.000
Time:	0.250	Roll Set Point:	0.165	Pitch Set Point:	-0.438	Yaw Set Point:	0.004	X_WP:	0.000	Y_WP:	0.000	Y_WP:	-0.100	X:	-0.082	Y:	0.219	Z:	0.047	yaw:	-0.237	yaw rate:	-3.539	Roll:	-1.979	Pitch:	5.501	Yaw:	0.494	Thrust:	0.000
Time:	0.260	Roll Set Point:	0.165	Pitch Set Point:	-0.438	Yaw Set Point:	0.004	X_WP:	0.000	Y_WP:	0.000	Y_WP:	-0.100	X:	-0.082	Y:	0.219	Z:	0.047	yaw:	-0.224	yaw rate:	-1.324	Roll:	-2.035	Pitch:	5.505	Yaw:	-0.007	Thrust:	0.000
Time:	0.273	Roll Set Point:	0.165	Pitch Set Point:	-0.438	Yaw Set Point:	0.004	X_WP:	0.000	Y_WP:	0.000	Y_WP:	-0.100	X:	-0.082	Y:	0.219	Z:	0.047	yaw:	-0.223	yaw rate:	-0.021	Roll:	-2.071	Pitch:	5.475	Yaw:	-0.329	Thrust:	0.000
Time:	0.296	Roll Set Point:	0.165	Pitch Set Point:	-0.438	Yaw Set Point:	0.004	X_WP:	0.000	Y_WP:	0.000	Y_WP:	-0.100	X:	-0.082	Y:	0.219	Z:	0.047	yaw:	-0.222	yaw rate:	-0.105	Roll:	-2.086	Pitch:	5.495	Yaw:	-0.337	Thrust:	0.000
Time:	0.307	Roll Set Point:	0.165	Pitch Set Point:	-0.438	Yaw Set Point:	0.004	X_WP:	0.000	Y_WP:	0.000	Y_WP:	-0.100	X:	-0.082	Y:	0.219	Z:	0.047	yaw:	-0.227	yaw rate:	2.814	Roll:	-2.084	Pitch:	5.468	Yaw:	-0.455	Thrust:	0.000
Time:	0.318	Roll Set Point:	0.165	Pitch Set Point:	-0.438	Yaw Set Point:	0.004	X_WP:	0.000	Y_WP:	0.000	Y_WP:	-0.100	X:	-0.082	Y:	0.219	Z:	0.047	yaw:	-0.217	yaw rate:	-1.017	Roll:	-2.056	Pitch:	5.502	Yaw:	-0.079	Thrust:	0.000
Time:	0.329	Roll Set Point:	0.165	Pitch Set Point:	-0.438	Yaw Set Point:	0.005	X_WP:	0.000	Y_WP:	0.000	Y_WP:	-0.100	X:	-0.082	Y:	0.219	Z:	0.047	yaw:	-0.261	yaw rate:	4.370	Roll:	-2.162	Pitch:	5.457	Yaw:	-1.375	Thrust:	0.000
Time:	0.346	Roll Set Point:	0.165	Pitch Set Point:	-0.438	Yaw Set Point:	0.003	X_WP:	0.000	Y_WP:	0.000	Y_WP:	-0.100	X:	-0.082	Y:	0.219	Z:	0.047	yaw:	-0.190	yaw rate:	-7.031	Roll:	-1.952	Pitch:	5.550	Yaw:	0.810	Thrust:	0.000
Time:	0.362	Roll Set Point:	0.165	Pitch Set Point:	-0.438	Yaw Set Point:	0.004	X_WP:	0.000	Y_WP:	0.000	Y_WP:	-0.100	X:	-0.082	Y:	0.219	Z:	0.047	yaw:	-0.241	yaw rate:	5.062	Roll:	-2.177	Pitch:	5.444	Yaw:	-1.187	Thrust:	0.000
Time:	0.374	Roll Set Point:	0.165	Pitch Set Point:	-0.438	Yaw Set Point:	0.004	X_WP:	0.000	Y_WP:	0.000	Y_WP:	-0.100	X:	-0.082	Y:	0.219	Z:	0.047	yaw:	-0.244	yaw rate:	3.595	Roll:	-2.042	Pitch:	5.497	Yaw:	-0.445	Thrust:	0.000
Time:	0.385	Roll Set Point:	0.165	Pitch Set Point:	-0.438	Yaw Set Point:	0.004	X_WP:	0.000	Y_WP:	0.000	Y_WP:	-0.100	X:	-0.082	Y:	0.219	Z:	0.047	yaw:	-0.213	yaw rate:	-3.146	Roll:	-2.043	Pitch:	5.488	Yaw:	0.379	Thrust:	0.000
Time:	0.395	Roll Set Point:	0.165	Pitch Set Point:	-0.438	Yaw Set Point:	0.004	X_WP:	0.000	Y_WP:	0.000	Y_WP:	-0.100	X:	-0.082	Y:	0.219	Z:	0.047	yaw:	-0.221	yaw rate:	0.790	Roll:	-2.088	Pitch:	5.479	Yaw:	-0.528	Thrust:	0.000
Time:	0.408	Roll Set Point:	0.165	Pitch Set Point:	-0.438	Yaw Set Point:	0.004	X_WP:	0.000	Y_WP:	0.000	Y_WP:	-0.100	X:	-0.082	Y:	0.219	Z:	0.047	yaw:	-0.231	yaw rate:	1.052	Roll:	-2.117	Pitch:	5.462	Yaw:	-0.580	Thrust:	0.000
Time:	0.427	Roll Set Point:	0.165	Pitch Set Point:	-0.438	Yaw Set Point:	0.004	X_WP:	0.000	Y_WP:	0.000	Y_WP:	-0.100	X:	-0.082	Y:	0.219	Z:	0.047	yaw:	-0.234	yaw rate:	0.308	Roll:	-2.091	Pitch:	5.490	Yaw:	-0.418	Thrust:	0.000
Time:	0.438	Roll Set Point:	0.165	Pitch Set Point:	-0.438	Yaw Set Point:	0.004	X_WP:	0.000	Y_WP:	0.000	Y_WP:	-0.100	X:	-0.082	Y:	0.219	Z:	0.047	yaw:	-0.231	yaw rate:	-4.376	Roll:	-2.069	Pitch:	5.479	Yaw:	-0.264	Thrust:	0.000
Time:	0.449	Roll Set Point:	0.165	Pitch Set Point:	-0.438	Yaw Set Point:	0.004	X_WP:	0.000	Y_WP:	0.000	Y_WP:	-0.100	X:	-0.082	Y:	0.219	Z:	0.047	yaw:	-0.255	yaw rate:	2.458	Roll:	-2.109	Pitch:	5.499	Yaw:	-0.989	Thrust:	0.000
Time:	0.461	Roll Set Point:	0.165	Pitch Set Point:	-0.438	Yaw Set Point:	0.005	X_WP:	0.000	Y_WP:	0.000	Y_WP:	-0.100	X:	-0.082	Y:	0.219	Z:	0.047	yaw:	-0.261	yaw rate:	0.589	Roll:	-2.096	Pitch:	5.482	Yaw:	-0.523	Thrust:	0.000
Time:	0.472	Roll Set Point:	0.165	Pitch Set Point:	-0.438	Yaw Set Point:	0.004	X_WP:	0.000	Y_WP:	0.000	Y_WP:	-0.100	X:	-0.082	Y:	0.219	Z:	0.047	yaw:	-0.202	yaw rate:	-5.892	Roll:	-1.970	Pitch:	5.515	Yaw:	1.084	Thrust:	0.000
Time:	0.492	Roll Set Point:	0.165	Pitch Set Point:	-0.438	Yaw Set Point:	0.004	X_WP:	0.000	Y_WP:	0.000	Y_WP:	-0.100	X:	-0.082	Y:	0.219	Z:	0.047	yaw:	-0.233	yaw rate:	3.087	Roll:	-2.135	Pitch:	5.474	Yaw:	-0.787	Thrust:	0.000
Time:	0.505	Roll Set Point:	0.165	Pitch Set Point:	-0.438	Yaw Set Point:	0.004	X_WP:	0.000	Y_WP:	0.000	Y_WP:	-0.100	X:	-0.082	Y:	0.219	Z:	0.047	yaw:	-0.252	yaw rate:	1.927	Roll:	-2.119	Pitch:	5.476	Yaw:	-0.770	Thrust:	0.000
Time:	0.516	Roll Set Point:	0.165	Pitch Set Point:	-0.438	Yaw Set Point:	0.004	X_WP:	0.000	Y_WP:	0.000	Y_WP:	-0.100	X:	-0.082	Y:	0.219	Z:	0.047	yaw:	-0.230	yaw rate:	-2.761	Roll:	-2.006	Pitch:	5.491	Yaw:	0.195	Thrust:	0.000
Time:	0.527	Roll Set Point:	0.165	Pitch Set Point:	-0.438	Yaw Set Point:	0.005	X_WP:	0.000	Y_WP:	0.000	Y_WP:	-0.100	X:	-0.082	Y:	0.219	Z:	0.047	yaw:	-0.263	yaw rate:	3.258	Roll:	-2.160	Pitch:	5.478	Yaw:	-1.168	Thrust:	0.000
Time:	0.539	Roll Set Point:	0.165	Pitch Set Point:	-0.438	Yaw Set Point:	0.004	X_WP:	0.000	Y_WP:	0.000	Y_WP:	-0.100	X:	-0.082	Y:	0.219	Z:	0.047	yaw:	-0.234	yaw rate:	-2.848	Roll:	-2.061	Pitch:	5.469	Yaw:	0.252	Thrust:	0.000
Time:	0.560	Roll Set Point:	0.165	Pitch Set Point:	-0.438	Yaw Set Point:	0.004	X_WP:	0.000	Y_WP:	0.000	Y_WP:	-0.100	X:	-0.082	Y:	0.219	Z:	0.047	yaw:	-0.219	yaw rate:	-1.518	Roll:	-2.052	Pitch:	5.510	Yaw:	-0.192	Thrust:	0.000
Time:	0.572	Roll Set Point:	0.165	Pitch Set Point:	-0.438	Yaw Set Point:	0.003	X_WP:	0.000	Y_WP:	0.000	Y_WP:	-0.100	X:	-0.082	Y:	0.219	Z:	0.047	yaw:	-0.199	yaw rate:	-1.995	Roll:	-2.046	Pitch:	5.503	Yaw:	0.151	Thrust:	0.000
Time:	0.582	Roll Set Point:	0.165	Pitch Set Point:	-0.438	Yaw Set Point:	0.004	X_WP:	0.000	Y_WP:	0.000	Y_WP:	-0.100	X:	-0.082	Y:	0.219	Z:	0.047	yaw:	-0.224	yaw rate:	2.440	Roll:	-2.135	Pitch:	5.456	Yaw:	-0.942	Thrust:	0.000
Time:	0.593	Roll Set Point:	0.165	Pitch Set Point:	-0.438	Yaw Set Point:	0.005	X_WP:	0.000	Y_WP:	0.000	Y_WP:	-0.100	X:	-0.082	Y:	0.219	Z:	0.047	yaw:	-0.258	yaw rate:	2.340	Roll:	-2.143	Pitch:	5.476	Yaw:	-1.253	Thrust:	0.000
Time:	0.607	Roll Set Point:	0.165	Pitch Set Point:	-0.438	Yaw Set Point:	0.003	X_WP:	0.000	Y_WP:	0.000	Y_WP:	-0.100	X:	-0.082	Y:	0.219	Z:	0.047	yaw:	-0.194	yaw rate:	-6.417	Roll:	-1.977	Pitch:	5.540	Yaw:	0.874	Thrust:	0.000
Time:	0.629	Roll Set Point:	0.165	Pitch Set Point:	-0.438	Yaw Set Point:	0.004	X_WP:	0.000	Y_WP:	0.000	Y_WP:	-0.100	X:	-0.082	Y:	0.219	Z:	0.047	yaw:	-0.213	yaw rate:	1.926	Roll:	-2.119	Pitch:	5.465	Yaw:	-0.613	Thrust:	0.000
Time:	0.641	Roll Set Point:	0.165	Pitch Set Point:	-0.438	Yaw Set Point:	0.004	X_WP:	0.000	Y_WP:	0.000	Y_WP:	-0.100	X:	-0.082	Y:	0.219	Z:	0.047	yaw:	-0.220	yaw rate:	0.804	Roll:	-2.092	Pitch:	5.479	Yaw:	-0.498	Thrust:	0.000
Time:	0.652	Roll Set Point:	0.165	Pitch Set Point:	-0.438	Yaw Set Point:	0.004	X_WP:	0.000	Y_WP:	0.000	Y_WP:	-0.100	X:	-0.082	Y:	0.219	Z:	0.047	yaw:	-0.205	yaw rate:	-1.468	Roll:	-2.046	Pitch:	5.527	Yaw:	0.017	Thrust:	0.000
Time:	0.699	Roll Set Point:	0.165	Pitch Set Point:	-0.438	Yaw Set Point:	0.004	X_WP:	0.000	Y_WP:	0.000	Y_WP:	-0.100	X:	-0.082	Y:	0.219	Z:	0.047	yaw:	-0.222	yaw rate:	1.643	Roll:	-2.138	Pitch:	5.516	Yaw:	-0.587	Thrust:	0.000
Time:	0.709	Roll Set Point:	0.165	Pitch Set Point:	-0.438	Yaw Set Point:	0.004	X_WP:	0.000	Y_WP:	0.000	Y_WP:	-0.100	X:	-0.082	Y:	0.219	Z:	0.047	yaw:	-0.238	yaw rate:	1.575	Roll:	-2.088	Pitch:	5.490	Yaw:	-0.750	Thrust:	0.000
Time:	0.720	Roll Set Point:	0.165	Pitch Set Point:	-0.438	Yaw Set Point:	0.004	X_WP:	0.000	Y_WP:	0.000	Y_WP:	-0.100	X:	-0.082	Y:	0.219	Z:	0.047	yaw:	-0.222	yaw rate:	-1.540	Roll:	-2.085	Pitch:	5.470	Yaw:	0.010	Thrust:	0.000
Time:	0.731	Roll Set Point:	0.165	Pitch Set Point:	-0.438	Yaw Set Point:	0.004	X_WP:	0.000	Y_WP:	0.000	Y_WP:	-0.100	X:	-0.082	Y:	0.219	Z:	0.047	yaw:	-0.257	yaw rate:	3.530	Roll:	-2.134	Pitch:	5.486	Yaw:	-1.242	Thrust:	0.000
Time:	0.761	Roll Set Point:	0.165	Pitch Set Point:	-0.438	Yaw Set Point:	0.005	X_WP:	0.000	Y_WP:	0.000	Y_WP:	-0.100	X:	-0.082	Y:	0.219	Z:	0.047	yaw:	-0.263	yaw rate:	0.571	Roll:	-2.112	Pitch:	5.498	Yaw:	-0.546	Thrust:	0.000
Time:	0.772	Roll Set Point:	0.165	Pitch Set Point:	-0.438	Yaw Set Point:	0.004	X_WP:	0.000	Y_WP:	0.000	Y_WP:	-0.100	X:	-0.082	Y:	0.219	Z:	0.047	yaw:	-0.234	yaw rate:	-2.307	Roll:	-2.064	Pitch:	5.493	Yaw:	0.308	Thrust:	0.000
Time:	0.784	Roll Set Point:	0.165	Pitch Set Point:	-0.438	Yaw Set Point:	0.004	X_WP:	0.000	Y_WP:	0.000	Y_WP:	-0.100	X:	-0.082	Y:	0.219	Z:	0.047	yaw:	-0.250	yaw rate:	1.569	Roll:	-2.099	Pitch:	5.485	Yaw:	-0.749	Thrust:	0.000
Time:	0.794	Roll Set Point:	0.165	Pitch Set Point:	-0.438	Yaw Set Point:	0.004	X_WP:	0.000	Y_WP:	0.000	Y_WP:	-0.100	X:	-0.082	Y:	0.219	Z:	0.047	yaw:	-0.222	yaw rate:	-2.810	Roll:	-2.035	Pitch:	5.491	Yaw:	0.358	Thrust:	0.000
Time:	0.807	Roll Set Point:	0.165	Pitch Set Point:	-0.438	Yaw Set Point:	0.004	X_WP:	0.000	Y_WP:	0.000	Y_WP:	-0.100	X:	-0.082	Y:	0.219	Z:	0.047	yaw:	-0.231	yaw rate:	0.876	Roll:	-2.109	Pitch:	5.477	Yaw:	-0.563	Thrust:	0.000
Time:	0.827	Roll Set Point:	0.165	Pitch Set Point:	-0.438	Yaw Set Point:	0.004	X_WP:	0.000	Y_WP:	0.000	Y_WP:	-0.100	X:	-0.082	Y:	0.219	Z:	0.047	yaw:	-0.218	yaw rate:	-1.238	Roll:	-2.080	Pitch:	5.496	Yaw:	-0.231	Thrust:	0.000
Time:	0.838	Roll Set Point:	0.165	Pitch Set Point:	-0.438	Yaw Set Point:	0.004	X_WP:	0.000	Y_WP:	0.000	Y_WP:	-0.100	X:	-0.082	Y:	0.219	Z:	0.047	yaw:	-0.210	yaw rate:	-4.956	Roll:	-2.070	Pitch:	5.492	Yaw:	-0.181	Thrust:	0.000
Time:	0.849	Roll Set Point:	0.165	Pitch Set Point:	-0.438	Yaw Set Point:	0.004	X_WP:	0.000	Y_WP:	0.000	Y_WP:	-0.100	X:	-0.082	Y:	0.219	Z:	0.047	yaw:	-0.240	yaw rate:	2.912	Roll:	-2.138	Pitch:	5.478	Yaw:	-1.092	Thrust:	0.000
Time:	0.859	Roll Set Point:	0.165	Pitch Set Point:	-0.438	Yaw Set Point:	0.004	X_WP:	0.000	Y_WP:	0.000	Y_WP:	-0.100	X:	-0.082	Y:	0.219	Z:	0.047	yaw:	-0.248	yaw rate:	0.853	Roll:	-2.101	Pitch:	5.472	Yaw:	-0.614	Thrust:	0.000
Time:	0.870	Roll Set Point:	0.165	Pitch Set Point:	-0.438	Yaw Set Point:	0.004	X_WP:	0.000	Y_WP:	0.000	Y_WP:	-0.100	X:	-0.082	Y:	0.219	Z:	0.047	yaw:	-0.218	yaw rate:	-3.028	Roll:	-2.040	Pitch:	5.488	Yaw:	0.436	Thrust:	0.000
Time:	0.895	Roll Set Point:	0.165	Pitch Set Point:	-0.438	Yaw Set Point:	0.004	X_WP:	0.000	Y_WP:	0.000	Y_WP:	-0.100	X:	-0.082	Y:	0.219	Z:	0.047	yaw:	-0.228	yaw rate:	1.034	Roll:	-2.111	Pitch:	5.491	Yaw:	-0.555	Thrust:	0.000
Time:	0.906	Roll Set Point:	0.165	Pitch Set Point:	-0.438	Yaw Set Point:	0.005	X_WP:	0.000	Y_WP:	0.000	Y_WP:	-0.100	X:	-0.082	Y:	0.219	Z:	0.047	yaw:	-0.262	yaw rate:	0.518	Roll:	-2.127	Pitch:	5.480	Yaw:	-1.201	Thrust:	0.000
Time:	0.917	Roll Set Point:	0.165	Pitch Set Point:	-0.438	Yaw Set Point:	0.004	X_WP:	0.000	Y_WP:	0.000	Y_WP:	-0.100	X:	-0.082	Y:	0.219	Z:	0.047	yaw:	-0.239	yaw rate:	-2.331	Roll:	-2.069	Pitch:	5.472	Yaw:	0.155	Thrust:	0.000
Time:	0.929	Roll Set Point:	0.165	Pitch Set Point:	-0.438	Yaw Set Point:	0.004	X_WP:	0.000	Y_WP:	0.000	Y_WP:	-0.100	X:	-0.082	Y:	0.219	Z:	0.047	yaw:	-0.221	yaw rate:	-1.761	Roll:	-2.053	Pitch:	5.496	Yaw:	0.041	Thrust:	0.000
Time:	0.943	Roll Set Point:	0.165	Pitch Set Point:	-0.438	Yaw Set Point:	0.004	X_WP:	0.000	Y_WP:	0.000	Y_WP:	-0.100	X:	-0.082	Y:	0.219	Z:	0.047	yaw:	-0.245	yaw rate:	2.318	Roll:	-2.109	Pitch:	5.497	Yaw:	-0.851	Thrust:	0.000
Time:	0.962	Roll Set Point:	0.165	Pitch Set Point:	-0.438	Yaw Set Point:	0.004	X_WP:	0.000	Y_WP:	0.000	Y_WP:	-0.100	X:	-0.082	Y:	0.219	Z:	0.047	yaw:	-0.238	yaw rate:	-0.682	Roll:	-2.111	Pitch:	5.478	Yaw:	-0.349	Thrust:	0.000
Time:	0.973	Roll Set Point:	0.165	Pitch Set Point:	-0.438	Yaw Set Point:	0.004	X_WP:	0.000	Y_WP:	0.000	Y_WP:	-0.100	X:	-0.082	Y:	0.219	Z:	0.047	yaw:	-0.257	yaw rate:	2.802	Roll:	-2.087	Pitch:	5.497	Yaw:	-0.901	Thrust:	0.000
Time:	0.983	Roll Set Point:	0.165	Pitch Set Point:	-0.438	Yaw Set Point:	0.005	X_WP:	0.000	Y_WP:	0.000	Y_WP:	-0.100	X:	-0.082	Y:	0.219	Z:	0.047	yaw:	-0.275	yaw rate:	1.826	Roll:	-2.155	Pitch:	5.449	Yaw:	-0.898	Thrust:	0.000
Time:	0.994	Roll Set Point:	0.165	Pitch Set Point:	-0.438	Yaw Set Point:	0.004	X_WP:	0.000	Y_WP:	0.000	Y_WP:	-0.100	X:	-0.082	Y:	0.219	Z:	0.047	yaw:	-0.251	yaw rate:	-2.429	Roll:	-2.037	Pitch:	5.505	Yaw:	0.167	Thrust:	0.000
Time:	1.006	Roll Set Point:	0.165	Pitch Set Point:	-0.438	Yaw Set Point:	0.005	X_WP:	0.000	Y_WP:	0.000	Y_WP:	-0.100	X:	-0.082	Y:	0.219	Z:	0.047	yaw:	-0.261	yaw rate:	0.984	Roll:	-2.105	Pitch:	5.481	Yaw:	-0.656	Thrust:	0.000
Time:	1.027	Roll Set Point:	0.165	Pitch Set Point:	-0.438	Yaw Set Point:	0.005	X_WP:	0.000	Y_WP:	0.000	Y_WP:	-0.100	X:	-0.082	Y:	0.219	Z:	0.047	yaw:	-0.276	yaw rate:	1.545	Roll:	-2.131	Pitch:	5.477	Yaw:	-0.704	Thrust:	0.000
Time:	1.037	Roll Set Point:	0.165	Pitch Set Point:	-0.438	Yaw Set Point:	0.004	X_WP:	0.000	Y_WP:	0.000	Y_WP:	-0.100	X:	-0.082	Y:	0.219	Z:	0.047	yaw:	-0.211	yaw rate:	-6.585	Roll:	-1.952	Pitch:	5.529	Yaw:	1.365	Thrust:	0.000
Time:	1.048	Roll Set Point:	0.165	Pitch Set Point:	-0.438	Yaw Set Point:	0.004	X_WP:	0.000	Y_WP:	0.000	Y_WP:	-0.100	X:	-0.082	Y:	0.219	Z:	0.047	yaw:	-0.230	yaw rate:	1.940	Roll:	-2.150	Pitch:	5.458	Yaw:	-0.850	Thrust:	0.000
Time:	1.059	Roll Set Point:	0.165	Pitch Set Point:	-0.438	Yaw Set Point:	0.004	X_WP:	0.000	Y_WP:	0.000	Y_WP:	-0.100	X:	-0.082	Y:	0.219	Z:	0.047	yaw:	-0.224	yaw rate:	-0.578	Roll:	-2.078	Pitch:	5.489	Yaw:	-0.238	Thrust:	0.000
Time:	1.070	Roll Set Point:	0.165	Pitch Set Point:	-0.438	Yaw Set Point:	0.004	X_WP:	0.000	Y_WP:	0.000	Y_WP:	-0.100	X:	-0.082	Y:	0.219	Z:	0.047	yaw:	-0.243	yaw rate:	1.899	Roll:	-2.089	Pitch:	5.497	Yaw:	-0.860	Thrust:	0.000
Time:	1.094	Roll Set Point:	0.165	Pitch Set Point:	-0.438	Yaw Set Point:	0.004	X_WP:	0.000	Y_WP:	0.000	Y_WP:	-0.100	X:	-0.082	Y:	0.219	Z:	0.047	yaw:	-0.245	yaw rate:	0.129	Roll:	-2.106	Pitch:	5.498	Yaw:	-0.514	Thrust:	0.000
Time:	1.105	Roll Set Point:	0.165	Pitch Set Point:	-0.438	Yaw Set Point:	0.004	X_WP:	0.000	Y_WP:	0.000	Y_WP:	-0.100	X:	-0.082	Y:	0.219	Z:	0.047	yaw:	-0.219	yaw rate:	-4.077	Roll:	-2.056	Pitch:	5.490	Yaw:	0.219	Thrust:	0.000
Time:	1.117	Roll Set Point:	0.165	Pitch Set Point:	-0.438	Yaw Set Point:	0.004	X_WP:	0.000	Y_WP:	0.000	Y_WP:	-0.100	X:	-0.082	Y:	0.219	Z:	0.047	yaw:	-0.251	yaw rate:	3.199	Roll:	-2.133	Pitch:	5.464	Yaw:	-1.158	Thrust:	0.000
Time:	1.127	Roll Set Point:	0.165	Pitch Set Point:	-0.438	Yaw Set Point:	0.004	X_WP:	0.000	Y_WP:	0.000	Y_WP:	-0.100	X:	-0.082	Y:	0.219	Z:	0.047	yaw:	-0.246	yaw rate:	-0.491	Roll:	-2.058	Pitch:	5.502	Yaw:	-0.285	Thrust:	0.000
Time:	1.138	Roll Set Point:	0.165	Pitch Set Point:	-0.438	Yaw Set Point:	0.004	X_WP:	0.000	Y_WP:	0.000	Y_WP:	-0.100	X:	-0.082	Y:	0.219	Z:	0.047	yaw:	-0.230	yaw rate:	-1.645	Roll:	-2.098	Pitch:	5.457	Yaw:	-0.005	Thrust:	0.000
Time:	1.159	Roll Set Point:	0.165	Pitch Set Point:	-0.438	Yaw Set Point:	0.004	X_WP:	0.000	Y_WP:	0.000	Y_WP:	-0.100	X:	-0.082	Y:	0.219	Z:	0.047	yaw:	-0.208	yaw rate:	-2.226	Roll:	-2.048	Pitch:	5.507	Yaw:	-0.158	Thrust:	0.000
Time:	1.169	Roll Set Point:	0.165	Pitch Set Point:	-0.438	Yaw Set Point:	0.004	X_WP:	0.000	Y_WP:	0.000	Y_WP:	-0.100	X:	-0.082	Y:	0.219	Z:	0.047	yaw:	-0.236	yaw rate:	2.778	Roll:	-2.139	Pitch:	5.459	Yaw:	-1.124	Thrust:	0.000
Time:	1.180	Roll Set Point:	0.165	Pitch Set Point:	-0.438	Yaw Set Point:	0.004	X_WP:	0.000	Y_WP:	0.000	Y_WP:	-0.100	X:	-0.082	Y:	0.219	Z:	0.047	yaw:	-0.203	yaw rate:	-3.214	Roll:	-2.005	Pitch:	5.514	Yaw:	0.438	Thrust:	0.000
Time:	1.190	Roll Set Point:	0.165	Pitch Set Point:	-0.438	Yaw Set Point:	0.003	X_WP:	0.000	Y_WP:	0.000	Y_WP:	-0.100	X:	-0.082	Y:	0.219	Z:	0.047	yaw:	-0.198	yaw rate:	-1.869	Roll:	-2.065	Pitch:	5.484	Yaw:	-0.226	Thrust:	0.000
Time:	1.201	Roll Set Point:	0.165	Pitch Set Point:	-0.438	Yaw Set Point:	0.004	X_WP:	0.000	Y_WP:	0.000	Y_WP:	-0.100	X:	-0.082	Y:	0.219	Z:	0.047	yaw:	-0.255	yaw rate:	5.654	Roll:	-2.193	Pitch:	5.466	Yaw:	-1.834	Thrust:	0.000
Time:	1.213	Roll Set Point:	0.165	Pitch Set Point:	-0.438	Yaw Set Point:	0.004	X_WP:	0.000	Y_WP:	0.000	Y_WP:	-0.100	X:	-0.082	Y:	0.219	Z:	0.047	yaw:	-0.221	yaw rate:	-3.396	Roll:	-2.025	Pitch:	5.492	Yaw:	0.344	Thrust:	0.000
Time:	1.227	Roll Set Point:	0.165	Pitch Set Point:	-0.438	Yaw Set Point:	0.004	X_WP:	0.000	Y_WP:	0.000	Y_WP:	-0.100	X:	-0.082	Y:	0.219	Z:	0.047	yaw:	-0.228	yaw rate:	0.750	Roll:	-2.119	Pitch:	5.469	Yaw:	-0.561	Thrust:	0.000
Time:	1.238	Roll Set Point:	0.165	Pitch Set Point:	-0.438	Yaw Set Point:	0.004	X_WP:	0.000	Y_WP:	0.000	Y_WP:	-0.100	X:	-0.082	Y:	0.219	Z:	0.047	yaw:	-0.222	yaw rate:	-0.609	Roll:	-2.081	Pitch:	5.479	Yaw:	-0.247	Thrust:	0.000
Time:	1.249	Roll Set Point:	0.165	Pitch Set Point:	-0.438	Yaw Set Point:	0.004	X_WP:	0.000	Y_WP:	0.000	Y_WP:	-0.100	X:	-0.082	Y:	0.219	Z:	0.047	yaw:	-0.251	yaw rate:	2.884	Roll:	-2.132	Pitch:	5.490	Yaw:	-1.123	Thrust:	0.000
Time:	1.259	Roll Set Point:	0.165	Pitch Set Point:	-0.438	Yaw Set Point:	0.005	X_WP:	0.000	Y_WP:	0.000	Y_WP:	-0.100	X:	-0.082	Y:	0.219	Z:	0.047	yaw:	-0.261	yaw rate:	0.948	Roll:	-2.125	Pitch:	5.456	Yaw:	-0.678	Thrust:	0.000
Time:	1.272	Roll Set Point:	0.165	Pitch Set Point:	-0.438	Yaw Set Point:	0.004	X_WP:	0.000	Y_WP:	0.000	Y_WP:	-0.100	X:	-0.082	Y:	0.219	Z:	0.047	yaw:	-0.212	yaw rate:	-4.891	Roll:	-1.981	Pitch:	5.511	Yaw:	0.587	Thrust:	0.000
Time:	1.293	Roll Set Point:	0.165	Pitch Set Point:	-0.438	Yaw Set Point:	0.004	X_WP:	0.000	Y_WP:	0.000	Y_WP:	-0.100	X:	-0.082	Y:	0.219	Z:	0.047	yaw:	-0.242	yaw rate:	3.044	Roll:	-2.120	Pitch:	5.512	Yaw:	-0.895	Thrust:	0.000
Time:	1.305	Roll Set Point:	0.165	Pitch Set Point:	-0.438	Yaw Set Point:	0.004	X_WP:	0.000	Y_WP:	0.000	Y_WP:	-0.100	X:	-0.082	Y:	0.219	Z:	0.047	yaw:	-0.238	yaw rate:	-0.418	Roll:	-2.131	Pitch:	5.429	Yaw:	-0.344	Thrust:	0.000
Time:	1.315	Roll Set Point:	0.165	Pitch Set Point:	-0.438	Yaw Set Point:	0.004	X_WP:	0.000	Y_WP:	0.000	Y_WP:	-0.100	X:	-0.082	Y:	0.219	Z:	0.047	yaw:	-0.221	yaw rate:	-1.728	Roll:	-2.031	Pitch:	5.503	Yaw:	0.039	Thrust:	0.000
Time:	1.325	Roll Set Point:	0.165	Pitch Set Point:	-0.438	Yaw Set Point:	0.004	X_WP:	0.000	Y_WP:	0.000	Y_WP:	-0.100	X:	-0.082	Y:	0.219	Z:	0.047	yaw:	-0.215	yaw rate:	-0.618	Roll:	-2.058	Pitch:	5.496	Yaw:	-0.218	Thrust:	0.000
Time:	1.336	Roll Set Point:	0.165	Pitch Set Point:	-0.438	Yaw Set Point:	0.004	X_WP:	0.000	Y_WP:	0.000	Y_WP:	-0.100	X:	-0.082	Y:	0.219	Z:	0.047	yaw:	-0.222	yaw rate:	0.715	Roll:	-2.109	Pitch:	5.465	Yaw:	-0.568	Thrust:	0.000
Time:	1.352	Roll Set Point:	0.165	Pitch Set Point:	-0.438	Yaw Set Point:	0.004	X_WP:	0.000	Y_WP:	0.000	Y_WP:	-0.100	X:	-0.082	Y:	0.219	Z:	0.047	yaw:	-0.220	yaw rate:	-1.915	Roll:	-2.078	Pitch:	5.493	Yaw:	-0.398	Thrust:	0.000
Time:	1.365	Roll Set Point:	0.165	Pitch Set Point:	-0.438	Yaw Set Point:	0.005	X_WP:	0.000	Y_WP:	0.000	Y_WP:	-0.100	X:	-0.082	Y:	0.219	Z:	0.047	yaw:	-0.268	yaw rate:	4.747	Roll:	-2.164	Pitch:	5.474	Yaw:	-1.323	Thrust:	0.000
Time:	1.376	Roll Set Point:	0.165	Pitch Set Point:	-0.438	Yaw Set Point:	0.004	X_WP:	0.000	Y_WP:	0.000	Y_WP:	-0.100	X:	-0.082	Y:	0.219	Z:	0.047	yaw:	-0.225	yaw rate:	-4.330	Roll:	-2.005	Pitch:	5.497	Yaw:	0.675	Thrust:	0.000
Time:	1.387	Roll Set Point:	0.165	Pitch Set Point:	-0.438	Yaw Set Point:	0.005	X_WP:	0.000	Y_WP:	0.000	Y_WP:	-0.100	X:	-0.082	Y:	0.219	Z:	0.047	yaw:	-0.280	yaw rate:	5.573	Roll:	-2.200	Pitch:	5.450	Yaw:	-1.865	Thrust:	0.000
Time:	1.398	Roll Set Point:	0.165	Pitch Set Point:	-0.438	Yaw Set Point:	0.004	X_WP:	0.000	Y_WP:	0.000	Y_WP:	-0.100	X:	-0.082	Y:	0.219	Z:	0.047	yaw:	-0.251	yaw rate:	-2.970	Roll:	-1.989	Pitch:	5.508	Yaw:	0.257	Thrust:	0.000
Time:	1.411	Roll Set Point:	0.165	Pitch Set Point:	-0.438	Yaw Set Point:	0.004	X_WP:	0.000	Y_WP:	0.000	Y_WP:	-0.100	X:	-0.082	Y:	0.219	Z:	0.047	yaw:	-0.211	yaw rate:	-3.935	Roll:	-2.019	Pitch:	5.491	Yaw:	0.417	Thrust:	0.000
Time:	1.427	Roll Set Point:	0.165	Pitch Set Point:	-0.438	Yaw Set Point:	0.004	X_WP:	0.000	Y_WP:	0.000	Y_WP:	-0.100	X:	-0.082	Y:	0.219	Z:	0.047	yaw:	-0.209	yaw rate:	-0.262	Roll:	-2.096	Pitch:	5.496	Yaw:	-0.392	Thrust:	0.000
Time:	1.437	Roll Set Point:	0.165	Pitch Set Point:	-0.438	Yaw Set Point:	0.004	X_WP:	0.000	Y_WP:	0.000	Y_WP:	-0.100	X:	-0.082	Y:	0.219	Z:	0.047	yaw:	-0.223	yaw rate:	-0.068	Roll:	-2.146	Pitch:	5.465	Yaw:	-0.763	Thrust:	0.000
Time:	1.447	Roll Set Point:	0.165	Pitch Set Point:	-0.438	Yaw Set Point:	0.004	X_WP:	0.000	Y_WP:	0.000	Y_WP:	-0.100	X:	-0.082	Y:	0.219	Z:	0.047	yaw:	-0.256	yaw rate:	3.319	Roll:	-2.111	Pitch:	5.474	Yaw:	-1.275	Thrust:	0.000
Time:	1.459	Roll Set Point:	0.165	Pitch Set Point:	-0.438	Yaw Set Point:	0.004	X_WP:	0.000	Y_WP:	0.000	Y_WP:	-0.100	X:	-0.082	Y:	0.219	Z:	0.047	yaw:	-0.212	yaw rate:	-4.423	Roll:	-2.026	Pitch:	5.501	Yaw:	0.614	Thrust:	0.000
Time:	1.471	Roll Set Point:	0.165	Pitch Set Point:	-0.438	Yaw Set Point:	0.004	X_WP:	0.000	Y_WP:	0.000	Y_WP:	-0.100	X:	-0.082	Y:	0.219	Z:	0.047	yaw:	-0.237	yaw rate:	2.487	Roll:	-2.105	Pitch:	5.488	Yaw:	-0.980	Thrust:	0.000
Time:	1.491	Roll Set Point:	0.165	Pitch Set Point:	-0.438	Yaw Set Point:	0.004	X_WP:	0.000	Y_WP:	0.000	Y_WP:	-0.100	X:	-0.082	Y:	0.219	Z:	0.047	yaw:	-0.242	yaw rate:	0.505	Roll:	-2.098	Pitch:	5.490	Yaw:	-0.578	Thrust:	0.000
Time:	1.502	Roll Set Point:	0.165	Pitch Set Point:	-0.438	Yaw Set Point:	0.004	X_WP:	0.000	Y_WP:	0.000	Y_WP:	-0.100	X:	-0.082	Y:	0.219	Z:	0.047	yaw:	-0.254	yaw rate:	1.259	Roll:	-2.150	Pitch:	5.462	Yaw:	-0.732	Thrust:	0.000
Time:	1.513	Roll Set Point:	0.165	Pitch Set Point:	-0.438	Yaw Set Point:	0.004	X_WP:	0.000	Y_WP:	0.000	Y_WP:	-0.100	X:	-0.082	Y:	0.219	Z:	0.047	yaw:	-0.252	yaw rate:	2.388	Roll:	-2.059	Pitch:	5.497	Yaw:	-0.405	Thrust:	0.000
Time:	1.524	Roll Set Point:	0.165	Pitch Set Point:	-0.438	Yaw Set Point:	0.005	X_WP:	0.000	Y_WP:	0.000	Y_WP:	-0.100	X:	-0.082	Y:	0.219	Z:	0.047	yaw:	-0.262	yaw rate:	0.938	Roll:	-2.121	Pitch:	5.473	Yaw:	-0.690	Thrust:	0.000
Time:	1.534	Roll Set Point:	0.165	Pitch Set Point:	-0.438	Yaw Set Point:	0.004	X_WP:	0.000	Y_WP:	0.000	Y_WP:	-0.100	X:	-0.082	Y:	0.219	Z:	0.047	yaw:	-0.253	yaw rate:	-0.916	Roll:	-2.060	Pitch:	5.479	Yaw:	-0.208	Thrust:	0.000
Time:	1.549	Roll Set Point:	0.165	Pitch Set Point:	-0.438	Yaw Set Point:	0.004	X_WP:	0.000	Y_WP:	0.000	Y_WP:	-0.100	X:	-0.082	Y:	0.219	Z:	0.047	yaw:	-0.248	yaw rate:	-0.470	Roll:	-2.072	Pitch:	5.487	Yaw:	-0.391	Thrust:	0.000
Time:	1.563	Roll Set Point:	0.165	Pitch Set Point:	-0.438	Yaw Set Point:	0.004	X_WP:	0.000	Y_WP:	0.000	Y_WP:	-0.100	X:	-0.082	Y:	0.219	Z:	0.047	yaw:	-0.226	yaw rate:	-2.171	Roll:	-2.081	Pitch:	5.483	Yaw:	-0.063	Thrust:	0.000
Time:	1.574	Roll Set Point:	0.165	Pitch Set Point:	-0.438	Yaw Set Point:	0.004	X_WP:	0.000	Y_WP:	0.000	Y_WP:	-0.100	X:	-0.082	Y:	0.219	Z:	0.047	yaw:	-0.222	yaw rate:	-0.427	Roll:	-2.085	Pitch:	5.490	Yaw:	-0.318	Thrust:	0.000
Time:	1.586	Roll Set Point:	0.165	Pitch Set Point:	-0.438	Yaw Set Point:	0.004	X_WP:	0.000	Y_WP:	0.000	Y_WP:	-0.100	X:	-0.082	Y:	0.219	Z:	0.047	yaw:	-0.235	yaw rate:	1.293	Roll:	-2.125	Pitch:	5.458	Yaw:	-0.733	Thrust:	0.000
Time:	1.597	Roll Set Point:	0.165	Pitch Set Point:	-0.438	Yaw Set Point:	0.004	X_WP:	0.000	Y_WP:	0.000	Y_WP:	-0.100	X:	-0.082	Y:	0.219	Z:	0.047	yaw:	-0.253	yaw rate:	1.838	Roll:	-2.094	Pitch:	5.505	Yaw:	-0.893	Thrust:	0.000
Time:	1.610	Roll Set Point:	0.165	Pitch Set Point:	-0.438	Yaw Set Point:	0.005	X_WP:	0.000	Y_WP:	0.000	Y_WP:	-0.100	X:	-0.082	Y:	0.219	Z:	0.047	yaw:	-0.261	yaw rate:	0.802	Roll:	-2.096	Pitch:	5.474	Yaw:	-0.653	Thrust:	0.000
Time:	1.627	Roll Set Point:	0.165	Pitch Set Point:	-0.438	Yaw Set Point:	0.004	X_WP:	0.000	Y_WP:	0.000	Y_WP:	-0.100	X:	-0.082	Y:	0.219	Z:	0.047	yaw:	-0.250	yaw rate:	-1.084	Roll:	-2.077	Pitch:	5.500	Yaw:	-0.362	Thrust:	0.000
Time:	1.638	Roll Set Point:	0.165	Pitch Set Point:	-0.438	Yaw Set Point:	0.004	X_WP:	0.000	Y_WP:	0.000	Y_WP:	-0.100	X:	-0.082	Y:	0.219	Z:	0.047	yaw:	-0.209	yaw rate:	-4.135	Roll:	-2.035	Pitch:	5.495	Yaw:	0.645	Thrust:	0.000
Time:	1.649	Roll Set Point:	0.165	Pitch Set Point:	-0.438	Yaw Set Point:	0.005	X_WP:	0.000	Y_WP:	0.000	Y_WP:	-0.100	X:	-0.082	Y:	0.219	Z:	0.047	yaw:	-0.263	yaw rate:	5.438	Roll:	-2.188	Pitch:	5.449	Yaw:	-1.743	Thrust:	0.000
Time:	1.661	Roll Set Point:	0.165	Pitch Set Point:	-0.438	Yaw Set Point:	0.005	X_WP:	0.000	Y_WP:	0.000	Y_WP:	-0.100	X:	-0.082	Y:	0.219	Z:	0.047	yaw:	-0.260	yaw rate:	0.350	Roll:	-2.077	Pitch:	5.492	Yaw:	-0.392	Thrust:	0.000
Time:	1.672	Roll Set Point:	0.165	Pitch Set Point:	-0.438	Yaw Set Point:	0.004	X_WP:	0.000	Y_WP:	0.000	Y_WP:	-0.100	X:	-0.082	Y:	0.219	Z:	0.047	yaw:	-0.231	yaw rate:	-2.911	Roll:	-2.040	Pitch:	5.481	Yaw:	0.335	Thrust:	0.000
Time:	1.691	Roll Set Point:	0.165	Pitch Set Point:	-0.438	Yaw Set Point:	0.004	X_WP:	0.000	Y_WP:	0.000	Y_WP:	-0.100	X:	-0.082	Y:	0.219	Z:	0.047	yaw:	-0.233	yaw rate:	0.219	Roll:	-2.101	Pitch:	5.479	Yaw:	-0.557	Thrust:	0.000
Time:	1.704	Roll Set Point:	0.165	Pitch Set Point:	-0.438	Yaw Set Point:	0.005	X_WP:	0.000	Y_WP:	0.000	Y_WP:	-0.100	X:	-0.082	Y:	0.219	Z:	0.047	yaw:	-0.262	yaw rate:	0.187	Roll:	-2.131	Pitch:	5.493	Yaw:	-1.075	Thrust:	0.000
Time:	1.716	Roll Set Point:	0.165	Pitch Set Point:	-0.438	Yaw Set Point:	0.005	X_WP:	0.000	Y_WP:	0.000	Y_WP:	-0.100	X:	-0.082	Y:	0.219	Z:	0.047	yaw:	-0.276	yaw rate:	1.406	Roll:	-2.126	Pitch:	5.453	Yaw:	-0.824	Thrust:	0.000
Time:	1.726	Roll Set Point:	0.165	Pitch Set Point:	-0.438	Yaw Set Point:	0.005	X_WP:	0.000	Y_WP:	0.000	Y_WP:	-0.100	X:	-0.082	Y:	0.219	Z:	0.047	yaw:	-0.266	yaw rate:	-1.067	Roll:	-2.050	Pitch:	5.498	Yaw:	-0.220	Thrust:	0.000
Time:	1.739	Roll Set Point:	0.165	Pitch Set Point:	-0.438	Yaw Set Point:	0.004	X_WP:	0.000	Y_WP:	0.000	Y_WP:	-0.100	X:	-0.082	Y:	0.219	Z:	0.047	yaw:	-0.244	yaw rate:	-2.138	Roll:	-2.045	Pitch:	5.508	Yaw:	-0.051	Thrust:	0.000
Time:	1.763	Roll Set Point:	0.165	Pitch Set Point:	-0.438	Yaw Set Point:	0.004	X_WP:	0.000	Y_WP:	0.000	Y_WP:	-0.100	X:	-0.082	Y:	0.219	Z:	0.047	yaw:	-0.225	yaw rate:	-1.959	Roll:	-2.086	Pitch:	5.488	Yaw:	-0.337	Thrust:	0.000
Time:	1.774	Roll Set Point:	0.165	Pitch Set Point:	-0.438	Yaw Set Point:	0.004	X_WP:	0.000	Y_WP:	0.000	Y_WP:	-0.100	X:	-0.082	Y:	0.219	Z:	0.047	yaw:	-0.258	yaw rate:	1.477	Roll:	-2.133	Pitch:	5.477	Yaw:	-1.225	Thrust:	0.000
Time:	1.785	Roll Set Point:	0.165	Pitch Set Point:	-0.438	Yaw Set Point:	0.004	X_WP:	0.000	Y_WP:	0.000	Y_WP:	-0.100	X:	-0.082	Y:	0.219	Z:	0.047	yaw:	-0.222	yaw rate:	-3.532	Roll:	-2.020	Pitch:	5.496	Yaw:	0.406	Thrust:	0.000
Time:	1.796	Roll Set Point:	0.165	Pitch Set Point:	-0.438	Yaw Set Point:	0.005	X_WP:	0.000	Y_WP:	0.000	Y_WP:	-0.100	X:	-0.082	Y:	0.219	Z:	0.047	yaw:	-0.266	yaw rate:	4.407	Roll:	-2.166	Pitch:	5.467	Yaw:	-1.510	Thrust:	0.000
Time:	1.812	Roll Set Point:	0.165	Pitch Set Point:	-0.438	Yaw Set Point:	0.004	X_WP:	0.000	Y_WP:	0.000	Y_WP:	-0.100	X:	-0.082	Y:	0.219	Z:	0.047	yaw:	-0.243	yaw rate:	-2.331	Roll:	-2.034	Pitch:	5.537	Yaw:	-0.120	Thrust:	0.000
Time:	1.827	Roll Set Point:	0.165	Pitch Set Point:	-0.438	Yaw Set Point:	0.004	X_WP:	0.000	Y_WP:	0.000	Y_WP:	-0.100	X:	-0.082	Y:	0.219	Z:	0.047	yaw:	-0.208	yaw rate:	-3.554	Roll:	-2.055	Pitch:	5.483	Yaw:	0.163	Thrust:	0.000
Time:	1.837	Roll Set Point:	0.165	Pitch Set Point:	-0.438	Yaw Set Point:	0.004	X_WP:	0.000	Y_WP:	0.000	Y_WP:	-0.100	X:	-0.082	Y:	0.219	Z:	0.047	yaw:	-0.238	yaw rate:	2.995	Roll:	-2.163	Pitch:	5.421	Yaw:	-1.220	Thrust:	0.000
Time:	1.847	Roll Set Point:	0.165	Pitch Set Point:	-0.438	Yaw Set Point:	0.004	X_WP:	0.000	Y_WP:	0.000	Y_WP:	-0.100	X:	-0.082	Y:	0.219	Z:	0.047	yaw:	-0.255	yaw rate:	1.727	Roll:	-2.094	Pitch:	5.488	Yaw:	-0.905	Thrust:	0.000
Time:	1.857	Roll Set Point:	0.165	Pitch Set Point:	-0.438	Yaw Set Point:	0.004	X_WP:	0.000	Y_WP:	0.000	Y_WP:	-0.100	X:	-0.082	Y:	0.219	Z:	0.047	yaw:	-0.245	yaw rate:	-0.994	Roll:	-2.059	Pitch:	5.497	Yaw:	-0.198	Thrust:	0.000
Time:	1.869	Roll Set Point:	0.165	Pitch Set Point:	-0.438	Yaw Set Point:	0.004	X_WP:	0.000	Y_WP:	0.000	Y_WP:	-0.100	X:	-0.082	Y:	0.219	Z:	0.047	yaw:	-0.232	yaw rate:	-1.282	Roll:	-2.077	Pitch:	5.472	Yaw:	-0.159	Thrust:	0.000
Time:	1.890	Roll Set Point:	0.165	Pitch Set Point:	-0.438	Yaw Set Point:	0.004	X_WP:	0.000	Y_WP:	0.000	Y_WP:	-0.100	X:	-0.082	Y:	0.219	Z:	0.047	yaw:	-0.221	yaw rate:	-1.103	Roll:	-2.079	Pitch:	5.491	Yaw:	-0.408	Thrust:	0.000
Time:	1.904	Roll Set Point:	0.165	Pitch Set Point:	-0.438	Yaw Set Point:	0.004	X_WP:	0.000	Y_WP:	0.000	Y_WP:	-0.100	X:	-0.082	Y:	0.219	Z:	0.047	yaw:	-0.229	yaw rate:	-4.536	Roll:	-2.108	Pitch:	5.490	Yaw:	-0.642	Thrust:	0.000
Time:	1.915	Roll Set Point:	0.165	Pitch Set Point:	-0.438	Yaw Set Point:	0.005	X_WP:	0.000	Y_WP:	0.000	Y_WP:	-0.100	X:	-0.082	Y:	0.219	Z:	0.047	yaw:	-0.259	yaw rate:	2.928	Roll:	-2.132	Pitch:	5.475	Yaw:	-1.186	Thrust:	0.000
Time:	1.927	Roll Set Point:	0.165	Pitch Set Point:	-0.438	Yaw Set Point:	0.005	X_WP:	0.000	Y_WP:	0.000	Y_WP:	-0.100	X:	-0.082	Y:	0.219	Z:	0.047	yaw:	-0.263	yaw rate:	0.405	Roll:	-2.105	Pitch:	5.486	Yaw:	-0.595	Thrust:	0.000
Time:	1.940	Roll Set Point:	0.165	Pitch Set Point:	-0.438	Yaw Set Point:	0.004	X_WP:	0.000	Y_WP:	0.000	Y_WP:	-0.100	X:	-0.082	Y:	0.219	Z:	0.047	yaw:	-0.211	yaw rate:	-5.182	Roll:	-1.955	Pitch:	5.504	Yaw:	0.803	Thrust:	0.000
Time:	1.962	Roll Set Point:	0.165	Pitch Set Point:	-0.438	Yaw Set Point:	0.004	X_WP:	0.000	Y_WP:	0.000	Y_WP:	-0.100	X:	-0.082	Y:	0.219	Z:	0.047	yaw:	-0.240	yaw rate:	2.931	Roll:	-2.147	Pitch:	5.480	Yaw:	-0.944	Thrust:	0.000
Time:	1.972	Roll Set Point:	0.165	Pitch Set Point:	-0.438	Yaw Set Point:	0.005	X_WP:	0.000	Y_WP:	0.000	Y_WP:	-0.100	X:	-0.082	Y:	0.219	Z:	0.047	yaw:	-0.264	yaw rate:	1.497	Roll:	-2.125	Pitch:	5.490	Yaw:	-1.118	Thrust:	0.000
Time:	1.982	Roll Set Point:	0.165	Pitch Set Point:	-0.438	Yaw Set Point:	0.005	X_WP:	0.000	Y_WP:	0.000	Y_WP:	-0.100	X:	-0.082	Y:	0.219	Z:	0.047	yaw:	-0.269	yaw rate:	0.432	Roll:	-2.096	Pitch:	5.469	Yaw:	-0.611	Thrust:	0.000
Time:	1.992	Roll Set Point:	0.165	Pitch Set Point:	-0.438	Yaw Set Point:	0.005	X_WP:	0.000	Y_WP:	0.000	Y_WP:	-0.100	X:	-0.082	Y:	0.219	Z:	0.047	yaw:	-0.266	yaw rate:	-0.211	Roll:	-2.084	Pitch:	5.480	Yaw:	-0.441	Thrust:	0.000
Time:	2.006	Roll Set Point:	0.165	Pitch Set Point:	-0.438	Yaw Set Point:	0.005	X_WP:	0.000	Y_WP:	0.000	Y_WP:	-0.100	X:	-0.082	Y:	0.219	Z:	0.047	yaw:	-0.307	yaw rate:	4.052	Roll:	-2.171	Pitch:	5.456	Yaw:	-1.359	Thrust:	0.000
Time:	2.026	Roll Set Point:	0.165	Pitch Set Point:	-0.438	Yaw Set Point:	0.005	X_WP:	0.000	Y_WP:	0.000	Y_WP:	-0.100	X:	-0.082	Y:	0.219	Z:	0.047	yaw:	-0.270	yaw rate:	-3.695	Roll:	-2.058	Pitch:	5.516	Yaw:	-0.146	Thrust:	0.000
Time:	2.038	Roll Set Point:	0.165	Pitch Set Point:	-0.438	Yaw Set Point:	0.004	X_WP:	0.000	Y_WP:	0.000	Y_WP:	-0.100	X:	-0.082	Y:	0.219	Z:	0.047	yaw:	-0.233	yaw rate:	-0.662	Roll:	-2.031	Pitch:	5.486	Yaw:	0.413	Thrust:	0.000
Time:	2.048	Roll Set Point:	0.165	Pitch Set Point:	-0.438	Yaw Set Point:	0.004	X_WP:	0.000	Y_WP:	0.000	Y_WP:	-0.100	X:	-0.082	Y:	0.219	Z:	0.047	yaw:	-0.201	yaw rate:	-3.170	Roll:	-1.984	Pitch:	5.514	Yaw:	0.419	Thrust:	0.000
Time:	2.059	Roll Set Point:	0.165	Pitch Set Point:	-0.438	Yaw Set Point:	0.004	X_WP:	0.000	Y_WP:	0.000	Y_WP:	-0.100	X:	-0.082	Y:	0.219	Z:	0.047	yaw:	-0.208	yaw rate:	0.677	Roll:	-2.101	Pitch:	5.482	Yaw:	-0.592	Thrust:	0.000
Time:	2.071	Roll Set Point:	0.165	Pitch Set Point:	-0.438	Yaw Set Point:	0.004	X_WP:	0.000	Y_WP:	0.000	Y_WP:	-0.100	X:	-0.082	Y:	0.219	Z:	0.047	yaw:	-0.210	yaw rate:	0.211	Roll:	-2.129	Pitch:	5.466	Yaw:	-0.485	Thrust:	0.000
Time:	2.096	Roll Set Point:	0.165	Pitch Set Point:	-0.438	Yaw Set Point:	0.005	X_WP:	0.000	Y_WP:	0.000	Y_WP:	-0.100	X:	-0.082	Y:	0.219	Z:	0.047	yaw:	-0.275	yaw rate:	6.467	Roll:	-2.157	Pitch:	5.483	Yaw:	-1.378	Thrust:	0.000
Time:	2.109	Roll Set Point:	0.165	Pitch Set Point:	-0.438	Yaw Set Point:	0.004	X_WP:	0.000	Y_WP:	0.000	Y_WP:	-0.100	X:	-0.082	Y:	0.219	Z:	0.047	yaw:	-0.206	yaw rate:	-6.662	Roll:	-2.007	Pitch:	5.516	Yaw:	0.870	Thrust:	0.000
Time:	2.120	Roll Set Point:	0.165	Pitch Set Point:	-0.438	Yaw Set Point:	0.004	X_WP:	0.000	Y_WP:	0.000	Y_WP:	-0.100	X:	-0.082	Y:	0.219	Z:	0.047	yaw:	-0.236	yaw rate:	2.990	Roll:	-2.136	Pitch:	5.466	Yaw:	-1.184	Thrust:	0.000
Time:	2.131	Roll Set Point:	0.165	Pitch Set Point:	-0.438	Yaw Set Point:	0.004	X_WP:	0.000	Y_WP:	0.000	Y_WP:	-0.100	X:	-0.082	Y:	0.219	Z:	0.047	yaw:	-0.215	yaw rate:	-2.063	Roll:	-2.054	Pitch:	5.487	Yaw:	0.014	Thrust:	0.000
Time:	2.160	Roll Set Point:	0.165	Pitch Set Point:	-0.438	Yaw Set Point:	0.005	X_WP:	0.000	Y_WP:	0.000	Y_WP:	-0.100	X:	-0.082	Y:	0.219	Z:	0.047	yaw:	-0.281	yaw rate:	6.604	Roll:	-2.197	Pitch:	5.463	Yaw:	-1.384	Thrust:	0.000
Time:	2.172	Roll Set Point:	0.165	Pitch Set Point:	-0.438	Yaw Set Point:	0.005	X_WP:	0.000	Y_WP:	0.000	Y_WP:	-0.100	X:	-0.082	Y:	0.219	Z:	0.047	yaw:	-0.264	yaw rate:	-1.778	Roll:	-2.084	Pitch:	5.508	Yaw:	-0.181	Thrust:	0.000
Time:	2.183	Roll Set Point:	0.165	Pitch Set Point:	-0.438	Yaw Set Point:	0.004	X_WP:	0.000	Y_WP:	0.000	Y_WP:	-0.100	X:	-0.082	Y:	0.219	Z:	0.047	yaw:	-0.220	yaw rate:	-4.360	Roll:	-2.002	Pitch:	5.497	Yaw:	0.606	Thrust:	0.000
Time:	2.193	Roll Set Point:	0.165	Pitch Set Point:	-0.438	Yaw Set Point:	0.005	X_WP:	0.000	Y_WP:	0.000	Y_WP:	-0.100	X:	-0.082	Y:	0.219	Z:	0.047	yaw:	-0.291	yaw rate:	7.087	Roll:	-2.227	Pitch:	5.447	Yaw:	-2.311	Thrust:	0.000
Time:	2.205	Roll Set Point:	0.165	Pitch Set Point:	-0.438	Yaw Set Point:	0.005	X_WP:	0.000	Y_WP:	0.000	Y_WP:	-0.100	X:	-0.082	Y:	0.219	Z:	0.047	yaw:	-0.269	yaw rate:	-2.177	Roll:	-2.050	Pitch:	5.495	Yaw:	-0.010	Thrust:	0.000
Time:	2.227	Roll Set Point:	0.165	Pitch Set Point:	-0.438	Yaw Set Point:	0.005	X_WP:	0.000	Y_WP:	0.000	Y_WP:	-0.100	X:	-0.082	Y:	0.219	Z:	0.047	yaw:	-0.263	yaw rate:	-0.600	Roll:	-2.098	Pitch:	5.495	Yaw:	-0.616	Thrust:	0.000
Time:	2.239	Roll Set Point:	0.165	Pitch Set Point:	-0.438	Yaw Set Point:	0.005	X_WP:	0.000	Y_WP:	0.000	Y_WP:	-0.100	X:	-0.082	Y:	0.219	Z:	0.047	yaw:	-0.267	yaw rate:	4.366	Roll:	-2.093	Pitch:	5.485	Yaw:	-0.623	Thrust:	0.000
Time:	2.252	Roll Set Point:	0.165	Pitch Set Point:	-0.438	Yaw Set Point:	0.005	X_WP:	0.000	Y_WP:	0.000	Y_WP:	-0.100	X:	-0.082	Y:	0.219	Z:	0.047	yaw:	-0.272	yaw rate:	0.511	Roll:	-2.097	Pitch:	5.489	Yaw:	-0.661	Thrust:	0.000
Time:	2.263	Roll Set Point:	0.165	Pitch Set Point:	-0.438	Yaw Set Point:	0.005	X_WP:	0.000	Y_WP:	0.000	Y_WP:	-0.100	X:	-0.082	Y:	0.219	Z:	0.047	yaw:	-0.268	yaw rate:	-0.371	Roll:	-2.093	Pitch:	5.470	Yaw:	-0.444	Thrust:	0.000
Time:	2.281	Roll Set Point:	0.165	Pitch Set Point:	-0.438	Yaw Set Point:	0.004	X_WP:	0.000	Y_WP:	0.000	Y_WP:	-0.100	X:	-0.082	Y:	0.219	Z:	0.047	yaw:	-0.244	yaw rate:	-2.471	Roll:	-2.045	Pitch:	5.510	Yaw:	-0.237	Thrust:	0.000
Time:	2.298	Roll Set Point:	0.165	Pitch Set Point:	-0.438	Yaw Set Point:	0.005	X_WP:	0.000	Y_WP:	0.000	Y_WP:	-0.100	X:	-0.082	Y:	0.219	Z:	0.047	yaw:	-0.273	yaw rate:	2.955	Roll:	-2.155	Pitch:	5.463	Yaw:	-1.077	Thrust:	0.000
Time:	2.309	Roll Set Point:	0.165	Pitch Set Point:	-0.438	Yaw Set Point:	0.004	X_WP:	0.000	Y_WP:	0.000	Y_WP:	-0.100	X:	-0.082	Y:	0.219	Z:	0.047	yaw:	-0.215	yaw rate:	-4.497	Roll:	-1.943	Pitch:	5.524	Yaw:	0.936	Thrust:	0.000
Time:	2.320	Roll Set Point:	0.165	Pitch Set Point:	-0.438	Yaw Set Point:	0.004	X_WP:	0.000	Y_WP:	0.000	Y_WP:	-0.100	X:	-0.082	Y:	0.219	Z:	0.047	yaw:	-0.248	yaw rate:	3.365	Roll:	-2.145	Pitch:	5.481	Yaw:	-1.304	Thrust:	0.000
Time:	2.331	Roll Set Point:	0.165	Pitch Set Point:	-0.438	Yaw Set Point:	0.004	X_WP:	0.000	Y_WP:	0.000	Y_WP:	-0.100	X:	-0.082	Y:	0.219	Z:	0.047	yaw:	-0.230	yaw rate:	-1.784	Roll:	-2.079	Pitch:	5.459	Yaw:	-0.077	Thrust:	0.000
Time:	2.347	Roll Set Point:	0.165	Pitch Set Point:	-0.438	Yaw Set Point:	0.005	X_WP:	0.000	Y_WP:	0.000	Y_WP:	-0.100	X:	-0.082	Y:	0.219	Z:	0.047	yaw:	-0.259	yaw rate:	2.859	Roll:	-2.127	Pitch:	5.486	Yaw:	-1.068	Thrust:	0.000
Time:	2.362	Roll Set Point:	0.165	Pitch Set Point:	-0.438	Yaw Set Point:	0.003	X_WP:	0.000	Y_WP:	0.000	Y_WP:	-0.100	X:	-0.082	Y:	0.219	Z:	0.047	yaw:	-0.198	yaw rate:	-2.771	Roll:	-1.983	Pitch:	5.538	Yaw:	0.520	Thrust:	0.000
Time:	2.374	Roll Set Point:	0.165	Pitch Set Point:	-0.438	Yaw Set Point:	0.004	X_WP:	0.000	Y_WP:	0.000	Y_WP:	-0.100	X:	-0.082	Y:	0.219	Z:	0.047	yaw:	-0.243	yaw rate:	4.509	Roll:	-2.172	Pitch:	5.436	Yaw:	-1.562	Thrust:	0.000
Time:	2.387	Roll Set Point:	0.165	Pitch Set Point:	-0.438	Yaw Set Point:	0.004	X_WP:	0.000	Y_WP:	0.000	Y_WP:	-0.100	X:	-0.082	Y:	0.219	Z:	0.047	yaw:	-0.213	yaw rate:	-3.079	Roll:	-2.059	Pitch:	5.492	Yaw:	0.076	Thrust:	0.000
Time:	2.398	Roll Set Point:	0.165	Pitch Set Point:	-0.438	Yaw Set Point:	0.005	X_WP:	0.000	Y_WP:	0.000	Y_WP:	-0.100	X:	-0.082	Y:	0.219	Z:	0.047	yaw:	-0.265	yaw rate:	5.204	Roll:	-2.222	Pitch:	5.426	Yaw:	-1.813	Thrust:	0.000
Time:	2.411	Roll Set Point:	0.165	Pitch Set Point:	-0.438	Yaw Set Point:	0.004	X_WP:	0.000	Y_WP:	0.000	Y_WP:	-0.100	X:	-0.082	Y:	0.219	Z:	0.047	yaw:	-0.225	yaw rate:	-3.997	Roll:	-1.992	Pitch:	5.519	Yaw:	0.315	Thrust:	0.000
Time:	2.427	Roll Set Point:	0.165	Pitch Set Point:	-0.438	Yaw Set Point:	0.005	X_WP:	0.000	Y_WP:	0.000	Y_WP:	-0.100	X:	-0.082	Y:	0.219	Z:	0.047	yaw:	-0.284	yaw rate:	5.894	Roll:	-2.178	Pitch:	5.467	Yaw:	-1.598	Thrust:	0.000
Time:	2.438	Roll Set Point:	0.165	Pitch Set Point:	-0.438	Yaw Set Point:	0.005	X_WP:	0.000	Y_WP:	0.000	Y_WP:	-0.100	X:	-0.082	Y:	0.219	Z:	0.047	yaw:	-0.269	yaw rate:	-0.461	Roll:	-2.049	Pitch:	5.492	Yaw:	-0.185	Thrust:	0.000
Time:	2.450	Roll Set Point:	0.165	Pitch Set Point:	-0.438	Yaw Set Point:	0.005	X_WP:	0.000	Y_WP:	0.000	Y_WP:	-0.100	X:	-0.082	Y:	0.219	Z:	0.047	yaw:	-0.259	yaw rate:	-0.926	Roll:	-2.058	Pitch:	5.500	Yaw:	-0.340	Thrust:	0.000
Time:	2.460	Roll Set Point:	0.165	Pitch Set Point:	-0.438	Yaw Set Point:	0.004	X_WP:	0.000	Y_WP:	0.000	Y_WP:	-0.100	X:	-0.082	Y:	0.219	Z:	0.047	yaw:	-0.252	yaw rate:	-0.739	Roll:	-2.108	Pitch:	5.482	Yaw:	-0.329	Thrust:	0.000
Time:	2.471	Roll Set Point:	0.165	Pitch Set Point:	-0.438	Yaw Set Point:	0.005	X_WP:	0.000	Y_WP:	0.000	Y_WP:	-0.100	X:	-0.082	Y:	0.219	Z:	0.047	yaw:	-0.274	yaw rate:	2.251	Roll:	-2.138	Pitch:	5.448	Yaw:	-1.087	Thrust:	0.000
Time:	2.485	Roll Set Point:	0.165	Pitch Set Point:	-0.438	Yaw Set Point:	0.004	X_WP:	0.000	Y_WP:	0.000	Y_WP:	-0.100	X:	-0.082	Y:	0.219	Z:	0.047	yaw:	-0.220	yaw rate:	-5.481	Roll:	-1.979	Pitch:	5.515	Yaw:	0.588	Thrust:	0.000
Time:	2.498	Roll Set Point:	0.165	Pitch Set Point:	-0.438	Yaw Set Point:	0.004	X_WP:	0.000	Y_WP:	0.000	Y_WP:	-0.100	X:	-0.082	Y:	0.219	Z:	0.047	yaw:	-0.214	yaw rate:	-0.554	Roll:	-2.081	Pitch:	5.493	Yaw:	-0.401	Thrust:	0.000
Time:	2.509	Roll Set Point:	0.165	Pitch Set Point:	-0.438	Yaw Set Point:	0.004	X_WP:	0.000	Y_WP:	0.000	Y_WP:	-0.100	X:	-0.082	Y:	0.219	Z:	0.047	yaw:	-0.209	yaw rate:	-0.509	Roll:	-2.088	Pitch:	5.465	Yaw:	-0.330	Thrust:	0.000
Time:	2.519	Roll Set Point:	0.165	Pitch Set Point:	-0.438	Yaw Set Point:	0.004	X_WP:	0.000	Y_WP:	0.000	Y_WP:	-0.100	X:	-0.082	Y:	0.219	Z:	0.047	yaw:	-0.217	yaw rate:	0.818	Roll:	-2.097	Pitch:	5.484	Yaw:	-0.672	Thrust:	0.000
Time:	2.530	Roll Set Point:	0.165	Pitch Set Point:	-0.438	Yaw Set Point:	0.004	X_WP:	0.000	Y_WP:	0.000	Y_WP:	-0.100	X:	-0.082	Y:	0.219	Z:	0.047	yaw:	-0.239	yaw rate:	2.162	Roll:	-2.150	Pitch:	5.464	Yaw:	-1.019	Thrust:	0.000
Time:	2.541	Roll Set Point:	0.165	Pitch Set Point:	-0.438	Yaw Set Point:	0.005	X_WP:	0.000	Y_WP:	0.000	Y_WP:	-0.100	X:	-0.082	Y:	0.219	Z:	0.047	yaw:	-0.276	yaw rate:	3.686	Roll:	-2.137	Pitch:	5.466	Yaw:	-1.435	Thrust:	0.000
Time:	2.560	Roll Set Point:	0.165	Pitch Set Point:	-0.438	Yaw Set Point:	0.005	X_WP:	0.000	Y_WP:	0.000	Y_WP:	-0.100	X:	-0.082	Y:	0.219	Z:	0.047	yaw:	-0.259	yaw rate:	-1.629	Roll:	-2.071	Pitch:	5.496	Yaw:	-0.429	Thrust:	0.000
Time:	2.572	Roll Set Point:	0.165	Pitch Set Point:	-0.438	Yaw Set Point:	0.004	X_WP:	0.000	Y_WP:	0.000	Y_WP:	-0.100	X:	-0.082	Y:	0.219	Z:	0.047	yaw:	-0.212	yaw rate:	-4.726	Roll:	-2.025	Pitch:	5.512	Yaw:	0.479	Thrust:	0.000
Time:	2.584	Roll Set Point:	0.165	Pitch Set Point:	-0.438	Yaw Set Point:	0.004	X_WP:	0.000	Y_WP:	0.000	Y_WP:	-0.100	X:	-0.082	Y:	0.219	Z:	0.047	yaw:	-0.255	yaw rate:	4.337	Roll:	-2.175	Pitch:	5.462	Yaw:	-1.527	Thrust:	0.000
Time:	2.595	Roll Set Point:	0.165	Pitch Set Point:	-0.438	Yaw Set Point:	0.004	X_WP:	0.000	Y_WP:	0.000	Y_WP:	-0.100	X:	-0.082	Y:	0.219	Z:	0.047	yaw:	-0.241	yaw rate:	-1.464	Roll:	-2.041	Pitch:	5.531	Yaw:	-0.149	Thrust:	0.000
Time:	2.606	Roll Set Point:	0.165	Pitch Set Point:	-0.438	Yaw Set Point:	0.005	X_WP:	0.000	Y_WP:	0.000	Y_WP:	-0.100	X:	-0.082	Y:	0.219	Z:	0.047	yaw:	-0.262	yaw rate:	-1.326	Roll:	-2.166	Pitch:	5.436	Yaw:	-1.040	Thrust:	0.000
Time:	2.626	Roll Set Point:	0.165	Pitch Set Point:	-0.438	Yaw Set Point:	0.004	X_WP:	0.000	Y_WP:	0.000	Y_WP:	-0.100	X:	-0.082	Y:	0.219	Z:	0.047	yaw:	-0.213	yaw rate:	-4.891	Roll:	-2.032	Pitch:	5.501	Yaw:	0.013	Thrust:	0.000
Time:	2.637	Roll Set Point:	0.165	Pitch Set Point:	-0.438	Yaw Set Point:	0.004	X_WP:	0.000	Y_WP:	0.000	Y_WP:	-0.100	X:	-0.082	Y:	0.219	Z:	0.047	yaw:	-0.249	yaw rate:	3.566	Roll:	-2.157	Pitch:	5.470	Yaw:	-1.404	Thrust:	0.000
Time:	2.647	Roll Set Point:	0.165	Pitch Set Point:	-0.438	Yaw Set Point:	0.004	X_WP:	0.000	Y_WP:	0.000	Y_WP:	-0.100	X:	-0.082	Y:	0.219	Z:	0.047	yaw:	-0.251	yaw rate:	0.200	Roll:	-2.089	Pitch:	5.480	Yaw:	-0.568	Thrust:	0.000
Time:	2.659	Roll Set Point:	0.165	Pitch Set Point:	-0.438	Yaw Set Point:	0.004	X_WP:	0.000	Y_WP:	0.000	Y_WP:	-0.100	X:	-0.082	Y:	0.219	Z:	0.047	yaw:	-0.255	yaw rate:	0.367	Roll:	-2.125	Pitch:	5.472	Yaw:	-0.634	Thrust:	0.000
Time:	2.670	Roll Set Point:	0.165	Pitch Set Point:	-0.438	Yaw Set Point:	0.004	X_WP:	0.000	Y_WP:	0.000	Y_WP:	-0.100	X:	-0.082	Y:	0.219	Z:	0.047	yaw:	-0.225	yaw rate:	-2.966	Roll:	-2.018	Pitch:	5.486	Yaw:	0.206	Thrust:	0.000
Time:	2.689	Roll Set Point:	0.165	Pitch Set Point:	-0.438	Yaw Set Point:	0.004	X_WP:	0.000	Y_WP:	0.000	Y_WP:	-0.100	X:	-0.082	Y:	0.219	Z:	0.047	yaw:	-0.255	yaw rate:	3.006	Roll:	-2.121	Pitch:	5.493	Yaw:	-1.092	Thrust:	0.000
Time:	2.700	Roll Set Point:	0.165	Pitch Set Point:	-0.438	Yaw Set Point:	0.005	X_WP:	0.000	Y_WP:	0.000	Y_WP:	-0.100	X:	-0.082	Y:	0.219	Z:	0.047	yaw:	-0.267	yaw rate:	1.149	Roll:	-2.107	Pitch:	5.463	Yaw:	-0.825	Thrust:	0.000
Time:	2.711	Roll Set Point:	0.165	Pitch Set Point:	-0.438	Yaw Set Point:	0.005	X_WP:	0.000	Y_WP:	0.000	Y_WP:	-0.100	X:	-0.082	Y:	0.219	Z:	0.047	yaw:	-0.259	yaw rate:	-0.731	Roll:	-2.084	Pitch:	5.494	Yaw:	-0.358	Thrust:	0.000
Time:	2.721	Roll Set Point:	0.165	Pitch Set Point:	-0.438	Yaw Set Point:	0.005	X_WP:	0.000	Y_WP:	0.000	Y_WP:	-0.100	X:	-0.082	Y:	0.219	Z:	0.047	yaw:	-0.266	yaw rate:	0.719	Roll:	-2.114	Pitch:	5.476	Yaw:	-0.730	Thrust:	0.000
Time:	2.731	Roll Set Point:	0.165	Pitch Set Point:	-0.438	Yaw Set Point:	0.004	X_WP:	0.000	Y_WP:	0.000	Y_WP:	-0.100	X:	-0.082	Y:	0.219	Z:	0.047	yaw:	-0.238	yaw rate:	-2.803	Roll:	-2.038	Pitch:	5.481	Yaw:	0.220	Thrust:	0.000
Time:	2.747	Roll Set Point:	0.165	Pitch Set Point:	-0.438	Yaw Set Point:	0.004	X_WP:	0.000	Y_WP:	0.000	Y_WP:	-0.100	X:	-0.082	Y:	0.219	Z:	0.047	yaw:	-0.226	yaw rate:	-1.212	Roll:	-2.064	Pitch:	5.497	Yaw:	-0.365	Thrust:	0.000
Time:	2.761	Roll Set Point:	0.165	Pitch Set Point:	-0.438	Yaw Set Point:	0.004	X_WP:	0.000	Y_WP:	0.000	Y_WP:	-0.100	X:	-0.082	Y:	0.219	Z:	0.047	yaw:	-0.222	yaw rate:	-0.450	Roll:	-2.098	Pitch:	5.487	Yaw:	-0.480	Thrust:	0.000
Time:	2.772	Roll Set Point:	0.165	Pitch Set Point:	-0.438	Yaw Set Point:	0.003	X_WP:	0.000	Y_WP:	0.000	Y_WP:	-0.100	X:	-0.082	Y:	0.219	Z:	0.047	yaw:	-0.200	yaw rate:	-2.148	Roll:	-2.017	Pitch:	5.503	Yaw:	0.016	Thrust:	0.000
Time:	2.784	Roll Set Point:	0.165	Pitch Set Point:	-0.438	Yaw Set Point:	0.004	X_WP:	0.000	Y_WP:	0.000	Y_WP:	-0.100	X:	-0.082	Y:	0.219	Z:	0.047	yaw:	-0.211	yaw rate:	1.054	Roll:	-2.118	Pitch:	5.469	Yaw:	-0.739	Thrust:	0.000
Time:	2.794	Roll Set Point:	0.165	Pitch Set Point:	-0.438	Yaw Set Point:	0.005	X_WP:	0.000	Y_WP:	0.000	Y_WP:	-0.100	X:	-0.082	Y:	0.219	Z:	0.047	yaw:	-0.262	yaw rate:	5.133	Roll:	-2.185	Pitch:	5.463	Yaw:	-1.792	Thrust:	0.000
Time:	2.812	Roll Set Point:	0.165	Pitch Set Point:	-0.438	Yaw Set Point:	0.004	X_WP:	0.000	Y_WP:	0.000	Y_WP:	-0.100	X:	-0.082	Y:	0.219	Z:	0.047	yaw:	-0.225	yaw rate:	-3.671	Roll:	-2.044	Pitch:	5.488	Yaw:	-0.026	Thrust:	0.000
Time:	2.828	Roll Set Point:	0.165	Pitch Set Point:	-0.438	Yaw Set Point:	0.004	X_WP:	0.000	Y_WP:	0.000	Y_WP:	-0.100	X:	-0.082	Y:	0.219	Z:	0.047	yaw:	-0.223	yaw rate:	-0.270	Roll:	-2.093	Pitch:	5.490	Yaw:	-0.572	Thrust:	0.000
Time:	2.838	Roll Set Point:	0.165	Pitch Set Point:	-0.438	Yaw Set Point:	0.004	X_WP:	0.000	Y_WP:	0.000	Y_WP:	-0.100	X:	-0.082	Y:	0.219	Z:	0.047	yaw:	-0.248	yaw rate:	0.733	Roll:	-2.120	Pitch:	5.485	Yaw:	-1.171	Thrust:	0.000
Time:	2.848	Roll Set Point:	0.165	Pitch Set Point:	-0.438	Yaw Set Point:	0.005	X_WP:	0.000	Y_WP:	0.000	Y_WP:	-0.100	X:	-0.082	Y:	0.219	Z:	0.047	yaw:	-0.262	yaw rate:	1.464	Roll:	-2.124	Pitch:	5.476	Yaw:	-0.918	Thrust:	0.000
Time:	2.859	Roll Set Point:	0.165	Pitch Set Point:	-0.438	Yaw Set Point:	0.004	X_WP:	0.000	Y_WP:	0.000	Y_WP:	-0.100	X:	-0.082	Y:	0.219	Z:	0.047	yaw:	-0.251	yaw rate:	-1.139	Roll:	-2.064	Pitch:	5.494	Yaw:	-0.273	Thrust:	0.000
Time:	2.871	Roll Set Point:	0.165	Pitch Set Point:	-0.438	Yaw Set Point:	0.004	X_WP:	0.000	Y_WP:	0.000	Y_WP:	-0.100	X:	-0.082	Y:	0.219	Z:	0.047	yaw:	-0.249	yaw rate:	-0.134	Roll:	-2.088	Pitch:	5.475	Yaw:	-0.536	Thrust:	0.000
Time:	2.891	Roll Set Point:	0.165	Pitch Set Point:	-0.438	Yaw Set Point:	0.005	X_WP:	0.000	Y_WP:	0.000	Y_WP:	-0.100	X:	-0.082	Y:	0.219	Z:	0.047	yaw:	-0.265	yaw rate:	1.551	Roll:	-2.114	Pitch:	5.487	Yaw:	-0.932	Thrust:	0.000
Time:	2.903	Roll Set Point:	0.165	Pitch Set Point:	-0.438	Yaw Set Point:	0.004	X_WP:	0.000	Y_WP:	0.000	Y_WP:	-0.100	X:	-0.082	Y:	0.219	Z:	0.047	yaw:	-0.212	yaw rate:	-5.282	Roll:	-2.007	Pitch:	5.507	Yaw:	0.600	Thrust:	0.000
Time:	2.914	Roll Set Point:	0.165	Pitch Set Point:	-0.438	Yaw Set Point:	0.005	X_WP:	0.000	Y_WP:	0.000	Y_WP:	-0.100	X:	-0.082	Y:	0.219	Z:	0.047	yaw:	-0.269	yaw rate:	5.708	Roll:	-2.201	Pitch:	5.452	Yaw:	-1.931	Thrust:	0.000
Time:	2.924	Roll Set Point:	0.165	Pitch Set Point:	-0.438	Yaw Set Point:	0.005	X_WP:	0.000	Y_WP:	0.000	Y_WP:	-0.100	X:	-0.082	Y:	0.219	Z:	0.047	yaw:	-0.261	yaw rate:	3.399	Roll:	-2.076	Pitch:	5.473	Yaw:	-0.332	Thrust:	0.000
Time:	2.939	Roll Set Point:	0.165	Pitch Set Point:	-0.438	Yaw Set Point:	0.004	X_WP:	0.000	Y_WP:	0.000	Y_WP:	-0.100	X:	-0.082	Y:	0.219	Z:	0.047	yaw:	-0.244	yaw rate:	-1.659	Roll:	-2.052	Pitch:	5.509	Yaw:	-0.332	Thrust:	0.000
Time:	2.958	Roll Set Point:	0.165	Pitch Set Point:	-0.438	Yaw Set Point:	0.005	X_WP:	0.000	Y_WP:	0.000	Y_WP:	-0.100	X:	-0.082	Y:	0.219	Z:	0.047	yaw:	-0.277	yaw rate:	3.307	Roll:	-2.148	Pitch:	5.473	Yaw:	-1.198	Thrust:	0.000
Time:	2.970	Roll Set Point:	0.165	Pitch Set Point:	-0.438	Yaw Set Point:	0.004	X_WP:	0.000	Y_WP:	0.000	Y_WP:	-0.100	X:	-0.082	Y:	0.219	Z:	0.047	yaw:	-0.230	yaw rate:	-4.754	Roll:	-2.020	Pitch:	5.496	Yaw:	0.488	Thrust:	0.000
Time:	2.981	Roll Set Point:	0.165	Pitch Set Point:	-0.438	Yaw Set Point:	0.004	X_WP:	0.000	Y_WP:	0.000	Y_WP:	-0.100	X:	-0.082	Y:	0.219	Z:	0.047	yaw:	-0.211	yaw rate:	-1.899	Roll:	-2.001	Pitch:	5.569	Yaw:	-0.047	Thrust:	0.000
Time:	2.992	Roll Set Point:	0.165	Pitch Set Point:	-0.438	Yaw Set Point:	0.004	X_WP:	0.000	Y_WP:	0.000	Y_WP:	-0.100	X:	-0.082	Y:	0.219	Z:	0.047	yaw:	-0.237	yaw rate:	2.677	Roll:	-2.191	Pitch:	5.407	Yaw:	-1.176	Thrust:	0.000
Time:	3.004	Roll Set Point:	0.165	Pitch Set Point:	-0.438	Yaw Set Point:	0.004	X_WP:	0.000	Y_WP:	0.000	Y_WP:	1.000	X:	-0.082	Y:	0.219	Z:	0.047	yaw:	-0.232	yaw rate:	-0.580	Roll:	-2.081	Pitch:	5.475	Yaw:	-0.416	Thrust:	100.000
Time:	3.019	Roll Set Point:	0.165	Pitch Set Point:	-0.438	Yaw Set Point:	0.005	X_WP:	0.000	Y_WP:	0.000	Y_WP:	1.000	X:	-0.082	Y:	0.219	Z:	0.047	yaw:	-0.285	yaw rate:	5.375	Roll:	-2.171	Pitch:	5.465	Yaw:	-1.667	Thrust:	53.508
Time:	3.031	Roll Set Point:	0.164	Pitch Set Point:	-0.438	Yaw Set Point:	0.002	X_WP:	0.000	Y_WP:	0.000	Y_WP:	1.000	X:	-0.082	Y:	0.219	Z:	0.047	yaw:	-0.117	yaw rate:	-16.843	Roll:	-1.770	Pitch:	5.620	Yaw:	2.839	Thrust:	55.435
Time:	3.041	Roll Set Point:	0.165	Pitch Set Point:	-0.438	Yaw Set Point:	0.005	X_WP:	0.000	Y_WP:	0.000	Y_WP:	1.000	X:	-0.082	Y:	0.219	Z:	0.047	yaw:	-0.298	yaw rate:	18.067	Roll:	-2.840	Pitch:	5.310	Yaw:	-5.305	Thrust:	55.489
Time:	3.052	Roll Set Point:	0.164	Pitch Set Point:	-0.438	Yaw Set Point:	0.002	X_WP:	0.000	Y_WP:	0.000	Y_WP:	1.000	X:	-0.082	Y:	0.219	Z:	0.047	yaw:	-0.092	yaw rate:	-20.570	Roll:	-1.128	Pitch:	5.750	Yaw:	4.605	Thrust:	57.815
Time:	3.062	Roll Set Point:	0.163	Pitch Set Point:	-0.438	Yaw Set Point:	-0.003	X_WP:	0.000	Y_WP:	0.000	Y_WP:	1.000	X:	-0.082	Y:	0.219	Z:	0.047	yaw:	0.148	yaw rate:	-23.957	Roll:	-1.547	Pitch:	5.689	Yaw:	6.170	Thrust:	57.684
Time:	3.074	Roll Set Point:	0.166	Pitch Set Point:	-0.437	Yaw Set Point:	0.009	X_WP:	0.000	Y_WP:	0.000	Y_WP:	1.000	X:	-0.082	Y:	0.219	Z:	0.047	yaw:	-0.508	yaw rate:	65.527	Roll:	-4.017	Pitch:	4.698	Yaw:	-16.478	Thrust:	59.631
Time:	3.092	Roll Set Point:	0.165	Pitch Set Point:	-0.438	Yaw Set Point:	0.006	X_WP:	0.000	Y_WP:	0.000	Y_WP:	1.000	X:	-0.082	Y:	0.219	Z:	0.047	yaw:	-0.316	yaw rate:	-19.117	Roll:	-1.812	Pitch:	5.636	Yaw:	1.891	Thrust:	66.017
Time:	3.103	Roll Set Point:	0.165	Pitch Set Point:	-0.438	Yaw Set Point:	0.004	X_WP:	0.000	Y_WP:	0.000	Y_WP:	1.000	X:	-0.082	Y:	0.219	Z:	0.047	yaw:	-0.211	yaw rate:	-32.693	Roll:	-1.752	Pitch:	5.574	Yaw:	2.127	Thrust:	62.599
Time:	3.114	Roll Set Point:	0.165	Pitch Set Point:	-0.438	Yaw Set Point:	0.004	X_WP:	0.000	Y_WP:	0.000	Y_WP:	1.000	X:	-0.082	Y:	0.219	Z:	0.047	yaw:	-0.239	yaw rate:	2.815	Roll:	-2.185	Pitch:	5.429	Yaw:	-1.203	Thrust:	63.509
Time:	3.124	Roll Set Point:	0.167	Pitch Set Point:	-0.437	Yaw Set Point:	0.012	X_WP:	0.000	Y_WP:	0.000	Y_WP:	1.000	X:	-0.082	Y:	0.219	Z:	0.047	yaw:	-0.688	yaw rate:	44.908	Roll:	-3.480	Pitch:	4.988	Yaw:	-12.565	Thrust:	63.190
Time:	3.162	Roll Set Point:	0.166	Pitch Set Point:	-0.437	Yaw Set Point:	0.011	X_WP:	0.000	Y_WP:	0.000	Y_WP:	1.000	X:	-0.082	Y:	0.219	Z:	0.047	yaw:	-0.652	yaw rate:	-3.637	Roll:	-1.959	Pitch:	5.485	Yaw:	-1.380	Thrust:	64.854
Time:	3.172	Roll Set Point:	0.165	Pitch Set Point:	-0.438	Yaw Set Point:	0.004	X_WP:	0.000	Y_WP:	0.000	Y_WP:	1.000	X:	-0.082	Y:	0.219	Z:	0.047	yaw:	-0.250	yaw rate:	-26.980	Roll:	-1.764	Pitch:	5.682	Yaw:	8.977	Thrust:	100.000
Time:	3.183	Roll Set Point:	0.165	Pitch Set Point:	-0.438	Yaw Set Point:	0.008	X_WP:	0.000	Y_WP:	0.000	Y_WP:	1.000	X:	-0.082	Y:	0.219	Z:	0.047	yaw:	-0.444	yaw rate:	19.491	Roll:	-2.651	Pitch:	5.282	Yaw:	-5.919	Thrust:	66.693
Time:	3.193	Roll Set Point:	0.165	Pitch Set Point:	-0.438	Yaw Set Point:	0.009	X_WP:	0.000	Y_WP:	0.000	Y_WP:	1.000	X:	-0.081	Y:	0.219	Z:	0.047	yaw:	-0.501	yaw rate:	5.625	Roll:	-2.036	Pitch:	5.413	Yaw:	-2.279	Thrust:	69.686
Time:	3.204	Roll Set Point:	0.163	Pitch Set Point:	-0.438	Yaw Set Point:	0.000	X_WP:	0.000	Y_WP:	0.000	Y_WP:	1.000	X:	-0.081	Y:	0.219	Z:	0.047	yaw:	-0.024	yaw rate:	-47.672	Roll:	-0.654	Pitch:	6.002	Yaw:	10.846	Thrust:	69.912
Time:	3.224	Roll Set Point:	0.163	Pitch Set Point:	-0.438	Yaw Set Point:	0.004	X_WP:	0.000	Y_WP:	0.000	Y_WP:	1.000	X:	-0.081	Y:	0.219	Z:	0.048	yaw:	-0.225	yaw rate:	20.136	Roll:	-2.458	Pitch:	5.453	Yaw:	-4.609	Thrust:	73.080
Time:	3.235	Roll Set Point:	0.162	Pitch Set Point:	-0.438	Yaw Set Point:	0.003	X_WP:	0.000	Y_WP:	0.000	Y_WP:	1.000	X:	-0.081	Y:	0.219	Z:	0.048	yaw:	-0.178	yaw rate:	-4.703	Roll:	-1.850	Pitch:	5.468	Yaw:	0.091	Thrust:	86.110
Time:	3.247	Roll Set Point:	0.161	Pitch Set Point:	-0.439	Yaw Set Point:	-0.001	X_WP:	0.000	Y_WP:	0.000	Y_WP:	1.000	X:	-0.081	Y:	0.220	Z:	0.050	yaw:	0.048	yaw rate:	-4.076	Roll:	-1.162	Pitch:	5.919	Yaw:	4.744	Thrust:	68.266
Time:	3.257	Roll Set Point:	0.161	Pitch Set Point:	-0.439	Yaw Set Point:	0.004	X_WP:	0.000	Y_WP:	0.000	Y_WP:	1.000	X:	-0.080	Y:	0.220	Z:	0.052	yaw:	-0.232	yaw rate:	28.027	Roll:	-2.456	Pitch:	5.205	Yaw:	-7.512	Thrust:	70.045
Time:	3.269	Roll Set Point:	0.158	Pitch Set Point:	-0.440	Yaw Set Point:	-0.005	X_WP:	0.000	Y_WP:	0.000	Y_WP:	1.000	X:	-0.080	Y:	0.220	Z:	0.053	yaw:	0.295	yaw rate:	-52.682	Roll:	-0.253	Pitch:	6.144	Yaw:	12.212	Thrust:	70.775
Time:	3.293	Roll Set Point:	0.158	Pitch Set Point:	-0.440	Yaw Set Point:	-0.005	X_WP:	0.000	Y_WP:	0.000	Y_WP:	1.000	X:	-0.080	Y:	0.220	Z:	0.055	yaw:	0.289	yaw rate:	0.609	Roll:	-1.999	Pitch:	5.567	Yaw:	-0.161	Thrust:	100.000
Time:	3.304	Roll Set Point:	0.154	Pitch Set Point:	-0.441	Yaw Set Point:	-0.012	X_WP:	0.000	Y_WP:	0.000	Y_WP:	1.000	X:	-0.078	Y:	0.220	Z:	0.063	yaw:	0.703	yaw rate:	-46.746	Roll:	-0.222	Pitch:	6.224	Yaw:	10.952	Thrust:	41.613
Time:	3.314	Roll Set Point:	0.152	Pitch Set Point:	-0.441	Yaw Set Point:	-0.016	X_WP:	0.000	Y_WP:	0.000	Y_WP:	1.000	X:	-0.078	Y:	0.220	Z:	0.067	yaw:	0.912	yaw rate:	-20.859	Roll:	-0.900	Pitch:	5.688	Yaw:	6.246	Thrust:	66.723
Time:	3.324	Roll Set Point:	0.152	Pitch Set Point:	-0.442	Yaw Set Point:	-0.014	X_WP:	0.000	Y_WP:	0.000	Y_WP:	1.000	X:	-0.078	Y:	0.220	Z:	0.070	yaw:	0.829	yaw rate:	8.264	Roll:	-1.903	Pitch:	5.634	Yaw:	-1.201	Thrust:	60.679
Time:	3.336	Roll Set Point:	0.151	Pitch Set Point:	-0.442	Yaw Set Point:	-0.017	X_WP:	0.000	Y_WP:	0.000	Y_WP:	1.000	X:	-0.077	Y:	0.220	Z:	0.075	yaw:	0.946	yaw rate:	-11.662	Roll:	-1.058	Pitch:	5.685	Yaw:	3.549	Thrust:	66.591
Time:	3.359	Roll Set Point:	0.150	Pitch Set Point:	-0.442	Yaw Set Point:	-0.014	X_WP:	0.000	Y_WP:	0.000	Y_WP:	1.000	X:	-0.077	Y:	0.220	Z:	0.079	yaw:	0.780	yaw rate:	16.582	Roll:	-1.953	Pitch:	5.506	Yaw:	-1.269	Thrust:	100.000
Time:	3.371	Roll Set Point:	0.145	Pitch Set Point:	-0.443	Yaw Set Point:	-0.027	X_WP:	0.000	Y_WP:	0.000	Y_WP:	1.000	X:	-0.076	Y:	0.220	Z:	0.088	yaw:	1.549	yaw rate:	-76.956	Roll:	-0.291	Pitch:	6.059	Yaw:	18.673	Thrust:	50.609
Time:	3.382	Roll Set Point:	0.144	Pitch Set Point:	-0.442	Yaw Set Point:	-0.023	X_WP:	0.000	Y_WP:	0.000	Y_WP:	1.000	X:	-0.074	Y:	0.220	Z:	0.099	yaw:	1.309	yaw rate:	22.897	Roll:	-1.606	Pitch:	5.260	Yaw:	-4.069	Thrust:	44.513
Time:	3.394	Roll Set Point:	0.142	Pitch Set Point:	-0.441	Yaw Set Point:	-0.029	X_WP:	0.000	Y_WP:	0.000	Y_WP:	1.000	X:	-0.074	Y:	0.220	Z:	0.105	yaw:	1.635	yaw rate:	-32.575	Roll:	-0.604	Pitch:	5.439	Yaw:	9.173	Thrust:	65.316
Time:	3.406	Roll Set Point:	0.140	Pitch Set Point:	-0.441	Yaw Set Point:	-0.032	X_WP:	0.000	Y_WP:	0.000	Y_WP:	1.000	X:	-0.074	Y:	0.220	Z:	0.110	yaw:	1.847	yaw rate:	-21.216	Roll:	-0.734	Pitch:	5.621	Yaw:	6.983	Thrust:	70.970
Time:	3.429	Roll Set Point:	0.137	Pitch Set Point:	-0.442	Yaw Set Point:	-0.041	X_WP:	0.000	Y_WP:	0.000	Y_WP:	1.000	X:	-0.073	Y:	0.219	Z:	0.116	yaw:	2.332	yaw rate:	-48.438	Roll:	-0.689	Pitch:	5.715	Yaw:	8.459	Thrust:	100.000
Time:	3.441	Roll Set Point:	0.135	Pitch Set Point:	-0.440	Yaw Set Point:	-0.036	X_WP:	0.000	Y_WP:	0.000	Y_WP:	1.000	X:	-0.072	Y:	0.219	Z:	0.128	yaw:	2.051	yaw rate:	28.061	Roll:	-1.514	Pitch:	4.784	Yaw:	-4.083	Thrust:	41.258
Time:	3.452	Roll Set Point:	0.132	Pitch Set Point:	-0.440	Yaw Set Point:	-0.044	X_WP:	0.000	Y_WP:	0.000	Y_WP:	1.000	X:	-0.071	Y:	0.219	Z:	0.135	yaw:	2.497	yaw rate:	-44.573	Roll:	0.168	Pitch:	5.840	Yaw:	13.425	Thrust:	64.486
Time:	3.463	Roll Set Point:	0.131	Pitch Set Point:	-0.439	Yaw Set Point:	-0.044	X_WP:	0.000	Y_WP:	0.000	Y_WP:	1.000	X:	-0.070	Y:	0.218	Z:	0.141	yaw:	2.524	yaw rate:	-2.669	Roll:	-1.110	Pitch:	5.239	Yaw:	3.995	Thrust:	63.657
Time:	3.480	Roll Set Point:	0.129	Pitch Set Point:	-0.438	Yaw Set Point:	-0.046	X_WP:	0.000	Y_WP:	0.000	Y_WP:	1.000	X:	-0.070	Y:	0.218	Z:	0.147	yaw:	2.658	yaw rate:	-13.425	Roll:	-0.744	Pitch:	5.380	Yaw:	5.608	Thrust:	91.022
Time:	3.503	Roll Set Point:	0.124	Pitch Set Point:	-0.434	Yaw Set Point:	-0.048	X_WP:	0.000	Y_WP:	0.000	Y_WP:	1.000	X:	-0.067	Y:	0.216	Z:	0.174	yaw:	2.762	yaw rate:	-13.998	Roll:	-0.542	Pitch:	4.768	Yaw:	4.718	Thrust:	87.681
Time:	3.514	Roll Set Point:	0.120	Pitch Set Point:	-0.434	Yaw Set Point:	-0.057	X_WP:	0.000	Y_WP:	0.000	Y_WP:	1.000	X:	-0.066	Y:	0.215	Z:	0.182	yaw:	3.274	yaw rate:	-51.129	Roll:	0.291	Pitch:	5.410	Yaw:	16.050	Thrust:	64.456
Time:	3.525	Roll Set Point:	0.121	Pitch Set Point:	-0.431	Yaw Set Point:	-0.046	X_WP:	0.000	Y_WP:	0.000	Y_WP:	1.000	X:	-0.066	Y:	0.214	Z:	0.188	yaw:	2.662	yaw rate:	61.203	Roll:	-2.650	Pitch:	4.437	Yaw:	-12.371	Thrust:	58.903
Time:	3.537	Roll Set Point:	0.118	Pitch Set Point:	-0.431	Yaw Set Point:	-0.053	X_WP:	0.000	Y_WP:	0.000	Y_WP:	1.000	X:	-0.065	Y:	0.214	Z:	0.196	yaw:	3.025	yaw rate:	-36.353	Roll:	0.268	Pitch:	5.515	Yaw:	11.382	Thrust:	67.146
Time:	3.559	Roll Set Point:	0.116	Pitch Set Point:	-0.430	Yaw Set Point:	-0.059	X_WP:	0.000	Y_WP:	0.000	Y_WP:	1.000	X:	-0.064	Y:	0.213	Z:	0.203	yaw:	3.392	yaw rate:	-36.642	Roll:	-0.182	Pitch:	5.131	Yaw:	8.888	Thrust:	100.000
