Time:	0.303	Roll Set Point:	-0.032	Pitch Set Point:	-0.017	Yaw Set Point:	1.807	X_WP:	0.000	Y_WP:	0.000	Y_WP:	0.500	X:	0.027	Y:	-0.012	Z:	0.402	yaw:	-103.543	yaw rate:	6.705	Roll:	0.162	Pitch:	0.837	Yaw:	-144.573	Thrust:	5.374
Time:	0.364	Roll Set Point:	-0.033	Pitch Set Point:	-0.017	Yaw Set Point:	1.805	X_WP:	0.000	Y_WP:	0.000	Y_WP:	0.500	X:	0.027	Y:	-0.012	Z:	0.403	yaw:	-103.434	yaw rate:	-7.370	Roll:	0.207	Pitch:	0.933	Yaw:	-146.143	Thrust:	5.879
Time:	0.418	Roll Set Point:	-0.032	Pitch Set Point:	-0.017	Yaw Set Point:	1.808	X_WP:	0.000	Y_WP:	0.000	Y_WP:	0.500	X:	0.027	Y:	-0.012	Z:	0.402	yaw:	-103.566	yaw rate:	5.527	Roll:	0.117	Pitch:	0.757	Yaw:	-149.146	Thrust:	6.868
Time:	0.471	Roll Set Point:	-0.032	Pitch Set Point:	-0.017	Yaw Set Point:	1.807	X_WP:	0.000	Y_WP:	0.000	Y_WP:	0.500	X:	0.027	Y:	-0.012	Z:	0.402	yaw:	-103.522	yaw rate:	7.375	Roll:	0.177	Pitch:	0.847	Yaw:	-150.129	Thrust:	7.262
Time:	0.532	Roll Set Point:	-0.032	Pitch Set Point:	-0.017	Yaw Set Point:	1.807	X_WP:	0.000	Y_WP:	0.000	Y_WP:	0.500	X:	0.027	Y:	-0.012	Z:	0.402	yaw:	-103.546	yaw rate:	1.738	Roll:	0.159	Pitch:	0.853	Yaw:	-153.457	Thrust:	8.221
Time:	0.594	Roll Set Point:	-0.032	Pitch Set Point:	-0.017	Yaw Set Point:	1.807	X_WP:	0.000	Y_WP:	0.000	Y_WP:	0.500	X:	0.027	Y:	-0.012	Z:	0.402	yaw:	-103.536	yaw rate:	0.410	Roll:	0.165	Pitch:	0.857	Yaw:	-155.617	Thrust:	8.967
Time:	0.655	Roll Set Point:	-0.033	Pitch Set Point:	-0.017	Yaw Set Point:	1.805	X_WP:	0.000	Y_WP:	0.000	Y_WP:	0.500	X:	0.027	Y:	-0.012	Z:	0.403	yaw:	-103.413	yaw rate:	-10.967	Roll:	0.199	Pitch:	0.949	Yaw:	-156.173	Thrust:	9.520
Time:	0.715	Roll Set Point:	-0.032	Pitch Set Point:	-0.017	Yaw Set Point:	1.807	X_WP:	0.000	Y_WP:	0.000	Y_WP:	0.500	X:	0.027	Y:	-0.012	Z:	0.402	yaw:	-103.525	yaw rate:	-5.237	Roll:	0.141	Pitch:	0.789	Yaw:	-157.124	Thrust:	10.521
Time:	0.780	Roll Set Point:	-0.032	Pitch Set Point:	-0.017	Yaw Set Point:	1.807	X_WP:	0.000	Y_WP:	0.000	Y_WP:	0.500	X:	0.027	Y:	-0.012	Z:	0.402	yaw:	-103.533	yaw rate:	-2.558	Roll:	0.173	Pitch:	0.877	Yaw:	-157.554	Thrust:	11.441
Time:	0.846	Roll Set Point:	-0.033	Pitch Set Point:	-0.017	Yaw Set Point:	1.805	X_WP:	0.000	Y_WP:	0.000	Y_WP:	0.500	X:	0.027	Y:	-0.012	Z:	0.403	yaw:	-103.416	yaw rate:	-12.287	Roll:	0.201	Pitch:	0.958	Yaw:	-156.952	Thrust:	12.064
Time:	0.910	Roll Set Point:	-0.032	Pitch Set Point:	-0.017	Yaw Set Point:	1.807	X_WP:	0.000	Y_WP:	0.000	Y_WP:	0.500	X:	0.027	Y:	-0.012	Z:	0.402	yaw:	-103.537	yaw rate:	0.070	Roll:	0.149	Pitch:	0.812	Yaw:	-158.002	Thrust:	13.067
Time:	0.976	Roll Set Point:	-0.032	Pitch Set Point:	-0.017	Yaw Set Point:	1.807	X_WP:	0.000	Y_WP:	0.000	Y_WP:	0.500	X:	0.027	Y:	-0.012	Z:	0.402	yaw:	-103.529	yaw rate:	0.797	Roll:	0.176	Pitch:	0.889	Yaw:	-157.795	Thrust:	13.986
Time:	1.042	Roll Set Point:	-0.032	Pitch Set Point:	-0.017	Yaw Set Point:	1.807	X_WP:	0.000	Y_WP:	0.000	Y_WP:	0.500	X:	0.027	Y:	-0.012	Z:	0.402	yaw:	-103.529	yaw rate:	11.670	Roll:	0.173	Pitch:	0.896	Yaw:	-157.691	Thrust:	14.620
Time:	1.109	Roll Set Point:	-0.032	Pitch Set Point:	-0.017	Yaw Set Point:	1.807	X_WP:	0.000	Y_WP:	0.000	Y_WP:	0.500	X:	0.027	Y:	-0.012	Z:	0.402	yaw:	-103.512	yaw rate:	6.318	Roll:	0.171	Pitch:	0.897	Yaw:	-157.902	Thrust:	15.530
Time:	1.176	Roll Set Point:	-0.033	Pitch Set Point:	-0.017	Yaw Set Point:	1.805	X_WP:	0.000	Y_WP:	0.000	Y_WP:	0.500	X:	0.027	Y:	-0.012	Z:	0.403	yaw:	-103.434	yaw rate:	-9.687	Roll:	0.199	Pitch:	0.979	Yaw:	-157.423	Thrust:	16.218
Time:	1.245	Roll Set Point:	-0.032	Pitch Set Point:	-0.017	Yaw Set Point:	1.807	X_WP:	0.000	Y_WP:	0.000	Y_WP:	0.500	X:	0.027	Y:	-0.012	Z:	0.402	yaw:	-103.522	yaw rate:	-1.627	Roll:	0.158	Pitch:	0.843	Yaw:	-158.665	Thrust:	17.542
Time:	1.314	Roll Set Point:	-0.033	Pitch Set Point:	-0.017	Yaw Set Point:	1.806	X_WP:	0.000	Y_WP:	0.000	Y_WP:	0.500	X:	0.027	Y:	-0.012	Z:	0.403	yaw:	-103.452	yaw rate:	-10.485	Roll:	0.194	Pitch:	0.995	Yaw:	-157.921	Thrust:	18.186
Time:	1.388	Roll Set Point:	-0.033	Pitch Set Point:	-0.017	Yaw Set Point:	1.806	X_WP:	0.000	Y_WP:	0.000	Y_WP:	0.500	X:	0.027	Y:	-0.012	Z:	0.403	yaw:	-103.494	yaw rate:	-2.238	Roll:	0.179	Pitch:	0.937	Yaw:	-159.626	Thrust:	20.273
Time:	1.461	Roll Set Point:	-0.032	Pitch Set Point:	-0.017	Yaw Set Point:	1.807	X_WP:	0.000	Y_WP:	0.000	Y_WP:	0.500	X:	0.027	Y:	-0.012	Z:	0.402	yaw:	-103.556	yaw rate:	10.315	Roll:	0.165	Pitch:	0.870	Yaw:	-159.351	Thrust:	20.864
Time:	1.531	Roll Set Point:	-0.033	Pitch Set Point:	-0.017	Yaw Set Point:	1.805	X_WP:	0.000	Y_WP:	0.000	Y_WP:	0.500	X:	0.027	Y:	-0.012	Z:	0.403	yaw:	-103.442	yaw rate:	-7.118	Roll:	0.204	Pitch:	1.006	Yaw:	-158.040	Thrust:	20.821
Time:	1.605	Roll Set Point:	-0.032	Pitch Set Point:	-0.017	Yaw Set Point:	1.807	X_WP:	0.000	Y_WP:	0.000	Y_WP:	0.500	X:	0.027	Y:	-0.012	Z:	0.402	yaw:	-103.519	yaw rate:	4.040	Roll:	0.169	Pitch:	0.878	Yaw:	-159.537	Thrust:	22.782
Time:	1.678	Roll Set Point:	-0.032	Pitch Set Point:	-0.017	Yaw Set Point:	1.801	X_WP:	0.000	Y_WP:	0.000	Y_WP:	0.500	X:	0.026	Y:	-0.012	Z:	0.402	yaw:	-103.212	yaw rate:	-33.102	Roll:	0.141	Pitch:	0.826	Yaw:	-157.722	Thrust:	23.448
Time:	1.750	Roll Set Point:	-0.032	Pitch Set Point:	-0.017	Yaw Set Point:	1.801	X_WP:	0.000	Y_WP:	0.000	Y_WP:	0.500	X:	0.026	Y:	-0.012	Z:	0.402	yaw:	-103.179	yaw rate:	-0.365	Roll:	0.182	Pitch:	0.934	Yaw:	-158.378	Thrust:	24.234
Time:	1.826	Roll Set Point:	-0.032	Pitch Set Point:	-0.017	Yaw Set Point:	1.801	X_WP:	0.000	Y_WP:	0.000	Y_WP:	0.500	X:	0.026	Y:	-0.012	Z:	0.402	yaw:	-103.168	yaw rate:	-2.357	Roll:	0.184	Pitch:	0.940	Yaw:	-159.066	Thrust:	25.415
Time:	1.899	Roll Set Point:	-0.032	Pitch Set Point:	-0.017	Yaw Set Point:	1.801	X_WP:	0.000	Y_WP:	0.000	Y_WP:	0.500	X:	0.026	Y:	-0.012	Z:	0.402	yaw:	-103.175	yaw rate:	-4.589	Roll:	0.183	Pitch:	0.954	Yaw:	-158.814	Thrust:	26.370
Time:	1.975	Roll Set Point:	-0.032	Pitch Set Point:	-0.017	Yaw Set Point:	1.802	X_WP:	0.000	Y_WP:	0.000	Y_WP:	0.500	X:	0.026	Y:	-0.012	Z:	0.402	yaw:	-103.220	yaw rate:	4.210	Roll:	0.178	Pitch:	0.964	Yaw:	-159.526	Thrust:	27.613
Time:	2.053	Roll Set Point:	-0.078	Pitch Set Point:	0.178	Yaw Set Point:	1.801	X_WP:	0.200	Y_WP:	0.000	Y_WP:	0.500	X:	0.026	Y:	-0.012	Z:	0.402	yaw:	-103.193	yaw rate:	-0.070	Roll:	11.449	Pitch:	-30.000	Yaw:	-159.517	Thrust:	29.180
Time:	2.135	Roll Set Point:	-0.078	Pitch Set Point:	0.178	Yaw Set Point:	1.801	X_WP:	0.200	Y_WP:	0.000	Y_WP:	0.500	X:	0.026	Y:	-0.012	Z:	0.402	yaw:	-103.217	yaw rate:	2.192	Roll:	1.533	Pitch:	-4.703	Yaw:	-160.506	Thrust:	31.243
Time:	2.217	Roll Set Point:	-0.077	Pitch Set Point:	0.178	Yaw Set Point:	1.801	X_WP:	0.200	Y_WP:	0.000	Y_WP:	0.500	X:	0.026	Y:	-0.012	Z:	0.402	yaw:	-103.185	yaw rate:	-1.680	Roll:	1.514	Pitch:	-4.745	Yaw:	-160.369	Thrust:	32.311
Time:	2.298	Roll Set Point:	-0.077	Pitch Set Point:	0.178	Yaw Set Point:	1.800	X_WP:	0.200	Y_WP:	0.000	Y_WP:	0.500	X:	0.026	Y:	-0.012	Z:	0.402	yaw:	-103.161	yaw rate:	-4.501	Roll:	1.529	Pitch:	-4.775	Yaw:	-160.346	Thrust:	33.258
Time:	2.381	Roll Set Point:	-0.077	Pitch Set Point:	0.178	Yaw Set Point:	1.801	X_WP:	0.200	Y_WP:	0.000	Y_WP:	0.500	X:	0.026	Y:	-0.012	Z:	0.402	yaw:	-103.178	yaw rate:	1.853	Roll:	1.563	Pitch:	-4.808	Yaw:	-160.609	Thrust:	34.394
Time:	2.467	Roll Set Point:	-0.077	Pitch Set Point:	0.178	Yaw Set Point:	1.801	X_WP:	0.200	Y_WP:	0.000	Y_WP:	0.500	X:	0.026	Y:	-0.012	Z:	0.402	yaw:	-103.185	yaw rate:	1.263	Roll:	1.572	Pitch:	-4.838	Yaw:	-161.299	Thrust:	36.675
Time:	2.556	Roll Set Point:	-0.077	Pitch Set Point:	0.178	Yaw Set Point:	1.801	X_WP:	0.200	Y_WP:	0.000	Y_WP:	0.500	X:	0.026	Y:	-0.012	Z:	0.402	yaw:	-103.180	yaw rate:	2.383	Roll:	1.577	Pitch:	-4.884	Yaw:	-161.823	Thrust:	38.752
Time:	2.642	Roll Set Point:	-0.078	Pitch Set Point:	0.178	Yaw Set Point:	1.801	X_WP:	0.200	Y_WP:	0.000	Y_WP:	0.500	X:	0.026	Y:	-0.012	Z:	0.402	yaw:	-103.210	yaw rate:	2.474	Roll:	1.613	Pitch:	-4.903	Yaw:	-161.344	Thrust:	38.578
Time:	2.729	Roll Set Point:	-0.077	Pitch Set Point:	0.178	Yaw Set Point:	1.801	X_WP:	0.200	Y_WP:	0.000	Y_WP:	0.500	X:	0.026	Y:	-0.012	Z:	0.402	yaw:	-103.185	yaw rate:	-0.190	Roll:	1.585	Pitch:	-4.957	Yaw:	-161.345	Thrust:	40.025
Time:	2.829	Roll Set Point:	-0.078	Pitch Set Point:	0.178	Yaw Set Point:	1.801	X_WP:	0.200	Y_WP:	0.000	Y_WP:	0.500	X:	0.026	Y:	-0.012	Z:	0.402	yaw:	-103.201	yaw rate:	2.810	Roll:	1.642	Pitch:	-5.006	Yaw:	-164.347	Thrust:	46.877
Time:	2.918	Roll Set Point:	-0.077	Pitch Set Point:	0.178	Yaw Set Point:	1.801	X_WP:	0.200	Y_WP:	0.000	Y_WP:	0.500	X:	0.026	Y:	-0.012	Z:	0.402	yaw:	-103.193	yaw rate:	-3.029	Roll:	1.621	Pitch:	-5.033	Yaw:	-161.718	Thrust:	42.707
Time:	3.008	Roll Set Point:	-0.077	Pitch Set Point:	0.178	Yaw Set Point:	1.801	X_WP:	0.200	Y_WP:	0.000	Y_WP:	0.500	X:	0.026	Y:	-0.012	Z:	0.402	yaw:	-103.173	yaw rate:	-2.908	Roll:	1.632	Pitch:	-5.065	Yaw:	-162.007	Thrust:	44.485
Time:	3.099	Roll Set Point:	-0.077	Pitch Set Point:	0.178	Yaw Set Point:	1.801	X_WP:	0.200	Y_WP:	0.000	Y_WP:	0.500	X:	0.026	Y:	-0.012	Z:	0.402	yaw:	-103.174	yaw rate:	-3.022	Roll:	1.652	Pitch:	-5.111	Yaw:	-162.365	Thrust:	46.213
Time:	3.189	Roll Set Point:	-0.077	Pitch Set Point:	0.178	Yaw Set Point:	1.801	X_WP:	0.200	Y_WP:	0.000	Y_WP:	0.500	X:	0.026	Y:	-0.012	Z:	0.402	yaw:	-103.173	yaw rate:	0.068	Roll:	1.661	Pitch:	-5.146	Yaw:	-162.076	Thrust:	46.655
Time:	3.283	Roll Set Point:	-0.077	Pitch Set Point:	0.178	Yaw Set Point:	1.801	X_WP:	0.200	Y_WP:	0.000	Y_WP:	0.500	X:	0.026	Y:	-0.012	Z:	0.402	yaw:	-103.181	yaw rate:	-3.218	Roll:	1.688	Pitch:	-5.188	Yaw:	-162.732	Thrust:	49.150
Time:	3.375	Roll Set Point:	-0.077	Pitch Set Point:	0.178	Yaw Set Point:	1.801	X_WP:	0.200	Y_WP:	0.000	Y_WP:	0.500	X:	0.026	Y:	-0.012	Z:	0.402	yaw:	-103.181	yaw rate:	-0.697	Roll:	1.693	Pitch:	-5.227	Yaw:	-162.548	Thrust:	49.870
Time:	3.468	Roll Set Point:	-0.077	Pitch Set Point:	0.178	Yaw Set Point:	1.801	X_WP:	0.200	Y_WP:	0.000	Y_WP:	0.500	X:	0.026	Y:	-0.012	Z:	0.402	yaw:	-103.197	yaw rate:	-0.013	Roll:	1.710	Pitch:	-5.264	Yaw:	-162.776	Thrust:	50.866
Time:	3.565	Roll Set Point:	-0.077	Pitch Set Point:	0.178	Yaw Set Point:	1.801	X_WP:	0.200	Y_WP:	0.000	Y_WP:	0.500	X:	0.026	Y:	-0.012	Z:	0.402	yaw:	-103.182	yaw rate:	-3.898	Roll:	1.725	Pitch:	-5.332	Yaw:	-163.373	Thrust:	54.714
Time:	3.661	Roll Set Point:	-0.078	Pitch Set Point:	0.178	Yaw Set Point:	1.801	X_WP:	0.200	Y_WP:	0.000	Y_WP:	0.500	X:	0.026	Y:	-0.012	Z:	0.402	yaw:	-103.208	yaw rate:	1.946	Roll:	1.749	Pitch:	-5.352	Yaw:	-163.315	Thrust:	54.817
Time:	3.756	Roll Set Point:	-0.077	Pitch Set Point:	0.178	Yaw Set Point:	1.801	X_WP:	0.200	Y_WP:	0.000	Y_WP:	0.500	X:	0.026	Y:	-0.012	Z:	0.402	yaw:	-103.189	yaw rate:	1.359	Roll:	1.738	Pitch:	-5.408	Yaw:	-163.075	Thrust:	55.731
Time:	3.852	Roll Set Point:	-0.077	Pitch Set Point:	0.178	Yaw Set Point:	1.801	X_WP:	0.200	Y_WP:	0.000	Y_WP:	0.500	X:	0.026	Y:	-0.012	Z:	0.402	yaw:	-103.182	yaw rate:	0.533	Roll:	1.757	Pitch:	-5.443	Yaw:	-163.357	Thrust:	57.525
Time:	3.951	Roll Set Point:	-0.077	Pitch Set Point:	0.178	Yaw Set Point:	1.801	X_WP:	0.200	Y_WP:	0.000	Y_WP:	0.500	X:	0.026	Y:	-0.012	Z:	0.402	yaw:	-103.195	yaw rate:	-1.471	Roll:	1.793	Pitch:	-5.507	Yaw:	-163.958	Thrust:	60.139
Time:	4.051	Roll Set Point:	-0.078	Pitch Set Point:	0.178	Yaw Set Point:	1.801	X_WP:	0.200	Y_WP:	0.000	Y_WP:	0.500	X:	0.026	Y:	-0.012	Z:	0.402	yaw:	-103.216	yaw rate:	3.646	Roll:	1.810	Pitch:	-5.531	Yaw:	-163.982	Thrust:	61.204
Time:	4.162	Roll Set Point:	-0.078	Pitch Set Point:	0.178	Yaw Set Point:	1.801	X_WP:	0.200	Y_WP:	0.000	Y_WP:	0.500	X:	0.026	Y:	-0.012	Z:	0.402	yaw:	-103.183	yaw rate:	-1.747	Roll:	1.834	Pitch:	-5.675	Yaw:	-166.218	Thrust:	69.339
Time:	4.259	Roll Set Point:	-0.078	Pitch Set Point:	0.178	Yaw Set Point:	1.801	X_WP:	0.200	Y_WP:	0.000	Y_WP:	0.500	X:	0.026	Y:	-0.012	Z:	0.402	yaw:	-103.202	yaw rate:	-8.313	Roll:	1.825	Pitch:	-5.627	Yaw:	-163.694	Thrust:	62.775
Time:	4.362	Roll Set Point:	-0.077	Pitch Set Point:	0.178	Yaw Set Point:	1.801	X_WP:	0.200	Y_WP:	0.000	Y_WP:	0.500	X:	0.026	Y:	-0.012	Z:	0.402	yaw:	-103.178	yaw rate:	-3.779	Roll:	1.835	Pitch:	-5.703	Yaw:	-164.530	Thrust:	66.878
Time:	4.464	Roll Set Point:	-0.077	Pitch Set Point:	0.178	Yaw Set Point:	1.801	X_WP:	0.200	Y_WP:	0.000	Y_WP:	0.500	X:	0.026	Y:	-0.012	Z:	0.402	yaw:	-103.171	yaw rate:	-5.782	Roll:	1.852	Pitch:	-5.743	Yaw:	-164.508	Thrust:	67.909
Time:	4.568	Roll Set Point:	-0.077	Pitch Set Point:	0.178	Yaw Set Point:	1.801	X_WP:	0.200	Y_WP:	0.000	Y_WP:	0.500	X:	0.026	Y:	-0.012	Z:	0.402	yaw:	-103.184	yaw rate:	0.854	Roll:	1.885	Pitch:	-5.790	Yaw:	-164.866	Thrust:	69.999
Time:	4.671	Roll Set Point:	-0.078	Pitch Set Point:	0.178	Yaw Set Point:	1.801	X_WP:	0.200	Y_WP:	0.000	Y_WP:	0.500	X:	0.026	Y:	-0.012	Z:	0.402	yaw:	-103.207	yaw rate:	1.130	Roll:	1.905	Pitch:	-5.822	Yaw:	-164.745	Thrust:	70.656
Time:	4.780	Roll Set Point:	-0.077	Pitch Set Point:	0.178	Yaw Set Point:	1.801	X_WP:	0.200	Y_WP:	0.000	Y_WP:	0.500	X:	0.026	Y:	-0.012	Z:	0.402	yaw:	-103.180	yaw rate:	3.142	Roll:	1.903	Pitch:	-5.934	Yaw:	-165.687	Thrust:	75.455
Time:	4.887	Roll Set Point:	-0.077	Pitch Set Point:	0.178	Yaw Set Point:	1.801	X_WP:	0.200	Y_WP:	0.000	Y_WP:	0.500	X:	0.026	Y:	-0.012	Z:	0.402	yaw:	-103.189	yaw rate:	0.361	Roll:	1.931	Pitch:	-5.968	Yaw:	-165.602	Thrust:	76.102
Time:	4.994	Roll Set Point:	-0.077	Pitch Set Point:	0.178	Yaw Set Point:	1.801	X_WP:	0.200	Y_WP:	0.000	Y_WP:	0.500	X:	0.026	Y:	-0.012	Z:	0.402	yaw:	-103.179	yaw rate:	-0.988	Roll:	1.949	Pitch:	-6.000	Yaw:	-165.497	Thrust:	77.226
Time:	5.105	Roll Set Point:	-0.077	Pitch Set Point:	0.178	Yaw Set Point:	1.801	X_WP:	0.200	Y_WP:	0.000	Y_WP:	0.500	X:	0.026	Y:	-0.012	Z:	0.402	yaw:	-103.182	yaw rate:	-3.594	Roll:	1.972	Pitch:	-6.090	Yaw:	-166.117	Thrust:	80.478
Time:	5.213	Roll Set Point:	-0.077	Pitch Set Point:	0.178	Yaw Set Point:	1.801	X_WP:	0.200	Y_WP:	0.000	Y_WP:	0.500	X:	0.026	Y:	-0.012	Z:	0.402	yaw:	-103.189	yaw rate:	1.139	Roll:	1.981	Pitch:	-6.101	Yaw:	-165.752	Thrust:	80.426
Time:	5.325	Roll Set Point:	-0.078	Pitch Set Point:	0.178	Yaw Set Point:	1.802	X_WP:	0.200	Y_WP:	0.000	Y_WP:	0.500	X:	0.026	Y:	-0.012	Z:	0.402	yaw:	-103.220	yaw rate:	3.108	Roll:	2.026	Pitch:	-6.190	Yaw:	-166.543	Thrust:	84.152
Time:	5.433	Roll Set Point:	-0.078	Pitch Set Point:	0.178	Yaw Set Point:	1.801	X_WP:	0.200	Y_WP:	0.000	Y_WP:	0.500	X:	0.026	Y:	-0.012	Z:	0.402	yaw:	-103.185	yaw rate:	-9.169	Roll:	1.994	Pitch:	-6.208	Yaw:	-165.772	Thrust:	83.424
Time:	5.556	Roll Set Point:	-0.078	Pitch Set Point:	0.178	Yaw Set Point:	1.801	X_WP:	0.200	Y_WP:	0.000	Y_WP:	0.500	X:	0.026	Y:	-0.012	Z:	0.402	yaw:	-103.196	yaw rate:	-2.030	Roll:	2.091	Pitch:	-6.425	Yaw:	-168.559	Thrust:	94.431
Time:	5.665	Roll Set Point:	-0.078	Pitch Set Point:	0.178	Yaw Set Point:	1.803	X_WP:	0.200	Y_WP:	0.000	Y_WP:	0.500	X:	0.026	Y:	-0.012	Z:	0.402	yaw:	-103.308	yaw rate:	-10.697	Roll:	2.101	Pitch:	-6.270	Yaw:	-166.326	Thrust:	86.110
Time:	5.793	Roll Set Point:	-0.077	Pitch Set Point:	0.178	Yaw Set Point:	1.801	X_WP:	0.200	Y_WP:	0.000	Y_WP:	0.500	X:	0.026	Y:	-0.012	Z:	0.402	yaw:	-103.176	yaw rate:	-2.826	Roll:	2.100	Pitch:	-6.638	Yaw:	-169.485	Thrust:	100.000
Time:	5.936	Roll Set Point:	-0.078	Pitch Set Point:	0.178	Yaw Set Point:	1.801	X_WP:	0.200	Y_WP:	0.000	Y_WP:	0.500	X:	0.026	Y:	-0.012	Z:	0.402	yaw:	-103.198	yaw rate:	-0.513	Roll:	2.250	Pitch:	-6.859	Yaw:	-172.779	Thrust:	100.000
Time:	6.060	Roll Set Point:	-0.078	Pitch Set Point:	0.178	Yaw Set Point:	1.801	X_WP:	0.073	Y_WP:	0.006	Y_WP:	0.500	X:	0.026	Y:	-0.012	Z:	0.402	yaw:	-103.190	yaw rate:	-4.025	Roll:	2.162	Pitch:	-6.660	Yaw:	-168.780	Thrust:	100.000
Time:	6.179	Roll Set Point:	-0.078	Pitch Set Point:	0.178	Yaw Set Point:	1.801	X_WP:	0.073	Y_WP:	0.006	Y_WP:	0.500	X:	0.026	Y:	-0.012	Z:	0.402	yaw:	-103.183	yaw rate:	-1.659	Roll:	2.156	Pitch:	-6.639	Yaw:	-167.982	Thrust:	99.425
Time:	6.245	Roll Set Point:	-0.078	Pitch Set Point:	0.178	Yaw Set Point:	1.801	X_WP:	0.073	Y_WP:	0.006	Y_WP:	0.500	X:	0.026	Y:	-0.012	Z:	0.402	yaw:	-103.212	yaw rate:	0.099	Roll:	1.854	Pitch:	-5.830	Yaw:	-157.215	Thrust:	57.822
Time:	6.367	Roll Set Point:	-0.078	Pitch Set Point:	0.178	Yaw Set Point:	1.801	X_WP:	0.073	Y_WP:	0.006	Y_WP:	0.500	X:	0.026	Y:	-0.012	Z:	0.402	yaw:	-103.188	yaw rate:	-0.554	Roll:	2.194	Pitch:	-6.783	Yaw:	-168.480	Thrust:	100.000
Time:	6.439	Roll Set Point:	-0.078	Pitch Set Point:	0.178	Yaw Set Point:	1.801	X_WP:	0.073	Y_WP:	0.006	Y_WP:	0.500	X:	0.026	Y:	-0.012	Z:	0.402	yaw:	-103.182	yaw rate:	1.996	Roll:	1.916	Pitch:	-6.012	Yaw:	-158.506	Thrust:	64.656
Time:	6.561	Roll Set Point:	-0.078	Pitch Set Point:	0.178	Yaw Set Point:	1.801	X_WP:	0.073	Y_WP:	0.006	Y_WP:	0.500	X:	0.026	Y:	-0.012	Z:	0.402	yaw:	-103.179	yaw rate:	-4.228	Roll:	2.224	Pitch:	-6.876	Yaw:	-168.419	Thrust:	100.000
Time:	6.652	Roll Set Point:	-0.078	Pitch Set Point:	0.178	Yaw Set Point:	1.801	X_WP:	0.073	Y_WP:	0.006	Y_WP:	0.500	X:	0.026	Y:	-0.012	Z:	0.402	yaw:	-103.217	yaw rate:	2.216	Roll:	2.062	Pitch:	-6.411	Yaw:	-162.415	Thrust:	82.873
Time:	7.136	Roll Set Point:	-0.078	Pitch Set Point:	0.178	Yaw Set Point:	1.801	X_WP:	0.073	Y_WP:	0.006	Y_WP:	0.500	X:	0.026	Y:	-0.012	Z:	0.402	yaw:	-103.212	yaw rate:	3.076	Roll:	4.564	Pitch:	-13.357	Yaw:	-240.884	Thrust:	100.000
Time:	7.264	Roll Set Point:	-0.078	Pitch Set Point:	0.178	Yaw Set Point:	1.801	X_WP:	0.073	Y_WP:	0.006	Y_WP:	0.500	X:	0.026	Y:	-0.012	Z:	0.402	yaw:	-103.199	yaw rate:	-1.075	Roll:	2.312	Pitch:	-7.147	Yaw:	-169.638	Thrust:	100.000
Time:	7.399	Roll Set Point:	-0.078	Pitch Set Point:	0.178	Yaw Set Point:	1.801	X_WP:	0.073	Y_WP:	0.006	Y_WP:	0.500	X:	0.026	Y:	-0.012	Z:	0.402	yaw:	-103.219	yaw rate:	-1.700	Roll:	2.387	Pitch:	-7.324	Yaw:	-171.026	Thrust:	100.000
Time:	7.519	Roll Set Point:	-0.078	Pitch Set Point:	0.178	Yaw Set Point:	1.801	X_WP:	0.073	Y_WP:	0.006	Y_WP:	0.500	X:	0.026	Y:	-0.012	Z:	0.402	yaw:	-103.248	yaw rate:	3.849	Roll:	2.294	Pitch:	-7.092	Yaw:	-168.132	Thrust:	100.000
Time:	7.646	Roll Set Point:	-0.078	Pitch Set Point:	0.178	Yaw Set Point:	1.801	X_WP:	0.073	Y_WP:	0.006	Y_WP:	0.500	X:	0.026	Y:	-0.012	Z:	0.402	yaw:	-103.199	yaw rate:	-1.050	Roll:	2.350	Pitch:	-7.277	Yaw:	-169.453	Thrust:	100.000
Time:	7.735	Roll Set Point:	-0.078	Pitch Set Point:	0.178	Yaw Set Point:	1.801	X_WP:	0.073	Y_WP:	0.006	Y_WP:	0.500	X:	0.026	Y:	-0.012	Z:	0.402	yaw:	-103.197	yaw rate:	-3.538	Roll:	2.106	Pitch:	-6.563	Yaw:	-161.909	Thrust:	87.046
Time:	7.864	Roll Set Point:	-0.078	Pitch Set Point:	0.178	Yaw Set Point:	1.801	X_WP:	0.073	Y_WP:	0.006	Y_WP:	0.500	X:	0.026	Y:	-0.012	Z:	0.402	yaw:	-103.201	yaw rate:	-0.786	Roll:	2.398	Pitch:	-7.445	Yaw:	-169.929	Thrust:	100.000
Time:	7.959	Roll Set Point:	-0.078	Pitch Set Point:	0.178	Yaw Set Point:	1.801	X_WP:	0.073	Y_WP:	0.006	Y_WP:	0.500	X:	0.026	Y:	-0.012	Z:	0.402	yaw:	-103.222	yaw rate:	2.117	Roll:	2.176	Pitch:	-6.775	Yaw:	-163.006	Thrust:	94.306
Time:	8.085	Roll Set Point:	-0.078	Pitch Set Point:	0.178	Yaw Set Point:	1.801	X_WP:	0.073	Y_WP:	0.006	Y_WP:	0.500	X:	0.026	Y:	-0.012	Z:	0.402	yaw:	-103.215	yaw rate:	1.149	Roll:	2.422	Pitch:	-7.475	Yaw:	-169.446	Thrust:	100.000
Time:	8.170	Roll Set Point:	-0.078	Pitch Set Point:	0.178	Yaw Set Point:	1.801	X_WP:	0.073	Y_WP:	0.006	Y_WP:	0.500	X:	0.026	Y:	-0.012	Z:	0.402	yaw:	-103.324	yaw rate:	-15.359	Roll:	2.118	Pitch:	-6.638	Yaw:	-161.019	Thrust:	87.455
Time:	8.300	Roll Set Point:	-0.078	Pitch Set Point:	0.178	Yaw Set Point:	1.801	X_WP:	0.073	Y_WP:	0.006	Y_WP:	0.500	X:	0.026	Y:	-0.012	Z:	0.402	yaw:	-103.310	yaw rate:	-24.460	Roll:	2.477	Pitch:	-7.667	Yaw:	-170.151	Thrust:	100.000
Time:	8.433	Roll Set Point:	-0.078	Pitch Set Point:	0.178	Yaw Set Point:	1.801	X_WP:	0.074	Y_WP:	0.005	Y_WP:	0.500	X:	0.027	Y:	-0.012	Z:	0.403	yaw:	-103.459	yaw rate:	-9.101	Roll:	2.424	Pitch:	-7.705	Yaw:	-170.656	Thrust:	100.000
Time:	8.564	Roll Set Point:	-0.078	Pitch Set Point:	0.178	Yaw Set Point:	1.801	X_WP:	0.073	Y_WP:	0.006	Y_WP:	0.500	X:	0.026	Y:	-0.012	Z:	0.402	yaw:	-103.274	yaw rate:	9.384	Roll:	2.583	Pitch:	-7.821	Yaw:	-170.229	Thrust:	100.000
Time:	8.698	Roll Set Point:	-0.078	Pitch Set Point:	0.178	Yaw Set Point:	1.801	X_WP:	0.073	Y_WP:	0.006	Y_WP:	0.500	X:	0.026	Y:	-0.012	Z:	0.402	yaw:	-103.165	yaw rate:	-2.594	Roll:	2.568	Pitch:	-7.943	Yaw:	-170.894	Thrust:	100.000
Time:	8.836	Roll Set Point:	-0.078	Pitch Set Point:	0.178	Yaw Set Point:	1.801	X_WP:	0.074	Y_WP:	0.005	Y_WP:	0.500	X:	0.027	Y:	-0.012	Z:	0.403	yaw:	-103.363	yaw rate:	13.742	Roll:	2.526	Pitch:	-8.011	Yaw:	-171.821	Thrust:	100.000
Time:	8.974	Roll Set Point:	-0.078	Pitch Set Point:	0.178	Yaw Set Point:	1.801	X_WP:	0.074	Y_WP:	0.005	Y_WP:	0.500	X:	0.027	Y:	-0.012	Z:	0.402	yaw:	-103.523	yaw rate:	24.388	Roll:	2.640	Pitch:	-8.098	Yaw:	-171.513	Thrust:	100.000
Time:	9.114	Roll Set Point:	-0.078	Pitch Set Point:	0.178	Yaw Set Point:	1.801	X_WP:	0.074	Y_WP:	0.005	Y_WP:	0.500	X:	0.027	Y:	-0.012	Z:	0.403	yaw:	-103.442	yaw rate:	-11.992	Roll:	2.608	Pitch:	-8.208	Yaw:	-172.150	Thrust:	100.000
Time:	9.258	Roll Set Point:	-0.078	Pitch Set Point:	0.178	Yaw Set Point:	1.801	X_WP:	0.074	Y_WP:	0.005	Y_WP:	0.500	X:	0.027	Y:	-0.012	Z:	0.402	yaw:	-103.550	yaw rate:	11.611	Roll:	2.741	Pitch:	-8.399	Yaw:	-172.997	Thrust:	100.000
Time:	9.416	Roll Set Point:	-0.078	Pitch Set Point:	0.178	Yaw Set Point:	1.801	X_WP:	0.074	Y_WP:	0.005	Y_WP:	0.500	X:	0.027	Y:	-0.012	Z:	0.402	yaw:	-103.521	yaw rate:	17.625	Roll:	2.840	Pitch:	-8.784	Yaw:	-175.706	Thrust:	100.000
Time:	9.559	Roll Set Point:	-0.078	Pitch Set Point:	0.178	Yaw Set Point:	1.801	X_WP:	0.073	Y_WP:	0.006	Y_WP:	0.500	X:	0.026	Y:	-0.012	Z:	0.402	yaw:	-103.202	yaw rate:	0.642	Roll:	2.781	Pitch:	-8.518	Yaw:	-172.604	Thrust:	100.000
Time:	9.701	Roll Set Point:	-0.078	Pitch Set Point:	0.178	Yaw Set Point:	1.801	X_WP:	0.073	Y_WP:	0.006	Y_WP:	0.500	X:	0.026	Y:	-0.012	Z:	0.402	yaw:	-103.184	yaw rate:	2.386	Roll:	2.746	Pitch:	-8.509	Yaw:	-172.468	Thrust:	100.000
Time:	9.854	Roll Set Point:	-0.078	Pitch Set Point:	0.178	Yaw Set Point:	1.801	X_WP:	0.073	Y_WP:	0.006	Y_WP:	0.500	X:	0.026	Y:	-0.012	Z:	0.402	yaw:	-103.176	yaw rate:	1.179	Roll:	2.866	Pitch:	-8.873	Yaw:	-174.767	Thrust:	100.000
Time:	9.999	Roll Set Point:	-0.078	Pitch Set Point:	0.178	Yaw Set Point:	1.801	X_WP:	0.073	Y_WP:	0.006	Y_WP:	0.500	X:	0.026	Y:	-0.012	Z:	0.402	yaw:	-103.208	yaw rate:	-1.204	Roll:	2.816	Pitch:	-8.706	Yaw:	-173.046	Thrust:	100.000
Time:	10.144	Roll Set Point:	-0.078	Pitch Set Point:	0.178	Yaw Set Point:	1.801	X_WP:	0.073	Y_WP:	0.006	Y_WP:	0.500	X:	0.026	Y:	-0.012	Z:	0.402	yaw:	-103.235	yaw rate:	1.643	Roll:	2.832	Pitch:	-8.777	Yaw:	-173.131	Thrust:	100.000
Time:	10.339	Roll Set Point:	-0.078	Pitch Set Point:	0.178	Yaw Set Point:	1.801	X_WP:	0.073	Y_WP:	0.006	Y_WP:	0.500	X:	0.026	Y:	-0.012	Z:	0.402	yaw:	-103.208	yaw rate:	0.445	Roll:	3.315	Pitch:	-10.192	Yaw:	-183.123	Thrust:	100.000
Time:	19.222	Roll Set Point:	-0.078	Pitch Set Point:	0.178	Yaw Set Point:	1.801	X_WP:	0.073	Y_WP:	0.006	Y_WP:	0.500	X:	0.026	Y:	-0.012	Z:	0.402	yaw:	-103.208	yaw rate:	0.445	Roll:	30.000	Pitch:	-30.000	Yaw:	-1920.639	Thrust:	100.000
Time:	19.389	Roll Set Point:	-0.032	Pitch Set Point:	-0.017	Yaw Set Point:	1.801	X_WP:	0.000	Y_WP:	0.000	Y_WP:	-0.100	X:	0.026	Y:	-0.012	Z:	0.402	yaw:	-103.180	yaw rate:	-2.504	Roll:	-2.877	Pitch:	15.983	Yaw:	-177.513	Thrust:	3.646
Time:	19.540	Roll Set Point:	-0.032	Pitch Set Point:	-0.017	Yaw Set Point:	1.801	X_WP:	0.000	Y_WP:	0.000	Y_WP:	-0.100	X:	0.026	Y:	-0.012	Z:	0.402	yaw:	-103.194	yaw rate:	-0.751	Roll:	1.630	Pitch:	-3.486	Yaw:	-174.264	Thrust:	100.000
Time:	19.665	Roll Set Point:	-0.032	Pitch Set Point:	-0.017	Yaw Set Point:	1.801	X_WP:	0.000	Y_WP:	0.000	Y_WP:	-0.100	X:	0.026	Y:	-0.012	Z:	0.402	yaw:	-103.182	yaw rate:	0.055	Roll:	1.373	Pitch:	-2.729	Yaw:	-169.090	Thrust:	100.000
Time:	19.834	Roll Set Point:	-0.032	Pitch Set Point:	-0.017	Yaw Set Point:	1.801	X_WP:	0.000	Y_WP:	0.000	Y_WP:	-0.100	X:	0.026	Y:	-0.012	Z:	0.402	yaw:	-103.184	yaw rate:	-0.556	Roll:	1.791	Pitch:	-3.914	Yaw:	-177.713	Thrust:	100.000
Time:	19.902	Roll Set Point:	-0.032	Pitch Set Point:	-0.017	Yaw Set Point:	1.802	X_WP:	0.000	Y_WP:	0.000	Y_WP:	-0.100	X:	0.027	Y:	-0.012	Z:	0.402	yaw:	-103.222	yaw rate:	-0.169	Roll:	0.852	Pitch:	-1.078	Yaw:	-157.952	Thrust:	36.074
Time:	20.057	Roll Set Point:	-0.032	Pitch Set Point:	-0.017	Yaw Set Point:	1.802	X_WP:	0.000	Y_WP:	0.000	Y_WP:	-0.100	X:	0.027	Y:	-0.012	Z:	0.402	yaw:	-103.252	yaw rate:	0.433	Roll:	1.661	Pitch:	-3.501	Yaw:	-175.002	Thrust:	100.000
Time:	20.216	Roll Set Point:	-0.032	Pitch Set Point:	-0.017	Yaw Set Point:	1.802	X_WP:	0.000	Y_WP:	0.000	Y_WP:	-0.100	X:	0.026	Y:	-0.012	Z:	0.402	yaw:	-103.226	yaw rate:	-2.232	Roll:	1.709	Pitch:	-3.639	Yaw:	-175.910	Thrust:	99.986
Time:	20.339	Roll Set Point:	-0.032	Pitch Set Point:	-0.017	Yaw Set Point:	1.802	X_WP:	0.000	Y_WP:	0.000	Y_WP:	-0.100	X:	0.026	Y:	-0.012	Z:	0.402	yaw:	-103.256	yaw rate:	0.541	Roll:	1.361	Pitch:	-2.627	Yaw:	-168.936	Thrust:	64.001
Time:	20.495	Roll Set Point:	-0.032	Pitch Set Point:	-0.017	Yaw Set Point:	1.801	X_WP:	0.000	Y_WP:	0.000	Y_WP:	-0.100	X:	0.026	Y:	-0.012	Z:	0.402	yaw:	-103.165	yaw rate:	-5.140	Roll:	1.697	Pitch:	-3.565	Yaw:	-175.212	Thrust:	79.061
Time:	20.666	Roll Set Point:	-0.032	Pitch Set Point:	-0.017	Yaw Set Point:	1.801	X_WP:	0.000	Y_WP:	0.000	Y_WP:	-0.100	X:	0.026	Y:	-0.012	Z:	0.402	yaw:	-103.196	yaw rate:	1.749	Roll:	1.828	Pitch:	-3.915	Yaw:	-178.397	Thrust:	78.213
Time:	20.836	Roll Set Point:	-0.032	Pitch Set Point:	-0.017	Yaw Set Point:	1.801	X_WP:	0.000	Y_WP:	0.000	Y_WP:	-0.100	X:	0.026	Y:	-0.012	Z:	0.402	yaw:	-103.199	yaw rate:	-0.939	Roll:	1.822	Pitch:	-3.889	Yaw:	-178.030	Thrust:	68.103
Time:	21.020	Roll Set Point:	-0.032	Pitch Set Point:	-0.017	Yaw Set Point:	1.801	X_WP:	0.000	Y_WP:	0.000	Y_WP:	-0.100	X:	0.026	Y:	-0.012	Z:	0.402	yaw:	-103.177	yaw rate:	-0.500	Roll:	1.983	Pitch:	-4.295	Yaw:	-180.810	Thrust:	64.491
Time:	21.254	Roll Set Point:	-0.032	Pitch Set Point:	-0.017	Yaw Set Point:	1.801	X_WP:	0.000	Y_WP:	0.000	Y_WP:	-0.100	X:	0.026	Y:	-0.012	Z:	0.402	yaw:	-103.181	yaw rate:	0.859	Roll:	2.450	Pitch:	-5.630	Yaw:	-190.779	Thrust:	75.259
Time:	21.410	Roll Set Point:	-0.032	Pitch Set Point:	-0.017	Yaw Set Point:	1.801	X_WP:	0.000	Y_WP:	0.000	Y_WP:	-0.100	X:	0.026	Y:	-0.012	Z:	0.402	yaw:	-103.169	yaw rate:	-3.983	Roll:	1.703	Pitch:	-3.471	Yaw:	-175.403	Thrust:	31.660
Time:	21.569	Roll Set Point:	-0.032	Pitch Set Point:	-0.017	Yaw Set Point:	1.801	X_WP:	0.000	Y_WP:	0.000	Y_WP:	-0.100	X:	0.026	Y:	-0.012	Z:	0.402	yaw:	-103.202	yaw rate:	1.340	Roll:	1.736	Pitch:	-3.555	Yaw:	-175.842	Thrust:	23.419
Time:	21.736	Roll Set Point:	-0.032	Pitch Set Point:	-0.017	Yaw Set Point:	1.801	X_WP:	0.000	Y_WP:	0.000	Y_WP:	-0.100	X:	0.026	Y:	-0.012	Z:	0.402	yaw:	-103.190	yaw rate:	0.043	Roll:	1.801	Pitch:	-3.748	Yaw:	-177.486	Thrust:	15.818
Time:	21.913	Roll Set Point:	-0.032	Pitch Set Point:	-0.017	Yaw Set Point:	1.801	X_WP:	0.000	Y_WP:	0.000	Y_WP:	-0.100	X:	0.026	Y:	-0.012	Z:	0.402	yaw:	-103.204	yaw rate:	0.664	Roll:	1.907	Pitch:	-4.021	Yaw:	-179.560	Thrust:	7.649
Time:	22.154	Roll Set Point:	-0.032	Pitch Set Point:	-0.017	Yaw Set Point:	1.801	X_WP:	0.000	Y_WP:	0.000	Y_WP:	-0.100	X:	0.026	Y:	-0.012	Z:	0.402	yaw:	-103.186	yaw rate:	1.462	Roll:	2.553	Pitch:	-5.752	Yaw:	-192.279	Thrust:	5.987
Time:	22.341	Roll Set Point:	-0.030	Pitch Set Point:	-0.016	Yaw Set Point:	1.813	X_WP:	0.000	Y_WP:	0.000	Y_WP:	-0.100	X:	0.025	Y:	-0.011	Z:	0.402	yaw:	-103.899	yaw rate:	-5.832	Roll:	1.897	Pitch:	-4.409	Yaw:	-183.492	Thrust:	0.000
Time:	22.510	Roll Set Point:	-0.032	Pitch Set Point:	-0.017	Yaw Set Point:	1.803	X_WP:	0.000	Y_WP:	0.000	Y_WP:	-0.100	X:	0.026	Y:	-0.012	Z:	0.402	yaw:	-103.321	yaw rate:	-85.777	Roll:	1.938	Pitch:	-3.654	Yaw:	-177.158	Thrust:	0.000
Time:	22.673	Roll Set Point:	-0.032	Pitch Set Point:	-0.017	Yaw Set Point:	1.801	X_WP:	0.000	Y_WP:	0.000	Y_WP:	-0.100	X:	0.026	Y:	-0.012	Z:	0.402	yaw:	-103.209	yaw rate:	4.970	Roll:	1.778	Pitch:	-3.552	Yaw:	-176.474	Thrust:	0.000
Time:	23.152	Roll Set Point:	-0.032	Pitch Set Point:	-0.017	Yaw Set Point:	1.801	X_WP:	0.000	Y_WP:	0.000	Y_WP:	-0.100	X:	0.026	Y:	-0.012	Z:	0.402	yaw:	-103.175	yaw rate:	-0.355	Roll:	4.891	Pitch:	-12.015	Yaw:	-239.192	Thrust:	0.000
Time:	23.325	Roll Set Point:	-0.032	Pitch Set Point:	-0.017	Yaw Set Point:	1.801	X_WP:	0.000	Y_WP:	0.000	Y_WP:	-0.100	X:	0.026	Y:	-0.012	Z:	0.402	yaw:	-103.198	yaw rate:	0.746	Roll:	1.929	Pitch:	-3.938	Yaw:	-179.289	Thrust:	0.000
Time:	23.340	Roll Set Point:	-0.032	Pitch Set Point:	-0.017	Yaw Set Point:	1.801	X_WP:	0.000	Y_WP:	0.000	Y_WP:	-0.100	X:	0.026	Y:	-0.012	Z:	0.402	yaw:	-103.214	yaw rate:	2.694	Roll:	0.305	Pitch:	0.416	Yaw:	-147.117	Thrust:	0.000
Time:	23.512	Roll Set Point:	-0.032	Pitch Set Point:	-0.017	Yaw Set Point:	1.801	X_WP:	0.000	Y_WP:	0.000	Y_WP:	-0.100	X:	0.026	Y:	-0.012	Z:	0.402	yaw:	-103.167	yaw rate:	-4.665	Roll:	1.892	Pitch:	-3.787	Yaw:	-178.348	Thrust:	0.000
Time:	23.685	Roll Set Point:	-0.032	Pitch Set Point:	-0.017	Yaw Set Point:	1.801	X_WP:	0.000	Y_WP:	0.000	Y_WP:	-0.100	X:	0.026	Y:	-0.012	Z:	0.402	yaw:	-103.199	yaw rate:	2.043	Roll:	1.889	Pitch:	-3.798	Yaw:	-178.773	Thrust:	0.000
Time:	23.858	Roll Set Point:	-0.032	Pitch Set Point:	-0.017	Yaw Set Point:	1.801	X_WP:	0.000	Y_WP:	0.000	Y_WP:	-0.100	X:	0.026	Y:	-0.012	Z:	0.402	yaw:	-103.201	yaw rate:	3.322	Roll:	1.895	Pitch:	-3.781	Yaw:	-178.830	Thrust:	0.000
Time:	24.038	Roll Set Point:	-0.032	Pitch Set Point:	-0.017	Yaw Set Point:	1.801	X_WP:	0.000	Y_WP:	0.000	Y_WP:	-0.100	X:	0.026	Y:	-0.012	Z:	0.402	yaw:	-103.212	yaw rate:	0.660	Roll:	1.964	Pitch:	-3.946	Yaw:	-179.971	Thrust:	0.000
Time:	24.218	Roll Set Point:	-0.032	Pitch Set Point:	-0.017	Yaw Set Point:	1.801	X_WP:	0.000	Y_WP:	0.000	Y_WP:	-0.100	X:	0.026	Y:	-0.012	Z:	0.402	yaw:	-103.181	yaw rate:	-4.189	Roll:	1.983	Pitch:	-3.982	Yaw:	-180.201	Thrust:	0.000
