Time:	0.044	Roll Set Point:	0.059	Pitch Set Point:	-0.042	Yaw Set Point:	-0.095	X_WP:	0.000	Y_WP:	0.000	Y_WP:	0.750	X:	-0.031	Y:	0.020	Z:	0.053	yaw:	5.437	yaw rate:	-4.867	Roll:	-0.830	Pitch:	0.651	Yaw:	7.591	Thrust:	38.327
Time:	0.065	Roll Set Point:	0.059	Pitch Set Point:	-0.042	Yaw Set Point:	-0.094	X_WP:	0.000	Y_WP:	0.000	Y_WP:	0.750	X:	-0.030	Y:	0.020	Z:	0.053	yaw:	5.399	yaw rate:	3.754	Roll:	-0.660	Pitch:	0.622	Yaw:	7.109	Thrust:	40.534
Time:	0.084	Roll Set Point:	0.060	Pitch Set Point:	-0.042	Yaw Set Point:	-0.074	X_WP:	0.000	Y_WP:	0.000	Y_WP:	0.750	X:	-0.031	Y:	0.020	Z:	0.053	yaw:	4.266	yaw rate:	113.347	Roll:	-1.676	Pitch:	0.527	Yaw:	-9.551	Thrust:	40.552
Time:	0.104	Roll Set Point:	0.059	Pitch Set Point:	-0.042	Yaw Set Point:	-0.081	X_WP:	0.000	Y_WP:	0.000	Y_WP:	0.750	X:	-0.030	Y:	0.020	Z:	0.053	yaw:	4.662	yaw rate:	-39.640	Roll:	-0.326	Pitch:	0.561	Yaw:	11.790	Thrust:	44.946
Time:	0.123	Roll Set Point:	0.059	Pitch Set Point:	-0.042	Yaw Set Point:	-0.088	X_WP:	0.000	Y_WP:	0.000	Y_WP:	0.750	X:	-0.030	Y:	0.020	Z:	0.053	yaw:	5.025	yaw rate:	-36.308	Roll:	-0.760	Pitch:	0.756	Yaw:	12.113	Thrust:	44.234
Time:	0.143	Roll Set Point:	0.059	Pitch Set Point:	-0.042	Yaw Set Point:	-0.090	X_WP:	0.000	Y_WP:	0.000	Y_WP:	0.750	X:	-0.030	Y:	0.020	Z:	0.053	yaw:	5.176	yaw rate:	-15.066	Roll:	-0.775	Pitch:	0.762	Yaw:	9.368	Thrust:	46.582
Time:	0.164	Roll Set Point:	0.059	Pitch Set Point:	-0.042	Yaw Set Point:	-0.086	X_WP:	0.000	Y_WP:	0.000	Y_WP:	0.750	X:	-0.030	Y:	0.020	Z:	0.053	yaw:	4.939	yaw rate:	23.720	Roll:	-0.915	Pitch:	0.466	Yaw:	4.163	Thrust:	48.876
Time:	0.184	Roll Set Point:	0.059	Pitch Set Point:	-0.042	Yaw Set Point:	-0.082	X_WP:	0.000	Y_WP:	0.000	Y_WP:	0.750	X:	-0.031	Y:	0.020	Z:	0.053	yaw:	4.711	yaw rate:	22.810	Roll:	-1.019	Pitch:	0.669	Yaw:	3.743	Thrust:	49.628
Time:	0.204	Roll Set Point:	0.059	Pitch Set Point:	-0.042	Yaw Set Point:	-0.077	X_WP:	0.000	Y_WP:	0.000	Y_WP:	0.750	X:	-0.031	Y:	0.020	Z:	0.053	yaw:	4.425	yaw rate:	28.534	Roll:	-0.906	Pitch:	0.519	Yaw:	2.536	Thrust:	51.099
Time:	0.226	Roll Set Point:	0.059	Pitch Set Point:	-0.042	Yaw Set Point:	-0.079	X_WP:	0.000	Y_WP:	0.000	Y_WP:	0.750	X:	-0.031	Y:	0.020	Z:	0.053	yaw:	4.524	yaw rate:	-9.837	Roll:	-0.832	Pitch:	0.654	Yaw:	7.797	Thrust:	55.646
Time:	0.244	Roll Set Point:	0.059	Pitch Set Point:	-0.042	Yaw Set Point:	-0.089	X_WP:	0.000	Y_WP:	0.000	Y_WP:	0.750	X:	-0.030	Y:	0.020	Z:	0.053	yaw:	5.127	yaw rate:	-60.328	Roll:	-0.452	Pitch:	0.773	Yaw:	16.007	Thrust:	53.351
Time:	0.264	Roll Set Point:	0.059	Pitch Set Point:	-0.042	Yaw Set Point:	-0.087	X_WP:	0.000	Y_WP:	0.000	Y_WP:	0.750	X:	-0.030	Y:	0.020	Z:	0.053	yaw:	4.966	yaw rate:	16.095	Roll:	-0.929	Pitch:	0.606	Yaw:	5.173	Thrust:	56.859
Time:	0.286	Roll Set Point:	0.059	Pitch Set Point:	-0.042	Yaw Set Point:	-0.076	X_WP:	0.000	Y_WP:	0.000	Y_WP:	0.750	X:	-0.031	Y:	0.020	Z:	0.053	yaw:	4.373	yaw rate:	59.310	Roll:	-1.104	Pitch:	0.570	Yaw:	-0.612	Thrust:	59.587
Time:	0.303	Roll Set Point:	0.059	Pitch Set Point:	-0.042	Yaw Set Point:	-0.076	X_WP:	0.000	Y_WP:	0.000	Y_WP:	0.750	X:	-0.030	Y:	0.020	Z:	0.053	yaw:	4.338	yaw rate:	3.494	Roll:	-0.848	Pitch:	0.563	Yaw:	5.903	Thrust:	57.523
Time:	0.324	Roll Set Point:	0.060	Pitch Set Point:	-0.042	Yaw Set Point:	-0.080	X_WP:	0.000	Y_WP:	0.000	Y_WP:	0.750	X:	-0.031	Y:	0.020	Z:	0.053	yaw:	4.598	yaw rate:	-25.949	Roll:	-1.135	Pitch:	0.755	Yaw:	10.120	Thrust:	62.901
Time:	0.343	Roll Set Point:	0.061	Pitch Set Point:	-0.042	Yaw Set Point:	-0.073	X_WP:	0.000	Y_WP:	0.000	Y_WP:	0.750	X:	-0.031	Y:	0.020	Z:	0.054	yaw:	4.195	yaw rate:	40.294	Roll:	-1.170	Pitch:	0.525	Yaw:	0.797	Thrust:	61.360
Time:	0.364	Roll Set Point:	0.060	Pitch Set Point:	-0.041	Yaw Set Point:	-0.074	X_WP:	0.000	Y_WP:	0.000	Y_WP:	0.750	X:	-0.031	Y:	0.020	Z:	0.054	yaw:	4.250	yaw rate:	-5.569	Roll:	-0.700	Pitch:	0.590	Yaw:	7.193	Thrust:	64.778
Time:	0.384	Roll Set Point:	0.061	Pitch Set Point:	-0.041	Yaw Set Point:	-0.069	X_WP:	0.000	Y_WP:	0.000	Y_WP:	0.750	X:	-0.031	Y:	0.020	Z:	0.055	yaw:	3.949	yaw rate:	30.160	Roll:	-1.306	Pitch:	0.528	Yaw:	2.237	Thrust:	65.413
Time:	0.404	Roll Set Point:	0.063	Pitch Set Point:	-0.042	Yaw Set Point:	-0.065	X_WP:	0.000	Y_WP:	0.000	Y_WP:	0.750	X:	-0.032	Y:	0.020	Z:	0.056	yaw:	3.717	yaw rate:	23.200	Roll:	-1.597	Pitch:	0.749	Yaw:	2.577	Thrust:	62.854
Time:	0.424	Roll Set Point:	0.063	Pitch Set Point:	-0.042	Yaw Set Point:	-0.082	X_WP:	0.000	Y_WP:	0.000	Y_WP:	0.750	X:	-0.032	Y:	0.020	Z:	0.059	yaw:	4.691	yaw rate:	-97.385	Roll:	-0.899	Pitch:	1.278	Yaw:	19.848	Thrust:	64.825
Time:	0.444	Roll Set Point:	0.063	Pitch Set Point:	-0.041	Yaw Set Point:	-0.069	X_WP:	0.000	Y_WP:	0.000	Y_WP:	0.750	X:	-0.032	Y:	0.019	Z:	0.061	yaw:	3.926	yaw rate:	76.504	Roll:	-1.226	Pitch:	-0.207	Yaw:	-3.534	Thrust:	67.185
Time:	0.464	Roll Set Point:	0.064	Pitch Set Point:	-0.040	Yaw Set Point:	-0.064	X_WP:	0.000	Y_WP:	0.000	Y_WP:	0.750	X:	-0.033	Y:	0.019	Z:	0.065	yaw:	3.677	yaw rate:	24.828	Roll:	-1.364	Pitch:	0.228	Yaw:	2.531	Thrust:	64.452
Time:	0.486	Roll Set Point:	0.065	Pitch Set Point:	-0.039	Yaw Set Point:	-0.057	X_WP:	0.000	Y_WP:	0.000	Y_WP:	0.750	X:	-0.033	Y:	0.019	Z:	0.069	yaw:	3.268	yaw rate:	40.887	Roll:	-1.427	Pitch:	0.203	Yaw:	0.582	Thrust:	69.643
Time:	0.504	Roll Set Point:	0.066	Pitch Set Point:	-0.038	Yaw Set Point:	-0.050	X_WP:	0.000	Y_WP:	0.000	Y_WP:	0.750	X:	-0.034	Y:	0.018	Z:	0.075	yaw:	2.865	yaw rate:	40.369	Roll:	-1.547	Pitch:	-0.019	Yaw:	-1.582	Thrust:	55.698
Time:	0.532	Roll Set Point:	0.067	Pitch Set Point:	-0.037	Yaw Set Point:	-0.045	X_WP:	0.000	Y_WP:	0.000	Y_WP:	0.750	X:	-0.034	Y:	0.018	Z:	0.081	yaw:	2.568	yaw rate:	29.632	Roll:	-1.211	Pitch:	0.173	Yaw:	1.799	Thrust:	81.610
Time:	0.544	Roll Set Point:	0.068	Pitch Set Point:	-0.036	Yaw Set Point:	-0.039	X_WP:	0.000	Y_WP:	0.000	Y_WP:	0.750	X:	-0.034	Y:	0.017	Z:	0.088	yaw:	2.214	yaw rate:	35.440	Roll:	-1.950	Pitch:	-0.398	Yaw:	-3.532	Thrust:	38.148
Time:	0.564	Roll Set Point:	0.069	Pitch Set Point:	-0.034	Yaw Set Point:	-0.034	X_WP:	0.000	Y_WP:	0.000	Y_WP:	0.750	X:	-0.035	Y:	0.016	Z:	0.096	yaw:	1.928	yaw rate:	28.635	Roll:	-1.342	Pitch:	-0.326	Yaw:	-0.269	Thrust:	61.661
Time:	0.583	Roll Set Point:	0.069	Pitch Set Point:	-0.033	Yaw Set Point:	-0.045	X_WP:	0.000	Y_WP:	0.000	Y_WP:	0.750	X:	-0.035	Y:	0.016	Z:	0.105	yaw:	2.603	yaw rate:	-67.578	Roll:	-1.146	Pitch:	0.382	Yaw:	13.375	Thrust:	59.754
Time:	0.604	Roll Set Point:	0.070	Pitch Set Point:	-0.031	Yaw Set Point:	-0.034	X_WP:	0.000	Y_WP:	0.000	Y_WP:	0.750	X:	-0.035	Y:	0.015	Z:	0.114	yaw:	1.959	yaw rate:	64.426	Roll:	-1.564	Pitch:	-0.449	Yaw:	-4.851	Thrust:	61.290
Time:	0.623	Roll Set Point:	0.071	Pitch Set Point:	-0.029	Yaw Set Point:	-0.023	X_WP:	0.000	Y_WP:	0.000	Y_WP:	0.750	X:	-0.036	Y:	0.014	Z:	0.123	yaw:	1.321	yaw rate:	63.843	Roll:	-1.516	Pitch:	-0.684	Yaw:	-5.881	Thrust:	59.968
Time:	0.644	Roll Set Point:	0.071	Pitch Set Point:	-0.027	Yaw Set Point:	-0.026	X_WP:	0.000	Y_WP:	0.000	Y_WP:	0.750	X:	-0.036	Y:	0.013	Z:	0.132	yaw:	1.495	yaw rate:	-17.426	Roll:	-0.984	Pitch:	-0.133	Yaw:	5.129	Thrust:	66.225
Time:	0.664	Roll Set Point:	0.072	Pitch Set Point:	-0.026	Yaw Set Point:	-0.029	X_WP:	0.000	Y_WP:	0.000	Y_WP:	0.750	X:	-0.036	Y:	0.012	Z:	0.142	yaw:	1.666	yaw rate:	-17.149	Roll:	-1.550	Pitch:	-0.086	Yaw:	5.456	Thrust:	60.064
Time:	0.685	Roll Set Point:	0.072	Pitch Set Point:	-0.024	Yaw Set Point:	-0.026	X_WP:	0.000	Y_WP:	0.000	Y_WP:	0.750	X:	-0.036	Y:	0.011	Z:	0.152	yaw:	1.491	yaw rate:	17.595	Roll:	-1.335	Pitch:	-0.506	Yaw:	0.870	Thrust:	69.367
Time:	0.705	Roll Set Point:	0.073	Pitch Set Point:	-0.023	Yaw Set Point:	-0.033	X_WP:	0.000	Y_WP:	0.000	Y_WP:	0.750	X:	-0.036	Y:	0.011	Z:	0.162	yaw:	1.877	yaw rate:	-38.686	Roll:	-1.117	Pitch:	-0.026	Yaw:	8.609	Thrust:	62.042
Time:	0.724	Roll Set Point:	0.072	Pitch Set Point:	-0.020	Yaw Set Point:	-0.022	X_WP:	0.000	Y_WP:	0.000	Y_WP:	0.750	X:	-0.036	Y:	0.010	Z:	0.172	yaw:	1.276	yaw rate:	60.183	Roll:	-1.039	Pitch:	-0.904	Yaw:	-5.702	Thrust:	60.197
Time:	0.744	Roll Set Point:	0.073	Pitch Set Point:	-0.019	Yaw Set Point:	-0.031	X_WP:	0.000	Y_WP:	0.000	Y_WP:	0.750	X:	-0.037	Y:	0.009	Z:	0.183	yaw:	1.802	yaw rate:	-52.623	Roll:	-1.350	Pitch:	-0.022	Yaw:	10.570	Thrust:	60.108
Time:	0.764	Roll Set Point:	0.073	Pitch Set Point:	-0.017	Yaw Set Point:	-0.024	X_WP:	0.000	Y_WP:	0.000	Y_WP:	0.750	X:	-0.037	Y:	0.008	Z:	0.194	yaw:	1.381	yaw rate:	42.069	Roll:	-1.218	Pitch:	-0.629	Yaw:	-2.535	Thrust:	65.415
Time:	0.784	Roll Set Point:	0.073	Pitch Set Point:	-0.016	Yaw Set Point:	-0.023	X_WP:	0.000	Y_WP:	0.000	Y_WP:	0.750	X:	-0.036	Y:	0.007	Z:	0.205	yaw:	1.295	yaw rate:	8.648	Roll:	-1.041	Pitch:	-0.401	Yaw:	1.605	Thrust:	64.772
Time:	0.803	Roll Set Point:	0.072	Pitch Set Point:	-0.014	Yaw Set Point:	-0.032	X_WP:	0.000	Y_WP:	0.000	Y_WP:	0.750	X:	-0.036	Y:	0.006	Z:	0.216	yaw:	1.816	yaw rate:	-52.127	Roll:	-0.889	Pitch:	-0.274	Yaw:	10.339	Thrust:	62.980
Time:	0.824	Roll Set Point:	0.072	Pitch Set Point:	-0.012	Yaw Set Point:	-0.027	X_WP:	0.000	Y_WP:	0.000	Y_WP:	0.750	X:	-0.036	Y:	0.006	Z:	0.228	yaw:	1.519	yaw rate:	29.709	Roll:	-1.060	Pitch:	-0.544	Yaw:	-0.706	Thrust:	61.598
Time:	0.844	Roll Set Point:	0.071	Pitch Set Point:	-0.010	Yaw Set Point:	-0.019	X_WP:	0.000	Y_WP:	0.000	Y_WP:	0.750	X:	-0.036	Y:	0.005	Z:	0.241	yaw:	1.100	yaw rate:	41.861	Roll:	-0.676	Pitch:	-0.728	Yaw:	-3.131	Thrust:	66.464
Time:	0.867	Roll Set Point:	0.071	Pitch Set Point:	-0.010	Yaw Set Point:	-0.024	X_WP:	0.000	Y_WP:	0.000	Y_WP:	0.750	X:	-0.036	Y:	0.004	Z:	0.253	yaw:	1.370	yaw rate:	-26.981	Roll:	-1.094	Pitch:	-0.048	Yaw:	6.020	Thrust:	79.279
Time:	0.885	Roll Set Point:	0.071	Pitch Set Point:	-0.008	Yaw Set Point:	-0.020	X_WP:	0.000	Y_WP:	0.000	Y_WP:	0.750	X:	-0.035	Y:	0.004	Z:	0.266	yaw:	1.131	yaw rate:	23.927	Roll:	-0.835	Pitch:	-0.636	Yaw:	-1.048	Thrust:	52.645
Time:	0.903	Roll Set Point:	0.070	Pitch Set Point:	-0.007	Yaw Set Point:	-0.012	X_WP:	0.000	Y_WP:	0.000	Y_WP:	0.750	X:	-0.035	Y:	0.003	Z:	0.280	yaw:	0.682	yaw rate:	44.885	Roll:	-0.783	Pitch:	-0.711	Yaw:	-4.673	Thrust:	52.616
Time:	0.924	Roll Set Point:	0.069	Pitch Set Point:	-0.006	Yaw Set Point:	-0.018	X_WP:	0.000	Y_WP:	0.000	Y_WP:	0.750	X:	-0.034	Y:	0.002	Z:	0.294	yaw:	1.057	yaw rate:	-37.550	Roll:	-0.658	Pitch:	-0.220	Yaw:	7.280	Thrust:	63.533
Time:	0.944	Roll Set Point:	0.068	Pitch Set Point:	-0.004	Yaw Set Point:	-0.024	X_WP:	0.000	Y_WP:	0.000	Y_WP:	0.750	X:	-0.034	Y:	0.002	Z:	0.308	yaw:	1.375	yaw rate:	-31.719	Roll:	-0.452	Pitch:	-0.490	Yaw:	7.041	Thrust:	56.008
Time:	0.964	Roll Set Point:	0.067	Pitch Set Point:	-0.003	Yaw Set Point:	-0.022	X_WP:	0.000	Y_WP:	0.000	Y_WP:	0.750	X:	-0.033	Y:	0.001	Z:	0.323	yaw:	1.268	yaw rate:	10.642	Roll:	-0.723	Pitch:	-0.278	Yaw:	1.360	Thrust:	64.541
Time:	0.984	Roll Set Point:	0.066	Pitch Set Point:	-0.002	Yaw Set Point:	-0.017	X_WP:	0.000	Y_WP:	0.000	Y_WP:	0.750	X:	-0.033	Y:	0.001	Z:	0.338	yaw:	0.982	yaw rate:	28.619	Roll:	-0.495	Pitch:	-0.531	Yaw:	-1.461	Thrust:	57.515
Time:	1.004	Roll Set Point:	0.807	Pitch Set Point:	-0.039	Yaw Set Point:	-0.014	X_WP:	0.743	Y_WP:	-0.028	Y_WP:	0.750	X:	-0.032	Y:	0.000	Z:	0.354	yaw:	0.798	yaw rate:	18.346	Roll:	-30.000	Pitch:	30.000	Yaw:	-0.250	Thrust:	60.307
Time:	1.024	Roll Set Point:	0.806	Pitch Set Point:	-0.036	Yaw Set Point:	-0.012	X_WP:	0.743	Y_WP:	-0.028	Y_WP:	0.750	X:	-0.032	Y:	-0.000	Z:	0.369	yaw:	0.665	yaw rate:	13.354	Roll:	-22.116	Pitch:	-0.846	Yaw:	0.113	Thrust:	55.886
Time:	1.044	Roll Set Point:	0.804	Pitch Set Point:	-0.044	Yaw Set Point:	-0.023	X_WP:	0.743	Y_WP:	-0.028	Y_WP:	0.750	X:	-0.031	Y:	-0.001	Z:	0.385	yaw:	1.303	yaw rate:	-63.777	Roll:	-21.547	Pitch:	7.934	Yaw:	10.949	Thrust:	62.302
Time:	1.064	Roll Set Point:	0.802	Pitch Set Point:	-0.046	Yaw Set Point:	-0.027	X_WP:	0.743	Y_WP:	-0.028	Y_WP:	0.750	X:	-0.030	Y:	-0.001	Z:	0.400	yaw:	1.548	yaw rate:	-24.522	Roll:	-21.737	Pitch:	3.774	Yaw:	6.373	Thrust:	59.786
Time:	1.087	Roll Set Point:	0.802	Pitch Set Point:	-0.021	Yaw Set Point:	0.003	X_WP:	0.743	Y_WP:	-0.028	Y_WP:	0.750	X:	-0.029	Y:	-0.002	Z:	0.416	yaw:	-0.167	yaw rate:	171.482	Roll:	-22.905	Pitch:	-17.366	Yaw:	-18.562	Thrust:	74.601
Time:	1.103	Roll Set Point:	0.799	Pitch Set Point:	-0.024	Yaw Set Point:	-0.003	X_WP:	0.743	Y_WP:	-0.028	Y_WP:	0.750	X:	-0.028	Y:	-0.003	Z:	0.431	yaw:	0.199	yaw rate:	-36.607	Roll:	-21.021	Pitch:	4.708	Yaw:	6.950	Thrust:	38.044
Time:	1.124	Roll Set Point:	0.794	Pitch Set Point:	-0.023	Yaw Set Point:	-0.005	X_WP:	0.743	Y_WP:	-0.028	Y_WP:	0.750	X:	-0.025	Y:	-0.005	Z:	0.447	yaw:	0.283	yaw rate:	-8.389	Roll:	-20.540	Pitch:	0.624	Yaw:	2.526	Thrust:	60.946
Time:	1.143	Roll Set Point:	0.792	Pitch Set Point:	-0.006	Yaw Set Point:	0.016	X_WP:	0.743	Y_WP:	-0.028	Y_WP:	0.750	X:	-0.024	Y:	-0.005	Z:	0.463	yaw:	-0.920	yaw rate:	120.310	Roll:	-21.816	Pitch:	-14.243	Yaw:	-16.834	Thrust:	52.792
Time:	1.164	Roll Set Point:	0.785	Pitch Set Point:	-0.004	Yaw Set Point:	0.016	X_WP:	0.743	Y_WP:	-0.028	Y_WP:	0.750	X:	-0.021	Y:	-0.006	Z:	0.479	yaw:	-0.894	yaw rate:	-2.578	Roll:	-19.732	Pitch:	-0.400	Yaw:	0.152	Thrust:	59.652
Time:	1.183	Roll Set Point:	0.776	Pitch Set Point:	-0.010	Yaw Set Point:	0.003	X_WP:	0.743	Y_WP:	-0.028	Y_WP:	0.750	X:	-0.016	Y:	-0.008	Z:	0.495	yaw:	-0.194	yaw rate:	-69.984	Roll:	-18.530	Pitch:	7.310	Yaw:	10.148	Thrust:	56.704
Time:	1.204	Roll Set Point:	0.764	Pitch Set Point:	-0.019	Yaw Set Point:	-0.014	X_WP:	0.743	Y_WP:	-0.028	Y_WP:	0.750	X:	-0.010	Y:	-0.010	Z:	0.511	yaw:	0.787	yaw rate:	-98.120	Roll:	-17.053	Pitch:	9.789	Yaw:	14.871	Thrust:	58.627
Time:	1.224	Roll Set Point:	0.752	Pitch Set Point:	-0.007	Yaw Set Point:	-0.003	X_WP:	0.743	Y_WP:	-0.028	Y_WP:	0.750	X:	-0.004	Y:	-0.012	Z:	0.526	yaw:	0.178	yaw rate:	60.849	Roll:	-17.495	Pitch:	-7.626	Yaw:	-6.519	Thrust:	60.158
Time:	1.244	Roll Set Point:	0.738	Pitch Set Point:	-0.012	Yaw Set Point:	-0.015	X_WP:	0.743	Y_WP:	-0.028	Y_WP:	0.750	X:	0.003	Y:	-0.013	Z:	0.541	yaw:	0.842	yaw rate:	-66.318	Roll:	-15.569	Pitch:	6.720	Yaw:	10.999	Thrust:	56.696
Time:	1.264	Roll Set Point:	0.723	Pitch Set Point:	0.008	Yaw Set Point:	0.007	X_WP:	0.743	Y_WP:	-0.028	Y_WP:	0.750	X:	0.010	Y:	-0.015	Z:	0.556	yaw:	-0.426	yaw rate:	126.780	Roll:	-15.838	Pitch:	-15.131	Yaw:	-16.514	Thrust:	57.800
Time:	1.284	Roll Set Point:	0.705	Pitch Set Point:	0.013	Yaw Set Point:	0.007	X_WP:	0.743	Y_WP:	-0.028	Y_WP:	0.750	X:	0.019	Y:	-0.018	Z:	0.571	yaw:	-0.425	yaw rate:	-0.161	Roll:	-14.065	Pitch:	-1.587	Yaw:	0.517	Thrust:	64.120
Time:	1.305	Roll Set Point:	0.688	Pitch Set Point:	0.010	Yaw Set Point:	0.000	X_WP:	0.743	Y_WP:	-0.028	Y_WP:	0.750	X:	0.028	Y:	-0.019	Z:	0.584	yaw:	-0.018	yaw rate:	-40.622	Roll:	-14.143	Pitch:	3.573	Yaw:	6.156	Thrust:	65.094
Time:	1.323	Roll Set Point:	0.666	Pitch Set Point:	0.011	Yaw Set Point:	-0.005	X_WP:	0.743	Y_WP:	-0.028	Y_WP:	0.750	X:	0.039	Y:	-0.021	Z:	0.599	yaw:	0.288	yaw rate:	-30.624	Roll:	-11.238	Pitch:	1.678	Yaw:	5.797	Thrust:	45.441
Time:	1.344	Roll Set Point:	0.642	Pitch Set Point:	0.014	Yaw Set Point:	-0.007	X_WP:	0.743	Y_WP:	-0.028	Y_WP:	0.750	X:	0.051	Y:	-0.023	Z:	0.614	yaw:	0.399	yaw rate:	-11.126	Roll:	-10.674	Pitch:	-0.496	Yaw:	3.025	Thrust:	63.809
Time:	1.364	Roll Set Point:	0.616	Pitch Set Point:	0.018	Yaw Set Point:	-0.009	X_WP:	0.743	Y_WP:	-0.028	Y_WP:	0.750	X:	0.064	Y:	-0.026	Z:	0.628	yaw:	0.514	yaw rate:	-11.450	Roll:	-9.599	Pitch:	-0.770	Yaw:	3.254	Thrust:	56.096
Time:	1.385	Roll Set Point:	0.586	Pitch Set Point:	0.024	Yaw Set Point:	-0.010	X_WP:	0.743	Y_WP:	-0.028	Y_WP:	0.750	X:	0.079	Y:	-0.029	Z:	0.643	yaw:	0.553	yaw rate:	-3.909	Roll:	-7.995	Pitch:	-2.285	Yaw:	2.339	Thrust:	59.758
Time:	1.404	Roll Set Point:	0.556	Pitch Set Point:	0.033	Yaw Set Point:	-0.005	X_WP:	0.743	Y_WP:	-0.028	Y_WP:	0.750	X:	0.094	Y:	-0.032	Z:	0.658	yaw:	0.280	yaw rate:	27.226	Roll:	-5.985	Pitch:	-5.356	Yaw:	-2.543	Thrust:	46.963
Time:	1.424	Roll Set Point:	0.527	Pitch Set Point:	0.028	Yaw Set Point:	-0.017	X_WP:	0.743	Y_WP:	-0.028	Y_WP:	0.750	X:	0.108	Y:	-0.033	Z:	0.671	yaw:	0.982	yaw rate:	-70.150	Roll:	-6.883	Pitch:	5.240	Yaw:	11.172	Thrust:	64.069
Time:	1.444	Roll Set Point:	0.495	Pitch Set Point:	0.037	Yaw Set Point:	-0.010	X_WP:	0.743	Y_WP:	-0.028	Y_WP:	0.750	X:	0.124	Y:	-0.036	Z:	0.686	yaw:	0.595	yaw rate:	38.688	Roll:	-5.391	Pitch:	-5.901	Yaw:	-3.115	Thrust:	53.750
Time:	1.464	Roll Set Point:	0.460	Pitch Set Point:	0.040	Yaw Set Point:	-0.014	X_WP:	0.743	Y_WP:	-0.028	Y_WP:	0.750	X:	0.142	Y:	-0.038	Z:	0.700	yaw:	0.824	yaw rate:	-22.940	Roll:	-3.481	Pitch:	-0.179	Yaw:	5.220	Thrust:	53.780
Time:	1.484	Roll Set Point:	0.425	Pitch Set Point:	0.049	Yaw Set Point:	-0.008	X_WP:	0.743	Y_WP:	-0.028	Y_WP:	0.750	X:	0.159	Y:	-0.041	Z:	0.714	yaw:	0.434	yaw rate:	39.086	Roll:	-2.834	Pitch:	-5.688	Yaw:	-3.383	Thrust:	55.494
Time:	1.504	Roll Set Point:	0.388	Pitch Set Point:	0.059	Yaw Set Point:	0.001	X_WP:	0.743	Y_WP:	-0.028	Y_WP:	0.750	X:	0.178	Y:	-0.043	Z:	0.728	yaw:	-0.061	yaw rate:	49.433	Roll:	-1.067	Pitch:	-6.976	Yaw:	-5.866	Thrust:	51.639
Time:	1.524	Roll Set Point:	0.350	Pitch Set Point:	0.051	Yaw Set Point:	-0.022	X_WP:	0.743	Y_WP:	-0.028	Y_WP:	0.750	X:	0.197	Y:	-0.045	Z:	0.743	yaw:	1.254	yaw rate:	-131.521	Roll:	-0.994	Pitch:	8.362	Yaw:	19.601	Thrust:	56.684
Time:	1.544	Roll Set Point:	0.312	Pitch Set Point:	0.061	Yaw Set Point:	-0.011	X_WP:	0.743	Y_WP:	-0.028	Y_WP:	0.750	X:	0.216	Y:	-0.048	Z:	0.756	yaw:	0.639	yaw rate:	61.568	Roll:	0.895	Pitch:	-7.648	Yaw:	-6.058	Thrust:	54.197
Time:	1.580	Roll Set Point:	0.273	Pitch Set Point:	0.066	Yaw Set Point:	-0.009	X_WP:	0.743	Y_WP:	-0.028	Y_WP:	0.750	X:	0.235	Y:	-0.049	Z:	0.770	yaw:	0.513	yaw rate:	12.574	Roll:	-6.956	Pitch:	-1.868	Yaw:	1.711	Thrust:	100.000
Time:	1.594	Roll Set Point:	0.214	Pitch Set Point:	0.073	Yaw Set Point:	-0.007	X_WP:	0.743	Y_WP:	-0.028	Y_WP:	0.750	X:	0.265	Y:	-0.052	Z:	0.789	yaw:	0.420	yaw rate:	9.318	Roll:	21.257	Pitch:	-5.266	Yaw:	-0.474	Thrust:	0.000
Time:	1.615	Roll Set Point:	0.174	Pitch Set Point:	0.070	Yaw Set Point:	-0.021	X_WP:	0.743	Y_WP:	-0.028	Y_WP:	0.750	X:	0.285	Y:	-0.054	Z:	0.802	yaw:	1.214	yaw rate:	-79.417	Roll:	2.066	Pitch:	3.239	Yaw:	12.572	Thrust:	60.729
Time:	1.634	Roll Set Point:	0.134	Pitch Set Point:	0.080	Yaw Set Point:	-0.005	X_WP:	0.743	Y_WP:	-0.028	Y_WP:	0.750	X:	0.305	Y:	-0.055	Z:	0.815	yaw:	0.315	yaw rate:	89.927	Roll:	4.998	Pitch:	-8.957	Yaw:	-10.805	Thrust:	40.685
Time:	1.654	Roll Set Point:	0.094	Pitch Set Point:	0.084	Yaw Set Point:	-0.005	X_WP:	0.743	Y_WP:	-0.028	Y_WP:	0.750	X:	0.325	Y:	-0.057	Z:	0.828	yaw:	0.272	yaw rate:	4.248	Roll:	3.228	Pitch:	-2.260	Yaw:	0.929	Thrust:	57.966
Time:	1.674	Roll Set Point:	0.053	Pitch Set Point:	0.082	Yaw Set Point:	-0.016	X_WP:	0.743	Y_WP:	-0.028	Y_WP:	0.750	X:	0.345	Y:	-0.058	Z:	0.840	yaw:	0.925	yaw rate:	-65.263	Roll:	5.256	Pitch:	2.268	Yaw:	11.177	Thrust:	47.926
Time:	1.695	Roll Set Point:	0.014	Pitch Set Point:	0.087	Yaw Set Point:	-0.008	X_WP:	0.743	Y_WP:	-0.028	Y_WP:	0.750	X:	0.365	Y:	-0.059	Z:	0.852	yaw:	0.444	yaw rate:	48.120	Roll:	5.152	Pitch:	-4.562	Yaw:	-4.545	Thrust:	52.576
Time:	1.714	Roll Set Point:	-0.026	Pitch Set Point:	0.088	Yaw Set Point:	-0.012	X_WP:	0.743	Y_WP:	-0.028	Y_WP:	0.750	X:	0.385	Y:	-0.060	Z:	0.863	yaw:	0.697	yaw rate:	-25.354	Roll:	5.603	Pitch:	-0.556	Yaw:	5.331	Thrust:	55.233
Time:	1.734	Roll Set Point:	-0.066	Pitch Set Point:	0.089	Yaw Set Point:	-0.012	X_WP:	0.743	Y_WP:	-0.028	Y_WP:	0.750	X:	0.405	Y:	-0.061	Z:	0.873	yaw:	0.681	yaw rate:	1.615	Roll:	5.883	Pitch:	-1.489	Yaw:	1.845	Thrust:	54.313
Time:	1.755	Roll Set Point:	-0.104	Pitch Set Point:	0.094	Yaw Set Point:	-0.003	X_WP:	0.743	Y_WP:	-0.028	Y_WP:	0.750	X:	0.424	Y:	-0.061	Z:	0.883	yaw:	0.151	yaw rate:	52.969	Roll:	6.383	Pitch:	-4.022	Yaw:	-5.541	Thrust:	54.649
Time:	1.775	Roll Set Point:	-0.143	Pitch Set Point:	0.096	Yaw Set Point:	0.001	X_WP:	0.743	Y_WP:	-0.028	Y_WP:	0.750	X:	0.443	Y:	-0.062	Z:	0.892	yaw:	-0.039	yaw rate:	18.993	Roll:	7.662	Pitch:	-2.323	Yaw:	-1.484	Thrust:	52.438
Time:	1.794	Roll Set Point:	-0.180	Pitch Set Point:	0.096	Yaw Set Point:	-0.002	X_WP:	0.743	Y_WP:	-0.028	Y_WP:	0.750	X:	0.462	Y:	-0.062	Z:	0.901	yaw:	0.089	yaw rate:	-12.744	Roll:	7.347	Pitch:	-0.666	Yaw:	2.907	Thrust:	53.915
Time:	1.817	Roll Set Point:	-0.217	Pitch Set Point:	0.096	Yaw Set Point:	-0.002	X_WP:	0.743	Y_WP:	-0.028	Y_WP:	0.750	X:	0.480	Y:	-0.062	Z:	0.909	yaw:	0.091	yaw rate:	-0.195	Roll:	6.261	Pitch:	-1.061	Yaw:	1.367	Thrust:	60.438
Time:	1.834	Roll Set Point:	-0.253	Pitch Set Point:	0.095	Yaw Set Point:	-0.006	X_WP:	0.743	Y_WP:	-0.028	Y_WP:	0.750	X:	0.498	Y:	-0.062	Z:	0.918	yaw:	0.350	yaw rate:	-25.933	Roll:	7.292	Pitch:	-0.159	Yaw:	5.184	Thrust:	49.108
Time:	1.855	Roll Set Point:	-0.288	Pitch Set Point:	0.095	Yaw Set Point:	-0.008	X_WP:	0.743	Y_WP:	-0.028	Y_WP:	0.750	X:	0.516	Y:	-0.062	Z:	0.926	yaw:	0.454	yaw rate:	-10.403	Roll:	7.361	Pitch:	-0.699	Yaw:	3.114	Thrust:	53.787
Time:	1.874	Roll Set Point:	-0.322	Pitch Set Point:	0.096	Yaw Set Point:	-0.006	X_WP:	0.743	Y_WP:	-0.028	Y_WP:	0.750	X:	0.533	Y:	-0.062	Z:	0.933	yaw:	0.344	yaw rate:	10.993	Roll:	8.147	Pitch:	-1.436	Yaw:	0.075	Thrust:	50.386
Time:	1.895	Roll Set Point:	-0.354	Pitch Set Point:	0.096	Yaw Set Point:	-0.004	X_WP:	0.743	Y_WP:	-0.028	Y_WP:	0.750	X:	0.549	Y:	-0.062	Z:	0.940	yaw:	0.227	yaw rate:	11.742	Roll:	7.503	Pitch:	-1.173	Yaw:	-0.113	Thrust:	53.253
Time:	1.914	Roll Set Point:	-0.386	Pitch Set Point:	0.096	Yaw Set Point:	-0.004	X_WP:	0.743	Y_WP:	-0.028	Y_WP:	0.750	X:	0.565	Y:	-0.062	Z:	0.947	yaw:	0.218	yaw rate:	0.898	Roll:	7.351	Pitch:	-0.841	Yaw:	1.352	Thrust:	56.799
Time:	1.934	Roll Set Point:	-0.416	Pitch Set Point:	0.093	Yaw Set Point:	-0.018	X_WP:	0.743	Y_WP:	-0.028	Y_WP:	0.750	X:	0.580	Y:	-0.062	Z:	0.954	yaw:	1.027	yaw rate:	-80.872	Roll:	6.748	Pitch:	1.015	Yaw:	13.136	Thrust:	52.929
Time:	1.955	Roll Set Point:	-0.445	Pitch Set Point:	0.095	Yaw Set Point:	0.001	X_WP:	0.743	Y_WP:	-0.028	Y_WP:	0.750	X:	0.594	Y:	-0.061	Z:	0.960	yaw:	-0.038	yaw rate:	106.404	Roll:	7.763	Pitch:	-2.971	Yaw:	-12.806	Thrust:	53.851
Time:	1.975	Roll Set Point:	-0.472	Pitch Set Point:	0.092	Yaw Set Point:	-0.019	X_WP:	0.743	Y_WP:	-0.028	Y_WP:	0.750	X:	0.608	Y:	-0.061	Z:	0.966	yaw:	1.112	yaw rate:	-114.988	Roll:	6.535	Pitch:	1.610	Yaw:	17.441	Thrust:	52.642
Time:	1.994	Roll Set Point:	-0.499	Pitch Set Point:	0.092	Yaw Set Point:	-0.013	X_WP:	0.743	Y_WP:	-0.028	Y_WP:	0.750	X:	0.621	Y:	-0.061	Z:	0.972	yaw:	0.749	yaw rate:	36.355	Roll:	6.899	Pitch:	-1.536	Yaw:	-2.711	Thrust:	52.676
Time:	2.017	Roll Set Point:	-0.524	Pitch Set Point:	0.092	Yaw Set Point:	0.000	X_WP:	0.743	Y_WP:	-0.028	Y_WP:	0.750	X:	0.634	Y:	-0.060	Z:	0.977	yaw:	-0.025	yaw rate:	77.376	Roll:	6.282	Pitch:	-1.581	Yaw:	-7.923	Thrust:	63.550
Time:	2.034	Roll Set Point:	-0.547	Pitch Set Point:	0.090	Yaw Set Point:	-0.017	X_WP:	0.743	Y_WP:	-0.028	Y_WP:	0.750	X:	0.646	Y:	-0.060	Z:	0.982	yaw:	0.997	yaw rate:	-102.190	Roll:	7.086	Pitch:	0.982	Yaw:	17.657	Thrust:	41.765
Time:	2.054	Roll Set Point:	-0.570	Pitch Set Point:	0.091	Yaw Set Point:	0.004	X_WP:	0.743	Y_WP:	-0.028	Y_WP:	0.750	X:	0.657	Y:	-0.059	Z:	0.986	yaw:	-0.239	yaw rate:	123.595	Roll:	6.670	Pitch:	-1.965	Yaw:	-14.923	Thrust:	53.709
Time:	2.075	Roll Set Point:	-0.591	Pitch Set Point:	0.089	Yaw Set Point:	-0.003	X_WP:	0.743	Y_WP:	-0.028	Y_WP:	0.750	X:	0.667	Y:	-0.059	Z:	0.990	yaw:	0.198	yaw rate:	-43.726	Roll:	5.944	Pitch:	0.013	Yaw:	7.306	Thrust:	52.435
Time:	2.095	Roll Set Point:	-0.611	Pitch Set Point:	0.088	Yaw Set Point:	-0.006	X_WP:	0.743	Y_WP:	-0.028	Y_WP:	0.750	X:	0.677	Y:	-0.058	Z:	0.994	yaw:	0.325	yaw rate:	-12.678	Roll:	5.809	Pitch:	-0.390	Yaw:	3.272	Thrust:	52.409
Time:	2.114	Roll Set Point:	-0.630	Pitch Set Point:	0.088	Yaw Set Point:	-0.011	X_WP:	0.743	Y_WP:	-0.028	Y_WP:	0.750	X:	0.687	Y:	-0.058	Z:	0.997	yaw:	0.615	yaw rate:	-28.997	Roll:	5.469	Pitch:	-0.404	Yaw:	5.792	Thrust:	54.408
Time:	2.135	Roll Set Point:	-0.647	Pitch Set Point:	0.087	Yaw Set Point:	0.002	X_WP:	0.743	Y_WP:	-0.028	Y_WP:	0.750	X:	0.695	Y:	-0.058	Z:	1.000	yaw:	-0.086	yaw rate:	70.111	Roll:	4.889	Pitch:	-0.972	Yaw:	-7.431	Thrust:	59.656
Time:	2.156	Roll Set Point:	-0.664	Pitch Set Point:	0.086	Yaw Set Point:	0.006	X_WP:	0.743	Y_WP:	-0.028	Y_WP:	0.750	X:	0.703	Y:	-0.057	Z:	1.002	yaw:	-0.333	yaw rate:	24.681	Roll:	5.120	Pitch:	-0.447	Yaw:	-2.430	Thrust:	57.644
Time:	2.174	Roll Set Point:	-0.679	Pitch Set Point:	0.085	Yaw Set Point:	-0.011	X_WP:	0.743	Y_WP:	-0.028	Y_WP:	0.750	X:	0.711	Y:	-0.057	Z:	1.003	yaw:	0.641	yaw rate:	-97.369	Roll:	5.249	Pitch:	-0.107	Yaw:	15.994	Thrust:	47.944
Time:	2.195	Roll Set Point:	-0.693	Pitch Set Point:	0.084	Yaw Set Point:	0.008	X_WP:	0.743	Y_WP:	-0.028	Y_WP:	0.750	X:	0.718	Y:	-0.056	Z:	1.005	yaw:	-0.430	yaw rate:	107.121	Roll:	4.463	Pitch:	-0.648	Yaw:	-13.253	Thrust:	56.853
Time:	2.216	Roll Set Point:	-0.706	Pitch Set Point:	0.083	Yaw Set Point:	0.005	X_WP:	0.743	Y_WP:	-0.028	Y_WP:	0.750	X:	0.724	Y:	-0.056	Z:	1.005	yaw:	-0.307	yaw rate:	-12.329	Roll:	4.029	Pitch:	-0.300	Yaw:	2.315	Thrust:	59.879
Time:	2.235	Roll Set Point:	-0.717	Pitch Set Point:	0.083	Yaw Set Point:	-0.000	X_WP:	0.743	Y_WP:	-0.028	Y_WP:	0.750	X:	0.730	Y:	-0.055	Z:	1.006	yaw:	0.011	yaw rate:	-31.788	Roll:	3.798	Pitch:	-0.592	Yaw:	5.571	Thrust:	51.263
Time:	2.254	Roll Set Point:	-0.728	Pitch Set Point:	0.082	Yaw Set Point:	0.005	X_WP:	0.743	Y_WP:	-0.028	Y_WP:	0.750	X:	0.736	Y:	-0.055	Z:	1.006	yaw:	-0.308	yaw rate:	31.924	Roll:	3.712	Pitch:	-0.365	Yaw:	-3.577	Thrust:	54.695
Time:	2.274	Roll Set Point:	-0.737	Pitch Set Point:	0.081	Yaw Set Point:	0.008	X_WP:	0.743	Y_WP:	-0.028	Y_WP:	0.750	X:	0.740	Y:	-0.054	Z:	1.007	yaw:	-0.432	yaw rate:	12.378	Roll:	3.192	Pitch:	-0.412	Yaw:	-1.096	Thrust:	54.743
Time:	2.294	Roll Set Point:	-0.746	Pitch Set Point:	0.080	Yaw Set Point:	0.016	X_WP:	0.743	Y_WP:	-0.028	Y_WP:	0.750	X:	0.744	Y:	-0.054	Z:	1.006	yaw:	-0.889	yaw rate:	45.702	Roll:	3.075	Pitch:	-0.168	Yaw:	-6.123	Thrust:	55.980
Time:	2.314	Roll Set Point:	-0.753	Pitch Set Point:	0.079	Yaw Set Point:	0.015	X_WP:	0.743	Y_WP:	-0.028	Y_WP:	0.750	X:	0.748	Y:	-0.053	Z:	1.005	yaw:	-0.880	yaw rate:	-0.910	Roll:	2.455	Pitch:	-0.337	Yaw:	0.065	Thrust:	57.608
Time:	2.336	Roll Set Point:	-0.760	Pitch Set Point:	0.078	Yaw Set Point:	0.016	X_WP:	0.743	Y_WP:	-0.028	Y_WP:	0.750	X:	0.752	Y:	-0.053	Z:	1.005	yaw:	-0.933	yaw rate:	5.330	Roll:	2.252	Pitch:	-0.396	Yaw:	-0.717	Thrust:	57.487
Time:	2.355	Roll Set Point:	-0.766	Pitch Set Point:	0.078	Yaw Set Point:	-0.000	X_WP:	0.743	Y_WP:	-0.028	Y_WP:	0.750	X:	0.755	Y:	-0.053	Z:	1.004	yaw:	0.022	yaw rate:	-95.521	Roll:	1.852	Pitch:	-0.657	Yaw:	14.070	Thrust:	54.687
Time:	2.374	Roll Set Point:	-0.771	Pitch Set Point:	0.077	Yaw Set Point:	0.021	X_WP:	0.743	Y_WP:	-0.028	Y_WP:	0.750	X:	0.757	Y:	-0.053	Z:	1.003	yaw:	-1.217	yaw rate:	123.859	Roll:	2.212	Pitch:	-0.184	Yaw:	-17.880	Thrust:	52.677
Time:	2.395	Roll Set Point:	-0.775	Pitch Set Point:	0.076	Yaw Set Point:	0.013	X_WP:	0.743	Y_WP:	-0.028	Y_WP:	0.750	X:	0.759	Y:	-0.052	Z:	1.001	yaw:	-0.764	yaw rate:	-45.255	Roll:	1.182	Pitch:	-0.333	Yaw:	6.057	Thrust:	54.621
Time:	2.416	Roll Set Point:	-0.778	Pitch Set Point:	0.077	Yaw Set Point:	-0.007	X_WP:	0.743	Y_WP:	-0.028	Y_WP:	0.750	X:	0.761	Y:	-0.052	Z:	1.000	yaw:	0.378	yaw rate:	-114.259	Roll:	0.847	Pitch:	-1.146	Yaw:	15.252	Thrust:	59.126
Time:	2.435	Roll Set Point:	-0.781	Pitch Set Point:	0.075	Yaw Set Point:	0.017	X_WP:	0.743	Y_WP:	-0.028	Y_WP:	0.750	X:	0.762	Y:	-0.052	Z:	0.998	yaw:	-0.984	yaw rate:	136.236	Roll:	1.254	Pitch:	0.347	Yaw:	-20.052	Thrust:	51.668
Time:	2.454	Roll Set Point:	-0.783	Pitch Set Point:	0.075	Yaw Set Point:	0.016	X_WP:	0.743	Y_WP:	-0.028	Y_WP:	0.750	X:	0.763	Y:	-0.051	Z:	0.997	yaw:	-0.899	yaw rate:	-8.516	Roll:	0.660	Pitch:	-0.547	Yaw:	0.973	Thrust:	54.563
Time:	2.474	Roll Set Point:	-0.784	Pitch Set Point:	0.075	Yaw Set Point:	0.012	X_WP:	0.743	Y_WP:	-0.028	Y_WP:	0.750	X:	0.764	Y:	-0.051	Z:	0.995	yaw:	-0.709	yaw rate:	-18.993	Roll:	0.405	Pitch:	-0.763	Yaw:	2.622	Thrust:	53.646
Time:	2.494	Roll Set Point:	-0.784	Pitch Set Point:	0.075	Yaw Set Point:	0.003	X_WP:	0.743	Y_WP:	-0.028	Y_WP:	0.750	X:	0.764	Y:	-0.051	Z:	0.993	yaw:	-0.192	yaw rate:	-51.675	Roll:	-0.007	Pitch:	-0.679	Yaw:	7.547	Thrust:	55.341
Time:	2.514	Roll Set Point:	-0.785	Pitch Set Point:	0.074	Yaw Set Point:	0.012	X_WP:	0.743	Y_WP:	-0.028	Y_WP:	0.750	X:	0.764	Y:	-0.051	Z:	0.990	yaw:	-0.695	yaw rate:	50.295	Roll:	0.015	Pitch:	-0.265	Yaw:	-6.613	Thrust:	53.894
Time:	2.534	Roll Set Point:	-0.784	Pitch Set Point:	0.073	Yaw Set Point:	0.010	X_WP:	0.743	Y_WP:	-0.028	Y_WP:	0.750	X:	0.764	Y:	-0.051	Z:	0.987	yaw:	-0.589	yaw rate:	-10.574	Roll:	-0.279	Pitch:	-0.556	Yaw:	1.647	Thrust:	55.078
Time:	2.555	Roll Set Point:	-0.784	Pitch Set Point:	0.072	Yaw Set Point:	0.014	X_WP:	0.743	Y_WP:	-0.028	Y_WP:	0.750	X:	0.763	Y:	-0.050	Z:	0.984	yaw:	-0.785	yaw rate:	19.525	Roll:	-0.426	Pitch:	-0.148	Yaw:	-2.632	Thrust:	57.765
Time:	2.575	Roll Set Point:	-0.783	Pitch Set Point:	0.072	Yaw Set Point:	0.008	X_WP:	0.743	Y_WP:	-0.028	Y_WP:	0.750	X:	0.763	Y:	-0.050	Z:	0.980	yaw:	-0.467	yaw rate:	-31.792	Roll:	-0.695	Pitch:	-0.696	Yaw:	4.485	Thrust:	56.455
Time:	2.594	Roll Set Point:	-0.781	Pitch Set Point:	0.072	Yaw Set Point:	0.012	X_WP:	0.743	Y_WP:	-0.028	Y_WP:	0.750	X:	0.762	Y:	-0.050	Z:	0.977	yaw:	-0.674	yaw rate:	20.764	Roll:	-0.816	Pitch:	-0.709	Yaw:	-2.820	Thrust:	53.187
Time:	2.617	Roll Set Point:	-0.779	Pitch Set Point:	0.072	Yaw Set Point:	0.015	X_WP:	0.743	Y_WP:	-0.028	Y_WP:	0.750	X:	0.761	Y:	-0.050	Z:	0.973	yaw:	-0.879	yaw rate:	20.424	Roll:	-0.877	Pitch:	-0.359	Yaw:	-2.336	Thrust:	63.655
Time:	2.634	Roll Set Point:	-0.777	Pitch Set Point:	0.072	Yaw Set Point:	0.008	X_WP:	0.743	Y_WP:	-0.028	Y_WP:	0.750	X:	0.760	Y:	-0.050	Z:	0.969	yaw:	-0.441	yaw rate:	-43.805	Roll:	-1.407	Pitch:	-0.731	Yaw:	6.808	Thrust:	49.963
Time:	2.654	Roll Set Point:	-0.775	Pitch Set Point:	0.071	Yaw Set Point:	0.012	X_WP:	0.743	Y_WP:	-0.028	Y_WP:	0.750	X:	0.759	Y:	-0.050	Z:	0.965	yaw:	-0.663	yaw rate:	22.245	Roll:	-1.112	Pitch:	-0.330	Yaw:	-2.746	Thrust:	55.957
Time:	2.675	Roll Set Point:	-0.772	Pitch Set Point:	0.071	Yaw Set Point:	0.011	X_WP:	0.743	Y_WP:	-0.028	Y_WP:	0.750	X:	0.758	Y:	-0.050	Z:	0.961	yaw:	-0.613	yaw rate:	-5.040	Roll:	-1.448	Pitch:	-0.600	Yaw:	0.870	Thrust:	57.200
Time:	2.694	Roll Set Point:	-0.769	Pitch Set Point:	0.071	Yaw Set Point:	0.004	X_WP:	0.743	Y_WP:	-0.028	Y_WP:	0.750	X:	0.756	Y:	-0.050	Z:	0.957	yaw:	-0.246	yaw rate:	-36.631	Roll:	-1.662	Pitch:	-0.724	Yaw:	5.645	Thrust:	54.118
Time:	2.714	Roll Set Point:	-0.767	Pitch Set Point:	0.071	Yaw Set Point:	0.013	X_WP:	0.743	Y_WP:	-0.028	Y_WP:	0.750	X:	0.755	Y:	-0.049	Z:	0.952	yaw:	-0.726	yaw rate:	47.999	Roll:	-1.398	Pitch:	-0.438	Yaw:	-5.997	Thrust:	58.274
Time:	2.736	Roll Set Point:	-0.763	Pitch Set Point:	0.071	Yaw Set Point:	0.017	X_WP:	0.743	Y_WP:	-0.028	Y_WP:	0.750	X:	0.753	Y:	-0.049	Z:	0.948	yaw:	-0.985	yaw rate:	25.882	Roll:	-1.764	Pitch:	-0.570	Yaw:	-3.359	Thrust:	59.545
Time:	2.755	Roll Set Point:	-0.760	Pitch Set Point:	0.071	Yaw Set Point:	0.001	X_WP:	0.743	Y_WP:	-0.028	Y_WP:	0.750	X:	0.752	Y:	-0.049	Z:	0.943	yaw:	-0.074	yaw rate:	-91.106	Roll:	-2.016	Pitch:	-0.825	Yaw:	13.990	Thrust:	51.936
Time:	2.775	Roll Set Point:	-0.757	Pitch Set Point:	0.071	Yaw Set Point:	0.004	X_WP:	0.743	Y_WP:	-0.028	Y_WP:	0.750	X:	0.750	Y:	-0.049	Z:	0.938	yaw:	-0.215	yaw rate:	14.108	Roll:	-1.951	Pitch:	-0.531	Yaw:	-1.019	Thrust:	57.931
Time:	2.795	Roll Set Point:	-0.754	Pitch Set Point:	0.070	Yaw Set Point:	0.012	X_WP:	0.743	Y_WP:	-0.028	Y_WP:	0.750	X:	0.748	Y:	-0.049	Z:	0.933	yaw:	-0.705	yaw rate:	49.007	Roll:	-1.880	Pitch:	-0.345	Yaw:	-6.208	Thrust:	57.874
Time:	2.817	Roll Set Point:	-0.751	Pitch Set Point:	0.070	Yaw Set Point:	-0.005	X_WP:	0.743	Y_WP:	-0.028	Y_WP:	0.750	X:	0.747	Y:	-0.049	Z:	0.928	yaw:	0.287	yaw rate:	-99.232	Roll:	-1.990	Pitch:	-0.952	Yaw:	13.782	Thrust:	57.090
Time:	2.834	Roll Set Point:	-0.747	Pitch Set Point:	0.070	Yaw Set Point:	0.000	X_WP:	0.743	Y_WP:	-0.028	Y_WP:	0.750	X:	0.745	Y:	-0.049	Z:	0.923	yaw:	-0.013	yaw rate:	30.052	Roll:	-2.244	Pitch:	-0.388	Yaw:	-3.439	Thrust:	51.504
Time:	2.855	Roll Set Point:	-0.744	Pitch Set Point:	0.070	Yaw Set Point:	0.006	X_WP:	0.743	Y_WP:	-0.028	Y_WP:	0.750	X:	0.744	Y:	-0.049	Z:	0.917	yaw:	-0.337	yaw rate:	32.378	Roll:	-2.106	Pitch:	-0.604	Yaw:	-3.652	Thrust:	58.997
Time:	2.875	Roll Set Point:	-0.741	Pitch Set Point:	0.070	Yaw Set Point:	0.009	X_WP:	0.743	Y_WP:	-0.028	Y_WP:	0.750	X:	0.742	Y:	-0.049	Z:	0.912	yaw:	-0.494	yaw rate:	15.668	Roll:	-2.015	Pitch:	-0.552	Yaw:	-1.616	Thrust:	58.341
Time:	2.894	Roll Set Point:	-0.737	Pitch Set Point:	0.069	Yaw Set Point:	0.011	X_WP:	0.743	Y_WP:	-0.028	Y_WP:	0.750	X:	0.740	Y:	-0.048	Z:	0.906	yaw:	-0.606	yaw rate:	11.193	Roll:	-2.311	Pitch:	-0.264	Yaw:	-1.374	Thrust:	55.574
Time:	2.915	Roll Set Point:	-0.734	Pitch Set Point:	0.069	Yaw Set Point:	0.005	X_WP:	0.743	Y_WP:	-0.028	Y_WP:	0.750	X:	0.739	Y:	-0.049	Z:	0.901	yaw:	-0.274	yaw rate:	-33.233	Roll:	-2.128	Pitch:	-0.859	Yaw:	4.990	Thrust:	56.616
Time:	2.938	Roll Set Point:	-0.731	Pitch Set Point:	0.068	Yaw Set Point:	0.006	X_WP:	0.743	Y_WP:	-0.028	Y_WP:	0.750	X:	0.737	Y:	-0.048	Z:	0.895	yaw:	-0.345	yaw rate:	7.176	Roll:	-2.219	Pitch:	-0.296	Yaw:	-0.023	Thrust:	66.309
Time:	2.955	Roll Set Point:	-0.728	Pitch Set Point:	0.068	Yaw Set Point:	0.009	X_WP:	0.743	Y_WP:	-0.028	Y_WP:	0.750	X:	0.736	Y:	-0.048	Z:	0.889	yaw:	-0.504	yaw rate:	15.908	Roll:	-2.301	Pitch:	-0.571	Yaw:	-2.512	Thrust:	49.689
Time:	2.975	Roll Set Point:	-0.725	Pitch Set Point:	0.068	Yaw Set Point:	0.010	X_WP:	0.743	Y_WP:	-0.028	Y_WP:	0.750	X:	0.734	Y:	-0.048	Z:	0.883	yaw:	-0.572	yaw rate:	6.753	Roll:	-2.195	Pitch:	-0.598	Yaw:	-0.606	Thrust:	58.759
Time:	2.994	Roll Set Point:	-0.723	Pitch Set Point:	0.068	Yaw Set Point:	0.009	X_WP:	0.743	Y_WP:	-0.028	Y_WP:	0.750	X:	0.733	Y:	-0.048	Z:	0.878	yaw:	-0.509	yaw rate:	-6.283	Roll:	-2.224	Pitch:	-0.519	Yaw:	1.122	Thrust:	54.954
Time:	3.018	Roll Set Point:	-0.720	Pitch Set Point:	0.068	Yaw Set Point:	0.006	X_WP:	0.743	Y_WP:	-0.028	Y_WP:	0.750	X:	0.732	Y:	-0.048	Z:	0.871	yaw:	-0.325	yaw rate:	-18.371	Roll:	-2.130	Pitch:	-0.526	Yaw:	2.755	Thrust:	65.930
Time:	3.035	Roll Set Point:	-0.717	Pitch Set Point:	0.068	Yaw Set Point:	0.007	X_WP:	0.743	Y_WP:	-0.028	Y_WP:	0.750	X:	0.730	Y:	-0.048	Z:	0.865	yaw:	-0.396	yaw rate:	7.016	Roll:	-2.423	Pitch:	-0.517	Yaw:	-0.868	Thrust:	52.569
Time:	3.055	Roll Set Point:	-0.715	Pitch Set Point:	0.067	Yaw Set Point:	0.009	X_WP:	0.743	Y_WP:	-0.028	Y_WP:	0.750	X:	0.729	Y:	-0.048	Z:	0.859	yaw:	-0.542	yaw rate:	14.639	Roll:	-2.089	Pitch:	-0.562	Yaw:	-1.510	Thrust:	60.253
Time:	3.073	Roll Set Point:	-0.713	Pitch Set Point:	0.068	Yaw Set Point:	0.006	X_WP:	0.743	Y_WP:	-0.028	Y_WP:	0.750	X:	0.728	Y:	-0.048	Z:	0.853	yaw:	-0.335	yaw rate:	-20.670	Roll:	-2.215	Pitch:	-0.666	Yaw:	3.413	Thrust:	54.908
Time:	3.094	Roll Set Point:	-0.710	Pitch Set Point:	0.067	Yaw Set Point:	0.000	X_WP:	0.743	Y_WP:	-0.028	Y_WP:	0.750	X:	0.727	Y:	-0.047	Z:	0.847	yaw:	-0.019	yaw rate:	-31.660	Roll:	-2.268	Pitch:	-0.225	Yaw:	4.968	Thrust:	61.357
Time:	3.115	Roll Set Point:	-0.708	Pitch Set Point:	0.067	Yaw Set Point:	0.002	X_WP:	0.743	Y_WP:	-0.028	Y_WP:	0.750	X:	0.726	Y:	-0.048	Z:	0.841	yaw:	-0.132	yaw rate:	11.298	Roll:	-2.004	Pitch:	-0.826	Yaw:	-0.649	Thrust:	58.580
Time:	3.135	Roll Set Point:	-0.707	Pitch Set Point:	0.067	Yaw Set Point:	0.019	X_WP:	0.743	Y_WP:	-0.028	Y_WP:	0.750	X:	0.725	Y:	-0.047	Z:	0.834	yaw:	-1.060	yaw rate:	92.887	Roll:	-1.904	Pitch:	-0.599	Yaw:	-12.248	Thrust:	60.294
Time:	3.154	Roll Set Point:	-0.705	Pitch Set Point:	0.067	Yaw Set Point:	0.008	X_WP:	0.743	Y_WP:	-0.028	Y_WP:	0.750	X:	0.724	Y:	-0.047	Z:	0.828	yaw:	-0.442	yaw rate:	-61.825	Roll:	-2.128	Pitch:	-0.389	Yaw:	8.823	Thrust:	57.924
Time:	3.174	Roll Set Point:	-0.703	Pitch Set Point:	0.067	Yaw Set Point:	0.017	X_WP:	0.743	Y_WP:	-0.028	Y_WP:	0.750	X:	0.723	Y:	-0.047	Z:	0.822	yaw:	-0.959	yaw rate:	51.716	Roll:	-1.904	Pitch:	-0.649	Yaw:	-6.975	Thrust:	60.160
Time:	3.194	Roll Set Point:	-0.702	Pitch Set Point:	0.066	Yaw Set Point:	0.011	X_WP:	0.743	Y_WP:	-0.028	Y_WP:	0.750	X:	0.723	Y:	-0.047	Z:	0.815	yaw:	-0.602	yaw rate:	-35.702	Roll:	-1.992	Pitch:	-0.469	Yaw:	4.937	Thrust:	58.461
Time:	3.219	Roll Set Point:	-0.701	Pitch Set Point:	0.066	Yaw Set Point:	0.009	X_WP:	0.743	Y_WP:	-0.028	Y_WP:	0.750	X:	0.722	Y:	-0.047	Z:	0.809	yaw:	-0.537	yaw rate:	-6.505	Roll:	-1.975	Pitch:	-0.296	Yaw:	1.150	Thrust:	68.812
Time:	3.234	Roll Set Point:	-0.700	Pitch Set Point:	0.065	Yaw Set Point:	0.012	X_WP:	0.743	Y_WP:	-0.028	Y_WP:	0.750	X:	0.721	Y:	-0.047	Z:	0.803	yaw:	-0.705	yaw rate:	16.815	Roll:	-1.716	Pitch:	-0.534	Yaw:	-3.056	Thrust:	52.893
Time:	3.254	Roll Set Point:	-0.698	Pitch Set Point:	0.065	Yaw Set Point:	0.008	X_WP:	0.743	Y_WP:	-0.028	Y_WP:	0.750	X:	0.721	Y:	-0.046	Z:	0.797	yaw:	-0.479	yaw rate:	-22.636	Roll:	-2.037	Pitch:	-0.216	Yaw:	3.218	Thrust:	60.411
Time:	3.275	Roll Set Point:	-0.697	Pitch Set Point:	0.064	Yaw Set Point:	0.009	X_WP:	0.743	Y_WP:	-0.028	Y_WP:	0.750	X:	0.720	Y:	-0.046	Z:	0.790	yaw:	-0.507	yaw rate:	2.810	Roll:	-1.897	Pitch:	-0.296	Yaw:	-0.114	Thrust:	60.043
Time:	3.295	Roll Set Point:	-0.697	Pitch Set Point:	0.064	Yaw Set Point:	0.012	X_WP:	0.743	Y_WP:	-0.028	Y_WP:	0.750	X:	0.720	Y:	-0.046	Z:	0.785	yaw:	-0.671	yaw rate:	16.353	Roll:	-1.549	Pitch:	-0.644	Yaw:	-2.104	Thrust:	59.849
Time:	3.314	Roll Set Point:	-0.696	Pitch Set Point:	0.063	Yaw Set Point:	0.009	X_WP:	0.743	Y_WP:	-0.028	Y_WP:	0.750	X:	0.720	Y:	-0.046	Z:	0.779	yaw:	-0.521	yaw rate:	-15.004	Roll:	-1.798	Pitch:	-0.328	Yaw:	2.220	Thrust:	59.261
Time:	3.334	Roll Set Point:	-0.695	Pitch Set Point:	0.063	Yaw Set Point:	0.017	X_WP:	0.743	Y_WP:	-0.028	Y_WP:	0.750	X:	0.719	Y:	-0.045	Z:	0.773	yaw:	-1.001	yaw rate:	48.026	Roll:	-1.582	Pitch:	-0.656	Yaw:	-6.600	Thrust:	60.883
Time:	3.354	Roll Set Point:	-0.695	Pitch Set Point:	0.063	Yaw Set Point:	0.012	X_WP:	0.743	Y_WP:	-0.028	Y_WP:	0.750	X:	0.719	Y:	-0.045	Z:	0.767	yaw:	-0.669	yaw rate:	-33.209	Roll:	-1.644	Pitch:	-0.176	Yaw:	4.333	Thrust:	59.455
Time:	3.374	Roll Set Point:	-0.695	Pitch Set Point:	0.062	Yaw Set Point:	0.012	X_WP:	0.743	Y_WP:	-0.028	Y_WP:	0.750	X:	0.719	Y:	-0.045	Z:	0.762	yaw:	-0.677	yaw rate:	0.768	Roll:	-1.603	Pitch:	-0.411	Yaw:	-0.098	Thrust:	60.016
Time:	3.393	Roll Set Point:	-0.695	Pitch Set Point:	0.062	Yaw Set Point:	0.014	X_WP:	0.743	Y_WP:	-0.028	Y_WP:	0.750	X:	0.719	Y:	-0.045	Z:	0.756	yaw:	-0.777	yaw rate:	10.042	Roll:	-1.442	Pitch:	-0.417	Yaw:	-1.607	Thrust:	59.240
Time:	3.416	Roll Set Point:	-0.694	Pitch Set Point:	0.061	Yaw Set Point:	0.000	X_WP:	0.743	Y_WP:	-0.028	Y_WP:	0.750	X:	0.719	Y:	-0.044	Z:	0.751	yaw:	-0.004	yaw rate:	-77.327	Roll:	-1.854	Pitch:	0.059	Yaw:	9.879	Thrust:	65.374
Time:	3.436	Roll Set Point:	-0.694	Pitch Set Point:	0.061	Yaw Set Point:	0.010	X_WP:	0.743	Y_WP:	-0.028	Y_WP:	0.750	X:	0.719	Y:	-0.044	Z:	0.746	yaw:	-0.552	yaw rate:	54.860	Roll:	-1.283	Pitch:	-0.721	Yaw:	-7.549	Thrust:	57.512
Time:	3.454	Roll Set Point:	-0.694	Pitch Set Point:	0.061	Yaw Set Point:	0.012	X_WP:	0.743	Y_WP:	-0.028	Y_WP:	0.750	X:	0.719	Y:	-0.044	Z:	0.741	yaw:	-0.691	yaw rate:	13.915	Roll:	-1.355	Pitch:	-0.412	Yaw:	-2.009	Thrust:	57.885
Time:	3.474	Roll Set Point:	-0.694	Pitch Set Point:	0.060	Yaw Set Point:	0.011	X_WP:	0.743	Y_WP:	-0.028	Y_WP:	0.750	X:	0.719	Y:	-0.044	Z:	0.736	yaw:	-0.615	yaw rate:	-7.637	Roll:	-1.407	Pitch:	-0.223	Yaw:	1.075	Thrust:	58.288
Time:	3.495	Roll Set Point:	-0.695	Pitch Set Point:	0.060	Yaw Set Point:	0.007	X_WP:	0.743	Y_WP:	-0.028	Y_WP:	0.750	X:	0.719	Y:	-0.044	Z:	0.731	yaw:	-0.428	yaw rate:	-18.658	Roll:	-1.305	Pitch:	-0.304	Yaw:	2.634	Thrust:	61.836
Time:	3.516	Roll Set Point:	-0.695	Pitch Set Point:	0.059	Yaw Set Point:	0.008	X_WP:	0.743	Y_WP:	-0.028	Y_WP:	0.750	X:	0.719	Y:	-0.044	Z:	0.727	yaw:	-0.433	yaw rate:	0.457	Roll:	-1.482	Pitch:	-0.494	Yaw:	0.260	Thrust:	61.300
Time:	3.535	Roll Set Point:	-0.696	Pitch Set Point:	0.059	Yaw Set Point:	0.007	X_WP:	0.743	Y_WP:	-0.028	Y_WP:	0.750	X:	0.720	Y:	-0.043	Z:	0.722	yaw:	-0.373	yaw rate:	-6.035	Roll:	-0.991	Pitch:	-0.206	Yaw:	1.189	Thrust:	60.339
Time:	3.554	Roll Set Point:	-0.696	Pitch Set Point:	0.058	Yaw Set Point:	0.006	X_WP:	0.743	Y_WP:	-0.028	Y_WP:	0.750	X:	0.720	Y:	-0.043	Z:	0.718	yaw:	-0.366	yaw rate:	-0.704	Roll:	-1.311	Pitch:	-0.101	Yaw:	0.444	Thrust:	56.160
Time:	3.574	Roll Set Point:	-0.697	Pitch Set Point:	0.058	Yaw Set Point:	0.012	X_WP:	0.743	Y_WP:	-0.028	Y_WP:	0.750	X:	0.720	Y:	-0.043	Z:	0.714	yaw:	-0.673	yaw rate:	30.700	Roll:	-1.165	Pitch:	-0.458	Yaw:	-3.995	Thrust:	61.230
Time:	3.594	Roll Set Point:	-0.697	Pitch Set Point:	0.057	Yaw Set Point:	0.009	X_WP:	0.743	Y_WP:	-0.028	Y_WP:	0.750	X:	0.720	Y:	-0.042	Z:	0.710	yaw:	-0.529	yaw rate:	-14.396	Roll:	-1.152	Pitch:	-0.191	Yaw:	2.091	Thrust:	57.849
Time:	3.616	Roll Set Point:	-0.698	Pitch Set Point:	0.057	Yaw Set Point:	0.005	X_WP:	0.743	Y_WP:	-0.028	Y_WP:	0.750	X:	0.721	Y:	-0.042	Z:	0.706	yaw:	-0.306	yaw rate:	-22.251	Roll:	-1.098	Pitch:	-0.228	Yaw:	3.239	Thrust:	61.593
Time:	3.634	Roll Set Point:	-0.699	Pitch Set Point:	0.056	Yaw Set Point:	0.010	X_WP:	0.743	Y_WP:	-0.028	Y_WP:	0.750	X:	0.721	Y:	-0.042	Z:	0.703	yaw:	-0.595	yaw rate:	28.857	Roll:	-1.002	Pitch:	-0.447	Yaw:	-4.045	Thrust:	57.604
Time:	3.655	Roll Set Point:	-0.700	Pitch Set Point:	0.055	Yaw Set Point:	0.008	X_WP:	0.743	Y_WP:	-0.028	Y_WP:	0.750	X:	0.722	Y:	-0.042	Z:	0.699	yaw:	-0.442	yaw rate:	-15.280	Roll:	-1.109	Pitch:	-0.034	Yaw:	2.243	Thrust:	59.981
Time:	3.675	Roll Set Point:	-0.701	Pitch Set Point:	0.055	Yaw Set Point:	0.017	X_WP:	0.743	Y_WP:	-0.028	Y_WP:	0.750	X:	0.722	Y:	-0.041	Z:	0.696	yaw:	-1.001	yaw rate:	55.890	Roll:	-0.992	Pitch:	-0.483	Yaw:	-7.804	Thrust:	61.037
Time:	3.695	Roll Set Point:	-0.702	Pitch Set Point:	0.055	Yaw Set Point:	0.007	X_WP:	0.743	Y_WP:	-0.028	Y_WP:	0.750	X:	0.722	Y:	-0.041	Z:	0.693	yaw:	-0.416	yaw rate:	-58.444	Roll:	-0.943	Pitch:	-0.155	Yaw:	8.260	Thrust:	57.845
Time:	3.715	Roll Set Point:	-0.702	Pitch Set Point:	0.054	Yaw Set Point:	0.008	X_WP:	0.743	Y_WP:	-0.028	Y_WP:	0.750	X:	0.723	Y:	-0.041	Z:	0.689	yaw:	-0.463	yaw rate:	4.664	Roll:	-1.122	Pitch:	-0.157	Yaw:	-0.328	Thrust:	60.950
Time:	3.734	Roll Set Point:	-0.703	Pitch Set Point:	0.054	Yaw Set Point:	0.010	X_WP:	0.743	Y_WP:	-0.028	Y_WP:	0.750	X:	0.723	Y:	-0.041	Z:	0.686	yaw:	-0.554	yaw rate:	9.081	Roll:	-0.965	Pitch:	-0.274	Yaw:	-1.087	Thrust:	59.696
Time:	3.756	Roll Set Point:	-0.704	Pitch Set Point:	0.053	Yaw Set Point:	0.008	X_WP:	0.743	Y_WP:	-0.028	Y_WP:	0.750	X:	0.724	Y:	-0.040	Z:	0.683	yaw:	-0.464	yaw rate:	-8.946	Roll:	-0.973	Pitch:	-0.277	Yaw:	1.384	Thrust:	63.721
Time:	3.774	Roll Set Point:	-0.705	Pitch Set Point:	0.052	Yaw Set Point:	0.006	X_WP:	0.743	Y_WP:	-0.028	Y_WP:	0.750	X:	0.724	Y:	-0.040	Z:	0.680	yaw:	-0.339	yaw rate:	-12.538	Roll:	-0.953	Pitch:	-0.058	Yaw:	2.131	Thrust:	55.601
Time:	3.794	Roll Set Point:	-0.706	Pitch Set Point:	0.052	Yaw Set Point:	0.007	X_WP:	0.743	Y_WP:	-0.028	Y_WP:	0.750	X:	0.724	Y:	-0.040	Z:	0.678	yaw:	-0.426	yaw rate:	8.728	Roll:	-0.883	Pitch:	-0.170	Yaw:	-0.868	Thrust:	57.954
Time:	3.816	Roll Set Point:	-0.706	Pitch Set Point:	0.051	Yaw Set Point:	0.006	X_WP:	0.743	Y_WP:	-0.028	Y_WP:	0.750	X:	0.725	Y:	-0.040	Z:	0.675	yaw:	-0.360	yaw rate:	-6.654	Roll:	-1.039	Pitch:	-0.174	Yaw:	1.244	Thrust:	65.360
Time:	3.834	Roll Set Point:	-0.707	Pitch Set Point:	0.051	Yaw Set Point:	0.005	X_WP:	0.743	Y_WP:	-0.028	Y_WP:	0.750	X:	0.725	Y:	-0.039	Z:	0.672	yaw:	-0.266	yaw rate:	-9.414	Roll:	-0.801	Pitch:	-0.282	Yaw:	1.765	Thrust:	57.760
Time:	3.854	Roll Set Point:	-0.708	Pitch Set Point:	0.051	Yaw Set Point:	0.010	X_WP:	0.743	Y_WP:	-0.028	Y_WP:	0.750	X:	0.726	Y:	-0.039	Z:	0.670	yaw:	-0.567	yaw rate:	30.135	Roll:	-1.029	Pitch:	-0.247	Yaw:	-3.860	Thrust:	58.889
Time:	3.874	Roll Set Point:	-0.708	Pitch Set Point:	0.050	Yaw Set Point:	0.005	X_WP:	0.743	Y_WP:	-0.028	Y_WP:	0.750	X:	0.726	Y:	-0.039	Z:	0.668	yaw:	-0.312	yaw rate:	-25.468	Roll:	-1.045	Pitch:	0.047	Yaw:	3.799	Thrust:	60.981
Time:	3.894	Roll Set Point:	-0.709	Pitch Set Point:	0.050	Yaw Set Point:	0.008	X_WP:	0.743	Y_WP:	-0.028	Y_WP:	0.750	X:	0.726	Y:	-0.039	Z:	0.665	yaw:	-0.448	yaw rate:	13.531	Roll:	-0.866	Pitch:	-0.417	Yaw:	-1.511	Thrust:	61.007
Time:	3.915	Roll Set Point:	-0.710	Pitch Set Point:	0.049	Yaw Set Point:	-0.004	X_WP:	0.743	Y_WP:	-0.028	Y_WP:	0.750	X:	0.727	Y:	-0.038	Z:	0.663	yaw:	0.229	yaw rate:	-67.709	Roll:	-0.936	Pitch:	-0.006	Yaw:	9.832	Thrust:	61.254
Time:	3.935	Roll Set Point:	-0.711	Pitch Set Point:	0.049	Yaw Set Point:	-0.008	X_WP:	0.743	Y_WP:	-0.028	Y_WP:	0.750	X:	0.727	Y:	-0.038	Z:	0.662	yaw:	0.459	yaw rate:	-22.925	Roll:	-1.071	Pitch:	-0.252	Yaw:	4.451	Thrust:	61.358
Time:	3.954	Roll Set Point:	-0.711	Pitch Set Point:	0.048	Yaw Set Point:	-0.003	X_WP:	0.743	Y_WP:	-0.028	Y_WP:	0.750	X:	0.727	Y:	-0.038	Z:	0.660	yaw:	0.184	yaw rate:	27.492	Roll:	-0.931	Pitch:	-0.248	Yaw:	-2.736	Thrust:	58.089
Time:	3.974	Roll Set Point:	-0.712	Pitch Set Point:	0.048	Yaw Set Point:	-0.008	X_WP:	0.743	Y_WP:	-0.028	Y_WP:	0.750	X:	0.728	Y:	-0.038	Z:	0.658	yaw:	0.475	yaw rate:	-29.146	Roll:	-1.053	Pitch:	-0.163	Yaw:	5.341	Thrust:	60.210
Time:	3.994	Roll Set Point:	-0.712	Pitch Set Point:	0.048	Yaw Set Point:	-0.008	X_WP:	0.743	Y_WP:	-0.028	Y_WP:	0.750	X:	0.728	Y:	-0.038	Z:	0.657	yaw:	0.441	yaw rate:	3.444	Roll:	-0.957	Pitch:	-0.235	Yaw:	1.008	Thrust:	59.622
Time:	4.015	Roll Set Point:	-0.712	Pitch Set Point:	0.048	Yaw Set Point:	-0.003	X_WP:	0.743	Y_WP:	-0.028	Y_WP:	0.750	X:	0.728	Y:	-0.038	Z:	0.655	yaw:	0.163	yaw rate:	27.800	Roll:	-1.073	Pitch:	-0.340	Yaw:	-2.323	Thrust:	62.779
Time:	4.034	Roll Set Point:	-0.713	Pitch Set Point:	0.047	Yaw Set Point:	-0.001	X_WP:	0.743	Y_WP:	-0.028	Y_WP:	0.750	X:	0.728	Y:	-0.038	Z:	0.654	yaw:	0.073	yaw rate:	9.018	Roll:	-1.050	Pitch:	-0.262	Yaw:	-0.270	Thrust:	59.079
Time:	4.054	Roll Set Point:	-0.713	Pitch Set Point:	0.047	Yaw Set Point:	-0.004	X_WP:	0.743	Y_WP:	-0.028	Y_WP:	0.750	X:	0.728	Y:	-0.038	Z:	0.653	yaw:	0.205	yaw rate:	-13.281	Roll:	-1.230	Pitch:	-0.263	Yaw:	2.891	Thrust:	61.235
Time:	4.075	Roll Set Point:	-0.713	Pitch Set Point:	0.047	Yaw Set Point:	-0.004	X_WP:	0.743	Y_WP:	-0.028	Y_WP:	0.750	X:	0.729	Y:	-0.037	Z:	0.652	yaw:	0.221	yaw rate:	-1.562	Roll:	-0.839	Pitch:	-0.263	Yaw:	1.397	Thrust:	57.987
Time:	4.095	Roll Set Point:	-0.714	Pitch Set Point:	0.047	Yaw Set Point:	-0.005	X_WP:	0.743	Y_WP:	-0.028	Y_WP:	0.750	X:	0.729	Y:	-0.037	Z:	0.651	yaw:	0.272	yaw rate:	-5.081	Roll:	-1.156	Pitch:	-0.244	Yaw:	1.916	Thrust:	62.437
Time:	4.114	Roll Set Point:	-0.714	Pitch Set Point:	0.047	Yaw Set Point:	-0.004	X_WP:	0.743	Y_WP:	-0.028	Y_WP:	0.750	X:	0.729	Y:	-0.037	Z:	0.650	yaw:	0.238	yaw rate:	3.348	Roll:	-1.060	Pitch:	-0.256	Yaw:	0.704	Thrust:	58.189
Time:	4.134	Roll Set Point:	-0.714	Pitch Set Point:	0.047	Yaw Set Point:	-0.004	X_WP:	0.743	Y_WP:	-0.028	Y_WP:	0.750	X:	0.729	Y:	-0.037	Z:	0.649	yaw:	0.229	yaw rate:	0.982	Roll:	-1.097	Pitch:	-0.406	Yaw:	1.103	Thrust:	62.796
Time:	4.154	Roll Set Point:	-0.714	Pitch Set Point:	0.046	Yaw Set Point:	-0.003	X_WP:	0.743	Y_WP:	-0.028	Y_WP:	0.750	X:	0.729	Y:	-0.037	Z:	0.649	yaw:	0.189	yaw rate:	3.948	Roll:	-1.217	Pitch:	-0.275	Yaw:	0.618	Thrust:	59.941
Time:	4.174	Roll Set Point:	-0.714	Pitch Set Point:	0.046	Yaw Set Point:	-0.004	X_WP:	0.743	Y_WP:	-0.028	Y_WP:	0.750	X:	0.729	Y:	-0.037	Z:	0.648	yaw:	0.203	yaw rate:	-1.348	Roll:	-1.125	Pitch:	-0.330	Yaw:	1.339	Thrust:	60.374
Time:	4.194	Roll Set Point:	-0.714	Pitch Set Point:	0.046	Yaw Set Point:	-0.006	X_WP:	0.743	Y_WP:	-0.028	Y_WP:	0.750	X:	0.729	Y:	-0.037	Z:	0.648	yaw:	0.356	yaw rate:	-15.373	Roll:	-1.152	Pitch:	-0.289	Yaw:	3.416	Thrust:	59.337
Time:	4.215	Roll Set Point:	-0.714	Pitch Set Point:	0.046	Yaw Set Point:	-0.003	X_WP:	0.743	Y_WP:	-0.028	Y_WP:	0.750	X:	0.729	Y:	-0.037	Z:	0.648	yaw:	0.192	yaw rate:	16.431	Roll:	-1.276	Pitch:	-0.306	Yaw:	-0.840	Thrust:	62.150
Time:	4.234	Roll Set Point:	-0.714	Pitch Set Point:	0.046	Yaw Set Point:	-0.002	X_WP:	0.743	Y_WP:	-0.028	Y_WP:	0.750	X:	0.729	Y:	-0.037	Z:	0.648	yaw:	0.116	yaw rate:	7.617	Roll:	-1.147	Pitch:	-0.352	Yaw:	-0.008	Thrust:	60.451
Time:	4.254	Roll Set Point:	-0.714	Pitch Set Point:	0.046	Yaw Set Point:	-0.007	X_WP:	0.743	Y_WP:	-0.028	Y_WP:	0.750	X:	0.729	Y:	-0.037	Z:	0.648	yaw:	0.380	yaw rate:	-26.460	Roll:	-1.167	Pitch:	-0.242	Yaw:	4.868	Thrust:	61.114
Time:	4.273	Roll Set Point:	-0.714	Pitch Set Point:	0.047	Yaw Set Point:	-0.003	X_WP:	0.743	Y_WP:	-0.028	Y_WP:	0.750	X:	0.729	Y:	-0.037	Z:	0.648	yaw:	0.169	yaw rate:	21.099	Roll:	-1.026	Pitch:	-0.585	Yaw:	-1.809	Thrust:	58.418
Time:	4.294	Roll Set Point:	-0.714	Pitch Set Point:	0.046	Yaw Set Point:	-0.004	X_WP:	0.743	Y_WP:	-0.028	Y_WP:	0.750	X:	0.729	Y:	-0.037	Z:	0.648	yaw:	0.253	yaw rate:	-8.347	Roll:	-1.437	Pitch:	-0.256	Yaw:	2.327	Thrust:	63.992
Time:	4.315	Roll Set Point:	-0.713	Pitch Set Point:	0.046	Yaw Set Point:	-0.004	X_WP:	0.743	Y_WP:	-0.028	Y_WP:	0.750	X:	0.728	Y:	-0.037	Z:	0.648	yaw:	0.232	yaw rate:	2.091	Roll:	-1.297	Pitch:	-0.392	Yaw:	0.955	Thrust:	59.771
Time:	4.337	Roll Set Point:	-0.713	Pitch Set Point:	0.047	Yaw Set Point:	-0.006	X_WP:	0.743	Y_WP:	-0.028	Y_WP:	0.750	X:	0.728	Y:	-0.037	Z:	0.648	yaw:	0.326	yaw rate:	-9.392	Roll:	-1.322	Pitch:	-0.410	Yaw:	2.554	Thrust:	68.219
Time:	4.354	Roll Set Point:	-0.713	Pitch Set Point:	0.047	Yaw Set Point:	-0.005	X_WP:	0.743	Y_WP:	-0.028	Y_WP:	0.750	X:	0.728	Y:	-0.037	Z:	0.649	yaw:	0.314	yaw rate:	1.228	Roll:	-1.142	Pitch:	-0.452	Yaw:	1.000	Thrust:	51.547
Time:	4.375	Roll Set Point:	-0.713	Pitch Set Point:	0.047	Yaw Set Point:	-0.005	X_WP:	0.743	Y_WP:	-0.028	Y_WP:	0.750	X:	0.728	Y:	-0.037	Z:	0.649	yaw:	0.260	yaw rate:	5.407	Roll:	-1.363	Pitch:	-0.393	Yaw:	0.587	Thrust:	61.850
Time:	4.394	Roll Set Point:	-0.713	Pitch Set Point:	0.047	Yaw Set Point:	-0.011	X_WP:	0.743	Y_WP:	-0.028	Y_WP:	0.750	X:	0.728	Y:	-0.038	Z:	0.650	yaw:	0.613	yaw rate:	-35.372	Roll:	-1.312	Pitch:	-0.466	Yaw:	6.485	Thrust:	58.957
Time:	4.417	Roll Set Point:	-0.712	Pitch Set Point:	0.048	Yaw Set Point:	-0.001	X_WP:	0.743	Y_WP:	-0.028	Y_WP:	0.750	X:	0.728	Y:	-0.038	Z:	0.651	yaw:	0.048	yaw rate:	56.517	Roll:	-1.309	Pitch:	-0.762	Yaw:	-5.446	Thrust:	65.623
Time:	4.434	Roll Set Point:	-0.712	Pitch Set Point:	0.048	Yaw Set Point:	0.007	X_WP:	0.743	Y_WP:	-0.028	Y_WP:	0.750	X:	0.728	Y:	-0.038	Z:	0.652	yaw:	-0.410	yaw rate:	45.772	Roll:	-1.463	Pitch:	-0.399	Yaw:	-6.576	Thrust:	56.398
Time:	4.454	Roll Set Point:	-0.711	Pitch Set Point:	0.048	Yaw Set Point:	0.004	X_WP:	0.743	Y_WP:	-0.028	Y_WP:	0.750	X:	0.727	Y:	-0.038	Z:	0.653	yaw:	-0.237	yaw rate:	-17.244	Roll:	-1.391	Pitch:	-0.399	Yaw:	2.819	Thrust:	61.088
Time:	4.474	Roll Set Point:	-0.711	Pitch Set Point:	0.048	Yaw Set Point:	0.004	X_WP:	0.743	Y_WP:	-0.028	Y_WP:	0.750	X:	0.727	Y:	-0.038	Z:	0.654	yaw:	-0.241	yaw rate:	0.389	Roll:	-1.308	Pitch:	-0.573	Yaw:	0.520	Thrust:	61.002
Time:	4.494	Roll Set Point:	-0.711	Pitch Set Point:	0.049	Yaw Set Point:	0.004	X_WP:	0.743	Y_WP:	-0.028	Y_WP:	0.750	X:	0.727	Y:	-0.038	Z:	0.655	yaw:	-0.227	yaw rate:	-1.438	Roll:	-1.247	Pitch:	-0.675	Yaw:	0.777	Thrust:	61.627
Time:	4.514	Roll Set Point:	-0.711	Pitch Set Point:	0.049	Yaw Set Point:	-0.003	X_WP:	0.743	Y_WP:	-0.028	Y_WP:	0.750	X:	0.727	Y:	-0.039	Z:	0.656	yaw:	0.193	yaw rate:	-41.921	Roll:	-1.409	Pitch:	-0.317	Yaw:	6.843	Thrust:	56.840
Time:	4.535	Roll Set Point:	-0.710	Pitch Set Point:	0.049	Yaw Set Point:	-0.007	X_WP:	0.743	Y_WP:	-0.028	Y_WP:	0.750	X:	0.727	Y:	-0.039	Z:	0.658	yaw:	0.377	yaw rate:	-18.418	Roll:	-1.425	Pitch:	-0.537	Yaw:	3.729	Thrust:	64.996
Time:	4.555	Roll Set Point:	-0.710	Pitch Set Point:	0.050	Yaw Set Point:	-0.003	X_WP:	0.743	Y_WP:	-0.028	Y_WP:	0.750	X:	0.727	Y:	-0.039	Z:	0.659	yaw:	0.157	yaw rate:	22.002	Roll:	-1.355	Pitch:	-0.637	Yaw:	-1.868	Thrust:	58.026
Time:	4.574	Roll Set Point:	-0.710	Pitch Set Point:	0.051	Yaw Set Point:	-0.013	X_WP:	0.743	Y_WP:	-0.028	Y_WP:	0.750	X:	0.727	Y:	-0.039	Z:	0.661	yaw:	0.735	yaw rate:	-57.787	Roll:	-1.377	Pitch:	-0.665	Yaw:	9.689	Thrust:	58.083
Time:	4.594	Roll Set Point:	-0.709	Pitch Set Point:	0.052	Yaw Set Point:	0.002	X_WP:	0.743	Y_WP:	-0.028	Y_WP:	0.750	X:	0.726	Y:	-0.040	Z:	0.663	yaw:	-0.087	yaw rate:	82.155	Roll:	-1.460	Pitch:	-0.938	Yaw:	-10.118	Thrust:	59.378
Time:	4.616	Roll Set Point:	-0.708	Pitch Set Point:	0.052	Yaw Set Point:	0.007	X_WP:	0.743	Y_WP:	-0.028	Y_WP:	0.750	X:	0.726	Y:	-0.040	Z:	0.665	yaw:	-0.410	yaw rate:	32.319	Roll:	-1.523	Pitch:	-0.505	Yaw:	-3.435	Thrust:	65.454
Time:	4.634	Roll Set Point:	-0.708	Pitch Set Point:	0.052	Yaw Set Point:	0.010	X_WP:	0.743	Y_WP:	-0.028	Y_WP:	0.750	X:	0.726	Y:	-0.040	Z:	0.667	yaw:	-0.559	yaw rate:	14.836	Roll:	-1.349	Pitch:	-0.761	Yaw:	-2.060	Thrust:	54.090
Time:	4.654	Roll Set Point:	-0.708	Pitch Set Point:	0.053	Yaw Set Point:	0.006	X_WP:	0.743	Y_WP:	-0.028	Y_WP:	0.750	X:	0.726	Y:	-0.040	Z:	0.669	yaw:	-0.353	yaw rate:	-20.584	Roll:	-1.385	Pitch:	-0.656	Yaw:	3.075	Thrust:	60.147
Time:	4.673	Roll Set Point:	-0.708	Pitch Set Point:	0.053	Yaw Set Point:	0.006	X_WP:	0.743	Y_WP:	-0.028	Y_WP:	0.750	X:	0.726	Y:	-0.041	Z:	0.671	yaw:	-0.335	yaw rate:	-1.735	Roll:	-1.347	Pitch:	-0.713	Yaw:	0.617	Thrust:	55.905
Time:	4.694	Roll Set Point:	-0.707	Pitch Set Point:	0.054	Yaw Set Point:	0.008	X_WP:	0.743	Y_WP:	-0.028	Y_WP:	0.750	X:	0.725	Y:	-0.041	Z:	0.673	yaw:	-0.439	yaw rate:	10.340	Roll:	-1.463	Pitch:	-0.765	Yaw:	-0.975	Thrust:	61.705
Time:	4.715	Roll Set Point:	-0.707	Pitch Set Point:	0.055	Yaw Set Point:	0.009	X_WP:	0.743	Y_WP:	-0.028	Y_WP:	0.750	X:	0.725	Y:	-0.041	Z:	0.675	yaw:	-0.511	yaw rate:	7.238	Roll:	-1.457	Pitch:	-0.712	Yaw:	-0.716	Thrust:	61.584
Time:	4.735	Roll Set Point:	-0.706	Pitch Set Point:	0.055	Yaw Set Point:	0.007	X_WP:	0.743	Y_WP:	-0.028	Y_WP:	0.750	X:	0.725	Y:	-0.041	Z:	0.677	yaw:	-0.421	yaw rate:	-9.061	Roll:	-1.443	Pitch:	-0.637	Yaw:	1.483	Thrust:	57.056
Time:	4.754	Roll Set Point:	-0.706	Pitch Set Point:	0.056	Yaw Set Point:	-0.002	X_WP:	0.744	Y_WP:	-0.028	Y_WP:	0.750	X:	0.725	Y:	-0.042	Z:	0.679	yaw:	0.114	yaw rate:	-53.448	Roll:	-1.421	Pitch:	-0.758	Yaw:	8.348	Thrust:	59.667
Time:	4.776	Roll Set Point:	-0.706	Pitch Set Point:	0.056	Yaw Set Point:	0.009	X_WP:	0.743	Y_WP:	-0.028	Y_WP:	0.750	X:	0.725	Y:	-0.042	Z:	0.681	yaw:	-0.532	yaw rate:	64.622	Roll:	-1.385	Pitch:	-0.803	Yaw:	-7.605	Thrust:	65.631
Time:	4.801	Roll Set Point:	-0.706	Pitch Set Point:	0.057	Yaw Set Point:	0.008	X_WP:	0.743	Y_WP:	-0.028	Y_WP:	0.750	X:	0.724	Y:	-0.042	Z:	0.684	yaw:	-0.468	yaw rate:	-6.415	Roll:	-1.448	Pitch:	-0.645	Yaw:	1.108	Thrust:	53.315
Time:	4.817	Roll Set Point:	-0.705	Pitch Set Point:	0.058	Yaw Set Point:	0.008	X_WP:	0.743	Y_WP:	-0.028	Y_WP:	0.750	X:	0.724	Y:	-0.043	Z:	0.686	yaw:	-0.474	yaw rate:	0.582	Roll:	-1.499	Pitch:	-1.167	Yaw:	-0.043	Thrust:	64.839
Time:	4.834	Roll Set Point:	-0.705	Pitch Set Point:	0.058	Yaw Set Point:	0.003	X_WP:	0.743	Y_WP:	-0.028	Y_WP:	0.750	X:	0.724	Y:	-0.043	Z:	0.688	yaw:	-0.176	yaw rate:	-29.817	Roll:	-1.268	Pitch:	-0.476	Yaw:	4.884	Thrust:	55.998
Time:	4.854	Roll Set Point:	-0.705	Pitch Set Point:	0.058	Yaw Set Point:	0.003	X_WP:	0.743	Y_WP:	-0.028	Y_WP:	0.750	X:	0.724	Y:	-0.043	Z:	0.690	yaw:	-0.196	yaw rate:	2.058	Roll:	-1.461	Pitch:	-0.621	Yaw:	0.322	Thrust:	59.280
Time:	4.874	Roll Set Point:	-0.704	Pitch Set Point:	0.059	Yaw Set Point:	0.011	X_WP:	0.743	Y_WP:	-0.028	Y_WP:	0.750	X:	0.724	Y:	-0.043	Z:	0.692	yaw:	-0.620	yaw rate:	42.415	Roll:	-1.533	Pitch:	-0.760	Yaw:	-5.675	Thrust:	57.752
Time:	4.894	Roll Set Point:	-0.704	Pitch Set Point:	0.059	Yaw Set Point:	0.003	X_WP:	0.743	Y_WP:	-0.028	Y_WP:	0.750	X:	0.724	Y:	-0.043	Z:	0.695	yaw:	-0.184	yaw rate:	-43.626	Roll:	-1.393	Pitch:	-0.628	Yaw:	6.294	Thrust:	58.992
Time:	4.914	Roll Set Point:	-0.704	Pitch Set Point:	0.059	Yaw Set Point:	-0.004	X_WP:	0.743	Y_WP:	-0.028	Y_WP:	0.750	X:	0.724	Y:	-0.044	Z:	0.698	yaw:	0.203	yaw rate:	-38.760	Roll:	-1.292	Pitch:	-0.627	Yaw:	6.188	Thrust:	58.946
Time:	4.935	Roll Set Point:	-0.704	Pitch Set Point:	0.060	Yaw Set Point:	0.007	X_WP:	0.743	Y_WP:	-0.028	Y_WP:	0.750	X:	0.724	Y:	-0.044	Z:	0.700	yaw:	-0.388	yaw rate:	59.100	Roll:	-1.311	Pitch:	-1.077	Yaw:	-7.544	Thrust:	58.434
Time:	4.954	Roll Set Point:	-0.704	Pitch Set Point:	0.060	Yaw Set Point:	0.009	X_WP:	0.743	Y_WP:	-0.028	Y_WP:	0.750	X:	0.723	Y:	-0.044	Z:	0.703	yaw:	-0.504	yaw rate:	11.673	Roll:	-1.585	Pitch:	-0.519	Yaw:	-1.293	Thrust:	60.617
Time:	4.974	Roll Set Point:	-0.703	Pitch Set Point:	0.060	Yaw Set Point:	0.000	X_WP:	0.743	Y_WP:	-0.028	Y_WP:	0.750	X:	0.723	Y:	-0.044	Z:	0.705	yaw:	-0.026	yaw rate:	-47.832	Roll:	-1.547	Pitch:	-0.528	Yaw:	7.154	Thrust:	57.811
Time:	4.996	Roll Set Point:	-0.703	Pitch Set Point:	0.061	Yaw Set Point:	0.010	X_WP:	0.743	Y_WP:	-0.028	Y_WP:	0.750	X:	0.723	Y:	-0.044	Z:	0.708	yaw:	-0.562	yaw rate:	53.636	Roll:	-1.195	Pitch:	-0.958	Yaw:	-6.706	Thrust:	60.766
Time:	5.017	Roll Set Point:	-0.703	Pitch Set Point:	0.061	Yaw Set Point:	0.009	X_WP:	0.743	Y_WP:	-0.028	Y_WP:	0.750	X:	0.723	Y:	-0.044	Z:	0.710	yaw:	-0.511	yaw rate:	-5.105	Roll:	-1.371	Pitch:	-0.717	Yaw:	0.837	Thrust:	65.357
Time:	5.034	Roll Set Point:	-0.703	Pitch Set Point:	0.061	Yaw Set Point:	0.005	X_WP:	0.743	Y_WP:	-0.028	Y_WP:	0.750	X:	0.723	Y:	-0.045	Z:	0.713	yaw:	-0.260	yaw rate:	-25.175	Roll:	-1.317	Pitch:	-0.568	Yaw:	4.125	Thrust:	50.758
Time:	5.054	Roll Set Point:	-0.703	Pitch Set Point:	0.062	Yaw Set Point:	0.010	X_WP:	0.743	Y_WP:	-0.028	Y_WP:	0.750	X:	0.723	Y:	-0.045	Z:	0.715	yaw:	-0.557	yaw rate:	29.757	Roll:	-1.341	Pitch:	-0.750	Yaw:	-3.816	Thrust:	58.502
Time:	5.074	Roll Set Point:	-0.703	Pitch Set Point:	0.062	Yaw Set Point:	-0.003	X_WP:	0.743	Y_WP:	-0.028	Y_WP:	0.750	X:	0.723	Y:	-0.045	Z:	0.718	yaw:	0.160	yaw rate:	-71.752	Roll:	-1.440	Pitch:	-0.537	Yaw:	10.709	Thrust:	56.288
Time:	5.095	Roll Set Point:	-0.703	Pitch Set Point:	0.062	Yaw Set Point:	0.008	X_WP:	0.743	Y_WP:	-0.028	Y_WP:	0.750	X:	0.723	Y:	-0.045	Z:	0.721	yaw:	-0.464	yaw rate:	62.420	Roll:	-1.206	Pitch:	-0.839	Yaw:	-7.800	Thrust:	59.913
Time:	5.115	Roll Set Point:	-0.703	Pitch Set Point:	0.062	Yaw Set Point:	0.009	X_WP:	0.743	Y_WP:	-0.028	Y_WP:	0.750	X:	0.723	Y:	-0.045	Z:	0.723	yaw:	-0.509	yaw rate:	4.498	Roll:	-1.457	Pitch:	-0.536	Yaw:	-0.407	Thrust:	58.476
Time:	5.136	Roll Set Point:	-0.704	Pitch Set Point:	0.062	Yaw Set Point:	-0.004	X_WP:	0.743	Y_WP:	-0.028	Y_WP:	0.750	X:	0.724	Y:	-0.045	Z:	0.726	yaw:	0.250	yaw rate:	-75.868	Roll:	-1.286	Pitch:	-0.590	Yaw:	10.594	Thrust:	60.582
Time:	5.157	Roll Set Point:	-0.703	Pitch Set Point:	0.062	Yaw Set Point:	-0.004	X_WP:	0.743	Y_WP:	-0.028	Y_WP:	0.750	X:	0.723	Y:	-0.045	Z:	0.728	yaw:	0.207	yaw rate:	4.323	Roll:	-1.468	Pitch:	-0.634	Yaw:	0.602	Thrust:	63.344
Time:	5.175	Roll Set Point:	-0.703	Pitch Set Point:	0.062	Yaw Set Point:	0.010	X_WP:	0.743	Y_WP:	-0.028	Y_WP:	0.750	X:	0.723	Y:	-0.045	Z:	0.731	yaw:	-0.601	yaw rate:	80.783	Roll:	-1.078	Pitch:	-0.744	Yaw:	-11.643	Thrust:	52.746
Time:	5.195	Roll Set Point:	-0.703	Pitch Set Point:	0.062	Yaw Set Point:	0.008	X_WP:	0.743	Y_WP:	-0.028	Y_WP:	0.750	X:	0.723	Y:	-0.045	Z:	0.733	yaw:	-0.480	yaw rate:	-12.162	Roll:	-1.478	Pitch:	-0.420	Yaw:	1.753	Thrust:	59.238
Time:	5.219	Roll Set Point:	-0.703	Pitch Set Point:	0.062	Yaw Set Point:	-0.004	X_WP:	0.743	Y_WP:	-0.028	Y_WP:	0.750	X:	0.723	Y:	-0.045	Z:	0.736	yaw:	0.219	yaw rate:	-69.896	Roll:	-1.400	Pitch:	-0.526	Yaw:	9.199	Thrust:	63.268
Time:	5.235	Roll Set Point:	-0.703	Pitch Set Point:	0.062	Yaw Set Point:	0.010	X_WP:	0.743	Y_WP:	-0.028	Y_WP:	0.750	X:	0.723	Y:	-0.045	Z:	0.738	yaw:	-0.577	yaw rate:	79.600	Roll:	-1.098	Pitch:	-0.744	Yaw:	-13.567	Thrust:	48.044
Time:	5.254	Roll Set Point:	-0.703	Pitch Set Point:	0.061	Yaw Set Point:	0.005	X_WP:	0.743	Y_WP:	-0.028	Y_WP:	0.750	X:	0.723	Y:	-0.045	Z:	0.741	yaw:	-0.308	yaw rate:	-26.846	Roll:	-1.426	Pitch:	-0.358	Yaw:	3.834	Thrust:	60.270
Time:	5.275	Roll Set Point:	-0.704	Pitch Set Point:	0.061	Yaw Set Point:	0.009	X_WP:	0.743	Y_WP:	-0.028	Y_WP:	0.750	X:	0.723	Y:	-0.045	Z:	0.743	yaw:	-0.529	yaw rate:	22.120	Roll:	-1.178	Pitch:	-0.657	Yaw:	-2.907	Thrust:	56.253
Time:	5.294	Roll Set Point:	-0.704	Pitch Set Point:	0.061	Yaw Set Point:	0.005	X_WP:	0.743	Y_WP:	-0.028	Y_WP:	0.750	X:	0.724	Y:	-0.044	Z:	0.745	yaw:	-0.285	yaw rate:	-24.426	Roll:	-1.302	Pitch:	-0.498	Yaw:	3.595	Thrust:	59.631
Time:	5.314	Roll Set Point:	-0.704	Pitch Set Point:	0.061	Yaw Set Point:	0.008	X_WP:	0.743	Y_WP:	-0.028	Y_WP:	0.750	X:	0.724	Y:	-0.044	Z:	0.747	yaw:	-0.430	yaw rate:	14.468	Roll:	-1.149	Pitch:	-0.524	Yaw:	-1.637	Thrust:	58.111
Time:	5.336	Roll Set Point:	-0.704	Pitch Set Point:	0.061	Yaw Set Point:	0.017	X_WP:	0.743	Y_WP:	-0.028	Y_WP:	0.750	X:	0.724	Y:	-0.044	Z:	0.749	yaw:	-0.972	yaw rate:	54.243	Roll:	-1.256	Pitch:	-0.642	Yaw:	-7.028	Thrust:	63.098
