Time:	0.031	Roll Set Point:	0.001	Pitch Set Point:	-0.012	Yaw Set Point:	0.079	X_WP:	0.000	Y_WP:	0.000	Y_WP:	0.000	X:	-0.000	Y:	0.006	Z:	0.057	yaw:	-4.522	yaw rate:	-0.131	Roll:	-0.028	Pitch:	0.217	Yaw:	-6.313	Thrust:	0.000
Time:	0.041	Roll Set Point:	0.001	Pitch Set Point:	-0.012	Yaw Set Point:	0.079	X_WP:	0.000	Y_WP:	0.000	Y_WP:	0.000	X:	-0.000	Y:	0.006	Z:	0.057	yaw:	-4.532	yaw rate:	1.017	Roll:	-0.038	Pitch:	0.195	Yaw:	-6.595	Thrust:	0.000
Time:	0.053	Roll Set Point:	0.001	Pitch Set Point:	-0.012	Yaw Set Point:	0.079	X_WP:	0.000	Y_WP:	0.000	Y_WP:	0.000	X:	-0.000	Y:	0.006	Z:	0.057	yaw:	-4.529	yaw rate:	-0.254	Roll:	-0.003	Pitch:	0.247	Yaw:	-6.303	Thrust:	0.000
Time:	0.065	Roll Set Point:	0.001	Pitch Set Point:	-0.012	Yaw Set Point:	0.079	X_WP:	0.000	Y_WP:	0.000	Y_WP:	0.000	X:	-0.000	Y:	0.006	Z:	0.057	yaw:	-4.520	yaw rate:	-0.943	Roll:	-0.041	Pitch:	0.226	Yaw:	-6.173	Thrust:	0.000
Time:	0.079	Roll Set Point:	0.001	Pitch Set Point:	-0.012	Yaw Set Point:	0.079	X_WP:	0.000	Y_WP:	0.000	Y_WP:	0.000	X:	-0.000	Y:	0.006	Z:	0.057	yaw:	-4.529	yaw rate:	0.954	Roll:	-0.035	Pitch:	0.223	Yaw:	-6.592	Thrust:	0.000
Time:	0.100	Roll Set Point:	0.001	Pitch Set Point:	-0.012	Yaw Set Point:	0.079	X_WP:	0.000	Y_WP:	0.000	Y_WP:	0.000	X:	-0.000	Y:	0.006	Z:	0.057	yaw:	-4.521	yaw rate:	-0.843	Roll:	-0.013	Pitch:	0.271	Yaw:	-6.361	Thrust:	0.000
Time:	0.111	Roll Set Point:	0.001	Pitch Set Point:	-0.012	Yaw Set Point:	0.079	X_WP:	0.000	Y_WP:	0.000	Y_WP:	0.000	X:	-0.000	Y:	0.006	Z:	0.057	yaw:	-4.529	yaw rate:	0.764	Roll:	-0.106	Pitch:	0.247	Yaw:	-6.606	Thrust:	0.000
Time:	0.122	Roll Set Point:	0.001	Pitch Set Point:	-0.012	Yaw Set Point:	0.079	X_WP:	0.000	Y_WP:	0.000	Y_WP:	0.000	X:	-0.000	Y:	0.006	Z:	0.057	yaw:	-4.519	yaw rate:	-1.008	Roll:	0.006	Pitch:	0.255	Yaw:	-6.192	Thrust:	0.000
Time:	0.134	Roll Set Point:	0.001	Pitch Set Point:	-0.012	Yaw Set Point:	0.079	X_WP:	0.000	Y_WP:	0.000	Y_WP:	0.000	X:	-0.000	Y:	0.006	Z:	0.057	yaw:	-4.526	yaw rate:	0.797	Roll:	0.008	Pitch:	0.254	Yaw:	-6.645	Thrust:	0.000
Time:	0.150	Roll Set Point:	0.001	Pitch Set Point:	-0.012	Yaw Set Point:	0.079	X_WP:	0.000	Y_WP:	0.000	Y_WP:	0.000	X:	-0.000	Y:	0.006	Z:	0.057	yaw:	-4.523	yaw rate:	-0.363	Roll:	-0.044	Pitch:	0.277	Yaw:	-6.475	Thrust:	0.000
Time:	0.169	Roll Set Point:	0.001	Pitch Set Point:	-0.012	Yaw Set Point:	0.079	X_WP:	0.000	Y_WP:	0.000	Y_WP:	0.000	X:	-0.000	Y:	0.006	Z:	0.057	yaw:	-4.528	yaw rate:	0.467	Roll:	-0.048	Pitch:	0.297	Yaw:	-6.687	Thrust:	0.000
Time:	0.180	Roll Set Point:	0.001	Pitch Set Point:	-0.012	Yaw Set Point:	0.079	X_WP:	0.000	Y_WP:	0.000	Y_WP:	0.000	X:	-0.000	Y:	0.006	Z:	0.057	yaw:	-4.524	yaw rate:	-0.204	Roll:	-0.019	Pitch:	0.285	Yaw:	-6.426	Thrust:	0.000
Time:	0.193	Roll Set Point:	0.001	Pitch Set Point:	-0.012	Yaw Set Point:	0.079	X_WP:	0.000	Y_WP:	0.000	Y_WP:	0.000	X:	-0.000	Y:	0.006	Z:	0.057	yaw:	-4.526	yaw rate:	0.207	Roll:	-0.078	Pitch:	0.291	Yaw:	-6.601	Thrust:	0.000
Time:	0.217	Roll Set Point:	0.001	Pitch Set Point:	-0.012	Yaw Set Point:	0.079	X_WP:	0.000	Y_WP:	0.000	Y_WP:	0.000	X:	-0.000	Y:	0.006	Z:	0.057	yaw:	-4.527	yaw rate:	0.103	Roll:	-0.033	Pitch:	0.338	Yaw:	-6.827	Thrust:	0.000
Time:	0.236	Roll Set Point:	0.001	Pitch Set Point:	-0.012	Yaw Set Point:	0.079	X_WP:	0.000	Y_WP:	0.000	Y_WP:	0.000	X:	-0.000	Y:	0.006	Z:	0.057	yaw:	-4.530	yaw rate:	0.300	Roll:	-0.040	Pitch:	0.346	Yaw:	-6.798	Thrust:	0.000
Time:	0.247	Roll Set Point:	0.001	Pitch Set Point:	-0.012	Yaw Set Point:	0.079	X_WP:	0.000	Y_WP:	0.000	Y_WP:	0.000	X:	-0.000	Y:	0.006	Z:	0.057	yaw:	-4.529	yaw rate:	0.118	Roll:	0.001	Pitch:	0.282	Yaw:	-6.561	Thrust:	0.000
Time:	0.258	Roll Set Point:	0.001	Pitch Set Point:	-0.012	Yaw Set Point:	0.079	X_WP:	0.000	Y_WP:	0.000	Y_WP:	0.000	X:	-0.000	Y:	0.006	Z:	0.057	yaw:	-4.522	yaw rate:	-0.654	Roll:	-0.052	Pitch:	0.296	Yaw:	-6.418	Thrust:	0.000
Time:	0.269	Roll Set Point:	0.001	Pitch Set Point:	-0.012	Yaw Set Point:	0.079	X_WP:	0.000	Y_WP:	0.000	Y_WP:	0.000	X:	-0.000	Y:	0.006	Z:	0.057	yaw:	-4.523	yaw rate:	0.063	Roll:	-0.045	Pitch:	0.296	Yaw:	-6.627	Thrust:	0.000
Time:	0.286	Roll Set Point:	0.001	Pitch Set Point:	-0.012	Yaw Set Point:	0.079	X_WP:	0.000	Y_WP:	0.000	Y_WP:	0.000	X:	-0.000	Y:	0.006	Z:	0.057	yaw:	-4.525	yaw rate:	0.162	Roll:	-0.074	Pitch:	0.330	Yaw:	-6.814	Thrust:	0.000
Time:	0.302	Roll Set Point:	0.001	Pitch Set Point:	-0.012	Yaw Set Point:	0.079	X_WP:	0.000	Y_WP:	0.000	Y_WP:	0.000	X:	-0.000	Y:	0.006	Z:	0.057	yaw:	-4.528	yaw rate:	0.288	Roll:	-0.036	Pitch:	0.359	Yaw:	-6.865	Thrust:	0.000
Time:	0.312	Roll Set Point:	0.001	Pitch Set Point:	-0.012	Yaw Set Point:	0.079	X_WP:	0.000	Y_WP:	0.000	Y_WP:	0.000	X:	-0.000	Y:	0.006	Z:	0.057	yaw:	-4.530	yaw rate:	0.268	Roll:	-0.026	Pitch:	0.299	Yaw:	-6.713	Thrust:	0.000
Time:	0.323	Roll Set Point:	0.001	Pitch Set Point:	-0.012	Yaw Set Point:	0.079	X_WP:	0.000	Y_WP:	0.000	Y_WP:	0.000	X:	-0.000	Y:	0.006	Z:	0.057	yaw:	-4.523	yaw rate:	-0.676	Roll:	-0.047	Pitch:	0.321	Yaw:	-6.522	Thrust:	0.000
Time:	0.339	Roll Set Point:	0.001	Pitch Set Point:	-0.012	Yaw Set Point:	0.079	X_WP:	0.000	Y_WP:	0.000	Y_WP:	0.000	X:	-0.000	Y:	0.006	Z:	0.057	yaw:	-4.521	yaw rate:	-0.508	Roll:	-0.045	Pitch:	0.346	Yaw:	-6.782	Thrust:	0.000
Time:	0.356	Roll Set Point:	0.001	Pitch Set Point:	-0.012	Yaw Set Point:	0.079	X_WP:	0.000	Y_WP:	0.000	Y_WP:	0.000	X:	-0.000	Y:	0.006	Z:	0.057	yaw:	-4.526	yaw rate:	0.502	Roll:	-0.059	Pitch:	0.399	Yaw:	-7.017	Thrust:	0.000
Time:	0.368	Roll Set Point:	0.001	Pitch Set Point:	-0.012	Yaw Set Point:	0.079	X_WP:	0.000	Y_WP:	0.000	Y_WP:	0.000	X:	-0.000	Y:	0.006	Z:	0.057	yaw:	-4.526	yaw rate:	-0.044	Roll:	-0.024	Pitch:	0.353	Yaw:	-6.824	Thrust:	0.000
Time:	0.379	Roll Set Point:	0.001	Pitch Set Point:	-0.012	Yaw Set Point:	0.079	X_WP:	0.000	Y_WP:	0.000	Y_WP:	0.000	X:	-0.000	Y:	0.006	Z:	0.057	yaw:	-4.525	yaw rate:	-0.059	Roll:	-0.044	Pitch:	0.353	Yaw:	-6.724	Thrust:	0.000
Time:	0.390	Roll Set Point:	0.001	Pitch Set Point:	-0.012	Yaw Set Point:	0.079	X_WP:	0.000	Y_WP:	0.000	Y_WP:	0.000	X:	-0.000	Y:	0.006	Z:	0.057	yaw:	-4.526	yaw rate:	0.016	Roll:	-0.022	Pitch:	0.344	Yaw:	-6.735	Thrust:	0.000
Time:	0.403	Roll Set Point:	0.001	Pitch Set Point:	-0.012	Yaw Set Point:	0.079	X_WP:	0.000	Y_WP:	0.000	Y_WP:	0.000	X:	-0.000	Y:	0.006	Z:	0.057	yaw:	-4.530	yaw rate:	0.439	Roll:	-0.056	Pitch:	0.353	Yaw:	-6.988	Thrust:	0.000
Time:	0.419	Roll Set Point:	0.001	Pitch Set Point:	-0.012	Yaw Set Point:	0.079	X_WP:	0.000	Y_WP:	0.000	Y_WP:	0.000	X:	-0.000	Y:	0.006	Z:	0.057	yaw:	-4.527	yaw rate:	-0.324	Roll:	-0.084	Pitch:	0.413	Yaw:	-6.978	Thrust:	0.000
Time:	0.437	Roll Set Point:	0.001	Pitch Set Point:	-0.012	Yaw Set Point:	0.079	X_WP:	0.000	Y_WP:	0.000	Y_WP:	0.000	X:	-0.000	Y:	0.006	Z:	0.057	yaw:	-4.527	yaw rate:	0.069	Roll:	-0.047	Pitch:	0.435	Yaw:	-7.159	Thrust:	0.000
Time:	0.448	Roll Set Point:	0.001	Pitch Set Point:	-0.012	Yaw Set Point:	0.079	X_WP:	0.000	Y_WP:	0.000	Y_WP:	0.000	X:	-0.000	Y:	0.006	Z:	0.057	yaw:	-4.519	yaw rate:	-0.804	Roll:	-0.003	Pitch:	0.373	Yaw:	-6.626	Thrust:	0.000
Time:	0.460	Roll Set Point:	0.001	Pitch Set Point:	-0.012	Yaw Set Point:	0.079	X_WP:	0.000	Y_WP:	0.000	Y_WP:	0.000	X:	-0.000	Y:	0.006	Z:	0.057	yaw:	-4.531	yaw rate:	1.204	Roll:	-0.084	Pitch:	0.366	Yaw:	-7.193	Thrust:	0.000
Time:	0.479	Roll Set Point:	0.001	Pitch Set Point:	-0.012	Yaw Set Point:	0.079	X_WP:	0.000	Y_WP:	0.000	Y_WP:	0.000	X:	-0.000	Y:	0.006	Z:	0.057	yaw:	-4.532	yaw rate:	0.088	Roll:	-0.060	Pitch:	0.466	Yaw:	-7.227	Thrust:	0.000
Time:	0.499	Roll Set Point:	0.001	Pitch Set Point:	-0.012	Yaw Set Point:	0.079	X_WP:	0.000	Y_WP:	0.000	Y_WP:	0.000	X:	-0.000	Y:	0.006	Z:	0.057	yaw:	-4.531	yaw rate:	-0.159	Roll:	-0.059	Pitch:	0.499	Yaw:	-7.380	Thrust:	0.000
Time:	0.512	Roll Set Point:	0.001	Pitch Set Point:	-0.012	Yaw Set Point:	0.079	X_WP:	0.000	Y_WP:	0.000	Y_WP:	0.000	X:	-0.000	Y:	0.006	Z:	0.057	yaw:	-4.530	yaw rate:	0.073	Roll:	-0.049	Pitch:	0.445	Yaw:	-7.008	Thrust:	0.000
Time:	0.523	Roll Set Point:	0.001	Pitch Set Point:	-0.012	Yaw Set Point:	0.079	X_WP:	0.000	Y_WP:	0.000	Y_WP:	0.000	X:	-0.000	Y:	0.006	Z:	0.057	yaw:	-4.523	yaw rate:	-0.663	Roll:	-0.049	Pitch:	0.348	Yaw:	-6.768	Thrust:	0.000
Time:	0.536	Roll Set Point:	0.001	Pitch Set Point:	-0.012	Yaw Set Point:	0.079	X_WP:	0.000	Y_WP:	0.000	Y_WP:	0.000	X:	-0.000	Y:	0.006	Z:	0.057	yaw:	-4.520	yaw rate:	-0.324	Roll:	-0.033	Pitch:	0.439	Yaw:	-6.988	Thrust:	0.000
Time:	0.569	Roll Set Point:	0.001	Pitch Set Point:	-0.012	Yaw Set Point:	0.079	X_WP:	0.000	Y_WP:	0.000	Y_WP:	0.000	X:	-0.000	Y:	0.006	Z:	0.057	yaw:	-4.523	yaw rate:	-0.743	Roll:	-0.108	Pitch:	0.747	Yaw:	-8.247	Thrust:	0.000
Time:	0.582	Roll Set Point:	0.001	Pitch Set Point:	-0.012	Yaw Set Point:	0.079	X_WP:	0.000	Y_WP:	0.000	Y_WP:	0.000	X:	-0.000	Y:	0.006	Z:	0.057	yaw:	-4.518	yaw rate:	-1.219	Roll:	-0.038	Pitch:	0.440	Yaw:	-7.048	Thrust:	0.000
Time:	0.597	Roll Set Point:	0.001	Pitch Set Point:	-0.012	Yaw Set Point:	0.079	X_WP:	0.000	Y_WP:	0.000	Y_WP:	0.000	X:	-0.000	Y:	0.006	Z:	0.057	yaw:	-4.528	yaw rate:	1.022	Roll:	-0.072	Pitch:	0.451	Yaw:	-7.402	Thrust:	0.000
Time:	0.619	Roll Set Point:	0.001	Pitch Set Point:	-0.012	Yaw Set Point:	0.079	X_WP:	0.000	Y_WP:	0.000	Y_WP:	0.000	X:	-0.000	Y:	0.006	Z:	0.057	yaw:	-4.527	yaw rate:	-0.670	Roll:	-0.061	Pitch:	0.578	Yaw:	-7.689	Thrust:	0.000
Time:	0.638	Roll Set Point:	0.001	Pitch Set Point:	-0.012	Yaw Set Point:	0.079	X_WP:	0.000	Y_WP:	0.000	Y_WP:	0.000	X:	-0.000	Y:	0.006	Z:	0.057	yaw:	-4.523	yaw rate:	-0.423	Roll:	-0.105	Pitch:	0.586	Yaw:	-7.493	Thrust:	0.000
Time:	0.649	Roll Set Point:	0.001	Pitch Set Point:	-0.012	Yaw Set Point:	0.079	X_WP:	0.000	Y_WP:	0.000	Y_WP:	0.000	X:	-0.000	Y:	0.006	Z:	0.057	yaw:	-4.529	yaw rate:	0.627	Roll:	-0.055	Pitch:	0.391	Yaw:	-7.207	Thrust:	0.000
Time:	0.662	Roll Set Point:	0.001	Pitch Set Point:	-0.012	Yaw Set Point:	0.079	X_WP:	0.000	Y_WP:	0.000	Y_WP:	0.000	X:	-0.000	Y:	0.006	Z:	0.057	yaw:	-4.522	yaw rate:	-0.747	Roll:	-0.002	Pitch:	0.428	Yaw:	-7.010	Thrust:	0.000
Time:	0.681	Roll Set Point:	0.001	Pitch Set Point:	-0.012	Yaw Set Point:	0.079	X_WP:	0.000	Y_WP:	0.000	Y_WP:	0.000	X:	-0.000	Y:	0.006	Z:	0.057	yaw:	-4.532	yaw rate:	0.142	Roll:	-0.084	Pitch:	0.585	Yaw:	-7.847	Thrust:	0.000
Time:	0.694	Roll Set Point:	0.001	Pitch Set Point:	-0.012	Yaw Set Point:	0.079	X_WP:	0.000	Y_WP:	0.000	Y_WP:	0.000	X:	-0.000	Y:	0.006	Z:	0.057	yaw:	-4.526	yaw rate:	-0.566	Roll:	-0.087	Pitch:	0.504	Yaw:	-7.055	Thrust:	0.000
Time:	0.707	Roll Set Point:	0.001	Pitch Set Point:	-0.012	Yaw Set Point:	0.079	X_WP:	0.000	Y_WP:	0.000	Y_WP:	0.000	X:	-0.000	Y:	0.006	Z:	0.057	yaw:	-4.527	yaw rate:	0.101	Roll:	-0.063	Pitch:	0.488	Yaw:	-7.326	Thrust:	0.000
Time:	0.717	Roll Set Point:	0.001	Pitch Set Point:	-0.012	Yaw Set Point:	0.079	X_WP:	0.000	Y_WP:	0.000	Y_WP:	0.000	X:	-0.000	Y:	0.006	Z:	0.057	yaw:	-4.527	yaw rate:	0.019	Roll:	-0.015	Pitch:	0.419	Yaw:	-7.070	Thrust:	0.000
Time:	0.728	Roll Set Point:	0.001	Pitch Set Point:	-0.012	Yaw Set Point:	0.079	X_WP:	0.000	Y_WP:	0.000	Y_WP:	0.000	X:	-0.000	Y:	0.006	Z:	0.057	yaw:	-4.527	yaw rate:	0.022	Roll:	-0.081	Pitch:	0.407	Yaw:	-7.164	Thrust:	0.000
Time:	0.749	Roll Set Point:	0.001	Pitch Set Point:	-0.012	Yaw Set Point:	0.079	X_WP:	0.000	Y_WP:	0.000	Y_WP:	0.000	X:	-0.000	Y:	0.006	Z:	0.057	yaw:	-4.528	yaw rate:	0.108	Roll:	-0.074	Pitch:	0.644	Yaw:	-7.892	Thrust:	0.000
Time:	0.766	Roll Set Point:	0.001	Pitch Set Point:	-0.012	Yaw Set Point:	0.079	X_WP:	0.000	Y_WP:	0.000	Y_WP:	0.000	X:	-0.000	Y:	0.006	Z:	0.057	yaw:	-4.533	yaw rate:	0.280	Roll:	-0.087	Pitch:	0.616	Yaw:	-7.817	Thrust:	0.000
Time:	0.778	Roll Set Point:	0.001	Pitch Set Point:	-0.012	Yaw Set Point:	0.079	X_WP:	0.000	Y_WP:	0.000	Y_WP:	0.000	X:	-0.000	Y:	0.006	Z:	0.057	yaw:	-4.525	yaw rate:	-0.731	Roll:	-0.053	Pitch:	0.510	Yaw:	-7.071	Thrust:	0.000
Time:	0.789	Roll Set Point:	0.001	Pitch Set Point:	-0.012	Yaw Set Point:	0.079	X_WP:	0.000	Y_WP:	0.000	Y_WP:	0.000	X:	-0.000	Y:	0.006	Z:	0.057	yaw:	-4.523	yaw rate:	-0.246	Roll:	-0.066	Pitch:	0.408	Yaw:	-7.163	Thrust:	0.000
Time:	0.802	Roll Set Point:	0.001	Pitch Set Point:	-0.012	Yaw Set Point:	0.079	X_WP:	0.000	Y_WP:	0.000	Y_WP:	0.000	X:	-0.000	Y:	0.006	Z:	0.057	yaw:	-4.520	yaw rate:	-0.580	Roll:	-0.060	Pitch:	0.532	Yaw:	-7.381	Thrust:	0.000
Time:	0.820	Roll Set Point:	0.001	Pitch Set Point:	-0.012	Yaw Set Point:	0.079	X_WP:	0.000	Y_WP:	0.000	Y_WP:	0.000	X:	-0.000	Y:	0.006	Z:	0.057	yaw:	-4.525	yaw rate:	0.513	Roll:	-0.073	Pitch:	0.635	Yaw:	-7.893	Thrust:	0.000
Time:	0.837	Roll Set Point:	0.001	Pitch Set Point:	-0.012	Yaw Set Point:	0.079	X_WP:	0.000	Y_WP:	0.000	Y_WP:	0.000	X:	-0.000	Y:	0.006	Z:	0.057	yaw:	-4.526	yaw rate:	0.168	Roll:	-0.086	Pitch:	0.557	Yaw:	-7.828	Thrust:	0.000
Time:	0.849	Roll Set Point:	0.001	Pitch Set Point:	-0.012	Yaw Set Point:	0.079	X_WP:	0.000	Y_WP:	0.000	Y_WP:	0.000	X:	-0.000	Y:	0.006	Z:	0.057	yaw:	-4.518	yaw rate:	-1.043	Roll:	-0.059	Pitch:	0.569	Yaw:	-7.129	Thrust:	0.000
Time:	0.866	Roll Set Point:	0.001	Pitch Set Point:	-0.012	Yaw Set Point:	0.079	X_WP:	0.000	Y_WP:	0.000	Y_WP:	0.000	X:	-0.000	Y:	0.006	Z:	0.057	yaw:	-4.526	yaw rate:	0.789	Roll:	-0.091	Pitch:	0.657	Yaw:	-8.059	Thrust:	0.000
Time:	0.882	Roll Set Point:	0.001	Pitch Set Point:	-0.012	Yaw Set Point:	0.079	X_WP:	0.000	Y_WP:	0.000	Y_WP:	0.000	X:	-0.000	Y:	0.006	Z:	0.057	yaw:	-4.531	yaw rate:	0.499	Roll:	-0.083	Pitch:	0.588	Yaw:	-7.793	Thrust:	0.000
Time:	0.895	Roll Set Point:	0.001	Pitch Set Point:	-0.012	Yaw Set Point:	0.079	X_WP:	0.000	Y_WP:	0.000	Y_WP:	0.000	X:	-0.000	Y:	0.006	Z:	0.057	yaw:	-4.525	yaw rate:	-0.541	Roll:	-0.058	Pitch:	0.543	Yaw:	-7.376	Thrust:	0.000
Time:	0.905	Roll Set Point:	0.001	Pitch Set Point:	-0.012	Yaw Set Point:	0.079	X_WP:	0.000	Y_WP:	0.000	Y_WP:	0.000	X:	-0.000	Y:	0.006	Z:	0.057	yaw:	-4.529	yaw rate:	0.342	Roll:	-0.097	Pitch:	0.520	Yaw:	-7.450	Thrust:	0.000
Time:	0.915	Roll Set Point:	0.001	Pitch Set Point:	-0.012	Yaw Set Point:	0.079	X_WP:	0.000	Y_WP:	0.000	Y_WP:	0.000	X:	-0.000	Y:	0.006	Z:	0.057	yaw:	-4.524	yaw rate:	-0.441	Roll:	-0.033	Pitch:	0.463	Yaw:	-7.170	Thrust:	0.000
Time:	0.928	Roll Set Point:	0.001	Pitch Set Point:	-0.012	Yaw Set Point:	0.079	X_WP:	0.000	Y_WP:	0.000	Y_WP:	0.000	X:	-0.000	Y:	0.006	Z:	0.057	yaw:	-4.524	yaw rate:	-0.005	Roll:	-0.063	Pitch:	0.555	Yaw:	-7.593	Thrust:	0.000
Time:	0.947	Roll Set Point:	0.001	Pitch Set Point:	-0.012	Yaw Set Point:	0.079	X_WP:	0.000	Y_WP:	0.000	Y_WP:	0.000	X:	-0.000	Y:	0.006	Z:	0.057	yaw:	-4.526	yaw rate:	0.175	Roll:	-0.093	Pitch:	0.735	Yaw:	-8.197	Thrust:	0.000
Time:	0.964	Roll Set Point:	0.001	Pitch Set Point:	-0.012	Yaw Set Point:	0.079	X_WP:	0.000	Y_WP:	0.000	Y_WP:	0.000	X:	-0.000	Y:	0.006	Z:	0.057	yaw:	-4.529	yaw rate:	0.254	Roll:	-0.119	Pitch:	0.660	Yaw:	-8.086	Thrust:	0.000
Time:	0.976	Roll Set Point:	0.001	Pitch Set Point:	-0.012	Yaw Set Point:	0.079	X_WP:	0.000	Y_WP:	0.000	Y_WP:	0.000	X:	-0.000	Y:	0.006	Z:	0.057	yaw:	-4.523	yaw rate:	0.022	Roll:	-0.016	Pitch:	0.594	Yaw:	-7.439	Thrust:	0.000
Time:	0.987	Roll Set Point:	0.001	Pitch Set Point:	-0.012	Yaw Set Point:	0.079	X_WP:	0.000	Y_WP:	0.000	Y_WP:	0.000	X:	-0.000	Y:	0.006	Z:	0.057	yaw:	-4.529	yaw rate:	0.550	Roll:	-0.126	Pitch:	0.514	Yaw:	-7.512	Thrust:	0.000
Time:	0.999	Roll Set Point:	0.001	Pitch Set Point:	-0.012	Yaw Set Point:	0.079	X_WP:	0.000	Y_WP:	0.000	Y_WP:	0.000	X:	-0.000	Y:	0.006	Z:	0.057	yaw:	-4.527	yaw rate:	-0.244	Roll:	-0.042	Pitch:	0.562	Yaw:	-7.597	Thrust:	0.000
Time:	1.019	Roll Set Point:	0.001	Pitch Set Point:	-0.012	Yaw Set Point:	0.079	X_WP:	0.000	Y_WP:	0.000	Y_WP:	0.000	X:	-0.000	Y:	0.006	Z:	0.057	yaw:	-4.520	yaw rate:	-0.654	Roll:	-0.092	Pitch:	0.808	Yaw:	-8.327	Thrust:	0.000
Time:	1.035	Roll Set Point:	0.001	Pitch Set Point:	-0.012	Yaw Set Point:	0.079	X_WP:	0.000	Y_WP:	0.000	Y_WP:	0.000	X:	-0.000	Y:	0.006	Z:	0.057	yaw:	-4.532	yaw rate:	1.227	Roll:	-0.096	Pitch:	0.646	Yaw:	-8.375	Thrust:	0.000
Time:	1.046	Roll Set Point:	0.001	Pitch Set Point:	-0.012	Yaw Set Point:	0.079	X_WP:	0.000	Y_WP:	0.000	Y_WP:	0.000	X:	-0.000	Y:	0.006	Z:	0.057	yaw:	-4.529	yaw rate:	-0.173	Roll:	-0.079	Pitch:	0.621	Yaw:	-7.406	Thrust:	0.000
Time:	1.058	Roll Set Point:	0.001	Pitch Set Point:	-0.012	Yaw Set Point:	0.079	X_WP:	0.000	Y_WP:	0.000	Y_WP:	0.000	X:	-0.000	Y:	0.006	Z:	0.057	yaw:	-4.520	yaw rate:	-0.898	Roll:	-0.101	Pitch:	0.553	Yaw:	-7.465	Thrust:	0.000
Time:	1.084	Roll Set Point:	0.001	Pitch Set Point:	-0.012	Yaw Set Point:	0.079	X_WP:	0.000	Y_WP:	0.000	Y_WP:	0.000	X:	-0.000	Y:	0.006	Z:	0.057	yaw:	-4.525	yaw rate:	0.487	Roll:	-0.034	Pitch:	0.658	Yaw:	-9.001	Thrust:	0.000
Time:	1.102	Roll Set Point:	0.001	Pitch Set Point:	-0.012	Yaw Set Point:	0.079	X_WP:	0.000	Y_WP:	0.000	Y_WP:	0.000	X:	-0.000	Y:	0.006	Z:	0.057	yaw:	-4.530	yaw rate:	0.520	Roll:	-0.162	Pitch:	1.178	Yaw:	-8.877	Thrust:	0.000
Time:	1.113	Roll Set Point:	0.001	Pitch Set Point:	-0.012	Yaw Set Point:	0.079	X_WP:	0.000	Y_WP:	0.000	Y_WP:	0.000	X:	-0.000	Y:	0.006	Z:	0.057	yaw:	-4.523	yaw rate:	-0.283	Roll:	-0.066	Pitch:	0.605	Yaw:	-7.445	Thrust:	0.000
Time:	1.127	Roll Set Point:	0.001	Pitch Set Point:	-0.012	Yaw Set Point:	0.079	X_WP:	0.000	Y_WP:	0.000	Y_WP:	0.000	X:	-0.000	Y:	0.006	Z:	0.057	yaw:	-4.526	yaw rate:	0.248	Roll:	-0.082	Pitch:	0.643	Yaw:	-7.972	Thrust:	0.000
Time:	1.148	Roll Set Point:	0.001	Pitch Set Point:	-0.012	Yaw Set Point:	0.079	X_WP:	0.000	Y_WP:	0.000	Y_WP:	0.000	X:	-0.000	Y:	0.006	Z:	0.057	yaw:	-4.534	yaw rate:	0.996	Roll:	-0.117	Pitch:	0.899	Yaw:	-8.910	Thrust:	0.000
Time:	1.160	Roll Set Point:	0.001	Pitch Set Point:	-0.012	Yaw Set Point:	0.079	X_WP:	0.000	Y_WP:	0.000	Y_WP:	0.000	X:	-0.000	Y:	0.006	Z:	0.057	yaw:	-4.525	yaw rate:	-0.900	Roll:	-0.108	Pitch:	0.639	Yaw:	-7.653	Thrust:	0.000
Time:	1.171	Roll Set Point:	0.001	Pitch Set Point:	-0.012	Yaw Set Point:	0.079	X_WP:	0.000	Y_WP:	0.000	Y_WP:	0.000	X:	-0.000	Y:	0.006	Z:	0.057	yaw:	-4.529	yaw rate:	0.448	Roll:	-0.037	Pitch:	0.572	Yaw:	-7.803	Thrust:	0.000
Time:	1.182	Roll Set Point:	0.001	Pitch Set Point:	-0.012	Yaw Set Point:	0.079	X_WP:	0.000	Y_WP:	0.000	Y_WP:	0.000	X:	-0.000	Y:	0.006	Z:	0.057	yaw:	-4.525	yaw rate:	-0.416	Roll:	-0.077	Pitch:	0.619	Yaw:	-7.553	Thrust:	0.000
Time:	1.196	Roll Set Point:	0.001	Pitch Set Point:	-0.012	Yaw Set Point:	0.079	X_WP:	0.000	Y_WP:	0.000	Y_WP:	0.000	X:	-0.000	Y:	0.006	Z:	0.057	yaw:	-4.525	yaw rate:	0.059	Roll:	-0.101	Pitch:	0.677	Yaw:	-8.107	Thrust:	0.000
Time:	1.219	Roll Set Point:	0.001	Pitch Set Point:	-0.012	Yaw Set Point:	0.079	X_WP:	0.000	Y_WP:	0.000	Y_WP:	0.000	X:	-0.000	Y:	0.006	Z:	0.057	yaw:	-4.527	yaw rate:	0.205	Roll:	-0.117	Pitch:	1.008	Yaw:	-9.298	Thrust:	0.000
Time:	1.234	Roll Set Point:	0.001	Pitch Set Point:	-0.012	Yaw Set Point:	0.079	X_WP:	0.000	Y_WP:	0.000	Y_WP:	0.000	X:	-0.000	Y:	0.006	Z:	0.057	yaw:	-4.524	yaw rate:	-0.331	Roll:	-0.137	Pitch:	0.754	Yaw:	-8.073	Thrust:	0.000
Time:	1.244	Roll Set Point:	0.001	Pitch Set Point:	-0.012	Yaw Set Point:	0.079	X_WP:	0.000	Y_WP:	0.000	Y_WP:	0.000	X:	-0.000	Y:	0.006	Z:	0.057	yaw:	-4.529	yaw rate:	-0.109	Roll:	-0.050	Pitch:	0.605	Yaw:	-7.903	Thrust:	0.000
Time:	1.256	Roll Set Point:	0.001	Pitch Set Point:	-0.012	Yaw Set Point:	0.079	X_WP:	0.000	Y_WP:	0.000	Y_WP:	0.000	X:	-0.000	Y:	0.006	Z:	0.057	yaw:	-4.529	yaw rate:	-0.076	Roll:	-0.059	Pitch:	0.634	Yaw:	-7.765	Thrust:	0.000
Time:	1.281	Roll Set Point:	0.001	Pitch Set Point:	-0.012	Yaw Set Point:	0.079	X_WP:	0.000	Y_WP:	0.000	Y_WP:	0.000	X:	-0.000	Y:	0.006	Z:	0.057	yaw:	-4.527	yaw rate:	-0.163	Roll:	-0.150	Pitch:	1.132	Yaw:	-9.806	Thrust:	0.000
Time:	1.301	Roll Set Point:	0.001	Pitch Set Point:	-0.012	Yaw Set Point:	0.079	X_WP:	0.000	Y_WP:	0.000	Y_WP:	0.000	X:	-0.000	Y:	0.006	Z:	0.057	yaw:	-4.527	yaw rate:	-0.033	Roll:	-0.127	Pitch:	1.010	Yaw:	-9.043	Thrust:	0.000
Time:	1.312	Roll Set Point:	0.001	Pitch Set Point:	-0.012	Yaw Set Point:	0.079	X_WP:	0.000	Y_WP:	0.000	Y_WP:	0.000	X:	-0.000	Y:	0.006	Z:	0.057	yaw:	-4.524	yaw rate:	-0.075	Roll:	-0.081	Pitch:	0.638	Yaw:	-7.783	Thrust:	0.000
Time:	1.324	Roll Set Point:	0.001	Pitch Set Point:	-0.012	Yaw Set Point:	0.079	X_WP:	0.000	Y_WP:	0.000	Y_WP:	0.000	X:	-0.000	Y:	0.006	Z:	0.057	yaw:	-4.527	yaw rate:	0.286	Roll:	-0.076	Pitch:	0.634	Yaw:	-8.057	Thrust:	0.000
Time:	1.347	Roll Set Point:	0.001	Pitch Set Point:	-0.012	Yaw Set Point:	0.079	X_WP:	0.000	Y_WP:	0.000	Y_WP:	0.000	X:	-0.000	Y:	0.006	Z:	0.057	yaw:	-4.521	yaw rate:	-0.608	Roll:	-0.147	Pitch:	1.100	Yaw:	-9.348	Thrust:	0.000
Time:	1.360	Roll Set Point:	0.001	Pitch Set Point:	-0.012	Yaw Set Point:	0.079	X_WP:	0.000	Y_WP:	0.000	Y_WP:	0.000	X:	-0.000	Y:	0.006	Z:	0.057	yaw:	-4.523	yaw rate:	0.210	Roll:	-0.065	Pitch:	0.705	Yaw:	-8.141	Thrust:	0.000
Time:	1.370	Roll Set Point:	0.001	Pitch Set Point:	-0.012	Yaw Set Point:	0.079	X_WP:	0.000	Y_WP:	0.000	Y_WP:	0.000	X:	-0.000	Y:	0.006	Z:	0.057	yaw:	-4.519	yaw rate:	-1.291	Roll:	-0.107	Pitch:	0.641	Yaw:	-7.802	Thrust:	0.000
Time:	1.380	Roll Set Point:	0.001	Pitch Set Point:	-0.012	Yaw Set Point:	0.079	X_WP:	0.000	Y_WP:	0.000	Y_WP:	0.000	X:	-0.000	Y:	0.006	Z:	0.057	yaw:	-4.526	yaw rate:	0.680	Roll:	-0.081	Pitch:	0.625	Yaw:	-7.958	Thrust:	0.000
Time:	1.395	Roll Set Point:	0.001	Pitch Set Point:	-0.012	Yaw Set Point:	0.079	X_WP:	0.000	Y_WP:	0.000	Y_WP:	0.000	X:	-0.000	Y:	0.006	Z:	0.057	yaw:	-4.530	yaw rate:	0.379	Roll:	-0.118	Pitch:	0.787	Yaw:	-8.530	Thrust:	0.000
Time:	1.416	Roll Set Point:	0.001	Pitch Set Point:	-0.012	Yaw Set Point:	0.079	X_WP:	0.000	Y_WP:	0.000	Y_WP:	0.000	X:	-0.000	Y:	0.006	Z:	0.057	yaw:	-4.523	yaw rate:	-0.703	Roll:	-0.123	Pitch:	1.105	Yaw:	-9.363	Thrust:	0.000
Time:	1.435	Roll Set Point:	0.001	Pitch Set Point:	-0.012	Yaw Set Point:	0.079	X_WP:	0.000	Y_WP:	0.000	Y_WP:	0.000	X:	-0.000	Y:	0.006	Z:	0.057	yaw:	-4.520	yaw rate:	-0.237	Roll:	-0.109	Pitch:	0.935	Yaw:	-9.219	Thrust:	0.000
Time:	1.447	Roll Set Point:	0.001	Pitch Set Point:	-0.012	Yaw Set Point:	0.079	X_WP:	0.000	Y_WP:	0.000	Y_WP:	0.000	X:	-0.000	Y:	0.006	Z:	0.057	yaw:	-4.530	yaw rate:	0.774	Roll:	-0.125	Pitch:	0.776	Yaw:	-8.349	Thrust:	0.000
Time:	1.458	Roll Set Point:	0.001	Pitch Set Point:	-0.012	Yaw Set Point:	0.079	X_WP:	0.000	Y_WP:	0.000	Y_WP:	0.000	X:	-0.000	Y:	0.006	Z:	0.057	yaw:	-4.522	yaw rate:	-0.853	Roll:	-0.094	Pitch:	0.664	Yaw:	-7.715	Thrust:	0.000
Time:	1.485	Roll Set Point:	0.001	Pitch Set Point:	-0.012	Yaw Set Point:	0.079	X_WP:	0.000	Y_WP:	0.000	Y_WP:	0.000	X:	-0.000	Y:	0.006	Z:	0.057	yaw:	-4.525	yaw rate:	0.291	Roll:	-0.150	Pitch:	1.341	Yaw:	-10.621	Thrust:	0.000
Time:	1.500	Roll Set Point:	0.001	Pitch Set Point:	-0.012	Yaw Set Point:	0.079	X_WP:	0.000	Y_WP:	0.000	Y_WP:	0.000	X:	-0.000	Y:	0.006	Z:	0.057	yaw:	-4.533	yaw rate:	0.503	Roll:	-0.127	Pitch:	0.786	Yaw:	-8.599	Thrust:	0.000
Time:	1.511	Roll Set Point:	0.001	Pitch Set Point:	-0.012	Yaw Set Point:	0.079	X_WP:	0.000	Y_WP:	0.000	Y_WP:	0.000	X:	-0.000	Y:	0.006	Z:	0.057	yaw:	-4.532	yaw rate:	-0.100	Roll:	-0.105	Pitch:	0.773	Yaw:	-8.138	Thrust:	0.000
Time:	1.521	Roll Set Point:	0.001	Pitch Set Point:	-0.012	Yaw Set Point:	0.079	X_WP:	0.000	Y_WP:	0.000	Y_WP:	0.000	X:	-0.000	Y:	0.006	Z:	0.057	yaw:	-4.532	yaw rate:	0.051	Roll:	-0.075	Pitch:	0.687	Yaw:	-7.941	Thrust:	0.000
Time:	1.534	Roll Set Point:	0.001	Pitch Set Point:	-0.012	Yaw Set Point:	0.079	X_WP:	0.000	Y_WP:	0.000	Y_WP:	0.000	X:	-0.000	Y:	0.006	Z:	0.057	yaw:	-4.527	yaw rate:	-0.474	Roll:	-0.071	Pitch:	0.766	Yaw:	-8.329	Thrust:	0.000
Time:	1.549	Roll Set Point:	0.001	Pitch Set Point:	-0.012	Yaw Set Point:	0.079	X_WP:	0.000	Y_WP:	0.000	Y_WP:	0.000	X:	-0.000	Y:	0.006	Z:	0.057	yaw:	-4.523	yaw rate:	-0.409	Roll:	-0.122	Pitch:	0.893	Yaw:	-8.697	Thrust:	0.000
Time:	1.561	Roll Set Point:	0.001	Pitch Set Point:	-0.012	Yaw Set Point:	0.079	X_WP:	0.000	Y_WP:	0.000	Y_WP:	0.000	X:	-0.000	Y:	0.006	Z:	0.057	yaw:	-4.526	yaw rate:	0.279	Roll:	-0.116	Pitch:	0.778	Yaw:	-8.437	Thrust:	0.000
Time:	1.572	Roll Set Point:	0.001	Pitch Set Point:	-0.012	Yaw Set Point:	0.079	X_WP:	0.000	Y_WP:	0.000	Y_WP:	0.000	X:	-0.000	Y:	0.006	Z:	0.057	yaw:	-4.529	yaw rate:	0.281	Roll:	-0.098	Pitch:	0.708	Yaw:	-8.140	Thrust:	0.000
Time:	1.582	Roll Set Point:	0.001	Pitch Set Point:	-0.012	Yaw Set Point:	0.079	X_WP:	0.000	Y_WP:	0.000	Y_WP:	0.000	X:	-0.000	Y:	0.006	Z:	0.057	yaw:	-4.527	yaw rate:	-0.212	Roll:	-0.084	Pitch:	0.706	Yaw:	-7.999	Thrust:	0.000
Time:	1.597	Roll Set Point:	0.001	Pitch Set Point:	-0.012	Yaw Set Point:	0.079	X_WP:	0.000	Y_WP:	0.000	Y_WP:	0.000	X:	-0.000	Y:	0.006	Z:	0.057	yaw:	-4.524	yaw rate:	-0.281	Roll:	-0.100	Pitch:	0.861	Yaw:	-8.639	Thrust:	0.000
Time:	1.616	Roll Set Point:	0.001	Pitch Set Point:	-0.012	Yaw Set Point:	0.079	X_WP:	0.000	Y_WP:	0.000	Y_WP:	0.000	X:	-0.000	Y:	0.006	Z:	0.057	yaw:	-4.528	yaw rate:	0.351	Roll:	-0.148	Pitch:	1.090	Yaw:	-9.708	Thrust:	0.000
Time:	1.634	Roll Set Point:	0.001	Pitch Set Point:	-0.012	Yaw Set Point:	0.079	X_WP:	0.000	Y_WP:	0.000	Y_WP:	0.000	X:	-0.000	Y:	0.006	Z:	0.057	yaw:	-4.528	yaw rate:	0.057	Roll:	-0.134	Pitch:	1.125	Yaw:	-9.529	Thrust:	0.000
Time:	1.645	Roll Set Point:	0.001	Pitch Set Point:	-0.012	Yaw Set Point:	0.079	X_WP:	0.000	Y_WP:	0.000	Y_WP:	0.000	X:	-0.000	Y:	0.006	Z:	0.057	yaw:	-4.529	yaw rate:	0.142	Roll:	-0.127	Pitch:	0.754	Yaw:	-8.264	Thrust:	0.000
Time:	1.656	Roll Set Point:	0.001	Pitch Set Point:	-0.012	Yaw Set Point:	0.079	X_WP:	0.000	Y_WP:	0.000	Y_WP:	0.000	X:	-0.000	Y:	0.006	Z:	0.057	yaw:	-4.524	yaw rate:	-0.478	Roll:	-0.084	Pitch:	0.728	Yaw:	-8.138	Thrust:	0.000
Time:	1.677	Roll Set Point:	0.001	Pitch Set Point:	-0.012	Yaw Set Point:	0.079	X_WP:	0.000	Y_WP:	0.000	Y_WP:	0.000	X:	-0.000	Y:	0.006	Z:	0.057	yaw:	-4.522	yaw rate:	-0.245	Roll:	-0.080	Pitch:	0.890	Yaw:	-9.112	Thrust:	0.000
Time:	1.701	Roll Set Point:	0.001	Pitch Set Point:	-0.012	Yaw Set Point:	0.079	X_WP:	0.000	Y_WP:	0.000	Y_WP:	0.000	X:	-0.000	Y:	0.006	Z:	0.057	yaw:	-4.524	yaw rate:	0.278	Roll:	-0.201	Pitch:	1.652	Yaw:	-11.446	Thrust:	0.000
Time:	1.712	Roll Set Point:	0.001	Pitch Set Point:	-0.012	Yaw Set Point:	0.079	X_WP:	0.000	Y_WP:	0.000	Y_WP:	0.000	X:	-0.000	Y:	0.006	Z:	0.057	yaw:	-4.519	yaw rate:	-0.683	Roll:	-0.120	Pitch:	0.856	Yaw:	-8.170	Thrust:	0.000
Time:	1.726	Roll Set Point:	0.001	Pitch Set Point:	-0.012	Yaw Set Point:	0.079	X_WP:	0.000	Y_WP:	0.000	Y_WP:	0.000	X:	-0.000	Y:	0.006	Z:	0.057	yaw:	-4.526	yaw rate:	0.701	Roll:	-0.113	Pitch:	0.850	Yaw:	-9.001	Thrust:	0.000
Time:	1.747	Roll Set Point:	0.001	Pitch Set Point:	-0.012	Yaw Set Point:	0.079	X_WP:	0.000	Y_WP:	0.000	Y_WP:	0.000	X:	-0.000	Y:	0.006	Z:	0.057	yaw:	-4.528	yaw rate:	0.189	Roll:	-0.156	Pitch:	1.316	Yaw:	-10.119	Thrust:	0.000
Time:	1.761	Roll Set Point:	0.001	Pitch Set Point:	-0.012	Yaw Set Point:	0.079	X_WP:	0.000	Y_WP:	0.000	Y_WP:	0.000	X:	-0.000	Y:	0.006	Z:	0.057	yaw:	-4.527	yaw rate:	-0.103	Roll:	-0.137	Pitch:	0.867	Yaw:	-8.896	Thrust:	0.000
Time:	1.772	Roll Set Point:	0.001	Pitch Set Point:	-0.012	Yaw Set Point:	0.079	X_WP:	0.000	Y_WP:	0.000	Y_WP:	0.000	X:	-0.000	Y:	0.006	Z:	0.057	yaw:	-4.523	yaw rate:	-0.116	Roll:	-0.121	Pitch:	0.838	Yaw:	-8.297	Thrust:	0.000
Time:	1.782	Roll Set Point:	0.001	Pitch Set Point:	-0.012	Yaw Set Point:	0.079	X_WP:	0.000	Y_WP:	0.000	Y_WP:	0.000	X:	-0.000	Y:	0.006	Z:	0.057	yaw:	-4.524	yaw rate:	0.082	Roll:	-0.039	Pitch:	0.721	Yaw:	-8.245	Thrust:	0.000
Time:	1.795	Roll Set Point:	0.001	Pitch Set Point:	-0.012	Yaw Set Point:	0.079	X_WP:	0.000	Y_WP:	0.000	Y_WP:	0.000	X:	-0.000	Y:	0.006	Z:	0.057	yaw:	-4.524	yaw rate:	-0.057	Roll:	-0.117	Pitch:	0.837	Yaw:	-8.681	Thrust:	0.000
Time:	1.813	Roll Set Point:	0.001	Pitch Set Point:	-0.012	Yaw Set Point:	0.079	X_WP:	0.000	Y_WP:	0.000	Y_WP:	0.000	X:	-0.000	Y:	0.006	Z:	0.057	yaw:	-4.526	yaw rate:	0.189	Roll:	-0.167	Pitch:	1.199	Yaw:	-9.799	Thrust:	0.000
Time:	1.830	Roll Set Point:	0.001	Pitch Set Point:	-0.012	Yaw Set Point:	0.079	X_WP:	0.000	Y_WP:	0.000	Y_WP:	0.000	X:	-0.000	Y:	0.006	Z:	0.057	yaw:	-4.518	yaw rate:	-0.809	Roll:	-0.108	Pitch:	1.059	Yaw:	-9.471	Thrust:	0.000
Time:	1.842	Roll Set Point:	0.001	Pitch Set Point:	-0.012	Yaw Set Point:	0.079	X_WP:	0.000	Y_WP:	0.000	Y_WP:	0.000	X:	-0.000	Y:	0.006	Z:	0.057	yaw:	-4.526	yaw rate:	0.856	Roll:	-0.141	Pitch:	0.911	Yaw:	-8.845	Thrust:	0.000
Time:	1.852	Roll Set Point:	0.001	Pitch Set Point:	-0.012	Yaw Set Point:	0.079	X_WP:	0.000	Y_WP:	0.000	Y_WP:	0.000	X:	-0.000	Y:	0.006	Z:	0.057	yaw:	-4.528	yaw rate:	0.177	Roll:	-0.106	Pitch:	0.765	Yaw:	-8.338	Thrust:	0.000
Time:	1.866	Roll Set Point:	0.001	Pitch Set Point:	-0.012	Yaw Set Point:	0.079	X_WP:	0.000	Y_WP:	0.000	Y_WP:	0.000	X:	-0.000	Y:	0.006	Z:	0.057	yaw:	-4.523	yaw rate:	-0.509	Roll:	-0.063	Pitch:	0.911	Yaw:	-8.850	Thrust:	0.000
Time:	1.881	Roll Set Point:	0.001	Pitch Set Point:	-0.012	Yaw Set Point:	0.079	X_WP:	0.000	Y_WP:	0.000	Y_WP:	0.000	X:	-0.000	Y:	0.006	Z:	0.057	yaw:	-4.526	yaw rate:	0.360	Roll:	-0.171	Pitch:	1.043	Yaw:	-9.479	Thrust:	0.000
Time:	1.900	Roll Set Point:	0.001	Pitch Set Point:	-0.012	Yaw Set Point:	0.079	X_WP:	0.000	Y_WP:	0.000	Y_WP:	0.000	X:	-0.000	Y:	0.006	Z:	0.057	yaw:	-4.528	yaw rate:	0.122	Roll:	-0.168	Pitch:	1.229	Yaw:	-10.058	Thrust:	0.000
Time:	1.911	Roll Set Point:	0.001	Pitch Set Point:	-0.012	Yaw Set Point:	0.079	X_WP:	0.000	Y_WP:	0.000	Y_WP:	0.000	X:	-0.000	Y:	0.006	Z:	0.057	yaw:	-4.525	yaw rate:	-0.310	Roll:	-0.084	Pitch:	0.908	Yaw:	-8.575	Thrust:	0.000
Time:	1.921	Roll Set Point:	0.001	Pitch Set Point:	-0.012	Yaw Set Point:	0.079	X_WP:	0.000	Y_WP:	0.000	Y_WP:	0.000	X:	-0.000	Y:	0.006	Z:	0.057	yaw:	-4.519	yaw rate:	-0.601	Roll:	-0.133	Pitch:	0.793	Yaw:	-8.157	Thrust:	0.000
Time:	1.935	Roll Set Point:	0.001	Pitch Set Point:	-0.012	Yaw Set Point:	0.079	X_WP:	0.000	Y_WP:	0.000	Y_WP:	0.000	X:	-0.000	Y:	0.006	Z:	0.057	yaw:	-4.521	yaw rate:	0.132	Roll:	-0.106	Pitch:	1.001	Yaw:	-9.246	Thrust:	0.000
Time:	1.951	Roll Set Point:	0.001	Pitch Set Point:	-0.012	Yaw Set Point:	0.079	X_WP:	0.000	Y_WP:	0.000	Y_WP:	0.000	X:	-0.000	Y:	0.006	Z:	0.057	yaw:	-4.523	yaw rate:	0.195	Roll:	-0.148	Pitch:	1.129	Yaw:	-9.566	Thrust:	0.000
Time:	1.969	Roll Set Point:	0.001	Pitch Set Point:	-0.012	Yaw Set Point:	0.079	X_WP:	0.000	Y_WP:	0.000	Y_WP:	0.000	X:	-0.000	Y:	0.006	Z:	0.057	yaw:	-4.527	yaw rate:	0.413	Roll:	-0.169	Pitch:	1.198	Yaw:	-9.819	Thrust:	0.000
Time:	1.980	Roll Set Point:	0.001	Pitch Set Point:	-0.012	Yaw Set Point:	0.079	X_WP:	0.000	Y_WP:	0.000	Y_WP:	0.000	X:	-0.000	Y:	0.006	Z:	0.057	yaw:	-4.522	yaw rate:	-0.333	Roll:	-0.083	Pitch:	0.850	Yaw:	-8.270	Thrust:	0.000
Time:	1.994	Roll Set Point:	0.001	Pitch Set Point:	-0.012	Yaw Set Point:	0.079	X_WP:	0.000	Y_WP:	0.000	Y_WP:	0.000	X:	-0.000	Y:	0.006	Z:	0.057	yaw:	-4.526	yaw rate:	0.429	Roll:	-0.104	Pitch:	1.029	Yaw:	-9.209	Thrust:	0.000
Time:	2.016	Roll Set Point:	0.001	Pitch Set Point:	-0.012	Yaw Set Point:	0.079	X_WP:	0.000	Y_WP:	0.000	Y_WP:	0.000	X:	-0.000	Y:	0.006	Z:	0.057	yaw:	-4.524	yaw rate:	-0.231	Roll:	-0.198	Pitch:	1.474	Yaw:	-10.805	Thrust:	0.000
Time:	2.029	Roll Set Point:	0.001	Pitch Set Point:	-0.012	Yaw Set Point:	0.079	X_WP:	0.000	Y_WP:	0.000	Y_WP:	0.000	X:	-0.000	Y:	0.006	Z:	0.057	yaw:	-4.527	yaw rate:	0.289	Roll:	-0.140	Pitch:	0.987	Yaw:	-8.891	Thrust:	0.000
Time:	2.040	Roll Set Point:	0.001	Pitch Set Point:	-0.012	Yaw Set Point:	0.079	X_WP:	0.000	Y_WP:	0.000	Y_WP:	0.000	X:	-0.000	Y:	0.006	Z:	0.057	yaw:	-4.529	yaw rate:	0.112	Roll:	-0.088	Pitch:	0.966	Yaw:	-8.781	Thrust:	0.000
Time:	2.053	Roll Set Point:	0.001	Pitch Set Point:	-0.012	Yaw Set Point:	0.079	X_WP:	0.000	Y_WP:	0.000	Y_WP:	0.000	X:	-0.000	Y:	0.006	Z:	0.057	yaw:	-4.533	yaw rate:	0.365	Roll:	-0.147	Pitch:	0.933	Yaw:	-8.815	Thrust:	0.000
Time:	2.081	Roll Set Point:	0.001	Pitch Set Point:	-0.012	Yaw Set Point:	0.079	X_WP:	0.000	Y_WP:	0.000	Y_WP:	0.000	X:	-0.000	Y:	0.006	Z:	0.057	yaw:	-4.526	yaw rate:	-0.694	Roll:	-0.174	Pitch:	1.332	Yaw:	-11.467	Thrust:	0.000
Time:	2.102	Roll Set Point:	0.001	Pitch Set Point:	-0.012	Yaw Set Point:	0.079	X_WP:	0.000	Y_WP:	0.000	Y_WP:	0.000	X:	-0.000	Y:	0.006	Z:	0.057	yaw:	-4.525	yaw rate:	-0.062	Roll:	-0.258	Pitch:	1.986	Yaw:	-10.828	Thrust:	0.000
Time:	2.115	Roll Set Point:	0.001	Pitch Set Point:	-0.012	Yaw Set Point:	0.079	X_WP:	0.000	Y_WP:	0.000	Y_WP:	0.000	X:	-0.000	Y:	0.006	Z:	0.057	yaw:	-4.528	yaw rate:	0.708	Roll:	-0.127	Pitch:	1.128	Yaw:	-9.187	Thrust:	0.000
Time:	2.128	Roll Set Point:	0.001	Pitch Set Point:	-0.012	Yaw Set Point:	0.079	X_WP:	0.000	Y_WP:	0.000	Y_WP:	0.000	X:	-0.000	Y:	0.006	Z:	0.057	yaw:	-4.527	yaw rate:	-0.130	Roll:	-0.105	Pitch:	0.939	Yaw:	-8.699	Thrust:	0.000
Time:	2.151	Roll Set Point:	0.001	Pitch Set Point:	-0.012	Yaw Set Point:	0.079	X_WP:	0.000	Y_WP:	0.000	Y_WP:	0.000	X:	-0.000	Y:	0.006	Z:	0.057	yaw:	-4.522	yaw rate:	-0.462	Roll:	-0.215	Pitch:	1.659	Yaw:	-10.882	Thrust:	0.000
Time:	2.163	Roll Set Point:	0.001	Pitch Set Point:	-0.012	Yaw Set Point:	0.079	X_WP:	0.000	Y_WP:	0.000	Y_WP:	0.000	X:	-0.000	Y:	0.006	Z:	0.057	yaw:	-4.521	yaw rate:	-0.170	Roll:	-0.168	Pitch:	1.016	Yaw:	-8.884	Thrust:	0.000
Time:	2.175	Roll Set Point:	0.001	Pitch Set Point:	-0.012	Yaw Set Point:	0.079	X_WP:	0.000	Y_WP:	0.000	Y_WP:	0.000	X:	-0.000	Y:	0.006	Z:	0.057	yaw:	-4.522	yaw rate:	0.121	Roll:	-0.081	Pitch:	0.959	Yaw:	-8.648	Thrust:	0.000
Time:	2.187	Roll Set Point:	0.001	Pitch Set Point:	-0.012	Yaw Set Point:	0.079	X_WP:	0.000	Y_WP:	0.000	Y_WP:	0.000	X:	-0.000	Y:	0.006	Z:	0.057	yaw:	-4.519	yaw rate:	-0.313	Roll:	-0.124	Pitch:	0.952	Yaw:	-8.651	Thrust:	0.000
Time:	2.206	Roll Set Point:	0.001	Pitch Set Point:	-0.012	Yaw Set Point:	0.079	X_WP:	0.000	Y_WP:	0.000	Y_WP:	0.000	X:	-0.000	Y:	0.006	Z:	0.057	yaw:	-4.524	yaw rate:	0.584	Roll:	-0.187	Pitch:	1.411	Yaw:	-10.207	Thrust:	0.000
Time:	2.223	Roll Set Point:	0.001	Pitch Set Point:	-0.012	Yaw Set Point:	0.079	X_WP:	0.000	Y_WP:	0.000	Y_WP:	0.000	X:	-0.000	Y:	0.006	Z:	0.057	yaw:	-4.527	yaw rate:	0.619	Roll:	-0.161	Pitch:	1.338	Yaw:	-9.873	Thrust:	0.000
Time:	2.240	Roll Set Point:	0.001	Pitch Set Point:	-0.012	Yaw Set Point:	0.079	X_WP:	0.000	Y_WP:	0.000	Y_WP:	0.000	X:	-0.000	Y:	0.006	Z:	0.057	yaw:	-4.521	yaw rate:	-0.568	Roll:	-0.188	Pitch:	1.290	Yaw:	-9.640	Thrust:	0.000
Time:	2.251	Roll Set Point:	0.001	Pitch Set Point:	-0.012	Yaw Set Point:	0.079	X_WP:	0.000	Y_WP:	0.000	Y_WP:	0.000	X:	-0.000	Y:	0.006	Z:	0.057	yaw:	-4.523	yaw rate:	0.127	Roll:	-0.096	Pitch:	0.957	Yaw:	-8.551	Thrust:	0.000
Time:	2.267	Roll Set Point:	0.001	Pitch Set Point:	-0.012	Yaw Set Point:	0.079	X_WP:	0.000	Y_WP:	0.000	Y_WP:	0.000	X:	-0.000	Y:	0.006	Z:	0.057	yaw:	-4.527	yaw rate:	0.097	Roll:	-0.151	Pitch:	1.127	Yaw:	-9.399	Thrust:	0.000
Time:	2.290	Roll Set Point:	0.001	Pitch Set Point:	-0.012	Yaw Set Point:	0.079	X_WP:	0.000	Y_WP:	0.000	Y_WP:	0.000	X:	-0.000	Y:	0.006	Z:	0.057	yaw:	-4.530	yaw rate:	0.286	Roll:	-0.216	Pitch:	1.782	Yaw:	-10.776	Thrust:	0.000
Time:	2.308	Roll Set Point:	0.001	Pitch Set Point:	-0.012	Yaw Set Point:	0.079	X_WP:	0.000	Y_WP:	0.000	Y_WP:	0.000	X:	-0.000	Y:	0.006	Z:	0.057	yaw:	-4.533	yaw rate:	0.292	Roll:	-0.199	Pitch:	1.403	Yaw:	-10.189	Thrust:	0.000
Time:	2.319	Roll Set Point:	0.001	Pitch Set Point:	-0.012	Yaw Set Point:	0.079	X_WP:	0.000	Y_WP:	0.000	Y_WP:	0.000	X:	-0.000	Y:	0.006	Z:	0.057	yaw:	-4.534	yaw rate:	0.113	Roll:	-0.112	Pitch:	1.049	Yaw:	-8.563	Thrust:	0.000
Time:	2.350	Roll Set Point:	0.001	Pitch Set Point:	-0.012	Yaw Set Point:	0.079	X_WP:	0.000	Y_WP:	0.000	Y_WP:	0.000	X:	-0.000	Y:	0.006	Z:	0.057	yaw:	-4.526	yaw rate:	-0.801	Roll:	-0.199	Pitch:	2.256	Yaw:	-12.478	Thrust:	0.000
Time:	2.363	Roll Set Point:	0.001	Pitch Set Point:	-0.012	Yaw Set Point:	0.079	X_WP:	0.000	Y_WP:	0.000	Y_WP:	0.000	X:	-0.000	Y:	0.006	Z:	0.057	yaw:	-4.524	yaw rate:	-0.356	Roll:	-0.243	Pitch:	1.139	Yaw:	-8.993	Thrust:	0.000
Time:	2.376	Roll Set Point:	0.001	Pitch Set Point:	-0.012	Yaw Set Point:	0.079	X_WP:	0.000	Y_WP:	0.000	Y_WP:	0.000	X:	-0.000	Y:	0.006	Z:	0.057	yaw:	-4.529	yaw rate:	0.443	Roll:	-0.143	Pitch:	1.152	Yaw:	-9.021	Thrust:	0.000
Time:	2.387	Roll Set Point:	0.001	Pitch Set Point:	-0.012	Yaw Set Point:	0.079	X_WP:	0.000	Y_WP:	0.000	Y_WP:	0.000	X:	-0.000	Y:	0.006	Z:	0.057	yaw:	-4.528	yaw rate:	-0.080	Roll:	-0.119	Pitch:	0.881	Yaw:	-8.306	Thrust:	0.000
Time:	2.403	Roll Set Point:	0.001	Pitch Set Point:	-0.012	Yaw Set Point:	0.079	X_WP:	0.000	Y_WP:	0.000	Y_WP:	0.000	X:	-0.000	Y:	0.006	Z:	0.057	yaw:	-4.524	yaw rate:	-0.386	Roll:	-0.158	Pitch:	1.258	Yaw:	-9.463	Thrust:	0.000
Time:	2.420	Roll Set Point:	0.001	Pitch Set Point:	-0.012	Yaw Set Point:	0.079	X_WP:	0.000	Y_WP:	0.000	Y_WP:	0.000	X:	-0.000	Y:	0.006	Z:	0.057	yaw:	-4.526	yaw rate:	0.260	Roll:	-0.184	Pitch:	1.434	Yaw:	-9.873	Thrust:	0.000
Time:	2.439	Roll Set Point:	0.001	Pitch Set Point:	-0.012	Yaw Set Point:	0.079	X_WP:	0.000	Y_WP:	0.000	Y_WP:	0.000	X:	-0.000	Y:	0.006	Z:	0.057	yaw:	-4.519	yaw rate:	-0.970	Roll:	-0.213	Pitch:	1.579	Yaw:	-10.019	Thrust:	0.000
Time:	2.450	Roll Set Point:	0.001	Pitch Set Point:	-0.012	Yaw Set Point:	0.079	X_WP:	0.000	Y_WP:	0.000	Y_WP:	0.000	X:	-0.000	Y:	0.006	Z:	0.057	yaw:	-4.525	yaw rate:	0.684	Roll:	-0.123	Pitch:	0.998	Yaw:	-8.597	Thrust:	0.000
Time:	2.464	Roll Set Point:	0.001	Pitch Set Point:	-0.012	Yaw Set Point:	0.079	X_WP:	0.000	Y_WP:	0.000	Y_WP:	0.000	X:	-0.000	Y:	0.006	Z:	0.057	yaw:	-4.526	yaw rate:	0.006	Roll:	-0.156	Pitch:	1.174	Yaw:	-9.128	Thrust:	0.000
Time:	2.487	Roll Set Point:	0.001	Pitch Set Point:	-0.012	Yaw Set Point:	0.079	X_WP:	0.000	Y_WP:	0.000	Y_WP:	0.000	X:	-0.000	Y:	0.006	Z:	0.057	yaw:	-4.524	yaw rate:	-0.137	Roll:	-0.222	Pitch:	1.851	Yaw:	-10.814	Thrust:	0.000
Time:	2.506	Roll Set Point:	0.001	Pitch Set Point:	-0.012	Yaw Set Point:	0.079	X_WP:	0.000	Y_WP:	0.000	Y_WP:	0.000	X:	-0.000	Y:	0.006	Z:	0.057	yaw:	-4.521	yaw rate:	-0.354	Roll:	-0.174	Pitch:	1.511	Yaw:	-10.183	Thrust:	0.000
Time:	2.517	Roll Set Point:	0.001	Pitch Set Point:	-0.012	Yaw Set Point:	0.079	X_WP:	0.000	Y_WP:	0.000	Y_WP:	0.000	X:	-0.000	Y:	0.006	Z:	0.057	yaw:	-4.527	yaw rate:	-0.415	Roll:	-0.160	Pitch:	1.047	Yaw:	-8.678	Thrust:	0.000
Time:	2.528	Roll Set Point:	0.001	Pitch Set Point:	-0.012	Yaw Set Point:	0.079	X_WP:	0.000	Y_WP:	0.000	Y_WP:	0.000	X:	-0.000	Y:	0.006	Z:	0.057	yaw:	-4.519	yaw rate:	-0.759	Roll:	-0.132	Pitch:	1.071	Yaw:	-8.337	Thrust:	0.000
Time:	2.551	Roll Set Point:	0.001	Pitch Set Point:	-0.012	Yaw Set Point:	0.079	X_WP:	0.000	Y_WP:	0.000	Y_WP:	0.000	X:	-0.000	Y:	0.006	Z:	0.057	yaw:	-4.522	yaw rate:	0.283	Roll:	-0.243	Pitch:	1.851	Yaw:	-10.875	Thrust:	0.000
Time:	2.569	Roll Set Point:	0.001	Pitch Set Point:	-0.012	Yaw Set Point:	0.079	X_WP:	0.000	Y_WP:	0.000	Y_WP:	0.000	X:	-0.000	Y:	0.006	Z:	0.057	yaw:	-4.524	yaw rate:	0.184	Roll:	-0.149	Pitch:	1.267	Yaw:	-9.856	Thrust:	0.000
Time:	2.582	Roll Set Point:	0.001	Pitch Set Point:	-0.012	Yaw Set Point:	0.079	X_WP:	0.000	Y_WP:	0.000	Y_WP:	0.000	X:	-0.000	Y:	0.006	Z:	0.057	yaw:	-4.524	yaw rate:	-0.394	Roll:	-0.196	Pitch:	1.462	Yaw:	-8.991	Thrust:	0.000
Time:	2.593	Roll Set Point:	0.001	Pitch Set Point:	-0.012	Yaw Set Point:	0.079	X_WP:	0.000	Y_WP:	0.000	Y_WP:	0.000	X:	-0.000	Y:	0.006	Z:	0.057	yaw:	-4.532	yaw rate:	0.745	Roll:	-0.118	Pitch:	1.080	Yaw:	-8.805	Thrust:	0.000
Time:	2.613	Roll Set Point:	0.001	Pitch Set Point:	-0.012	Yaw Set Point:	0.079	X_WP:	0.000	Y_WP:	0.000	Y_WP:	0.000	X:	-0.000	Y:	0.006	Z:	0.057	yaw:	-4.530	yaw rate:	-0.182	Roll:	-0.209	Pitch:	1.603	Yaw:	-10.214	Thrust:	0.000
Time:	2.628	Roll Set Point:	0.001	Pitch Set Point:	-0.012	Yaw Set Point:	0.079	X_WP:	0.000	Y_WP:	0.000	Y_WP:	0.000	X:	-0.000	Y:	0.006	Z:	0.057	yaw:	-4.522	yaw rate:	-0.825	Roll:	-0.192	Pitch:	1.461	Yaw:	-9.295	Thrust:	0.000
Time:	2.640	Roll Set Point:	0.001	Pitch Set Point:	-0.012	Yaw Set Point:	0.079	X_WP:	0.000	Y_WP:	0.000	Y_WP:	0.000	X:	-0.000	Y:	0.006	Z:	0.057	yaw:	-4.526	yaw rate:	0.545	Roll:	-0.141	Pitch:	1.072	Yaw:	-8.732	Thrust:	0.000
Time:	2.650	Roll Set Point:	0.001	Pitch Set Point:	-0.012	Yaw Set Point:	0.079	X_WP:	0.000	Y_WP:	0.000	Y_WP:	0.000	X:	-0.000	Y:	0.006	Z:	0.057	yaw:	-4.522	yaw rate:	-0.361	Roll:	-0.123	Pitch:	1.014	Yaw:	-8.331	Thrust:	0.000
Time:	2.668	Roll Set Point:	0.001	Pitch Set Point:	-0.012	Yaw Set Point:	0.079	X_WP:	0.000	Y_WP:	0.000	Y_WP:	0.000	X:	-0.000	Y:	0.006	Z:	0.057	yaw:	-4.527	yaw rate:	0.456	Roll:	-0.182	Pitch:	1.513	Yaw:	-9.738	Thrust:	0.000
Time:	2.685	Roll Set Point:	0.001	Pitch Set Point:	-0.012	Yaw Set Point:	0.079	X_WP:	0.000	Y_WP:	0.000	Y_WP:	0.000	X:	-0.000	Y:	0.006	Z:	0.057	yaw:	-4.520	yaw rate:	-0.154	Roll:	-0.209	Pitch:	1.414	Yaw:	-9.732	Thrust:	0.000
Time:	2.702	Roll Set Point:	0.001	Pitch Set Point:	-0.012	Yaw Set Point:	0.079	X_WP:	0.000	Y_WP:	0.000	Y_WP:	0.000	X:	-0.000	Y:	0.006	Z:	0.057	yaw:	-4.520	yaw rate:	-0.041	Roll:	-0.181	Pitch:	1.620	Yaw:	-9.723	Thrust:	0.000
Time:	2.712	Roll Set Point:	0.001	Pitch Set Point:	-0.012	Yaw Set Point:	0.079	X_WP:	0.000	Y_WP:	0.000	Y_WP:	0.000	X:	-0.000	Y:	0.006	Z:	0.057	yaw:	-4.519	yaw rate:	-0.123	Roll:	-0.138	Pitch:	1.038	Yaw:	-8.388	Thrust:	0.000
Time:	2.723	Roll Set Point:	0.001	Pitch Set Point:	-0.012	Yaw Set Point:	0.079	X_WP:	0.000	Y_WP:	0.000	Y_WP:	0.000	X:	-0.000	Y:	0.006	Z:	0.057	yaw:	-4.525	yaw rate:	0.691	Roll:	-0.145	Pitch:	1.010	Yaw:	-8.688	Thrust:	0.000
Time:	2.746	Roll Set Point:	0.001	Pitch Set Point:	-0.012	Yaw Set Point:	0.079	X_WP:	0.000	Y_WP:	0.000	Y_WP:	0.000	X:	-0.000	Y:	0.006	Z:	0.057	yaw:	-4.524	yaw rate:	-0.118	Roll:	-0.173	Pitch:	1.407	Yaw:	-9.208	Thrust:	0.000
Time:	2.761	Roll Set Point:	0.001	Pitch Set Point:	-0.012	Yaw Set Point:	0.079	X_WP:	0.000	Y_WP:	0.000	Y_WP:	0.000	X:	-0.000	Y:	0.006	Z:	0.057	yaw:	-4.527	yaw rate:	0.388	Roll:	-0.275	Pitch:	2.032	Yaw:	-11.067	Thrust:	0.000
Time:	2.773	Roll Set Point:	0.001	Pitch Set Point:	-0.012	Yaw Set Point:	0.079	X_WP:	0.000	Y_WP:	0.000	Y_WP:	0.000	X:	-0.000	Y:	0.006	Z:	0.057	yaw:	-4.523	yaw rate:	-0.347	Roll:	-0.139	Pitch:	1.222	Yaw:	-8.561	Thrust:	0.000
Time:	2.783	Roll Set Point:	0.001	Pitch Set Point:	-0.012	Yaw Set Point:	0.079	X_WP:	0.000	Y_WP:	0.000	Y_WP:	0.000	X:	-0.000	Y:	0.006	Z:	0.057	yaw:	-4.521	yaw rate:	-0.235	Roll:	-0.119	Pitch:	1.019	Yaw:	-8.257	Thrust:	0.000
Time:	2.795	Roll Set Point:	0.001	Pitch Set Point:	-0.012	Yaw Set Point:	0.079	X_WP:	0.000	Y_WP:	0.000	Y_WP:	0.000	X:	-0.000	Y:	0.006	Z:	0.057	yaw:	-4.523	yaw rate:	0.244	Roll:	-0.135	Pitch:	1.099	Yaw:	-8.680	Thrust:	0.000
Time:	2.815	Roll Set Point:	0.001	Pitch Set Point:	-0.012	Yaw Set Point:	0.079	X_WP:	0.000	Y_WP:	0.000	Y_WP:	0.000	X:	-0.000	Y:	0.006	Z:	0.057	yaw:	-4.522	yaw rate:	-0.138	Roll:	-0.224	Pitch:	1.784	Yaw:	-10.287	Thrust:	0.000
Time:	2.832	Roll Set Point:	0.001	Pitch Set Point:	-0.012	Yaw Set Point:	0.079	X_WP:	0.000	Y_WP:	0.000	Y_WP:	0.000	X:	-0.000	Y:	0.006	Z:	0.057	yaw:	-4.523	yaw rate:	0.083	Roll:	-0.235	Pitch:	1.672	Yaw:	-9.839	Thrust:	0.000
Time:	2.843	Roll Set Point:	0.001	Pitch Set Point:	-0.012	Yaw Set Point:	0.079	X_WP:	0.000	Y_WP:	0.000	Y_WP:	0.000	X:	-0.000	Y:	0.006	Z:	0.057	yaw:	-4.525	yaw rate:	-0.305	Roll:	-0.104	Pitch:	1.100	Yaw:	-8.444	Thrust:	0.000
Time:	2.853	Roll Set Point:	0.001	Pitch Set Point:	-0.012	Yaw Set Point:	0.079	X_WP:	0.000	Y_WP:	0.000	Y_WP:	0.000	X:	-0.000	Y:	0.006	Z:	0.057	yaw:	-4.523	yaw rate:	-0.183	Roll:	-0.163	Pitch:	1.049	Yaw:	-8.376	Thrust:	0.000
Time:	2.869	Roll Set Point:	0.001	Pitch Set Point:	-0.012	Yaw Set Point:	0.079	X_WP:	0.000	Y_WP:	0.000	Y_WP:	0.000	X:	-0.000	Y:	0.006	Z:	0.057	yaw:	-4.524	yaw rate:	0.073	Roll:	-0.174	Pitch:	1.503	Yaw:	-9.438	Thrust:	0.000
Time:	2.892	Roll Set Point:	0.001	Pitch Set Point:	-0.012	Yaw Set Point:	0.079	X_WP:	0.000	Y_WP:	0.000	Y_WP:	0.000	X:	-0.000	Y:	0.006	Z:	0.057	yaw:	-4.523	yaw rate:	-0.082	Roll:	-0.264	Pitch:	2.031	Yaw:	-10.924	Thrust:	0.000
Time:	2.905	Roll Set Point:	0.001	Pitch Set Point:	-0.012	Yaw Set Point:	0.079	X_WP:	0.000	Y_WP:	0.000	Y_WP:	0.000	X:	-0.000	Y:	0.006	Z:	0.057	yaw:	-4.533	yaw rate:	0.350	Roll:	-0.220	Pitch:	1.429	Yaw:	-9.222	Thrust:	0.000
Time:	2.915	Roll Set Point:	0.001	Pitch Set Point:	-0.012	Yaw Set Point:	0.079	X_WP:	0.000	Y_WP:	0.000	Y_WP:	0.000	X:	-0.000	Y:	0.006	Z:	0.057	yaw:	-4.528	yaw rate:	-0.472	Roll:	-0.082	Pitch:	1.124	Yaw:	-8.230	Thrust:	0.000
Time:	2.928	Roll Set Point:	0.001	Pitch Set Point:	-0.012	Yaw Set Point:	0.079	X_WP:	0.000	Y_WP:	0.000	Y_WP:	0.000	X:	-0.000	Y:	0.006	Z:	0.057	yaw:	-4.524	yaw rate:	-0.341	Roll:	-0.154	Pitch:	1.270	Yaw:	-8.756	Thrust:	0.000
Time:	2.949	Roll Set Point:	0.001	Pitch Set Point:	-0.012	Yaw Set Point:	0.079	X_WP:	0.000	Y_WP:	0.000	Y_WP:	0.000	X:	-0.000	Y:	0.006	Z:	0.057	yaw:	-4.526	yaw rate:	0.192	Roll:	-0.262	Pitch:	1.917	Yaw:	-10.472	Thrust:	0.000
Time:	2.962	Roll Set Point:	0.001	Pitch Set Point:	-0.012	Yaw Set Point:	0.079	X_WP:	0.000	Y_WP:	0.000	Y_WP:	0.000	X:	-0.000	Y:	0.006	Z:	0.057	yaw:	-4.529	yaw rate:	0.284	Roll:	-0.179	Pitch:	1.316	Yaw:	-8.988	Thrust:	0.000
Time:	2.972	Roll Set Point:	0.001	Pitch Set Point:	-0.012	Yaw Set Point:	0.079	X_WP:	0.000	Y_WP:	0.000	Y_WP:	0.000	X:	-0.000	Y:	0.006	Z:	0.057	yaw:	-4.527	yaw rate:	-0.233	Roll:	-0.134	Pitch:	1.148	Yaw:	-8.368	Thrust:	0.000
Time:	2.982	Roll Set Point:	0.001	Pitch Set Point:	-0.012	Yaw Set Point:	0.079	X_WP:	0.000	Y_WP:	0.000	Y_WP:	0.000	X:	-0.000	Y:	0.006	Z:	0.057	yaw:	-4.525	yaw rate:	-0.171	Roll:	-0.136	Pitch:	1.121	Yaw:	-8.328	Thrust:	0.000
Time:	2.995	Roll Set Point:	0.001	Pitch Set Point:	-0.012	Yaw Set Point:	0.079	X_WP:	0.000	Y_WP:	0.000	Y_WP:	0.000	X:	-0.000	Y:	0.006	Z:	0.057	yaw:	-4.527	yaw rate:	0.211	Roll:	-0.178	Pitch:	1.283	Yaw:	-8.873	Thrust:	0.000
Time:	3.015	Roll Set Point:	0.001	Pitch Set Point:	-0.012	Yaw Set Point:	0.079	X_WP:	0.000	Y_WP:	0.000	Y_WP:	1.000	X:	-0.000	Y:	0.006	Z:	0.057	yaw:	-4.528	yaw rate:	0.044	Roll:	-0.217	Pitch:	1.955	Yaw:	-10.342	Thrust:	100.000
Time:	3.032	Roll Set Point:	0.001	Pitch Set Point:	-0.012	Yaw Set Point:	0.079	X_WP:	0.000	Y_WP:	0.000	Y_WP:	1.000	X:	-0.000	Y:	0.006	Z:	0.057	yaw:	-4.529	yaw rate:	0.312	Roll:	-0.233	Pitch:	1.565	Yaw:	-9.564	Thrust:	53.110
Time:	3.043	Roll Set Point:	0.001	Pitch Set Point:	-0.012	Yaw Set Point:	0.079	X_WP:	0.000	Y_WP:	0.000	Y_WP:	1.000	X:	-0.000	Y:	0.006	Z:	0.057	yaw:	-4.532	yaw rate:	0.259	Roll:	-0.163	Pitch:	1.304	Yaw:	-8.738	Thrust:	54.128
Time:	3.054	Roll Set Point:	0.001	Pitch Set Point:	-0.012	Yaw Set Point:	0.081	X_WP:	0.000	Y_WP:	0.000	Y_WP:	1.000	X:	-0.000	Y:	0.006	Z:	0.057	yaw:	-4.660	yaw rate:	12.848	Roll:	-0.140	Pitch:	1.262	Yaw:	-11.762	Thrust:	55.053
Time:	3.067	Roll Set Point:	0.001	Pitch Set Point:	-0.013	Yaw Set Point:	0.079	X_WP:	0.000	Y_WP:	0.000	Y_WP:	1.000	X:	-0.000	Y:	0.006	Z:	0.058	yaw:	-4.545	yaw rate:	-11.475	Roll:	-0.091	Pitch:	1.459	Yaw:	-6.543	Thrust:	57.059
Time:	3.081	Roll Set Point:	0.001	Pitch Set Point:	-0.013	Yaw Set Point:	0.079	X_WP:	0.000	Y_WP:	0.000	Y_WP:	1.000	X:	-0.000	Y:	0.006	Z:	0.058	yaw:	-4.531	yaw rate:	-1.404	Roll:	-0.065	Pitch:	1.541	Yaw:	-8.937	Thrust:	59.469
Time:	3.101	Roll Set Point:	0.001	Pitch Set Point:	-0.013	Yaw Set Point:	0.080	X_WP:	0.000	Y_WP:	0.000	Y_WP:	1.000	X:	-0.000	Y:	0.006	Z:	0.057	yaw:	-4.574	yaw rate:	6.688	Roll:	-0.250	Pitch:	1.891	Yaw:	-10.878	Thrust:	64.169
Time:	3.111	Roll Set Point:	0.001	Pitch Set Point:	-0.013	Yaw Set Point:	0.080	X_WP:	0.000	Y_WP:	0.000	Y_WP:	1.000	X:	-0.000	Y:	0.006	Z:	0.058	yaw:	-4.593	yaw rate:	1.863	Roll:	-0.377	Pitch:	1.204	Yaw:	-9.028	Thrust:	60.174
Time:	3.121	Roll Set Point:	0.001	Pitch Set Point:	-0.012	Yaw Set Point:	0.080	X_WP:	0.000	Y_WP:	0.000	Y_WP:	1.000	X:	-0.000	Y:	0.006	Z:	0.058	yaw:	-4.589	yaw rate:	-0.403	Roll:	-0.225	Pitch:	1.001	Yaw:	-8.308	Thrust:	60.461
Time:	3.151	Roll Set Point:	0.001	Pitch Set Point:	-0.012	Yaw Set Point:	0.079	X_WP:	0.000	Y_WP:	0.000	Y_WP:	1.000	X:	-0.000	Y:	0.006	Z:	0.058	yaw:	-4.551	yaw rate:	-3.768	Roll:	-0.370	Pitch:	2.706	Yaw:	-11.952	Thrust:	80.434
Time:	3.168	Roll Set Point:	0.001	Pitch Set Point:	-0.012	Yaw Set Point:	0.082	X_WP:	0.000	Y_WP:	0.000	Y_WP:	1.000	X:	-0.000	Y:	0.006	Z:	0.058	yaw:	-4.719	yaw rate:	3.510	Roll:	-0.283	Pitch:	1.469	Yaw:	-12.539	Thrust:	69.275
Time:	3.179	Roll Set Point:	0.001	Pitch Set Point:	-0.012	Yaw Set Point:	0.084	X_WP:	0.000	Y_WP:	0.000	Y_WP:	1.000	X:	-0.000	Y:	0.006	Z:	0.058	yaw:	-4.833	yaw rate:	11.365	Roll:	-0.274	Pitch:	1.378	Yaw:	-11.627	Thrust:	66.718
Time:	3.190	Roll Set Point:	0.001	Pitch Set Point:	-0.012	Yaw Set Point:	0.085	X_WP:	0.000	Y_WP:	0.000	Y_WP:	1.000	X:	-0.000	Y:	0.006	Z:	0.058	yaw:	-4.857	yaw rate:	2.420	Roll:	-0.188	Pitch:	0.985	Yaw:	-9.562	Thrust:	66.063
Time:	3.201	Roll Set Point:	0.001	Pitch Set Point:	-0.012	Yaw Set Point:	0.085	X_WP:	0.000	Y_WP:	0.000	Y_WP:	1.000	X:	-0.000	Y:	0.006	Z:	0.058	yaw:	-4.864	yaw rate:	0.641	Roll:	-0.172	Pitch:	1.058	Yaw:	-9.150	Thrust:	67.623
Time:	3.217	Roll Set Point:	0.001	Pitch Set Point:	-0.012	Yaw Set Point:	0.085	X_WP:	0.000	Y_WP:	0.000	Y_WP:	1.000	X:	-0.000	Y:	0.006	Z:	0.058	yaw:	-4.852	yaw rate:	-1.114	Roll:	-0.137	Pitch:	1.249	Yaw:	-9.485	Thrust:	72.581
Time:	3.234	Roll Set Point:	0.001	Pitch Set Point:	-0.011	Yaw Set Point:	0.086	X_WP:	0.000	Y_WP:	0.000	Y_WP:	1.000	X:	-0.000	Y:	0.006	Z:	0.059	yaw:	-4.919	yaw rate:	2.359	Roll:	0.210	Pitch:	1.541	Yaw:	-11.445	Thrust:	80.840
Time:	3.245	Roll Set Point:	0.000	Pitch Set Point:	-0.011	Yaw Set Point:	0.088	X_WP:	0.000	Y_WP:	0.000	Y_WP:	1.000	X:	0.000	Y:	0.006	Z:	0.059	yaw:	-5.056	yaw rate:	13.710	Roll:	0.191	Pitch:	1.032	Yaw:	-12.575	Thrust:	69.890
Time:	3.256	Roll Set Point:	0.000	Pitch Set Point:	-0.011	Yaw Set Point:	0.090	X_WP:	0.000	Y_WP:	0.000	Y_WP:	1.000	X:	0.000	Y:	0.005	Z:	0.060	yaw:	-5.160	yaw rate:	10.436	Roll:	0.467	Pitch:	1.121	Yaw:	-11.882	Thrust:	72.359
Time:	3.277	Roll Set Point:	-0.001	Pitch Set Point:	-0.011	Yaw Set Point:	0.090	X_WP:	0.000	Y_WP:	0.000	Y_WP:	1.000	X:	0.001	Y:	0.005	Z:	0.060	yaw:	-5.180	yaw rate:	1.979	Roll:	0.361	Pitch:	1.520	Yaw:	-11.509	Thrust:	82.090
Time:	3.291	Roll Set Point:	-0.001	Pitch Set Point:	-0.010	Yaw Set Point:	0.092	X_WP:	0.000	Y_WP:	0.000	Y_WP:	1.000	X:	0.001	Y:	0.005	Z:	0.061	yaw:	-5.280	yaw rate:	10.014	Roll:	0.359	Pitch:	1.894	Yaw:	-12.084	Thrust:	89.067
Time:	3.303	Roll Set Point:	-0.004	Pitch Set Point:	-0.009	Yaw Set Point:	0.097	X_WP:	0.000	Y_WP:	0.000	Y_WP:	1.000	X:	0.002	Y:	0.005	Z:	0.065	yaw:	-5.531	yaw rate:	9.941	Roll:	3.793	Pitch:	-0.308	Yaw:	-15.713	Thrust:	61.331
Time:	3.314	Roll Set Point:	-0.006	Pitch Set Point:	-0.009	Yaw Set Point:	0.097	X_WP:	0.000	Y_WP:	0.000	Y_WP:	1.000	X:	0.003	Y:	0.004	Z:	0.066	yaw:	-5.574	yaw rate:	4.331	Roll:	2.039	Pitch:	0.736	Yaw:	-11.074	Thrust:	73.616
Time:	3.327	Roll Set Point:	-0.007	Pitch Set Point:	-0.008	Yaw Set Point:	0.099	X_WP:	0.000	Y_WP:	0.000	Y_WP:	1.000	X:	0.004	Y:	0.004	Z:	0.068	yaw:	-5.672	yaw rate:	9.816	Roll:	1.572	Pitch:	0.683	Yaw:	-12.477	Thrust:	74.686
Time:	3.350	Roll Set Point:	-0.009	Pitch Set Point:	-0.007	Yaw Set Point:	0.099	X_WP:	0.000	Y_WP:	0.000	Y_WP:	1.000	X:	0.005	Y:	0.003	Z:	0.070	yaw:	-5.653	yaw rate:	-1.900	Roll:	0.940	Pitch:	1.900	Yaw:	-12.301	Thrust:	100.000
Time:	3.368	Roll Set Point:	-0.012	Pitch Set Point:	-0.005	Yaw Set Point:	0.102	X_WP:	0.000	Y_WP:	0.000	Y_WP:	1.000	X:	0.006	Y:	0.002	Z:	0.076	yaw:	-5.841	yaw rate:	18.800	Roll:	3.640	Pitch:	-0.038	Yaw:	-14.470	Thrust:	81.822
Time:	3.380	Roll Set Point:	-0.016	Pitch Set Point:	-0.003	Yaw Set Point:	0.104	X_WP:	0.000	Y_WP:	0.000	Y_WP:	1.000	X:	0.008	Y:	0.001	Z:	0.082	yaw:	-5.979	yaw rate:	11.905	Roll:	4.089	Pitch:	-0.348	Yaw:	-13.727	Thrust:	64.577
Time:	3.391	Roll Set Point:	-0.018	Pitch Set Point:	-0.002	Yaw Set Point:	0.105	X_WP:	0.000	Y_WP:	0.000	Y_WP:	1.000	X:	0.009	Y:	0.001	Z:	0.086	yaw:	-5.990	yaw rate:	1.130	Roll:	3.559	Pitch:	-0.232	Yaw:	-10.752	Thrust:	64.993
Time:	3.403	Roll Set Point:	-0.021	Pitch Set Point:	-0.001	Yaw Set Point:	0.106	X_WP:	0.000	Y_WP:	0.000	Y_WP:	1.000	X:	0.010	Y:	-0.000	Z:	0.090	yaw:	-6.057	yaw rate:	6.676	Roll:	3.142	Pitch:	-0.307	Yaw:	-12.316	Thrust:	71.332
Time:	3.417	Roll Set Point:	-0.026	Pitch Set Point:	0.002	Yaw Set Point:	0.113	X_WP:	0.000	Y_WP:	0.000	Y_WP:	1.000	X:	0.013	Y:	-0.001	Z:	0.099	yaw:	-6.489	yaw rate:	43.249	Roll:	5.800	Pitch:	-1.248	Yaw:	-19.927	Thrust:	64.964
Time:	3.435	Roll Set Point:	-0.028	Pitch Set Point:	0.003	Yaw Set Point:	0.115	X_WP:	0.000	Y_WP:	0.000	Y_WP:	1.000	X:	0.014	Y:	-0.002	Z:	0.104	yaw:	-6.594	yaw rate:	10.490	Roll:	2.557	Pitch:	0.847	Yaw:	-14.342	Thrust:	95.948
Time:	3.446	Roll Set Point:	-0.034	Pitch Set Point:	0.006	Yaw Set Point:	0.119	X_WP:	0.000	Y_WP:	0.000	Y_WP:	1.000	X:	0.017	Y:	-0.004	Z:	0.114	yaw:	-6.817	yaw rate:	13.778	Roll:	8.410	Pitch:	-3.296	Yaw:	-17.116	Thrust:	41.139
Time:	3.457	Roll Set Point:	-0.040	Pitch Set Point:	0.010	Yaw Set Point:	0.124	X_WP:	0.000	Y_WP:	0.000	Y_WP:	1.000	X:	0.020	Y:	-0.006	Z:	0.125	yaw:	-7.087	yaw rate:	26.960	Roll:	9.600	Pitch:	-3.789	Yaw:	-18.329	Thrust:	44.354
Time:	3.478	Roll Set Point:	-0.043	Pitch Set Point:	0.013	Yaw Set Point:	0.125	X_WP:	0.000	Y_WP:	0.000	Y_WP:	1.000	X:	0.021	Y:	-0.008	Z:	0.131	yaw:	-7.167	yaw rate:	7.973	Roll:	4.292	Pitch:	-0.728	Yaw:	-14.844	Thrust:	95.103
Time:	3.491	Roll Set Point:	-0.051	Pitch Set Point:	0.018	Yaw Set Point:	0.129	X_WP:	0.000	Y_WP:	0.000	Y_WP:	1.000	X:	0.025	Y:	-0.011	Z:	0.143	yaw:	-7.383	yaw rate:	10.305	Roll:	7.223	Pitch:	-2.259	Yaw:	-17.073	Thrust:	71.517
Time:	3.505	Roll Set Point:	-0.054	Pitch Set Point:	0.021	Yaw Set Point:	0.131	X_WP:	0.000	Y_WP:	0.000	Y_WP:	1.000	X:	0.026	Y:	-0.012	Z:	0.149	yaw:	-7.505	yaw rate:	12.235	Roll:	4.191	Pitch:	-1.322	Yaw:	-15.589	Thrust:	81.710
Time:	3.516	Roll Set Point:	-0.057	Pitch Set Point:	0.023	Yaw Set Point:	0.131	X_WP:	0.000	Y_WP:	0.000	Y_WP:	1.000	X:	0.028	Y:	-0.014	Z:	0.156	yaw:	-7.491	yaw rate:	-1.438	Roll:	6.150	Pitch:	-3.147	Yaw:	-12.207	Thrust:	60.439
Time:	3.527	Roll Set Point:	-0.061	Pitch Set Point:	0.026	Yaw Set Point:	0.133	X_WP:	0.000	Y_WP:	0.000	Y_WP:	1.000	X:	0.030	Y:	-0.015	Z:	0.162	yaw:	-7.620	yaw rate:	12.897	Roll:	6.494	Pitch:	-2.734	Yaw:	-15.906	Thrust:	61.100
Time:	3.570	Roll Set Point:	-0.064	Pitch Set Point:	0.029	Yaw Set Point:	0.132	X_WP:	0.000	Y_WP:	0.000	Y_WP:	1.000	X:	0.031	Y:	-0.017	Z:	0.168	yaw:	-7.553	yaw rate:	-6.660	Roll:	3.903	Pitch:	-0.497	Yaw:	-18.773	Thrust:	100.000
Time:	3.581	Roll Set Point:	-0.079	Pitch Set Point:	0.041	Yaw Set Point:	0.130	X_WP:	0.000	Y_WP:	0.000	Y_WP:	1.000	X:	0.038	Y:	-0.023	Z:	0.192	yaw:	-7.426	yaw rate:	-12.856	Roll:	8.453	Pitch:	-2.545	Yaw:	-9.082	Thrust:	100.000
Time:	3.592	Roll Set Point:	-0.086	Pitch Set Point:	0.047	Yaw Set Point:	0.127	X_WP:	0.000	Y_WP:	0.000	Y_WP:	1.000	X:	0.041	Y:	-0.026	Z:	0.204	yaw:	-7.251	yaw rate:	-9.850	Roll:	11.225	Pitch:	-6.543	Yaw:	-8.964	Thrust:	54.435
Time:	3.612	Roll Set Point:	-0.089	Pitch Set Point:	0.049	Yaw Set Point:	0.126	X_WP:	0.000	Y_WP:	0.000	Y_WP:	1.000	X:	0.043	Y:	-0.028	Z:	0.210	yaw:	-7.200	yaw rate:	-5.097	Roll:	4.863	Pitch:	-1.211	Yaw:	-13.048	Thrust:	100.000
Time:	3.630	Roll Set Point:	-0.093	Pitch Set Point:	0.052	Yaw Set Point:	0.124	X_WP:	0.000	Y_WP:	0.000	Y_WP:	1.000	X:	0.045	Y:	-0.029	Z:	0.216	yaw:	-7.121	yaw rate:	-7.911	Roll:	5.164	Pitch:	-1.714	Yaw:	-12.276	Thrust:	100.000
Time:	3.642	Roll Set Point:	-0.103	Pitch Set Point:	0.061	Yaw Set Point:	0.120	X_WP:	0.000	Y_WP:	0.000	Y_WP:	1.000	X:	0.050	Y:	-0.034	Z:	0.234	yaw:	-6.867	yaw rate:	-19.446	Roll:	13.326	Pitch:	-9.095	Yaw:	-7.114	Thrust:	43.349
Time:	3.653	Roll Set Point:	-0.106	Pitch Set Point:	0.064	Yaw Set Point:	0.120	X_WP:	0.000	Y_WP:	0.000	Y_WP:	1.000	X:	0.051	Y:	-0.035	Z:	0.240	yaw:	-6.858	yaw rate:	-0.903	Roll:	6.966	Pitch:	-3.301	Yaw:	-11.674	Thrust:	70.480
Time:	3.667	Roll Set Point:	-0.110	Pitch Set Point:	0.067	Yaw Set Point:	0.119	X_WP:	0.000	Y_WP:	0.000	Y_WP:	1.000	X:	0.053	Y:	-0.037	Z:	0.246	yaw:	-6.824	yaw rate:	-3.423	Roll:	6.451	Pitch:	-3.242	Yaw:	-11.575	Thrust:	81.041
Time:	3.681	Roll Set Point:	-0.116	Pitch Set Point:	0.072	Yaw Set Point:	0.117	X_WP:	0.000	Y_WP:	0.000	Y_WP:	1.000	X:	0.056	Y:	-0.040	Z:	0.259	yaw:	-6.729	yaw rate:	3.751	Roll:	9.433	Pitch:	-5.775	Yaw:	-10.431	Thrust:	61.968
Time:	3.698	Roll Set Point:	-0.119	Pitch Set Point:	0.075	Yaw Set Point:	0.118	X_WP:	0.000	Y_WP:	0.000	Y_WP:	1.000	X:	0.057	Y:	-0.041	Z:	0.266	yaw:	-6.744	yaw rate:	1.504	Roll:	5.587	Pitch:	-1.860	Yaw:	-13.063	Thrust:	100.000
Time:	3.708	Roll Set Point:	-0.122	Pitch Set Point:	0.078	Yaw Set Point:	0.116	X_WP:	0.000	Y_WP:	0.000	Y_WP:	1.000	X:	0.059	Y:	-0.043	Z:	0.273	yaw:	-6.638	yaw rate:	-10.540	Roll:	6.853	Pitch:	-4.297	Yaw:	-8.767	Thrust:	63.560
Time:	3.719	Roll Set Point:	-0.125	Pitch Set Point:	0.081	Yaw Set Point:	0.112	X_WP:	0.000	Y_WP:	0.000	Y_WP:	1.000	X:	0.060	Y:	-0.044	Z:	0.280	yaw:	-6.418	yaw rate:	-22.036	Roll:	7.067	Pitch:	-4.611	Yaw:	-5.934	Thrust:	67.508
Time:	3.735	Roll Set Point:	-0.128	Pitch Set Point:	0.083	Yaw Set Point:	0.113	X_WP:	0.000	Y_WP:	0.000	Y_WP:	1.000	X:	0.062	Y:	-0.045	Z:	0.287	yaw:	-6.469	yaw rate:	5.064	Roll:	5.883	Pitch:	-2.138	Yaw:	-12.994	Thrust:	98.997
Time:	3.755	Roll Set Point:	-0.133	Pitch Set Point:	0.088	Yaw Set Point:	0.108	X_WP:	0.000	Y_WP:	0.000	Y_WP:	1.000	X:	0.064	Y:	-0.048	Z:	0.301	yaw:	-6.203	yaw rate:	-20.385	Roll:	8.033	Pitch:	-4.639	Yaw:	-8.442	Thrust:	94.362
Time:	3.771	Roll Set Point:	-0.138	Pitch Set Point:	0.093	Yaw Set Point:	0.104	X_WP:	0.000	Y_WP:	0.000	Y_WP:	1.000	X:	0.066	Y:	-0.050	Z:	0.316	yaw:	-5.937	yaw rate:	-26.611	Roll:	7.225	Pitch:	-4.098	Yaw:	-7.831	Thrust:	93.428
Time:	3.782	Roll Set Point:	-0.142	Pitch Set Point:	0.096	Yaw Set Point:	0.102	X_WP:	0.000	Y_WP:	0.000	Y_WP:	1.000	X:	0.068	Y:	-0.052	Z:	0.331	yaw:	-5.848	yaw rate:	-7.136	Roll:	8.662	Pitch:	-5.532	Yaw:	-8.471	Thrust:	33.510
Time:	3.798	Roll Set Point:	-0.143	Pitch Set Point:	0.098	Yaw Set Point:	0.100	X_WP:	0.000	Y_WP:	0.000	Y_WP:	1.000	X:	0.069	Y:	-0.053	Z:	0.339	yaw:	-5.718	yaw rate:	-13.085	Roll:	5.486	Pitch:	-2.826	Yaw:	-8.541	Thrust:	95.000
Time:	3.816	Roll Set Point:	-0.145	Pitch Set Point:	0.099	Yaw Set Point:	0.100	X_WP:	0.000	Y_WP:	0.000	Y_WP:	1.000	X:	0.070	Y:	-0.053	Z:	0.348	yaw:	-5.716	yaw rate:	-0.126	Roll:	5.569	Pitch:	-1.477	Yaw:	-11.775	Thrust:	100.000
Time:	3.835	Roll Set Point:	-0.147	Pitch Set Point:	0.101	Yaw Set Point:	0.099	X_WP:	0.000	Y_WP:	0.000	Y_WP:	1.000	X:	0.071	Y:	-0.054	Z:	0.356	yaw:	-5.689	yaw rate:	-2.707	Roll:	5.488	Pitch:	-1.778	Yaw:	-11.499	Thrust:	100.000
Time:	3.847	Roll Set Point:	-0.151	Pitch Set Point:	0.105	Yaw Set Point:	0.098	X_WP:	0.000	Y_WP:	0.000	Y_WP:	1.000	X:	0.073	Y:	-0.056	Z:	0.383	yaw:	-5.589	yaw rate:	-1.290	Roll:	8.641	Pitch:	-5.594	Yaw:	-7.691	Thrust:	0.000
Time:	3.858	Roll Set Point:	-0.154	Pitch Set Point:	0.107	Yaw Set Point:	0.098	X_WP:	0.000	Y_WP:	0.000	Y_WP:	1.000	X:	0.074	Y:	-0.057	Z:	0.402	yaw:	-5.627	yaw rate:	-1.672	Roll:	7.546	Pitch:	-3.632	Yaw:	-11.091	Thrust:	26.158
Time:	3.883	Roll Set Point:	-0.155	Pitch Set Point:	0.108	Yaw Set Point:	0.099	X_WP:	0.000	Y_WP:	0.000	Y_WP:	1.000	X:	0.075	Y:	-0.058	Z:	0.412	yaw:	-5.673	yaw rate:	4.512	Roll:	5.392	Pitch:	-1.510	Yaw:	-12.872	Thrust:	100.000
Time:	3.900	Roll Set Point:	-0.157	Pitch Set Point:	0.109	Yaw Set Point:	0.100	X_WP:	0.000	Y_WP:	0.000	Y_WP:	1.000	X:	0.076	Y:	-0.058	Z:	0.431	yaw:	-5.725	yaw rate:	-3.358	Roll:	6.917	Pitch:	-1.814	Yaw:	-12.448	Thrust:	100.000
Time:	3.911	Roll Set Point:	-0.158	Pitch Set Point:	0.110	Yaw Set Point:	0.101	X_WP:	0.000	Y_WP:	0.000	Y_WP:	1.000	X:	0.076	Y:	-0.059	Z:	0.441	yaw:	-5.771	yaw rate:	4.632	Roll:	5.480	Pitch:	-2.485	Yaw:	-11.365	Thrust:	61.349
Time:	3.924	Roll Set Point:	-0.159	Pitch Set Point:	0.110	Yaw Set Point:	0.102	X_WP:	0.000	Y_WP:	0.000	Y_WP:	1.000	X:	0.077	Y:	-0.059	Z:	0.451	yaw:	-5.825	yaw rate:	5.378	Roll:	5.447	Pitch:	-1.714	Yaw:	-11.710	Thrust:	66.133
Time:	3.953	Roll Set Point:	-0.160	Pitch Set Point:	0.111	Yaw Set Point:	0.105	X_WP:	0.000	Y_WP:	0.000	Y_WP:	1.000	X:	0.077	Y:	-0.060	Z:	0.461	yaw:	-6.024	yaw rate:	19.837	Roll:	5.933	Pitch:	-1.137	Yaw:	-16.029	Thrust:	100.000
Time:	3.969	Roll Set Point:	-0.163	Pitch Set Point:	0.112	Yaw Set Point:	0.114	X_WP:	0.000	Y_WP:	0.000	Y_WP:	1.000	X:	0.079	Y:	-0.061	Z:	0.500	yaw:	-6.546	yaw rate:	-1.130	Roll:	8.610	Pitch:	-1.524	Yaw:	-20.449	Thrust:	75.265
Time:	3.981	Roll Set Point:	-0.165	Pitch Set Point:	0.112	Yaw Set Point:	0.122	X_WP:	0.000	Y_WP:	0.000	Y_WP:	1.000	X:	0.079	Y:	-0.061	Z:	0.520	yaw:	-7.018	yaw rate:	47.125	Roll:	6.868	Pitch:	-0.575	Yaw:	-22.446	Thrust:	21.984
Time:	3.996	Roll Set Point:	-0.165	Pitch Set Point:	0.112	Yaw Set Point:	0.125	X_WP:	0.000	Y_WP:	0.000	Y_WP:	1.000	X:	0.079	Y:	-0.061	Z:	0.529	yaw:	-7.160	yaw rate:	14.228	Roll:	5.424	Pitch:	-1.526	Yaw:	-15.458	Thrust:	82.958
Time:	4.015	Roll Set Point:	-0.166	Pitch Set Point:	0.112	Yaw Set Point:	0.128	X_WP:	0.000	Y_WP:	0.000	Y_WP:	1.000	X:	0.079	Y:	-0.061	Z:	0.540	yaw:	-7.334	yaw rate:	17.377	Roll:	6.344	Pitch:	-1.301	Yaw:	-16.480	Thrust:	100.000
