Time:	0.032	Roll Set Point:	-0.131	Pitch Set Point:	1.815	Yaw Set Point:	-0.026	X_WP:	0.000	Y_WP:	0.000	Y_WP:	0.750	X:	0.078	Y:	-0.907	Z:	0.402	yaw:	1.512	yaw rate:	-4.973	Roll:	1.559	Pitch:	-26.344	Yaw:	2.111	Thrust:	19.120
Time:	0.051	Roll Set Point:	-0.132	Pitch Set Point:	1.815	Yaw Set Point:	-0.027	X_WP:	0.000	Y_WP:	0.000	Y_WP:	0.750	X:	0.078	Y:	-0.907	Z:	0.403	yaw:	1.530	yaw rate:	-1.815	Roll:	1.546	Pitch:	-26.476	Yaw:	2.397	Thrust:	19.143
Time:	0.071	Roll Set Point:	-0.132	Pitch Set Point:	1.815	Yaw Set Point:	-0.027	X_WP:	0.000	Y_WP:	0.000	Y_WP:	0.750	X:	0.078	Y:	-0.907	Z:	0.403	yaw:	1.525	yaw rate:	0.489	Roll:	1.634	Pitch:	-26.454	Yaw:	2.087	Thrust:	20.815
Time:	0.091	Roll Set Point:	-0.133	Pitch Set Point:	1.815	Yaw Set Point:	-0.025	X_WP:	0.000	Y_WP:	0.000	Y_WP:	0.750	X:	0.078	Y:	-0.907	Z:	0.403	yaw:	1.450	yaw rate:	7.511	Roll:	2.627	Pitch:	-26.422	Yaw:	1.086	Thrust:	21.630
Time:	0.111	Roll Set Point:	-0.132	Pitch Set Point:	1.815	Yaw Set Point:	-0.027	X_WP:	0.000	Y_WP:	0.000	Y_WP:	0.750	X:	0.078	Y:	-0.907	Z:	0.403	yaw:	1.523	yaw rate:	-7.303	Roll:	0.545	Pitch:	-26.561	Yaw:	3.135	Thrust:	22.416
Time:	0.131	Roll Set Point:	-0.132	Pitch Set Point:	1.815	Yaw Set Point:	-0.027	X_WP:	0.000	Y_WP:	0.000	Y_WP:	0.750	X:	0.078	Y:	-0.907	Z:	0.403	yaw:	1.519	yaw rate:	0.480	Roll:	1.648	Pitch:	-26.590	Yaw:	2.113	Thrust:	23.352
Time:	0.152	Roll Set Point:	-0.130	Pitch Set Point:	1.815	Yaw Set Point:	-0.028	X_WP:	0.000	Y_WP:	0.000	Y_WP:	0.750	X:	0.078	Y:	-0.907	Z:	0.402	yaw:	1.590	yaw rate:	-7.189	Roll:	0.396	Pitch:	-26.600	Yaw:	3.202	Thrust:	24.507
Time:	0.171	Roll Set Point:	-0.133	Pitch Set Point:	1.815	Yaw Set Point:	-0.025	X_WP:	0.000	Y_WP:	0.000	Y_WP:	0.750	X:	0.078	Y:	-0.907	Z:	0.403	yaw:	1.448	yaw rate:	14.224	Roll:	3.769	Pitch:	-26.609	Yaw:	0.138	Thrust:	24.501
Time:	0.191	Roll Set Point:	-0.132	Pitch Set Point:	1.815	Yaw Set Point:	-0.026	X_WP:	0.000	Y_WP:	0.000	Y_WP:	0.750	X:	0.078	Y:	-0.907	Z:	0.402	yaw:	1.515	yaw rate:	-6.643	Roll:	0.611	Pitch:	-26.704	Yaw:	3.061	Thrust:	26.166
Time:	0.211	Roll Set Point:	-0.132	Pitch Set Point:	1.815	Yaw Set Point:	-0.026	X_WP:	0.000	Y_WP:	0.000	Y_WP:	0.750	X:	0.078	Y:	-0.907	Z:	0.403	yaw:	1.517	yaw rate:	-0.200	Roll:	1.707	Pitch:	-26.843	Yaw:	2.240	Thrust:	26.279
Time:	0.232	Roll Set Point:	-0.132	Pitch Set Point:	1.815	Yaw Set Point:	-0.027	X_WP:	0.000	Y_WP:	0.000	Y_WP:	0.750	X:	0.078	Y:	-0.907	Z:	0.403	yaw:	1.529	yaw rate:	-1.222	Roll:	1.422	Pitch:	-26.799	Yaw:	2.401	Thrust:	27.308
Time:	0.252	Roll Set Point:	-0.130	Pitch Set Point:	1.815	Yaw Set Point:	-0.028	X_WP:	0.000	Y_WP:	0.000	Y_WP:	0.750	X:	0.078	Y:	-0.907	Z:	0.403	yaw:	1.598	yaw rate:	-6.940	Roll:	0.493	Pitch:	-26.838	Yaw:	3.234	Thrust:	28.879
Time:	0.272	Roll Set Point:	-0.132	Pitch Set Point:	1.815	Yaw Set Point:	-0.027	X_WP:	0.000	Y_WP:	0.000	Y_WP:	0.750	X:	0.078	Y:	-0.907	Z:	0.403	yaw:	1.541	yaw rate:	5.717	Roll:	2.542	Pitch:	-26.897	Yaw:	1.493	Thrust:	28.329
Time:	0.293	Roll Set Point:	-0.130	Pitch Set Point:	1.815	Yaw Set Point:	-0.028	X_WP:	0.000	Y_WP:	0.000	Y_WP:	0.750	X:	0.078	Y:	-0.907	Z:	0.402	yaw:	1.595	yaw rate:	-5.446	Roll:	0.771	Pitch:	-26.981	Yaw:	3.011	Thrust:	31.801
Time:	0.311	Roll Set Point:	-0.130	Pitch Set Point:	1.815	Yaw Set Point:	-0.028	X_WP:	0.000	Y_WP:	0.000	Y_WP:	0.750	X:	0.078	Y:	-0.907	Z:	0.402	yaw:	1.592	yaw rate:	0.298	Roll:	1.585	Pitch:	-26.882	Yaw:	2.311	Thrust:	29.462
Time:	0.331	Roll Set Point:	-0.133	Pitch Set Point:	1.815	Yaw Set Point:	-0.025	X_WP:	0.000	Y_WP:	0.000	Y_WP:	0.750	X:	0.078	Y:	-0.907	Z:	0.403	yaw:	1.451	yaw rate:	14.167	Roll:	3.840	Pitch:	-26.976	Yaw:	0.225	Thrust:	30.490
Time:	0.351	Roll Set Point:	-0.133	Pitch Set Point:	1.815	Yaw Set Point:	-0.026	X_WP:	0.000	Y_WP:	0.000	Y_WP:	0.750	X:	0.078	Y:	-0.907	Z:	0.403	yaw:	1.472	yaw rate:	-2.068	Roll:	1.335	Pitch:	-27.102	Yaw:	2.491	Thrust:	33.243
Time:	0.372	Roll Set Point:	-0.133	Pitch Set Point:	1.815	Yaw Set Point:	-0.025	X_WP:	0.000	Y_WP:	0.000	Y_WP:	0.750	X:	0.078	Y:	-0.907	Z:	0.403	yaw:	1.450	yaw rate:	2.119	Roll:	1.941	Pitch:	-27.130	Yaw:	1.941	Thrust:	33.694
Time:	0.392	Roll Set Point:	-0.133	Pitch Set Point:	1.815	Yaw Set Point:	-0.025	X_WP:	0.000	Y_WP:	0.000	Y_WP:	0.750	X:	0.078	Y:	-0.907	Z:	0.403	yaw:	1.435	yaw rate:	1.503	Roll:	1.859	Pitch:	-27.072	Yaw:	2.000	Thrust:	34.137
Time:	0.412	Roll Set Point:	-0.133	Pitch Set Point:	1.815	Yaw Set Point:	-0.026	X_WP:	0.000	Y_WP:	0.000	Y_WP:	0.750	X:	0.078	Y:	-0.907	Z:	0.403	yaw:	1.471	yaw rate:	-3.572	Roll:	1.129	Pitch:	-27.111	Yaw:	2.724	Thrust:	34.902
Time:	0.433	Roll Set Point:	-0.131	Pitch Set Point:	1.815	Yaw Set Point:	-0.027	X_WP:	0.000	Y_WP:	0.000	Y_WP:	0.750	X:	0.078	Y:	-0.907	Z:	0.403	yaw:	1.530	yaw rate:	-5.930	Roll:	0.712	Pitch:	-27.124	Yaw:	3.090	Thrust:	37.184
Time:	0.453	Roll Set Point:	-0.130	Pitch Set Point:	1.815	Yaw Set Point:	-0.028	X_WP:	0.000	Y_WP:	0.000	Y_WP:	0.750	X:	0.078	Y:	-0.907	Z:	0.402	yaw:	1.601	yaw rate:	-7.039	Roll:	0.620	Pitch:	-27.156	Yaw:	3.400	Thrust:	36.135
Time:	0.472	Roll Set Point:	-0.131	Pitch Set Point:	1.815	Yaw Set Point:	-0.027	X_WP:	0.000	Y_WP:	0.000	Y_WP:	0.750	X:	0.078	Y:	-0.907	Z:	0.402	yaw:	1.530	yaw rate:	7.041	Roll:	2.607	Pitch:	-27.022	Yaw:	1.422	Thrust:	37.025
Time:	0.492	Roll Set Point:	-0.132	Pitch Set Point:	1.815	Yaw Set Point:	-0.027	X_WP:	0.000	Y_WP:	0.000	Y_WP:	0.750	X:	0.078	Y:	-0.907	Z:	0.403	yaw:	1.541	yaw rate:	-1.102	Roll:	1.569	Pitch:	-27.131	Yaw:	2.539	Thrust:	37.157
Time:	0.516	Roll Set Point:	-0.133	Pitch Set Point:	1.815	Yaw Set Point:	-0.026	X_WP:	0.000	Y_WP:	0.000	Y_WP:	0.750	X:	0.078	Y:	-0.907	Z:	0.403	yaw:	1.471	yaw rate:	7.025	Roll:	2.533	Pitch:	-27.157	Yaw:	1.541	Thrust:	42.089
Time:	0.535	Roll Set Point:	-0.132	Pitch Set Point:	1.815	Yaw Set Point:	-0.026	X_WP:	0.000	Y_WP:	0.000	Y_WP:	0.750	X:	0.078	Y:	-0.907	Z:	0.403	yaw:	1.498	yaw rate:	-2.662	Roll:	1.275	Pitch:	-27.118	Yaw:	2.705	Thrust:	39.318
Time:	0.552	Roll Set Point:	-0.131	Pitch Set Point:	1.815	Yaw Set Point:	-0.027	X_WP:	0.000	Y_WP:	0.000	Y_WP:	0.750	X:	0.078	Y:	-0.907	Z:	0.403	yaw:	1.550	yaw rate:	-5.220	Roll:	0.797	Pitch:	-27.030	Yaw:	3.200	Thrust:	38.723
Time:	0.571	Roll Set Point:	-0.131	Pitch Set Point:	1.815	Yaw Set Point:	-0.027	X_WP:	0.000	Y_WP:	0.000	Y_WP:	0.750	X:	0.078	Y:	-0.907	Z:	0.402	yaw:	1.523	yaw rate:	2.697	Roll:	1.750	Pitch:	-27.015	Yaw:	2.053	Thrust:	42.066
Time:	0.591	Roll Set Point:	-0.133	Pitch Set Point:	1.815	Yaw Set Point:	-0.025	X_WP:	0.000	Y_WP:	0.000	Y_WP:	0.750	X:	0.078	Y:	-0.907	Z:	0.403	yaw:	1.452	yaw rate:	7.113	Roll:	2.883	Pitch:	-27.112	Yaw:	1.357	Thrust:	41.111
Time:	0.612	Roll Set Point:	-0.131	Pitch Set Point:	1.815	Yaw Set Point:	-0.027	X_WP:	0.000	Y_WP:	0.000	Y_WP:	0.750	X:	0.078	Y:	-0.907	Z:	0.403	yaw:	1.550	yaw rate:	-9.835	Roll:	0.272	Pitch:	-27.160	Yaw:	3.727	Thrust:	44.083
Time:	0.631	Roll Set Point:	-0.132	Pitch Set Point:	1.815	Yaw Set Point:	-0.027	X_WP:	0.000	Y_WP:	0.000	Y_WP:	0.750	X:	0.078	Y:	-0.907	Z:	0.403	yaw:	1.534	yaw rate:	1.603	Roll:	1.876	Pitch:	-27.115	Yaw:	2.244	Thrust:	43.773
Time:	0.651	Roll Set Point:	-0.132	Pitch Set Point:	1.815	Yaw Set Point:	-0.026	X_WP:	0.000	Y_WP:	0.000	Y_WP:	0.750	X:	0.078	Y:	-0.907	Z:	0.402	yaw:	1.478	yaw rate:	5.601	Roll:	2.275	Pitch:	-26.978	Yaw:	1.666	Thrust:	45.658
Time:	0.671	Roll Set Point:	-0.133	Pitch Set Point:	1.815	Yaw Set Point:	-0.026	X_WP:	0.000	Y_WP:	0.000	Y_WP:	0.750	X:	0.078	Y:	-0.907	Z:	0.403	yaw:	1.465	yaw rate:	1.350	Roll:	1.871	Pitch:	-27.067	Yaw:	2.202	Thrust:	45.409
Time:	0.691	Roll Set Point:	-0.132	Pitch Set Point:	1.815	Yaw Set Point:	-0.026	X_WP:	0.000	Y_WP:	0.000	Y_WP:	0.750	X:	0.078	Y:	-0.907	Z:	0.402	yaw:	1.484	yaw rate:	-1.958	Roll:	1.389	Pitch:	-27.093	Yaw:	2.676	Thrust:	46.343
Time:	0.712	Roll Set Point:	-0.130	Pitch Set Point:	1.815	Yaw Set Point:	-0.028	X_WP:	0.000	Y_WP:	0.000	Y_WP:	0.750	X:	0.078	Y:	-0.907	Z:	0.402	yaw:	1.602	yaw rate:	-11.770	Roll:	0.015	Pitch:	-27.224	Yaw:	4.131	Thrust:	47.608
Time:	0.732	Roll Set Point:	-0.132	Pitch Set Point:	1.815	Yaw Set Point:	-0.026	X_WP:	0.000	Y_WP:	0.000	Y_WP:	0.750	X:	0.078	Y:	-0.907	Z:	0.403	yaw:	1.507	yaw rate:	9.473	Roll:	3.081	Pitch:	-27.096	Yaw:	1.336	Thrust:	48.294
Time:	0.751	Roll Set Point:	-0.132	Pitch Set Point:	1.815	Yaw Set Point:	-0.027	X_WP:	0.000	Y_WP:	0.000	Y_WP:	0.750	X:	0.078	Y:	-0.907	Z:	0.403	yaw:	1.536	yaw rate:	-2.898	Roll:	1.253	Pitch:	-27.092	Yaw:	2.906	Thrust:	49.215
Time:	0.772	Roll Set Point:	-0.133	Pitch Set Point:	1.815	Yaw Set Point:	-0.026	X_WP:	0.000	Y_WP:	0.000	Y_WP:	0.750	X:	0.078	Y:	-0.907	Z:	0.403	yaw:	1.476	yaw rate:	5.981	Roll:	2.511	Pitch:	-27.071	Yaw:	1.682	Thrust:	50.270
Time:	0.791	Roll Set Point:	-0.133	Pitch Set Point:	1.815	Yaw Set Point:	-0.026	X_WP:	0.000	Y_WP:	0.000	Y_WP:	0.750	X:	0.078	Y:	-0.907	Z:	0.403	yaw:	1.468	yaw rate:	0.791	Roll:	1.801	Pitch:	-27.063	Yaw:	2.338	Thrust:	50.100
Time:	0.811	Roll Set Point:	-0.132	Pitch Set Point:	1.815	Yaw Set Point:	-0.027	X_WP:	0.000	Y_WP:	0.000	Y_WP:	0.750	X:	0.078	Y:	-0.907	Z:	0.403	yaw:	1.522	yaw rate:	-5.344	Roll:	0.929	Pitch:	-27.146	Yaw:	3.244	Thrust:	50.884
Time:	0.832	Roll Set Point:	-0.132	Pitch Set Point:	1.815	Yaw Set Point:	-0.026	X_WP:	0.000	Y_WP:	0.000	Y_WP:	0.750	X:	0.078	Y:	-0.907	Z:	0.403	yaw:	1.498	yaw rate:	2.408	Roll:	2.014	Pitch:	-27.066	Yaw:	2.241	Thrust:	54.365
Time:	0.852	Roll Set Point:	-0.130	Pitch Set Point:	1.815	Yaw Set Point:	-0.028	X_WP:	0.000	Y_WP:	0.000	Y_WP:	0.750	X:	0.078	Y:	-0.907	Z:	0.402	yaw:	1.596	yaw rate:	-9.797	Roll:	0.213	Pitch:	-27.113	Yaw:	3.949	Thrust:	53.528
Time:	0.871	Roll Set Point:	-0.132	Pitch Set Point:	1.815	Yaw Set Point:	-0.026	X_WP:	0.000	Y_WP:	0.000	Y_WP:	0.750	X:	0.078	Y:	-0.907	Z:	0.403	yaw:	1.499	yaw rate:	9.658	Roll:	3.149	Pitch:	-27.036	Yaw:	1.142	Thrust:	51.455
Time:	0.891	Roll Set Point:	-0.133	Pitch Set Point:	1.815	Yaw Set Point:	-0.025	X_WP:	0.000	Y_WP:	0.000	Y_WP:	0.750	X:	0.078	Y:	-0.907	Z:	0.403	yaw:	1.459	yaw rate:	4.034	Roll:	2.361	Pitch:	-27.107	Yaw:	2.005	Thrust:	56.257
Time:	0.912	Roll Set Point:	-0.132	Pitch Set Point:	1.815	Yaw Set Point:	-0.027	X_WP:	0.000	Y_WP:	0.000	Y_WP:	0.750	X:	0.078	Y:	-0.907	Z:	0.403	yaw:	1.538	yaw rate:	-7.936	Roll:	0.593	Pitch:	-27.143	Yaw:	3.634	Thrust:	56.946
Time:	0.931	Roll Set Point:	-0.131	Pitch Set Point:	1.815	Yaw Set Point:	-0.027	X_WP:	0.000	Y_WP:	0.000	Y_WP:	0.750	X:	0.078	Y:	-0.907	Z:	0.403	yaw:	1.574	yaw rate:	-3.586	Roll:	1.034	Pitch:	-27.093	Yaw:	3.144	Thrust:	55.500
Time:	0.951	Roll Set Point:	-0.132	Pitch Set Point:	1.815	Yaw Set Point:	-0.026	X_WP:	0.000	Y_WP:	0.000	Y_WP:	0.750	X:	0.078	Y:	-0.907	Z:	0.402	yaw:	1.469	yaw rate:	10.502	Roll:	3.042	Pitch:	-27.008	Yaw:	1.162	Thrust:	57.795
Time:	0.971	Roll Set Point:	-0.131	Pitch Set Point:	1.815	Yaw Set Point:	-0.027	X_WP:	0.000	Y_WP:	0.000	Y_WP:	0.750	X:	0.078	Y:	-0.907	Z:	0.402	yaw:	1.543	yaw rate:	-7.402	Roll:	0.631	Pitch:	-27.092	Yaw:	3.637	Thrust:	56.974
Time:	0.992	Roll Set Point:	-0.132	Pitch Set Point:	1.815	Yaw Set Point:	-0.026	X_WP:	0.000	Y_WP:	0.000	Y_WP:	0.750	X:	0.078	Y:	-0.907	Z:	0.402	yaw:	1.518	yaw rate:	2.538	Roll:	2.089	Pitch:	-27.115	Yaw:	2.324	Thrust:	60.336
Time:	1.012	Roll Set Point:	0.376	Pitch Set Point:	2.979	Yaw Set Point:	-0.025	X_WP:	0.480	Y_WP:	1.176	Y_WP:	0.750	X:	0.078	Y:	-0.907	Z:	0.403	yaw:	1.432	yaw rate:	8.536	Roll:	-30.000	Pitch:	-30.000	Yaw:	1.444	Thrust:	59.590
Time:	1.032	Roll Set Point:	0.380	Pitch Set Point:	2.978	Yaw Set Point:	-0.027	X_WP:	0.480	Y_WP:	1.176	Y_WP:	0.750	X:	0.078	Y:	-0.907	Z:	0.403	yaw:	1.524	yaw rate:	-9.166	Roll:	-16.027	Pitch:	-30.000	Yaw:	3.847	Thrust:	62.751
Time:	1.053	Roll Set Point:	0.381	Pitch Set Point:	2.978	Yaw Set Point:	-0.027	X_WP:	0.480	Y_WP:	1.176	Y_WP:	0.750	X:	0.078	Y:	-0.907	Z:	0.402	yaw:	1.560	yaw rate:	-3.637	Roll:	-14.306	Pitch:	-30.000	Yaw:	3.196	Thrust:	63.031
Time:	1.072	Roll Set Point:	0.376	Pitch Set Point:	2.979	Yaw Set Point:	-0.025	X_WP:	0.480	Y_WP:	1.176	Y_WP:	0.750	X:	0.078	Y:	-0.907	Z:	0.403	yaw:	1.424	yaw rate:	13.616	Roll:	-8.477	Pitch:	-30.000	Yaw:	0.618	Thrust:	59.586
Time:	1.092	Roll Set Point:	0.379	Pitch Set Point:	2.978	Yaw Set Point:	-0.026	X_WP:	0.480	Y_WP:	1.176	Y_WP:	0.750	X:	0.078	Y:	-0.907	Z:	0.403	yaw:	1.518	yaw rate:	-9.395	Roll:	-16.182	Pitch:	-30.000	Yaw:	3.921	Thrust:	62.588
Time:	1.112	Roll Set Point:	0.379	Pitch Set Point:	2.978	Yaw Set Point:	-0.027	X_WP:	0.480	Y_WP:	1.176	Y_WP:	0.750	X:	0.078	Y:	-0.907	Z:	0.403	yaw:	1.528	yaw rate:	-1.020	Roll:	-13.557	Pitch:	-30.000	Yaw:	2.842	Thrust:	64.480
Time:	1.131	Roll Set Point:	0.376	Pitch Set Point:	2.979	Yaw Set Point:	-0.025	X_WP:	0.480	Y_WP:	1.176	Y_WP:	0.750	X:	0.078	Y:	-0.907	Z:	0.403	yaw:	1.437	yaw rate:	9.175	Roll:	-10.165	Pitch:	-30.000	Yaw:	1.372	Thrust:	64.666
Time:	1.151	Roll Set Point:	0.376	Pitch Set Point:	2.979	Yaw Set Point:	-0.025	X_WP:	0.480	Y_WP:	1.176	Y_WP:	0.750	X:	0.078	Y:	-0.907	Z:	0.402	yaw:	1.424	yaw rate:	1.282	Roll:	-13.013	Pitch:	-30.000	Yaw:	2.424	Thrust:	65.968
Time:	1.171	Roll Set Point:	0.381	Pitch Set Point:	2.978	Yaw Set Point:	-0.027	X_WP:	0.480	Y_WP:	1.176	Y_WP:	0.750	X:	0.078	Y:	-0.907	Z:	0.403	yaw:	1.565	yaw rate:	-14.132	Roll:	-17.688	Pitch:	-30.000	Yaw:	4.690	Thrust:	65.697
Time:	1.192	Roll Set Point:	0.377	Pitch Set Point:	2.979	Yaw Set Point:	-0.026	X_WP:	0.480	Y_WP:	1.176	Y_WP:	0.750	X:	0.078	Y:	-0.907	Z:	0.403	yaw:	1.466	yaw rate:	9.919	Roll:	-10.244	Pitch:	-30.000	Yaw:	1.446	Thrust:	69.365
Time:	1.211	Roll Set Point:	0.379	Pitch Set Point:	2.979	Yaw Set Point:	-0.026	X_WP:	0.480	Y_WP:	1.176	Y_WP:	0.750	X:	0.078	Y:	-0.907	Z:	0.403	yaw:	1.506	yaw rate:	-4.022	Roll:	-14.607	Pitch:	-30.000	Yaw:	3.250	Thrust:	67.164
Time:	1.232	Roll Set Point:	0.377	Pitch Set Point:	2.979	Yaw Set Point:	-0.026	X_WP:	0.480	Y_WP:	1.176	Y_WP:	0.750	X:	0.078	Y:	-0.907	Z:	0.403	yaw:	1.467	yaw rate:	3.956	Roll:	-12.159	Pitch:	-30.000	Yaw:	2.213	Thrust:	71.380
Time:	1.251	Roll Set Point:	0.381	Pitch Set Point:	2.978	Yaw Set Point:	-0.027	X_WP:	0.480	Y_WP:	1.176	Y_WP:	0.750	X:	0.078	Y:	-0.907	Z:	0.402	yaw:	1.559	yaw rate:	-9.212	Roll:	-16.520	Pitch:	-30.000	Yaw:	4.050	Thrust:	68.538
Time:	1.272	Roll Set Point:	0.379	Pitch Set Point:	2.978	Yaw Set Point:	-0.027	X_WP:	0.480	Y_WP:	1.176	Y_WP:	0.750	X:	0.078	Y:	-0.907	Z:	0.403	yaw:	1.529	yaw rate:	3.006	Roll:	-12.275	Pitch:	-30.000	Yaw:	2.408	Thrust:	68.141
Time:	1.291	Roll Set Point:	0.380	Pitch Set Point:	2.978	Yaw Set Point:	-0.027	X_WP:	0.480	Y_WP:	1.176	Y_WP:	0.750	X:	0.078	Y:	-0.907	Z:	0.403	yaw:	1.535	yaw rate:	-0.666	Roll:	-13.820	Pitch:	-30.000	Yaw:	2.887	Thrust:	73.910
Time:	1.312	Roll Set Point:	0.379	Pitch Set Point:	2.979	Yaw Set Point:	-0.026	X_WP:	0.480	Y_WP:	1.176	Y_WP:	0.750	X:	0.078	Y:	-0.907	Z:	0.403	yaw:	1.504	yaw rate:	3.099	Roll:	-12.404	Pitch:	-30.000	Yaw:	2.407	Thrust:	73.961
Time:	1.332	Roll Set Point:	0.378	Pitch Set Point:	2.979	Yaw Set Point:	-0.026	X_WP:	0.480	Y_WP:	1.176	Y_WP:	0.750	X:	0.078	Y:	-0.907	Z:	0.403	yaw:	1.496	yaw rate:	0.860	Roll:	-13.180	Pitch:	-30.000	Yaw:	2.624	Thrust:	70.731
Time:	1.351	Roll Set Point:	0.376	Pitch Set Point:	2.979	Yaw Set Point:	-0.025	X_WP:	0.480	Y_WP:	1.176	Y_WP:	0.750	X:	0.078	Y:	-0.907	Z:	0.403	yaw:	1.443	yaw rate:	5.284	Roll:	-11.756	Pitch:	-30.000	Yaw:	2.035	Thrust:	74.797
Time:	1.371	Roll Set Point:	0.378	Pitch Set Point:	2.979	Yaw Set Point:	-0.026	X_WP:	0.480	Y_WP:	1.176	Y_WP:	0.750	X:	0.078	Y:	-0.907	Z:	0.403	yaw:	1.498	yaw rate:	-5.499	Roll:	-15.237	Pitch:	-30.000	Yaw:	3.518	Thrust:	73.765
Time:	1.392	Roll Set Point:	0.380	Pitch Set Point:	2.978	Yaw Set Point:	-0.027	X_WP:	0.480	Y_WP:	1.176	Y_WP:	0.750	X:	0.078	Y:	-0.907	Z:	0.403	yaw:	1.551	yaw rate:	-5.353	Roll:	-15.159	Pitch:	-30.000	Yaw:	3.586	Thrust:	78.202
Time:	1.412	Roll Set Point:	0.377	Pitch Set Point:	2.979	Yaw Set Point:	-0.025	X_WP:	0.480	Y_WP:	1.176	Y_WP:	0.750	X:	0.078	Y:	-0.907	Z:	0.403	yaw:	1.458	yaw rate:	9.386	Roll:	-10.609	Pitch:	-30.000	Yaw:	1.569	Thrust:	76.287
Time:	1.432	Roll Set Point:	0.379	Pitch Set Point:	2.978	Yaw Set Point:	-0.027	X_WP:	0.480	Y_WP:	1.176	Y_WP:	0.750	X:	0.078	Y:	-0.907	Z:	0.403	yaw:	1.522	yaw rate:	-6.475	Roll:	-15.639	Pitch:	-30.000	Yaw:	3.711	Thrust:	78.813
Time:	1.454	Roll Set Point:	0.380	Pitch Set Point:	2.978	Yaw Set Point:	-0.027	X_WP:	0.480	Y_WP:	1.176	Y_WP:	0.750	X:	0.078	Y:	-0.907	Z:	0.403	yaw:	1.536	yaw rate:	-1.325	Roll:	-14.075	Pitch:	-30.000	Yaw:	3.106	Thrust:	82.403
Time:	1.473	Roll Set Point:	0.379	Pitch Set Point:	2.979	Yaw Set Point:	-0.026	X_WP:	0.480	Y_WP:	1.176	Y_WP:	0.750	X:	0.078	Y:	-0.907	Z:	0.403	yaw:	1.515	yaw rate:	2.028	Roll:	-12.947	Pitch:	-30.000	Yaw:	2.563	Thrust:	76.442
Time:	1.493	Roll Set Point:	0.379	Pitch Set Point:	2.978	Yaw Set Point:	-0.026	X_WP:	0.480	Y_WP:	1.176	Y_WP:	0.750	X:	0.078	Y:	-0.907	Z:	0.403	yaw:	1.509	yaw rate:	0.614	Roll:	-13.498	Pitch:	-30.000	Yaw:	2.802	Thrust:	80.336
Time:	1.513	Roll Set Point:	0.379	Pitch Set Point:	2.978	Yaw Set Point:	-0.026	X_WP:	0.480	Y_WP:	1.176	Y_WP:	0.750	X:	0.078	Y:	-0.907	Z:	0.403	yaw:	1.513	yaw rate:	-0.432	Roll:	-13.801	Pitch:	-30.000	Yaw:	2.950	Thrust:	80.851
Time:	1.532	Roll Set Point:	0.382	Pitch Set Point:	2.978	Yaw Set Point:	-0.028	X_WP:	0.480	Y_WP:	1.176	Y_WP:	0.750	X:	0.078	Y:	-0.907	Z:	0.403	yaw:	1.591	yaw rate:	-7.747	Roll:	-16.337	Pitch:	-30.000	Yaw:	4.044	Thrust:	78.231
Time:	1.553	Roll Set Point:	0.379	Pitch Set Point:	2.978	Yaw Set Point:	-0.027	X_WP:	0.480	Y_WP:	1.176	Y_WP:	0.750	X:	0.078	Y:	-0.907	Z:	0.403	yaw:	1.519	yaw rate:	7.163	Roll:	-11.464	Pitch:	-30.000	Yaw:	2.066	Thrust:	85.151
Time:	1.572	Roll Set Point:	0.381	Pitch Set Point:	2.978	Yaw Set Point:	-0.027	X_WP:	0.480	Y_WP:	1.176	Y_WP:	0.750	X:	0.078	Y:	-0.907	Z:	0.402	yaw:	1.571	yaw rate:	-5.128	Roll:	-15.605	Pitch:	-30.000	Yaw:	3.674	Thrust:	82.262
Time:	1.592	Roll Set Point:	0.379	Pitch Set Point:	2.978	Yaw Set Point:	-0.026	X_WP:	0.480	Y_WP:	1.176	Y_WP:	0.750	X:	0.078	Y:	-0.907	Z:	0.403	yaw:	1.518	yaw rate:	5.273	Roll:	-12.077	Pitch:	-30.000	Yaw:	2.297	Thrust:	84.048
Time:	1.613	Roll Set Point:	0.376	Pitch Set Point:	2.979	Yaw Set Point:	-0.025	X_WP:	0.480	Y_WP:	1.176	Y_WP:	0.750	X:	0.078	Y:	-0.907	Z:	0.403	yaw:	1.440	yaw rate:	7.754	Roll:	-11.370	Pitch:	-30.000	Yaw:	1.849	Thrust:	87.353
Time:	1.633	Roll Set Point:	0.379	Pitch Set Point:	2.978	Yaw Set Point:	-0.026	X_WP:	0.480	Y_WP:	1.176	Y_WP:	0.750	X:	0.078	Y:	-0.907	Z:	0.403	yaw:	1.511	yaw rate:	-7.123	Roll:	-16.044	Pitch:	-30.000	Yaw:	3.887	Thrust:	85.656
Time:	1.654	Roll Set Point:	0.379	Pitch Set Point:	2.978	Yaw Set Point:	-0.026	X_WP:	0.480	Y_WP:	1.176	Y_WP:	0.750	X:	0.078	Y:	-0.907	Z:	0.403	yaw:	1.515	yaw rate:	-0.382	Roll:	-13.990	Pitch:	-30.000	Yaw:	3.044	Thrust:	88.582
Time:	1.671	Roll Set Point:	0.381	Pitch Set Point:	2.978	Yaw Set Point:	-0.027	X_WP:	0.480	Y_WP:	1.176	Y_WP:	0.750	X:	0.078	Y:	-0.907	Z:	0.403	yaw:	1.573	yaw rate:	-5.761	Roll:	-16.019	Pitch:	-30.000	Yaw:	3.819	Thrust:	79.087
Time:	1.691	Roll Set Point:	0.379	Pitch Set Point:	2.979	Yaw Set Point:	-0.026	X_WP:	0.480	Y_WP:	1.176	Y_WP:	0.750	X:	0.078	Y:	-0.907	Z:	0.403	yaw:	1.502	yaw rate:	7.041	Roll:	-11.675	Pitch:	-30.000	Yaw:	1.990	Thrust:	89.110
Time:	1.713	Roll Set Point:	0.379	Pitch Set Point:	2.978	Yaw Set Point:	-0.027	X_WP:	0.480	Y_WP:	1.176	Y_WP:	0.750	X:	0.078	Y:	-0.907	Z:	0.403	yaw:	1.519	yaw rate:	-1.623	Roll:	-14.399	Pitch:	-30.000	Yaw:	3.277	Thrust:	93.133
Time:	1.731	Roll Set Point:	0.379	Pitch Set Point:	2.978	Yaw Set Point:	-0.027	X_WP:	0.480	Y_WP:	1.176	Y_WP:	0.750	X:	0.078	Y:	-0.907	Z:	0.403	yaw:	1.520	yaw rate:	-0.143	Roll:	-14.008	Pitch:	-30.000	Yaw:	2.987	Thrust:	87.691
Time:	1.752	Roll Set Point:	0.378	Pitch Set Point:	2.979	Yaw Set Point:	-0.026	X_WP:	0.480	Y_WP:	1.176	Y_WP:	0.750	X:	0.078	Y:	-0.907	Z:	0.403	yaw:	1.494	yaw rate:	2.623	Roll:	-13.140	Pitch:	-30.000	Yaw:	2.666	Thrust:	89.851
Time:	1.771	Roll Set Point:	0.377	Pitch Set Point:	2.979	Yaw Set Point:	-0.025	X_WP:	0.480	Y_WP:	1.176	Y_WP:	0.750	X:	0.078	Y:	-0.907	Z:	0.402	yaw:	1.460	yaw rate:	3.436	Roll:	-13.024	Pitch:	-30.000	Yaw:	2.420	Thrust:	89.678
Time:	1.793	Roll Set Point:	0.378	Pitch Set Point:	2.979	Yaw Set Point:	-0.026	X_WP:	0.480	Y_WP:	1.176	Y_WP:	0.750	X:	0.078	Y:	-0.907	Z:	0.403	yaw:	1.484	yaw rate:	-2.475	Roll:	-14.527	Pitch:	-30.000	Yaw:	3.398	Thrust:	98.355
Time:	1.812	Roll Set Point:	0.376	Pitch Set Point:	2.979	Yaw Set Point:	-0.025	X_WP:	0.480	Y_WP:	1.176	Y_WP:	0.750	X:	0.078	Y:	-0.907	Z:	0.403	yaw:	1.446	yaw rate:	3.795	Roll:	-12.679	Pitch:	-30.000	Yaw:	2.393	Thrust:	91.718
Time:	1.833	Roll Set Point:	0.379	Pitch Set Point:	2.978	Yaw Set Point:	-0.027	X_WP:	0.480	Y_WP:	1.176	Y_WP:	0.750	X:	0.078	Y:	-0.907	Z:	0.403	yaw:	1.523	yaw rate:	-7.696	Roll:	-16.384	Pitch:	-30.000	Yaw:	4.083	Thrust:	96.019
Time:	1.852	Roll Set Point:	0.383	Pitch Set Point:	2.977	Yaw Set Point:	-0.028	X_WP:	0.480	Y_WP:	1.176	Y_WP:	0.750	X:	0.078	Y:	-0.907	Z:	0.403	yaw:	1.620	yaw rate:	-9.656	Roll:	-17.160	Pitch:	-30.000	Yaw:	4.491	Thrust:	93.994
Time:	1.872	Roll Set Point:	0.381	Pitch Set Point:	2.978	Yaw Set Point:	-0.027	X_WP:	0.480	Y_WP:	1.176	Y_WP:	0.750	X:	0.078	Y:	-0.907	Z:	0.402	yaw:	1.553	yaw rate:	6.675	Roll:	-12.053	Pitch:	-30.000	Yaw:	2.273	Thrust:	94.224
Time:	1.892	Roll Set Point:	0.426	Pitch Set Point:	2.967	Yaw Set Point:	-0.049	X_WP:	0.480	Y_WP:	1.176	Y_WP:	0.750	X:	0.078	Y:	-0.906	Z:	0.402	yaw:	2.823	yaw rate:	-127.017	Roll:	-30.000	Pitch:	-30.000	Yaw:	21.726	Thrust:	96.510
Time:	1.913	Roll Set Point:	0.380	Pitch Set Point:	2.978	Yaw Set Point:	-0.027	X_WP:	0.480	Y_WP:	1.176	Y_WP:	0.750	X:	0.078	Y:	-0.907	Z:	0.403	yaw:	1.537	yaw rate:	128.673	Roll:	25.288	Pitch:	-30.000	Yaw:	-14.101	Thrust:	96.598
Time:	1.932	Roll Set Point:	0.379	Pitch Set Point:	2.978	Yaw Set Point:	-0.027	X_WP:	0.480	Y_WP:	1.176	Y_WP:	0.750	X:	0.078	Y:	-0.907	Z:	0.403	yaw:	1.525	yaw rate:	1.150	Roll:	-13.655	Pitch:	-30.000	Yaw:	2.995	Thrust:	98.582
Time:	1.952	Roll Set Point:	0.380	Pitch Set Point:	2.978	Yaw Set Point:	-0.027	X_WP:	0.480	Y_WP:	1.176	Y_WP:	0.750	X:	0.078	Y:	-0.907	Z:	0.402	yaw:	1.540	yaw rate:	-1.501	Roll:	-14.657	Pitch:	-30.000	Yaw:	3.383	Thrust:	100.000
Time:	1.971	Roll Set Point:	0.372	Pitch Set Point:	2.980	Yaw Set Point:	-0.023	X_WP:	0.480	Y_WP:	1.176	Y_WP:	0.750	X:	0.078	Y:	-0.907	Z:	0.402	yaw:	1.319	yaw rate:	22.108	Roll:	-7.018	Pitch:	-30.000	Yaw:	-0.098	Thrust:	98.475
Time:	1.992	Roll Set Point:	0.382	Pitch Set Point:	2.978	Yaw Set Point:	-0.028	X_WP:	0.480	Y_WP:	1.176	Y_WP:	0.750	X:	0.078	Y:	-0.907	Z:	0.402	yaw:	1.578	yaw rate:	-25.929	Roll:	-22.121	Pitch:	-30.000	Yaw:	6.598	Thrust:	100.000
Time:	2.011	Roll Set Point:	0.377	Pitch Set Point:	2.979	Yaw Set Point:	-0.025	X_WP:	0.480	Y_WP:	1.176	Y_WP:	0.750	X:	0.078	Y:	-0.907	Z:	0.402	yaw:	1.458	yaw rate:	12.031	Roll:	-10.311	Pitch:	-30.000	Yaw:	1.500	Thrust:	99.395
Time:	2.031	Roll Set Point:	0.380	Pitch Set Point:	2.978	Yaw Set Point:	-0.027	X_WP:	0.480	Y_WP:	1.176	Y_WP:	0.750	X:	0.078	Y:	-0.907	Z:	0.403	yaw:	1.528	yaw rate:	-7.027	Roll:	-16.063	Pitch:	-30.000	Yaw:	4.116	Thrust:	100.000
Time:	2.053	Roll Set Point:	0.379	Pitch Set Point:	2.979	Yaw Set Point:	-0.026	X_WP:	0.480	Y_WP:	1.176	Y_WP:	0.750	X:	0.078	Y:	-0.907	Z:	0.403	yaw:	1.505	yaw rate:	2.314	Roll:	-13.209	Pitch:	-30.000	Yaw:	2.949	Thrust:	100.000
Time:	2.072	Roll Set Point:	0.379	Pitch Set Point:	2.978	Yaw Set Point:	-0.026	X_WP:	0.480	Y_WP:	1.176	Y_WP:	0.750	X:	0.078	Y:	-0.907	Z:	0.403	yaw:	1.511	yaw rate:	-0.602	Roll:	-14.154	Pitch:	-30.000	Yaw:	3.227	Thrust:	100.000
Time:	2.092	Roll Set Point:	0.382	Pitch Set Point:	2.978	Yaw Set Point:	-0.028	X_WP:	0.480	Y_WP:	1.176	Y_WP:	0.750	X:	0.078	Y:	-0.907	Z:	0.403	yaw:	1.600	yaw rate:	-8.845	Roll:	-16.882	Pitch:	-30.000	Yaw:	4.487	Thrust:	100.000
Time:	2.113	Roll Set Point:	0.426	Pitch Set Point:	2.967	Yaw Set Point:	-0.049	X_WP:	0.480	Y_WP:	1.176	Y_WP:	0.750	X:	0.078	Y:	-0.906	Z:	0.402	yaw:	2.820	yaw rate:	-122.058	Roll:	-30.000	Pitch:	-30.000	Yaw:	20.568	Thrust:	100.000
Time:	2.132	Roll Set Point:	0.379	Pitch Set Point:	2.978	Yaw Set Point:	-0.026	X_WP:	0.480	Y_WP:	1.176	Y_WP:	0.750	X:	0.078	Y:	-0.907	Z:	0.403	yaw:	1.515	yaw rate:	130.505	Roll:	24.865	Pitch:	-30.000	Yaw:	-14.714	Thrust:	100.000
Time:	2.152	Roll Set Point:	0.380	Pitch Set Point:	2.978	Yaw Set Point:	-0.027	X_WP:	0.480	Y_WP:	1.176	Y_WP:	0.750	X:	0.078	Y:	-0.907	Z:	0.403	yaw:	1.533	yaw rate:	-1.820	Roll:	-14.596	Pitch:	-30.000	Yaw:	3.544	Thrust:	100.000
Time:	2.172	Roll Set Point:	0.377	Pitch Set Point:	2.979	Yaw Set Point:	-0.026	X_WP:	0.480	Y_WP:	1.176	Y_WP:	0.750	X:	0.078	Y:	-0.907	Z:	0.403	yaw:	1.463	yaw rate:	6.998	Roll:	-11.732	Pitch:	-30.000	Yaw:	2.241	Thrust:	100.000
Time:	2.191	Roll Set Point:	0.378	Pitch Set Point:	2.979	Yaw Set Point:	-0.026	X_WP:	0.480	Y_WP:	1.176	Y_WP:	0.750	X:	0.078	Y:	-0.907	Z:	0.403	yaw:	1.502	yaw rate:	-3.885	Roll:	-15.173	Pitch:	-30.000	Yaw:	3.751	Thrust:	100.000
Time:	2.211	Roll Set Point:	0.380	Pitch Set Point:	2.978	Yaw Set Point:	-0.027	X_WP:	0.480	Y_WP:	1.176	Y_WP:	0.750	X:	0.078	Y:	-0.907	Z:	0.403	yaw:	1.536	yaw rate:	-3.360	Roll:	-15.097	Pitch:	-30.000	Yaw:	3.725	Thrust:	100.000
Time:	2.232	Roll Set Point:	0.382	Pitch Set Point:	2.978	Yaw Set Point:	-0.028	X_WP:	0.480	Y_WP:	1.176	Y_WP:	0.750	X:	0.078	Y:	-0.907	Z:	0.402	yaw:	1.594	yaw rate:	-5.832	Roll:	-15.977	Pitch:	-30.000	Yaw:	4.181	Thrust:	100.000
Time:	2.252	Roll Set Point:	0.379	Pitch Set Point:	2.978	Yaw Set Point:	-0.027	X_WP:	0.480	Y_WP:	1.176	Y_WP:	0.750	X:	0.078	Y:	-0.907	Z:	0.403	yaw:	1.529	yaw rate:	6.477	Roll:	-11.971	Pitch:	-30.000	Yaw:	2.613	Thrust:	100.000
Time:	2.271	Roll Set Point:	0.379	Pitch Set Point:	2.978	Yaw Set Point:	-0.027	X_WP:	0.480	Y_WP:	1.176	Y_WP:	0.750	X:	0.078	Y:	-0.907	Z:	0.403	yaw:	1.521	yaw rate:	0.790	Roll:	-13.718	Pitch:	-30.000	Yaw:	3.136	Thrust:	100.000
Time:	2.292	Roll Set Point:	0.379	Pitch Set Point:	2.978	Yaw Set Point:	-0.027	X_WP:	0.480	Y_WP:	1.176	Y_WP:	0.750	X:	0.078	Y:	-0.907	Z:	0.403	yaw:	1.528	yaw rate:	-0.662	Roll:	-14.212	Pitch:	-30.000	Yaw:	3.437	Thrust:	100.000
Time:	2.311	Roll Set Point:	0.379	Pitch Set Point:	2.978	Yaw Set Point:	-0.027	X_WP:	0.480	Y_WP:	1.176	Y_WP:	0.750	X:	0.078	Y:	-0.907	Z:	0.403	yaw:	1.519	yaw rate:	0.937	Roll:	-13.693	Pitch:	-30.000	Yaw:	3.198	Thrust:	100.000
Time:	2.331	Roll Set Point:	0.379	Pitch Set Point:	2.978	Yaw Set Point:	-0.027	X_WP:	0.480	Y_WP:	1.176	Y_WP:	0.750	X:	0.078	Y:	-0.907	Z:	0.403	yaw:	1.522	yaw rate:	-0.316	Roll:	-14.121	Pitch:	-30.000	Yaw:	3.429	Thrust:	100.000
Time:	2.352	Roll Set Point:	0.381	Pitch Set Point:	2.978	Yaw Set Point:	-0.027	X_WP:	0.480	Y_WP:	1.176	Y_WP:	0.750	X:	0.078	Y:	-0.907	Z:	0.403	yaw:	1.573	yaw rate:	-5.138	Roll:	-15.777	Pitch:	-30.000	Yaw:	4.135	Thrust:	100.000
Time:	2.372	Roll Set Point:	0.379	Pitch Set Point:	2.978	Yaw Set Point:	-0.027	X_WP:	0.480	Y_WP:	1.176	Y_WP:	0.750	X:	0.078	Y:	-0.907	Z:	0.403	yaw:	1.520	yaw rate:	5.373	Roll:	-12.051	Pitch:	-30.000	Yaw:	2.632	Thrust:	100.000
Time:	2.391	Roll Set Point:	0.379	Pitch Set Point:	2.978	Yaw Set Point:	-0.027	X_WP:	0.480	Y_WP:	1.176	Y_WP:	0.750	X:	0.078	Y:	-0.907	Z:	0.403	yaw:	1.519	yaw rate:	0.022	Roll:	-14.011	Pitch:	-30.000	Yaw:	3.364	Thrust:	100.000
Time:	2.411	Roll Set Point:	0.379	Pitch Set Point:	2.978	Yaw Set Point:	-0.026	X_WP:	0.480	Y_WP:	1.176	Y_WP:	0.750	X:	0.078	Y:	-0.907	Z:	0.403	yaw:	1.514	yaw rate:	0.510	Roll:	-13.859	Pitch:	-30.000	Yaw:	3.288	Thrust:	100.000
Time:	2.432	Roll Set Point:	0.380	Pitch Set Point:	2.978	Yaw Set Point:	-0.027	X_WP:	0.480	Y_WP:	1.176	Y_WP:	0.750	X:	0.078	Y:	-0.907	Z:	0.403	yaw:	1.539	yaw rate:	-2.514	Roll:	-14.789	Pitch:	-30.000	Yaw:	3.826	Thrust:	100.000
Time:	2.453	Roll Set Point:	0.379	Pitch Set Point:	2.978	Yaw Set Point:	-0.027	X_WP:	0.480	Y_WP:	1.176	Y_WP:	0.750	X:	0.078	Y:	-0.907	Z:	0.403	yaw:	1.521	yaw rate:	1.860	Roll:	-13.510	Pitch:	-30.000	Yaw:	3.192	Thrust:	100.000
Time:	2.471	Roll Set Point:	0.379	Pitch Set Point:	2.978	Yaw Set Point:	-0.027	X_WP:	0.480	Y_WP:	1.176	Y_WP:	0.750	X:	0.078	Y:	-0.907	Z:	0.403	yaw:	1.526	yaw rate:	-0.538	Roll:	-14.141	Pitch:	-30.000	Yaw:	3.398	Thrust:	100.000
Time:	2.491	Roll Set Point:	0.380	Pitch Set Point:	2.978	Yaw Set Point:	-0.027	X_WP:	0.480	Y_WP:	1.176	Y_WP:	0.750	X:	0.078	Y:	-0.907	Z:	0.403	yaw:	1.533	yaw rate:	-0.692	Roll:	-14.238	Pitch:	-30.000	Yaw:	3.612	Thrust:	100.000
Time:	2.512	Roll Set Point:	0.379	Pitch Set Point:	2.978	Yaw Set Point:	-0.027	X_WP:	0.480	Y_WP:	1.176	Y_WP:	0.750	X:	0.078	Y:	-0.907	Z:	0.403	yaw:	1.529	yaw rate:	0.364	Roll:	-13.904	Pitch:	-30.000	Yaw:	3.385	Thrust:	100.000
Time:	2.531	Roll Set Point:	0.379	Pitch Set Point:	2.978	Yaw Set Point:	-0.027	X_WP:	0.480	Y_WP:	1.176	Y_WP:	0.750	X:	0.078	Y:	-0.907	Z:	0.403	yaw:	1.522	yaw rate:	0.744	Roll:	-13.747	Pitch:	-30.000	Yaw:	3.385	Thrust:	100.000
Time:	2.552	Roll Set Point:	0.379	Pitch Set Point:	2.978	Yaw Set Point:	-0.026	X_WP:	0.480	Y_WP:	1.176	Y_WP:	0.750	X:	0.078	Y:	-0.907	Z:	0.403	yaw:	1.514	yaw rate:	0.761	Roll:	-13.824	Pitch:	-30.000	Yaw:	3.405	Thrust:	100.000
Time:	2.571	Roll Set Point:	0.379	Pitch Set Point:	2.979	Yaw Set Point:	-0.026	X_WP:	0.480	Y_WP:	1.176	Y_WP:	0.750	X:	0.078	Y:	-0.907	Z:	0.403	yaw:	1.512	yaw rate:	0.276	Roll:	-13.884	Pitch:	-30.000	Yaw:	3.371	Thrust:	100.000
Time:	2.592	Roll Set Point:	0.377	Pitch Set Point:	2.979	Yaw Set Point:	-0.026	X_WP:	0.480	Y_WP:	1.176	Y_WP:	0.750	X:	0.078	Y:	-0.907	Z:	0.403	yaw:	1.470	yaw rate:	4.149	Roll:	-12.736	Pitch:	-30.000	Yaw:	2.960	Thrust:	100.000
Time:	2.612	Roll Set Point:	0.378	Pitch Set Point:	2.979	Yaw Set Point:	-0.026	X_WP:	0.480	Y_WP:	1.176	Y_WP:	0.750	X:	0.078	Y:	-0.907	Z:	0.403	yaw:	1.485	yaw rate:	-1.490	Roll:	-14.537	Pitch:	-30.000	Yaw:	3.622	Thrust:	100.000
Time:	2.632	Roll Set Point:	0.379	Pitch Set Point:	2.978	Yaw Set Point:	-0.027	X_WP:	0.480	Y_WP:	1.176	Y_WP:	0.750	X:	0.078	Y:	-0.907	Z:	0.403	yaw:	1.519	yaw rate:	-3.385	Roll:	-14.934	Pitch:	-30.000	Yaw:	3.940	Thrust:	100.000
Time:	2.651	Roll Set Point:	0.379	Pitch Set Point:	2.978	Yaw Set Point:	-0.026	X_WP:	0.480	Y_WP:	1.176	Y_WP:	0.750	X:	0.078	Y:	-0.907	Z:	0.403	yaw:	1.514	yaw rate:	0.455	Roll:	-13.847	Pitch:	-30.000	Yaw:	3.470	Thrust:	100.000
Time:	2.672	Roll Set Point:	0.379	Pitch Set Point:	2.978	Yaw Set Point:	-0.026	X_WP:	0.480	Y_WP:	1.176	Y_WP:	0.750	X:	0.078	Y:	-0.907	Z:	0.403	yaw:	1.512	yaw rate:	0.233	Roll:	-13.946	Pitch:	-30.000	Yaw:	3.506	Thrust:	100.000
Time:	2.692	Roll Set Point:	0.376	Pitch Set Point:	2.979	Yaw Set Point:	-0.025	X_WP:	0.480	Y_WP:	1.176	Y_WP:	0.750	X:	0.078	Y:	-0.907	Z:	0.402	yaw:	1.419	yaw rate:	9.291	Roll:	-11.248	Pitch:	-30.000	Yaw:	2.246	Thrust:	100.000
Time:	2.711	Roll Set Point:	0.383	Pitch Set Point:	2.977	Yaw Set Point:	-0.028	X_WP:	0.480	Y_WP:	1.176	Y_WP:	0.750	X:	0.078	Y:	-0.907	Z:	0.402	yaw:	1.620	yaw rate:	-20.072	Roll:	-20.433	Pitch:	-30.000	Yaw:	6.403	Thrust:	100.000
Time:	2.732	Roll Set Point:	0.371	Pitch Set Point:	2.980	Yaw Set Point:	-0.023	X_WP:	0.480	Y_WP:	1.176	Y_WP:	0.750	X:	0.078	Y:	-0.907	Z:	0.403	yaw:	1.294	yaw rate:	32.606	Roll:	-4.071	Pitch:	-30.000	Yaw:	-0.497	Thrust:	100.000
Time:	2.752	Roll Set Point:	0.380	Pitch Set Point:	2.978	Yaw Set Point:	-0.027	X_WP:	0.480	Y_WP:	1.176	Y_WP:	0.750	X:	0.078	Y:	-0.907	Z:	0.403	yaw:	1.548	yaw rate:	-25.436	Roll:	-22.065	Pitch:	-30.000	Yaw:	7.016	Thrust:	100.000
Time:	2.771	Roll Set Point:	0.377	Pitch Set Point:	2.979	Yaw Set Point:	-0.025	X_WP:	0.480	Y_WP:	1.176	Y_WP:	0.750	X:	0.078	Y:	-0.907	Z:	0.403	yaw:	1.453	yaw rate:	9.524	Roll:	-10.888	Pitch:	-30.000	Yaw:	2.179	Thrust:	100.000
Time:	2.792	Roll Set Point:	0.377	Pitch Set Point:	2.979	Yaw Set Point:	-0.026	X_WP:	0.480	Y_WP:	1.176	Y_WP:	0.750	X:	0.078	Y:	-0.907	Z:	0.403	yaw:	1.471	yaw rate:	-1.841	Roll:	-14.526	Pitch:	-30.000	Yaw:	3.770	Thrust:	100.000
Time:	2.812	Roll Set Point:	0.377	Pitch Set Point:	2.979	Yaw Set Point:	-0.025	X_WP:	0.480	Y_WP:	1.176	Y_WP:	0.750	X:	0.078	Y:	-0.907	Z:	0.403	yaw:	1.451	yaw rate:	1.994	Roll:	-13.323	Pitch:	-30.000	Yaw:	3.261	Thrust:	100.000
Time:	2.831	Roll Set Point:	0.371	Pitch Set Point:	2.980	Yaw Set Point:	-0.023	X_WP:	0.480	Y_WP:	1.176	Y_WP:	0.750	X:	0.078	Y:	-0.907	Z:	0.403	yaw:	1.293	yaw rate:	15.800	Roll:	-8.971	Pitch:	-30.000	Yaw:	1.199	Thrust:	100.000
Time:	2.852	Roll Set Point:	0.379	Pitch Set Point:	2.978	Yaw Set Point:	-0.027	X_WP:	0.480	Y_WP:	1.176	Y_WP:	0.750	X:	0.078	Y:	-0.907	Z:	0.402	yaw:	1.520	yaw rate:	-22.712	Roll:	-21.097	Pitch:	-30.000	Yaw:	6.548	Thrust:	100.000
Time:	2.871	Roll Set Point:	0.381	Pitch Set Point:	2.978	Yaw Set Point:	-0.027	X_WP:	0.480	Y_WP:	1.176	Y_WP:	0.750	X:	0.078	Y:	-0.907	Z:	0.403	yaw:	1.553	yaw rate:	-3.286	Roll:	-15.033	Pitch:	-30.000	Yaw:	4.092	Thrust:	100.000
Time:	2.891	Roll Set Point:	0.379	Pitch Set Point:	2.978	Yaw Set Point:	-0.027	X_WP:	0.480	Y_WP:	1.176	Y_WP:	0.750	X:	0.078	Y:	-0.907	Z:	0.403	yaw:	1.527	yaw rate:	2.592	Roll:	-13.111	Pitch:	-30.000	Yaw:	3.285	Thrust:	100.000
Time:	2.912	Roll Set Point:	0.382	Pitch Set Point:	2.978	Yaw Set Point:	-0.028	X_WP:	0.480	Y_WP:	1.176	Y_WP:	0.750	X:	0.078	Y:	-0.907	Z:	0.402	yaw:	1.578	yaw rate:	-5.104	Roll:	-15.808	Pitch:	-30.000	Yaw:	4.415	Thrust:	100.000
Time:	2.932	Roll Set Point:	0.376	Pitch Set Point:	2.979	Yaw Set Point:	-0.025	X_WP:	0.480	Y_WP:	1.176	Y_WP:	0.750	X:	0.078	Y:	-0.907	Z:	0.403	yaw:	1.446	yaw rate:	13.286	Roll:	-9.838	Pitch:	-30.000	Yaw:	1.932	Thrust:	100.000
Time:	2.952	Roll Set Point:	0.380	Pitch Set Point:	2.978	Yaw Set Point:	-0.027	X_WP:	0.480	Y_WP:	1.176	Y_WP:	0.750	X:	0.078	Y:	-0.907	Z:	0.402	yaw:	1.549	yaw rate:	-10.294	Roll:	-17.325	Pitch:	-30.000	Yaw:	5.064	Thrust:	100.000
Time:	2.971	Roll Set Point:	0.377	Pitch Set Point:	2.979	Yaw Set Point:	-0.025	X_WP:	0.480	Y_WP:	1.176	Y_WP:	0.750	X:	0.078	Y:	-0.907	Z:	0.403	yaw:	1.454	yaw rate:	9.456	Roll:	-10.718	Pitch:	-30.000	Yaw:	2.312	Thrust:	100.000
Time:	2.992	Roll Set Point:	0.378	Pitch Set Point:	2.979	Yaw Set Point:	-0.026	X_WP:	0.480	Y_WP:	1.176	Y_WP:	0.750	X:	0.078	Y:	-0.907	Z:	0.403	yaw:	1.487	yaw rate:	-3.300	Roll:	-14.982	Pitch:	-30.000	Yaw:	4.115	Thrust:	100.000
Time:	3.012	Roll Set Point:	0.376	Pitch Set Point:	2.979	Yaw Set Point:	-0.025	X_WP:	0.480	Y_WP:	1.176	Y_WP:	0.750	X:	0.078	Y:	-0.907	Z:	0.403	yaw:	1.448	yaw rate:	3.889	Roll:	-12.658	Pitch:	-30.000	Yaw:	3.088	Thrust:	100.000
Time:	3.033	Roll Set Point:	0.379	Pitch Set Point:	2.978	Yaw Set Point:	-0.027	X_WP:	0.480	Y_WP:	1.176	Y_WP:	0.750	X:	0.078	Y:	-0.907	Z:	0.403	yaw:	1.524	yaw rate:	-7.567	Roll:	-16.362	Pitch:	-30.000	Yaw:	4.732	Thrust:	100.000
Time:	3.053	Roll Set Point:	0.379	Pitch Set Point:	2.979	Yaw Set Point:	-0.026	X_WP:	0.480	Y_WP:	1.176	Y_WP:	0.750	X:	0.078	Y:	-0.907	Z:	0.403	yaw:	1.504	yaw rate:	1.953	Roll:	-13.419	Pitch:	-30.000	Yaw:	3.479	Thrust:	100.000
Time:	3.072	Roll Set Point:	0.379	Pitch Set Point:	2.978	Yaw Set Point:	-0.027	X_WP:	0.480	Y_WP:	1.176	Y_WP:	0.750	X:	0.078	Y:	-0.907	Z:	0.403	yaw:	1.524	yaw rate:	-1.961	Roll:	-14.598	Pitch:	-30.000	Yaw:	3.952	Thrust:	100.000
Time:	3.092	Roll Set Point:	0.379	Pitch Set Point:	2.979	Yaw Set Point:	-0.026	X_WP:	0.480	Y_WP:	1.176	Y_WP:	0.750	X:	0.078	Y:	-0.907	Z:	0.403	yaw:	1.509	yaw rate:	1.484	Roll:	-13.549	Pitch:	-30.000	Yaw:	3.579	Thrust:	100.000
Time:	3.113	Roll Set Point:	0.379	Pitch Set Point:	2.979	Yaw Set Point:	-0.026	X_WP:	0.480	Y_WP:	1.176	Y_WP:	0.750	X:	0.078	Y:	-0.907	Z:	0.403	yaw:	1.512	yaw rate:	-0.286	Roll:	-14.067	Pitch:	-30.000	Yaw:	3.717	Thrust:	100.000
Time:	3.132	Roll Set Point:	0.379	Pitch Set Point:	2.978	Yaw Set Point:	-0.027	X_WP:	0.480	Y_WP:	1.176	Y_WP:	0.750	X:	0.078	Y:	-0.907	Z:	0.403	yaw:	1.528	yaw rate:	-1.659	Roll:	-14.517	Pitch:	-30.000	Yaw:	4.001	Thrust:	100.000
Time:	3.152	Roll Set Point:	0.379	Pitch Set Point:	2.979	Yaw Set Point:	-0.026	X_WP:	0.480	Y_WP:	1.176	Y_WP:	0.750	X:	0.078	Y:	-0.907	Z:	0.403	yaw:	1.504	yaw rate:	2.408	Roll:	-13.272	Pitch:	-30.000	Yaw:	3.520	Thrust:	100.000
Time:	3.172	Roll Set Point:	0.379	Pitch Set Point:	2.979	Yaw Set Point:	-0.026	X_WP:	0.480	Y_WP:	1.176	Y_WP:	0.750	X:	0.078	Y:	-0.907	Z:	0.403	yaw:	1.511	yaw rate:	-0.665	Roll:	-14.184	Pitch:	-30.000	Yaw:	3.867	Thrust:	100.000
Time:	3.192	Roll Set Point:	0.380	Pitch Set Point:	2.978	Yaw Set Point:	-0.027	X_WP:	0.480	Y_WP:	1.176	Y_WP:	0.750	X:	0.078	Y:	-0.907	Z:	0.403	yaw:	1.541	yaw rate:	-2.960	Roll:	-14.944	Pitch:	-30.000	Yaw:	4.196	Thrust:	100.000
Time:	3.212	Roll Set Point:	0.379	Pitch Set Point:	2.978	Yaw Set Point:	-0.027	X_WP:	0.480	Y_WP:	1.176	Y_WP:	0.750	X:	0.078	Y:	-0.907	Z:	0.403	yaw:	1.520	yaw rate:	2.080	Roll:	-13.351	Pitch:	-30.000	Yaw:	3.553	Thrust:	100.000
Time:	3.232	Roll Set Point:	0.377	Pitch Set Point:	2.979	Yaw Set Point:	-0.025	X_WP:	0.480	Y_WP:	1.176	Y_WP:	0.750	X:	0.078	Y:	-0.907	Z:	0.402	yaw:	1.435	yaw rate:	8.505	Roll:	-11.622	Pitch:	-30.000	Yaw:	2.595	Thrust:	100.000
Time:	3.252	Roll Set Point:	0.379	Pitch Set Point:	2.979	Yaw Set Point:	-0.026	X_WP:	0.480	Y_WP:	1.176	Y_WP:	0.750	X:	0.078	Y:	-0.907	Z:	0.403	yaw:	1.505	yaw rate:	-6.983	Roll:	-15.912	Pitch:	-30.000	Yaw:	4.765	Thrust:	100.000
Time:	3.272	Roll Set Point:	0.379	Pitch Set Point:	2.979	Yaw Set Point:	-0.026	X_WP:	0.480	Y_WP:	1.176	Y_WP:	0.750	X:	0.078	Y:	-0.907	Z:	0.403	yaw:	1.508	yaw rate:	-0.333	Roll:	-14.055	Pitch:	-30.000	Yaw:	3.753	Thrust:	100.000
Time:	3.291	Roll Set Point:	0.380	Pitch Set Point:	2.978	Yaw Set Point:	-0.027	X_WP:	0.480	Y_WP:	1.176	Y_WP:	0.750	X:	0.078	Y:	-0.907	Z:	0.403	yaw:	1.541	yaw rate:	-3.294	Roll:	-15.174	Pitch:	-30.000	Yaw:	4.360	Thrust:	100.000
Time:	3.312	Roll Set Point:	0.380	Pitch Set Point:	2.978	Yaw Set Point:	-0.027	X_WP:	0.480	Y_WP:	1.176	Y_WP:	0.750	X:	0.078	Y:	-0.907	Z:	0.403	yaw:	1.536	yaw rate:	0.501	Roll:	-13.879	Pitch:	-30.000	Yaw:	3.897	Thrust:	100.000
Time:	3.332	Roll Set Point:	0.379	Pitch Set Point:	2.979	Yaw Set Point:	-0.026	X_WP:	0.480	Y_WP:	1.176	Y_WP:	0.750	X:	0.078	Y:	-0.907	Z:	0.403	yaw:	1.505	yaw rate:	3.076	Roll:	-12.959	Pitch:	-30.000	Yaw:	3.509	Thrust:	100.000
Time:	3.352	Roll Set Point:	0.382	Pitch Set Point:	2.978	Yaw Set Point:	-0.028	X_WP:	0.480	Y_WP:	1.176	Y_WP:	0.750	X:	0.078	Y:	-0.907	Z:	0.403	yaw:	1.582	yaw rate:	-7.688	Roll:	-16.670	Pitch:	-30.000	Yaw:	4.941	Thrust:	100.000
Time:	3.370	Roll Set Point:	0.382	Pitch Set Point:	2.978	Yaw Set Point:	-0.028	X_WP:	0.480	Y_WP:	1.176	Y_WP:	0.750	X:	0.078	Y:	-0.907	Z:	0.403	yaw:	1.587	yaw rate:	-0.539	Roll:	-14.217	Pitch:	-30.000	Yaw:	3.990	Thrust:	100.000
Time:	3.392	Roll Set Point:	0.379	Pitch Set Point:	2.978	Yaw Set Point:	-0.027	X_WP:	0.480	Y_WP:	1.176	Y_WP:	0.750	X:	0.078	Y:	-0.907	Z:	0.403	yaw:	1.525	yaw rate:	6.202	Roll:	-12.034	Pitch:	-30.000	Yaw:	3.245	Thrust:	100.000
Time:	3.411	Roll Set Point:	0.378	Pitch Set Point:	2.979	Yaw Set Point:	-0.026	X_WP:	0.480	Y_WP:	1.176	Y_WP:	0.750	X:	0.078	Y:	-0.907	Z:	0.402	yaw:	1.466	yaw rate:	5.955	Roll:	-12.388	Pitch:	-30.000	Yaw:	3.012	Thrust:	100.000
Time:	3.432	Roll Set Point:	0.379	Pitch Set Point:	2.978	Yaw Set Point:	-0.027	X_WP:	0.480	Y_WP:	1.176	Y_WP:	0.750	X:	0.078	Y:	-0.907	Z:	0.403	yaw:	1.528	yaw rate:	-6.234	Roll:	-15.687	Pitch:	-30.000	Yaw:	4.838	Thrust:	100.000
Time:	3.451	Roll Set Point:	0.380	Pitch Set Point:	2.978	Yaw Set Point:	-0.027	X_WP:	0.480	Y_WP:	1.176	Y_WP:	0.750	X:	0.078	Y:	-0.907	Z:	0.403	yaw:	1.535	yaw rate:	-0.741	Roll:	-14.340	Pitch:	-30.000	Yaw:	3.938	Thrust:	100.000
Time:	3.471	Roll Set Point:	0.379	Pitch Set Point:	2.978	Yaw Set Point:	-0.026	X_WP:	0.480	Y_WP:	1.176	Y_WP:	0.750	X:	0.078	Y:	-0.907	Z:	0.403	yaw:	1.512	yaw rate:	2.303	Roll:	-13.279	Pitch:	-30.000	Yaw:	3.656	Thrust:	100.000
Time:	3.497	Roll Set Point:	0.379	Pitch Set Point:	2.978	Yaw Set Point:	-0.026	X_WP:	0.480	Y_WP:	1.176	Y_WP:	0.750	X:	0.078	Y:	-0.907	Z:	0.402	yaw:	1.503	yaw rate:	0.914	Roll:	-14.051	Pitch:	-30.000	Yaw:	4.430	Thrust:	100.000
Time:	3.512	Roll Set Point:	0.378	Pitch Set Point:	2.979	Yaw Set Point:	-0.026	X_WP:	0.480	Y_WP:	1.176	Y_WP:	0.750	X:	0.078	Y:	-0.907	Z:	0.403	yaw:	1.498	yaw rate:	0.505	Roll:	-13.311	Pitch:	-30.000	Yaw:	3.309	Thrust:	100.000
Time:	3.531	Roll Set Point:	0.383	Pitch Set Point:	2.977	Yaw Set Point:	-0.028	X_WP:	0.480	Y_WP:	1.176	Y_WP:	0.750	X:	0.078	Y:	-0.907	Z:	0.402	yaw:	1.626	yaw rate:	-12.781	Roll:	-18.177	Pitch:	-30.000	Yaw:	5.803	Thrust:	100.000
Time:	3.552	Roll Set Point:	0.379	Pitch Set Point:	2.979	Yaw Set Point:	-0.026	X_WP:	0.480	Y_WP:	1.176	Y_WP:	0.750	X:	0.078	Y:	-0.907	Z:	0.403	yaw:	1.515	yaw rate:	11.130	Roll:	-10.432	Pitch:	-30.000	Yaw:	2.636	Thrust:	100.000
Time:	3.571	Roll Set Point:	0.380	Pitch Set Point:	2.978	Yaw Set Point:	-0.027	X_WP:	0.480	Y_WP:	1.176	Y_WP:	0.750	X:	0.078	Y:	-0.907	Z:	0.402	yaw:	1.525	yaw rate:	-1.012	Roll:	-14.463	Pitch:	-30.000	Yaw:	4.116	Thrust:	100.000
Time:	3.591	Roll Set Point:	0.377	Pitch Set Point:	2.979	Yaw Set Point:	-0.026	X_WP:	0.480	Y_WP:	1.176	Y_WP:	0.750	X:	0.078	Y:	-0.907	Z:	0.403	yaw:	1.466	yaw rate:	5.930	Roll:	-11.928	Pitch:	-30.000	Yaw:	3.215	Thrust:	100.000
Time:	3.611	Roll Set Point:	0.380	Pitch Set Point:	2.978	Yaw Set Point:	-0.027	X_WP:	0.480	Y_WP:	1.176	Y_WP:	0.750	X:	0.078	Y:	-0.907	Z:	0.402	yaw:	1.540	yaw rate:	-7.443	Roll:	-16.524	Pitch:	-30.000	Yaw:	5.018	Thrust:	100.000
Time:	3.632	Roll Set Point:	0.401	Pitch Set Point:	2.973	Yaw Set Point:	-0.037	X_WP:	0.480	Y_WP:	1.176	Y_WP:	0.750	X:	0.078	Y:	-0.907	Z:	0.402	yaw:	2.109	yaw rate:	-56.891	Roll:	-30.000	Pitch:	-30.000	Yaw:	12.370	Thrust:	100.000
Time:	3.653	Roll Set Point:	0.379	Pitch Set Point:	2.978	Yaw Set Point:	-0.027	X_WP:	0.480	Y_WP:	1.176	Y_WP:	0.750	X:	0.078	Y:	-0.907	Z:	0.403	yaw:	1.529	yaw rate:	57.987	Roll:	3.018	Pitch:	-30.000	Yaw:	-3.017	Thrust:	100.000
Time:	3.672	Roll Set Point:	0.378	Pitch Set Point:	2.979	Yaw Set Point:	-0.026	X_WP:	0.480	Y_WP:	1.176	Y_WP:	0.750	X:	0.078	Y:	-0.907	Z:	0.403	yaw:	1.496	yaw rate:	3.293	Roll:	-12.843	Pitch:	-30.000	Yaw:	3.434	Thrust:	100.000
Time:	3.691	Roll Set Point:	0.382	Pitch Set Point:	2.978	Yaw Set Point:	-0.028	X_WP:	0.480	Y_WP:	1.176	Y_WP:	0.750	X:	0.078	Y:	-0.907	Z:	0.402	yaw:	1.579	yaw rate:	-8.243	Roll:	-16.822	Pitch:	-30.000	Yaw:	5.239	Thrust:	100.000
Time:	3.712	Roll Set Point:	0.377	Pitch Set Point:	2.979	Yaw Set Point:	-0.026	X_WP:	0.480	Y_WP:	1.176	Y_WP:	0.750	X:	0.078	Y:	-0.907	Z:	0.403	yaw:	1.472	yaw rate:	10.697	Roll:	-10.640	Pitch:	-30.000	Yaw:	2.657	Thrust:	100.000
Time:	3.731	Roll Set Point:	0.379	Pitch Set Point:	2.979	Yaw Set Point:	-0.026	X_WP:	0.480	Y_WP:	1.176	Y_WP:	0.750	X:	0.078	Y:	-0.907	Z:	0.403	yaw:	1.504	yaw rate:	-3.235	Roll:	-14.983	Pitch:	-30.000	Yaw:	4.488	Thrust:	100.000
Time:	3.752	Roll Set Point:	0.379	Pitch Set Point:	2.978	Yaw Set Point:	-0.027	X_WP:	0.480	Y_WP:	1.176	Y_WP:	0.750	X:	0.078	Y:	-0.907	Z:	0.403	yaw:	1.519	yaw rate:	-1.475	Roll:	-14.470	Pitch:	-30.000	Yaw:	4.326	Thrust:	100.000
Time:	3.771	Roll Set Point:	0.376	Pitch Set Point:	2.979	Yaw Set Point:	-0.025	X_WP:	0.480	Y_WP:	1.176	Y_WP:	0.750	X:	0.078	Y:	-0.907	Z:	0.403	yaw:	1.434	yaw rate:	8.434	Roll:	-11.320	Pitch:	-30.000	Yaw:	2.830	Thrust:	100.000
Time:	3.791	Roll Set Point:	0.381	Pitch Set Point:	2.978	Yaw Set Point:	-0.027	X_WP:	0.480	Y_WP:	1.176	Y_WP:	0.750	X:	0.078	Y:	-0.907	Z:	0.403	yaw:	1.562	yaw rate:	-12.799	Roll:	-18.092	Pitch:	-30.000	Yaw:	5.862	Thrust:	100.000
Time:	3.811	Roll Set Point:	0.382	Pitch Set Point:	2.978	Yaw Set Point:	-0.028	X_WP:	0.480	Y_WP:	1.176	Y_WP:	0.750	X:	0.078	Y:	-0.907	Z:	0.402	yaw:	1.582	yaw rate:	-1.943	Roll:	-14.707	Pitch:	-30.000	Yaw:	4.497	Thrust:	100.000
Time:	3.832	Roll Set Point:	0.376	Pitch Set Point:	2.979	Yaw Set Point:	-0.025	X_WP:	0.480	Y_WP:	1.176	Y_WP:	0.750	X:	0.078	Y:	-0.907	Z:	0.403	yaw:	1.444	yaw rate:	13.814	Roll:	-9.479	Pitch:	-30.000	Yaw:	2.306	Thrust:	100.000
Time:	3.851	Roll Set Point:	0.381	Pitch Set Point:	2.978	Yaw Set Point:	-0.027	X_WP:	0.480	Y_WP:	1.176	Y_WP:	0.750	X:	0.078	Y:	-0.907	Z:	0.402	yaw:	1.560	yaw rate:	-11.615	Roll:	-17.852	Pitch:	-30.000	Yaw:	5.683	Thrust:	100.000
Time:	3.871	Roll Set Point:	0.378	Pitch Set Point:	2.979	Yaw Set Point:	-0.026	X_WP:	0.480	Y_WP:	1.176	Y_WP:	0.750	X:	0.078	Y:	-0.907	Z:	0.403	yaw:	1.493	yaw rate:	6.645	Roll:	-11.772	Pitch:	-30.000	Yaw:	3.141	Thrust:	100.000
Time:	3.891	Roll Set Point:	0.380	Pitch Set Point:	2.978	Yaw Set Point:	-0.027	X_WP:	0.480	Y_WP:	1.176	Y_WP:	0.750	X:	0.078	Y:	-0.907	Z:	0.403	yaw:	1.539	yaw rate:	-4.530	Roll:	-15.390	Pitch:	-30.000	Yaw:	4.800	Thrust:	100.000
Time:	3.912	Roll Set Point:	0.379	Pitch Set Point:	2.978	Yaw Set Point:	-0.026	X_WP:	0.480	Y_WP:	1.176	Y_WP:	0.750	X:	0.078	Y:	-0.907	Z:	0.403	yaw:	1.514	yaw rate:	2.480	Roll:	-13.229	Pitch:	-30.000	Yaw:	3.716	Thrust:	100.000
Time:	3.931	Roll Set Point:	0.381	Pitch Set Point:	2.978	Yaw Set Point:	-0.027	X_WP:	0.480	Y_WP:	1.176	Y_WP:	0.750	X:	0.078	Y:	-0.907	Z:	0.403	yaw:	1.575	yaw rate:	-6.109	Roll:	-16.124	Pitch:	-30.000	Yaw:	4.964	Thrust:	100.000
Time:	3.951	Roll Set Point:	0.379	Pitch Set Point:	2.978	Yaw Set Point:	-0.027	X_WP:	0.480	Y_WP:	1.176	Y_WP:	0.750	X:	0.078	Y:	-0.907	Z:	0.403	yaw:	1.520	yaw rate:	5.493	Roll:	-12.406	Pitch:	-30.000	Yaw:	3.496	Thrust:	100.000
Time:	3.971	Roll Set Point:	0.379	Pitch Set Point:	2.978	Yaw Set Point:	-0.026	X_WP:	0.480	Y_WP:	1.176	Y_WP:	0.750	X:	0.078	Y:	-0.907	Z:	0.403	yaw:	1.516	yaw rate:	0.396	Roll:	-13.846	Pitch:	-30.000	Yaw:	3.984	Thrust:	100.000
Time:	3.991	Roll Set Point:	0.379	Pitch Set Point:	2.979	Yaw Set Point:	-0.026	X_WP:	0.480	Y_WP:	1.176	Y_WP:	0.750	X:	0.078	Y:	-0.907	Z:	0.403	yaw:	1.513	yaw rate:	0.346	Roll:	-13.756	Pitch:	-30.000	Yaw:	4.087	Thrust:	100.000
Time:	4.011	Roll Set Point:	0.377	Pitch Set Point:	2.979	Yaw Set Point:	-0.025	X_WP:	0.480	Y_WP:	1.176	Y_WP:	0.750	X:	0.078	Y:	-0.907	Z:	0.403	yaw:	1.460	yaw rate:	5.250	Roll:	-12.384	Pitch:	-30.000	Yaw:	3.448	Thrust:	100.000
Time:	4.031	Roll Set Point:	0.377	Pitch Set Point:	2.979	Yaw Set Point:	-0.026	X_WP:	0.480	Y_WP:	1.176	Y_WP:	0.750	X:	0.078	Y:	-0.907	Z:	0.403	yaw:	1.473	yaw rate:	-1.246	Roll:	-14.329	Pitch:	-30.000	Yaw:	4.234	Thrust:	100.000
Time:	4.052	Roll Set Point:	0.378	Pitch Set Point:	2.979	Yaw Set Point:	-0.026	X_WP:	0.480	Y_WP:	1.176	Y_WP:	0.750	X:	0.078	Y:	-0.907	Z:	0.403	yaw:	1.502	yaw rate:	-2.897	Roll:	-14.891	Pitch:	-30.000	Yaw:	4.547	Thrust:	100.000
Time:	4.071	Roll Set Point:	0.382	Pitch Set Point:	2.978	Yaw Set Point:	-0.028	X_WP:	0.480	Y_WP:	1.176	Y_WP:	0.750	X:	0.078	Y:	-0.907	Z:	0.402	yaw:	1.579	yaw rate:	-7.757	Roll:	-16.713	Pitch:	-30.000	Yaw:	5.155	Thrust:	100.000
Time:	4.091	Roll Set Point:	0.381	Pitch Set Point:	2.978	Yaw Set Point:	-0.027	X_WP:	0.480	Y_WP:	1.176	Y_WP:	0.750	X:	0.078	Y:	-0.907	Z:	0.403	yaw:	1.554	yaw rate:	2.524	Roll:	-13.226	Pitch:	-30.000	Yaw:	3.841	Thrust:	100.000
Time:	4.112	Roll Set Point:	0.380	Pitch Set Point:	2.978	Yaw Set Point:	-0.027	X_WP:	0.480	Y_WP:	1.176	Y_WP:	0.750	X:	0.078	Y:	-0.907	Z:	0.403	yaw:	1.542	yaw rate:	1.181	Roll:	-13.478	Pitch:	-30.000	Yaw:	4.057	Thrust:	100.000
Time:	4.131	Roll Set Point:	0.376	Pitch Set Point:	2.979	Yaw Set Point:	-0.025	X_WP:	0.480	Y_WP:	1.176	Y_WP:	0.750	X:	0.078	Y:	-0.907	Z:	0.403	yaw:	1.435	yaw rate:	10.750	Roll:	-10.761	Pitch:	-30.000	Yaw:	2.523	Thrust:	100.000
Time:	4.152	Roll Set Point:	0.379	Pitch Set Point:	2.978	Yaw Set Point:	-0.026	X_WP:	0.480	Y_WP:	1.176	Y_WP:	0.750	X:	0.078	Y:	-0.907	Z:	0.403	yaw:	1.512	yaw rate:	-7.717	Roll:	-16.493	Pitch:	-30.000	Yaw:	5.131	Thrust:	100.000
Time:	4.170	Roll Set Point:	0.379	Pitch Set Point:	2.978	Yaw Set Point:	-0.027	X_WP:	0.480	Y_WP:	1.176	Y_WP:	0.750	X:	0.078	Y:	-0.907	Z:	0.403	yaw:	1.527	yaw rate:	-1.526	Roll:	-14.309	Pitch:	-30.000	Yaw:	4.264	Thrust:	100.000
Time:	4.191	Roll Set Point:	0.379	Pitch Set Point:	2.979	Yaw Set Point:	-0.026	X_WP:	0.480	Y_WP:	1.176	Y_WP:	0.750	X:	0.078	Y:	-0.907	Z:	0.403	yaw:	1.505	yaw rate:	2.197	Roll:	-13.371	Pitch:	-30.000	Yaw:	3.942	Thrust:	100.000
Time:	4.211	Roll Set Point:	0.379	Pitch Set Point:	2.978	Yaw Set Point:	-0.026	X_WP:	0.480	Y_WP:	1.176	Y_WP:	0.750	X:	0.078	Y:	-0.907	Z:	0.402	yaw:	1.517	yaw rate:	-1.228	Roll:	-14.564	Pitch:	-30.000	Yaw:	4.260	Thrust:	100.000
Time:	4.232	Roll Set Point:	0.379	Pitch Set Point:	2.978	Yaw Set Point:	-0.026	X_WP:	0.480	Y_WP:	1.176	Y_WP:	0.750	X:	0.078	Y:	-0.907	Z:	0.403	yaw:	1.517	yaw rate:	0.022	Roll:	-13.848	Pitch:	-30.000	Yaw:	4.100	Thrust:	100.000
Time:	4.252	Roll Set Point:	0.380	Pitch Set Point:	2.978	Yaw Set Point:	-0.027	X_WP:	0.480	Y_WP:	1.176	Y_WP:	0.750	X:	0.078	Y:	-0.907	Z:	0.403	yaw:	1.537	yaw rate:	-2.027	Roll:	-14.643	Pitch:	-30.000	Yaw:	4.453	Thrust:	100.000
Time:	4.270	Roll Set Point:	0.379	Pitch Set Point:	2.978	Yaw Set Point:	-0.027	X_WP:	0.480	Y_WP:	1.176	Y_WP:	0.750	X:	0.078	Y:	-0.907	Z:	0.403	yaw:	1.525	yaw rate:	1.214	Roll:	-13.562	Pitch:	-30.000	Yaw:	3.845	Thrust:	100.000
Time:	4.291	Roll Set Point:	0.377	Pitch Set Point:	2.979	Yaw Set Point:	-0.025	X_WP:	0.480	Y_WP:	1.176	Y_WP:	0.750	X:	0.078	Y:	-0.907	Z:	0.403	yaw:	1.459	yaw rate:	6.572	Roll:	-11.922	Pitch:	-30.000	Yaw:	3.246	Thrust:	100.000
Time:	4.313	Roll Set Point:	0.378	Pitch Set Point:	2.979	Yaw Set Point:	-0.026	X_WP:	0.480	Y_WP:	1.176	Y_WP:	0.750	X:	0.078	Y:	-0.907	Z:	0.402	yaw:	1.463	yaw rate:	-0.374	Roll:	-14.329	Pitch:	-30.000	Yaw:	4.298	Thrust:	100.000
Time:	4.332	Roll Set Point:	0.379	Pitch Set Point:	2.978	Yaw Set Point:	-0.026	X_WP:	0.480	Y_WP:	1.176	Y_WP:	0.750	X:	0.078	Y:	-0.907	Z:	0.402	yaw:	1.516	yaw rate:	-5.314	Roll:	-15.627	Pitch:	-30.000	Yaw:	4.763	Thrust:	100.000
Time:	4.353	Roll Set Point:	0.377	Pitch Set Point:	2.979	Yaw Set Point:	-0.025	X_WP:	0.480	Y_WP:	1.176	Y_WP:	0.750	X:	0.078	Y:	-0.907	Z:	0.402	yaw:	1.457	yaw rate:	5.939	Roll:	-12.288	Pitch:	-30.000	Yaw:	3.285	Thrust:	100.000
Time:	4.373	Roll Set Point:	0.379	Pitch Set Point:	2.978	Yaw Set Point:	-0.026	X_WP:	0.480	Y_WP:	1.176	Y_WP:	0.750	X:	0.078	Y:	-0.907	Z:	0.402	yaw:	1.516	yaw rate:	-5.922	Roll:	-15.756	Pitch:	-30.000	Yaw:	4.845	Thrust:	100.000
Time:	4.393	Roll Set Point:	0.379	Pitch Set Point:	2.978	Yaw Set Point:	-0.026	X_WP:	0.480	Y_WP:	1.176	Y_WP:	0.750	X:	0.078	Y:	-0.907	Z:	0.403	yaw:	1.516	yaw rate:	-0.000	Roll:	-13.840	Pitch:	-30.000	Yaw:	4.189	Thrust:	100.000
Time:	4.413	Roll Set Point:	0.379	Pitch Set Point:	2.978	Yaw Set Point:	-0.027	X_WP:	0.480	Y_WP:	1.176	Y_WP:	0.750	X:	0.078	Y:	-0.907	Z:	0.403	yaw:	1.523	yaw rate:	-0.734	Roll:	-14.223	Pitch:	-30.000	Yaw:	4.233	Thrust:	100.000
Time:	4.436	Roll Set Point:	0.378	Pitch Set Point:	2.979	Yaw Set Point:	-0.026	X_WP:	0.480	Y_WP:	1.176	Y_WP:	0.750	X:	0.078	Y:	-0.907	Z:	0.402	yaw:	1.480	yaw rate:	4.373	Roll:	-13.221	Pitch:	-30.000	Yaw:	3.885	Thrust:	100.000
Time:	4.453	Roll Set Point:	0.379	Pitch Set Point:	2.978	Yaw Set Point:	-0.026	X_WP:	0.480	Y_WP:	1.176	Y_WP:	0.750	X:	0.078	Y:	-0.907	Z:	0.403	yaw:	1.509	yaw rate:	-2.918	Roll:	-14.667	Pitch:	-30.000	Yaw:	4.224	Thrust:	100.000
Time:	4.471	Roll Set Point:	0.379	Pitch Set Point:	2.978	Yaw Set Point:	-0.027	X_WP:	0.480	Y_WP:	1.176	Y_WP:	0.750	X:	0.078	Y:	-0.907	Z:	0.403	yaw:	1.526	yaw rate:	-1.744	Roll:	-14.520	Pitch:	-30.000	Yaw:	4.297	Thrust:	100.000
Time:	4.491	Roll Set Point:	0.380	Pitch Set Point:	2.978	Yaw Set Point:	-0.027	X_WP:	0.480	Y_WP:	1.176	Y_WP:	0.750	X:	0.078	Y:	-0.907	Z:	0.402	yaw:	1.527	yaw rate:	-0.108	Roll:	-14.207	Pitch:	-30.000	Yaw:	4.070	Thrust:	100.000
Time:	4.512	Roll Set Point:	0.380	Pitch Set Point:	2.978	Yaw Set Point:	-0.027	X_WP:	0.480	Y_WP:	1.176	Y_WP:	0.750	X:	0.078	Y:	-0.907	Z:	0.403	yaw:	1.539	yaw rate:	-1.194	Roll:	-14.258	Pitch:	-30.000	Yaw:	4.346	Thrust:	100.000
Time:	4.532	Roll Set Point:	0.370	Pitch Set Point:	2.980	Yaw Set Point:	-0.022	X_WP:	0.480	Y_WP:	1.176	Y_WP:	0.750	X:	0.078	Y:	-0.907	Z:	0.403	yaw:	1.279	yaw rate:	26.053	Roll:	-6.067	Pitch:	-30.000	Yaw:	0.348	Thrust:	100.000
Time:	4.552	Roll Set Point:	0.376	Pitch Set Point:	2.979	Yaw Set Point:	-0.025	X_WP:	0.480	Y_WP:	1.176	Y_WP:	0.750	X:	0.078	Y:	-0.907	Z:	0.403	yaw:	1.428	yaw rate:	-14.886	Roll:	-18.523	Pitch:	-30.000	Yaw:	5.944	Thrust:	100.000
Time:	4.571	Roll Set Point:	0.379	Pitch Set Point:	2.978	Yaw Set Point:	-0.026	X_WP:	0.480	Y_WP:	1.176	Y_WP:	0.750	X:	0.078	Y:	-0.907	Z:	0.402	yaw:	1.506	yaw rate:	-7.804	Roll:	-16.516	Pitch:	-30.000	Yaw:	5.103	Thrust:	100.000
Time:	4.591	Roll Set Point:	0.377	Pitch Set Point:	2.979	Yaw Set Point:	-0.025	X_WP:	0.480	Y_WP:	1.176	Y_WP:	0.750	X:	0.078	Y:	-0.907	Z:	0.403	yaw:	1.461	yaw rate:	4.506	Roll:	-12.450	Pitch:	-30.000	Yaw:	3.522	Thrust:	100.000
Time:	4.615	Roll Set Point:	0.381	Pitch Set Point:	2.978	Yaw Set Point:	-0.027	X_WP:	0.480	Y_WP:	1.176	Y_WP:	0.750	X:	0.078	Y:	-0.907	Z:	0.403	yaw:	1.551	yaw rate:	-9.008	Roll:	-16.797	Pitch:	-30.000	Yaw:	5.451	Thrust:	100.000
Time:	4.633	Roll Set Point:	0.379	Pitch Set Point:	2.979	Yaw Set Point:	-0.026	X_WP:	0.480	Y_WP:	1.176	Y_WP:	0.750	X:	0.078	Y:	-0.907	Z:	0.403	yaw:	1.509	yaw rate:	4.138	Roll:	-12.470	Pitch:	-30.000	Yaw:	3.470	Thrust:	100.000
Time:	4.654	Roll Set Point:	0.379	Pitch Set Point:	2.978	Yaw Set Point:	-0.026	X_WP:	0.480	Y_WP:	1.176	Y_WP:	0.750	X:	0.078	Y:	-0.907	Z:	0.402	yaw:	1.507	yaw rate:	0.197	Roll:	-14.143	Pitch:	-30.000	Yaw:	4.111	Thrust:	100.000
Time:	4.672	Roll Set Point:	0.377	Pitch Set Point:	2.979	Yaw Set Point:	-0.025	X_WP:	0.480	Y_WP:	1.176	Y_WP:	0.750	X:	0.078	Y:	-0.907	Z:	0.403	yaw:	1.450	yaw rate:	5.710	Roll:	-11.812	Pitch:	-30.000	Yaw:	3.081	Thrust:	100.000
Time:	4.694	Roll Set Point:	0.377	Pitch Set Point:	2.979	Yaw Set Point:	-0.025	X_WP:	0.480	Y_WP:	1.176	Y_WP:	0.750	X:	0.078	Y:	-0.907	Z:	0.403	yaw:	1.456	yaw rate:	-0.606	Roll:	-14.148	Pitch:	-30.000	Yaw:	4.238	Thrust:	100.000
Time:	4.714	Roll Set Point:	0.380	Pitch Set Point:	2.978	Yaw Set Point:	-0.027	X_WP:	0.480	Y_WP:	1.176	Y_WP:	0.750	X:	0.078	Y:	-0.907	Z:	0.402	yaw:	1.547	yaw rate:	-9.052	Roll:	-17.014	Pitch:	-30.000	Yaw:	5.378	Thrust:	100.000
Time:	4.731	Roll Set Point:	0.380	Pitch Set Point:	2.978	Yaw Set Point:	-0.027	X_WP:	0.480	Y_WP:	1.176	Y_WP:	0.750	X:	0.078	Y:	-0.907	Z:	0.403	yaw:	1.536	yaw rate:	1.130	Roll:	-13.411	Pitch:	-30.000	Yaw:	3.695	Thrust:	100.000
Time:	4.752	Roll Set Point:	0.379	Pitch Set Point:	2.978	Yaw Set Point:	-0.027	X_WP:	0.480	Y_WP:	1.176	Y_WP:	0.750	X:	0.078	Y:	-0.907	Z:	0.403	yaw:	1.519	yaw rate:	1.634	Roll:	-13.553	Pitch:	-30.000	Yaw:	3.939	Thrust:	100.000
Time:	4.775	Roll Set Point:	0.378	Pitch Set Point:	2.979	Yaw Set Point:	-0.026	X_WP:	0.480	Y_WP:	1.176	Y_WP:	0.750	X:	0.078	Y:	-0.907	Z:	0.403	yaw:	1.480	yaw rate:	3.888	Roll:	-12.765	Pitch:	-30.000	Yaw:	3.998	Thrust:	100.000
Time:	4.794	Roll Set Point:	0.379	Pitch Set Point:	2.978	Yaw Set Point:	-0.027	X_WP:	0.480	Y_WP:	1.176	Y_WP:	0.750	X:	0.078	Y:	-0.907	Z:	0.403	yaw:	1.523	yaw rate:	-4.263	Roll:	-15.334	Pitch:	-30.000	Yaw:	4.546	Thrust:	100.000
Time:	4.815	Roll Set Point:	0.383	Pitch Set Point:	2.977	Yaw Set Point:	-0.028	X_WP:	0.480	Y_WP:	1.176	Y_WP:	0.750	X:	0.078	Y:	-0.907	Z:	0.402	yaw:	1.611	yaw rate:	-8.833	Roll:	-16.856	Pitch:	-30.000	Yaw:	5.461	Thrust:	100.000
Time:	4.835	Roll Set Point:	0.381	Pitch Set Point:	2.978	Yaw Set Point:	-0.027	X_WP:	0.480	Y_WP:	1.176	Y_WP:	0.750	X:	0.078	Y:	-0.907	Z:	0.402	yaw:	1.574	yaw rate:	3.756	Roll:	-12.835	Pitch:	-30.000	Yaw:	3.715	Thrust:	100.000
Time:	4.852	Roll Set Point:	0.380	Pitch Set Point:	2.978	Yaw Set Point:	-0.027	X_WP:	0.480	Y_WP:	1.176	Y_WP:	0.750	X:	0.078	Y:	-0.907	Z:	0.403	yaw:	1.548	yaw rate:	2.559	Roll:	-13.076	Pitch:	-30.000	Yaw:	3.579	Thrust:	100.000
Time:	4.872	Roll Set Point:	0.377	Pitch Set Point:	2.979	Yaw Set Point:	-0.025	X_WP:	0.480	Y_WP:	1.176	Y_WP:	0.750	X:	0.078	Y:	-0.907	Z:	0.403	yaw:	1.456	yaw rate:	9.195	Roll:	-10.909	Pitch:	-30.000	Yaw:	2.676	Thrust:	100.000
Time:	4.892	Roll Set Point:	0.380	Pitch Set Point:	2.978	Yaw Set Point:	-0.027	X_WP:	0.480	Y_WP:	1.176	Y_WP:	0.750	X:	0.078	Y:	-0.907	Z:	0.403	yaw:	1.541	yaw rate:	-8.495	Roll:	-16.640	Pitch:	-30.000	Yaw:	5.267	Thrust:	100.000
Time:	4.914	Roll Set Point:	0.379	Pitch Set Point:	2.979	Yaw Set Point:	-0.026	X_WP:	0.480	Y_WP:	1.176	Y_WP:	0.750	X:	0.078	Y:	-0.907	Z:	0.403	yaw:	1.508	yaw rate:	3.281	Roll:	-13.046	Pitch:	-30.000	Yaw:	3.839	Thrust:	100.000
Time:	4.932	Roll Set Point:	0.377	Pitch Set Point:	2.979	Yaw Set Point:	-0.025	X_WP:	0.480	Y_WP:	1.176	Y_WP:	0.750	X:	0.078	Y:	-0.907	Z:	0.402	yaw:	1.436	yaw rate:	7.253	Roll:	-11.885	Pitch:	-30.000	Yaw:	2.824	Thrust:	100.000
Time:	4.952	Roll Set Point:	0.379	Pitch Set Point:	2.978	Yaw Set Point:	-0.027	X_WP:	0.480	Y_WP:	1.176	Y_WP:	0.750	X:	0.078	Y:	-0.907	Z:	0.403	yaw:	1.526	yaw rate:	-8.990	Roll:	-16.549	Pitch:	-30.000	Yaw:	5.333	Thrust:	100.000
Time:	4.971	Roll Set Point:	0.379	Pitch Set Point:	2.978	Yaw Set Point:	-0.027	X_WP:	0.480	Y_WP:	1.176	Y_WP:	0.750	X:	0.078	Y:	-0.907	Z:	0.403	yaw:	1.520	yaw rate:	0.621	Roll:	-13.944	Pitch:	-30.000	Yaw:	3.942	Thrust:	100.000
Time:	4.992	Roll Set Point:	0.379	Pitch Set Point:	2.978	Yaw Set Point:	-0.026	X_WP:	0.480	Y_WP:	1.176	Y_WP:	0.750	X:	0.078	Y:	-0.907	Z:	0.403	yaw:	1.514	yaw rate:	0.589	Roll:	-13.695	Pitch:	-30.000	Yaw:	4.114	Thrust:	100.000
Time:	5.012	Roll Set Point:	0.379	Pitch Set Point:	2.979	Yaw Set Point:	-0.026	X_WP:	0.480	Y_WP:	1.176	Y_WP:	0.750	X:	0.078	Y:	-0.907	Z:	0.403	yaw:	1.512	yaw rate:	0.138	Roll:	-13.953	Pitch:	-30.000	Yaw:	4.121	Thrust:	100.000
Time:	5.035	Roll Set Point:	0.380	Pitch Set Point:	2.978	Yaw Set Point:	-0.027	X_WP:	0.480	Y_WP:	1.176	Y_WP:	0.750	X:	0.078	Y:	-0.907	Z:	0.403	yaw:	1.541	yaw rate:	-2.860	Roll:	-14.930	Pitch:	-30.000	Yaw:	4.762	Thrust:	100.000
Time:	5.053	Roll Set Point:	0.379	Pitch Set Point:	2.978	Yaw Set Point:	-0.027	X_WP:	0.480	Y_WP:	1.176	Y_WP:	0.750	X:	0.078	Y:	-0.907	Z:	0.403	yaw:	1.527	yaw rate:	1.401	Roll:	-13.465	Pitch:	-30.000	Yaw:	3.720	Thrust:	100.000
Time:	5.073	Roll Set Point:	0.376	Pitch Set Point:	2.979	Yaw Set Point:	-0.025	X_WP:	0.480	Y_WP:	1.176	Y_WP:	0.750	X:	0.078	Y:	-0.907	Z:	0.403	yaw:	1.440	yaw rate:	8.679	Roll:	-11.148	Pitch:	-30.000	Yaw:	2.860	Thrust:	100.000
Time:	5.093	Roll Set Point:	0.381	Pitch Set Point:	2.978	Yaw Set Point:	-0.027	X_WP:	0.480	Y_WP:	1.176	Y_WP:	0.750	X:	0.078	Y:	-0.907	Z:	0.402	yaw:	1.551	yaw rate:	-11.091	Roll:	-17.537	Pitch:	-30.000	Yaw:	5.615	Thrust:	100.000
Time:	5.116	Roll Set Point:	0.379	Pitch Set Point:	2.978	Yaw Set Point:	-0.027	X_WP:	0.480	Y_WP:	1.176	Y_WP:	0.750	X:	0.078	Y:	-0.907	Z:	0.403	yaw:	1.521	yaw rate:	2.953	Roll:	-12.931	Pitch:	-30.000	Yaw:	3.951	Thrust:	100.000
Time:	5.133	Roll Set Point:	0.379	Pitch Set Point:	2.978	Yaw Set Point:	-0.027	X_WP:	0.480	Y_WP:	1.176	Y_WP:	0.750	X:	0.078	Y:	-0.907	Z:	0.403	yaw:	1.529	yaw rate:	-0.727	Roll:	-14.223	Pitch:	-30.000	Yaw:	4.045	Thrust:	100.000
Time:	5.153	Roll Set Point:	0.371	Pitch Set Point:	2.980	Yaw Set Point:	-0.022	X_WP:	0.480	Y_WP:	1.176	Y_WP:	0.750	X:	0.078	Y:	-0.907	Z:	0.402	yaw:	1.286	yaw rate:	24.239	Roll:	-6.833	Pitch:	-30.000	Yaw:	0.648	Thrust:	100.000
Time:	5.173	Roll Set Point:	0.376	Pitch Set Point:	2.979	Yaw Set Point:	-0.025	X_WP:	0.480	Y_WP:	1.176	Y_WP:	0.750	X:	0.078	Y:	-0.907	Z:	0.403	yaw:	1.443	yaw rate:	-15.630	Roll:	-18.711	Pitch:	-30.000	Yaw:	6.062	Thrust:	100.000
Time:	5.193	Roll Set Point:	0.401	Pitch Set Point:	2.973	Yaw Set Point:	-0.037	X_WP:	0.480	Y_WP:	1.176	Y_WP:	0.750	X:	0.078	Y:	-0.907	Z:	0.402	yaw:	2.122	yaw rate:	-67.963	Roll:	-30.000	Pitch:	-30.000	Yaw:	13.604	Thrust:	100.000
Time:	5.213	Roll Set Point:	0.379	Pitch Set Point:	2.978	Yaw Set Point:	-0.027	X_WP:	0.480	Y_WP:	1.176	Y_WP:	0.750	X:	0.078	Y:	-0.907	Z:	0.403	yaw:	1.530	yaw rate:	59.227	Roll:	4.306	Pitch:	-30.000	Yaw:	-3.945	Thrust:	100.000
Time:	5.234	Roll Set Point:	0.379	Pitch Set Point:	2.978	Yaw Set Point:	-0.026	X_WP:	0.480	Y_WP:	1.176	Y_WP:	0.750	X:	0.078	Y:	-0.907	Z:	0.403	yaw:	1.514	yaw rate:	1.600	Roll:	-13.602	Pitch:	-30.000	Yaw:	4.141	Thrust:	100.000
Time:	5.256	Roll Set Point:	0.378	Pitch Set Point:	2.979	Yaw Set Point:	-0.026	X_WP:	0.480	Y_WP:	1.176	Y_WP:	0.750	X:	0.078	Y:	-0.907	Z:	0.403	yaw:	1.480	yaw rate:	3.427	Roll:	-13.092	Pitch:	-30.000	Yaw:	3.663	Thrust:	100.000
Time:	5.273	Roll Set Point:	0.379	Pitch Set Point:	2.978	Yaw Set Point:	-0.026	X_WP:	0.480	Y_WP:	1.176	Y_WP:	0.750	X:	0.078	Y:	-0.907	Z:	0.403	yaw:	1.518	yaw rate:	-3.792	Roll:	-15.093	Pitch:	-30.000	Yaw:	4.440	Thrust:	100.000
Time:	5.293	Roll Set Point:	0.381	Pitch Set Point:	2.978	Yaw Set Point:	-0.027	X_WP:	0.480	Y_WP:	1.176	Y_WP:	0.750	X:	0.078	Y:	-0.907	Z:	0.403	yaw:	1.556	yaw rate:	-3.865	Roll:	-15.374	Pitch:	-30.000	Yaw:	4.687	Thrust:	100.000
Time:	5.318	Roll Set Point:	0.379	Pitch Set Point:	2.978	Yaw Set Point:	-0.027	X_WP:	0.480	Y_WP:	1.176	Y_WP:	0.750	X:	0.078	Y:	-0.907	Z:	0.403	yaw:	1.529	yaw rate:	2.737	Roll:	-13.086	Pitch:	-30.000	Yaw:	4.206	Thrust:	100.000
