Time:	0.036	Roll Set Point:	-0.004	Pitch Set Point:	0.001	Yaw Set Point:	-3.010	X_WP:	0.000	Y_WP:	0.000	Y_WP:	0.750	X:	0.009	Y:	0.033	Z:	0.052	yaw:	172.452	yaw rate:	-8.309	Roll:	-0.146	Pitch:	-0.982	Yaw:	240.788	Thrust:	38.378
Time:	0.056	Roll Set Point:	-0.004	Pitch Set Point:	0.001	Yaw Set Point:	-3.009	X_WP:	0.000	Y_WP:	0.000	Y_WP:	0.750	X:	0.009	Y:	0.033	Z:	0.052	yaw:	172.380	yaw rate:	7.225	Roll:	-0.162	Pitch:	-0.927	Yaw:	241.002	Thrust:	40.001
Time:	0.076	Roll Set Point:	-0.005	Pitch Set Point:	0.001	Yaw Set Point:	-3.005	X_WP:	0.000	Y_WP:	0.000	Y_WP:	0.750	X:	0.010	Y:	0.033	Z:	0.052	yaw:	172.195	yaw rate:	18.504	Roll:	-0.112	Pitch:	-0.951	Yaw:	239.914	Thrust:	41.299
Time:	0.095	Roll Set Point:	-0.005	Pitch Set Point:	0.001	Yaw Set Point:	-2.992	X_WP:	0.000	Y_WP:	0.000	Y_WP:	0.750	X:	0.010	Y:	0.032	Z:	0.052	yaw:	171.440	yaw rate:	75.507	Roll:	-0.165	Pitch:	-0.833	Yaw:	231.234	Thrust:	43.806
Time:	0.121	Roll Set Point:	-0.004	Pitch Set Point:	0.001	Yaw Set Point:	-3.008	X_WP:	0.000	Y_WP:	0.000	Y_WP:	0.750	X:	0.010	Y:	0.033	Z:	0.052	yaw:	172.336	yaw rate:	-89.643	Roll:	-0.478	Pitch:	-1.001	Yaw:	252.595	Thrust:	45.474
Time:	0.136	Roll Set Point:	-0.005	Pitch Set Point:	0.001	Yaw Set Point:	-2.999	X_WP:	0.000	Y_WP:	0.000	Y_WP:	0.750	X:	0.010	Y:	0.033	Z:	0.052	yaw:	171.857	yaw rate:	47.911	Roll:	0.229	Pitch:	-1.139	Yaw:	233.488	Thrust:	46.459
Time:	0.158	Roll Set Point:	-0.005	Pitch Set Point:	0.001	Yaw Set Point:	-2.997	X_WP:	0.000	Y_WP:	0.000	Y_WP:	0.750	X:	0.010	Y:	0.033	Z:	0.053	yaw:	171.719	yaw rate:	13.815	Roll:	-0.433	Pitch:	-0.944	Yaw:	240.245	Thrust:	48.284
Time:	0.175	Roll Set Point:	-0.005	Pitch Set Point:	0.001	Yaw Set Point:	-3.004	X_WP:	0.000	Y_WP:	0.000	Y_WP:	0.750	X:	0.010	Y:	0.033	Z:	0.053	yaw:	172.108	yaw rate:	-38.895	Roll:	-0.122	Pitch:	-0.897	Yaw:	247.865	Thrust:	48.708
Time:	0.196	Roll Set Point:	-0.005	Pitch Set Point:	0.001	Yaw Set Point:	-2.993	X_WP:	0.000	Y_WP:	0.000	Y_WP:	0.750	X:	0.009	Y:	0.033	Z:	0.052	yaw:	171.458	yaw rate:	64.946	Roll:	0.589	Pitch:	-0.959	Yaw:	233.440	Thrust:	52.948
Time:	0.217	Roll Set Point:	-0.005	Pitch Set Point:	0.001	Yaw Set Point:	-2.992	X_WP:	0.000	Y_WP:	0.000	Y_WP:	0.750	X:	0.009	Y:	0.033	Z:	0.052	yaw:	171.422	yaw rate:	3.618	Roll:	0.158	Pitch:	-0.959	Yaw:	241.002	Thrust:	53.825
Time:	0.235	Roll Set Point:	-0.004	Pitch Set Point:	0.001	Yaw Set Point:	-3.014	X_WP:	0.000	Y_WP:	0.000	Y_WP:	0.750	X:	0.009	Y:	0.032	Z:	0.053	yaw:	172.688	yaw rate:	-126.579	Roll:	-0.709	Pitch:	-0.474	Yaw:	261.092	Thrust:	53.087
Time:	0.257	Roll Set Point:	-0.006	Pitch Set Point:	0.001	Yaw Set Point:	-2.973	X_WP:	0.000	Y_WP:	0.000	Y_WP:	0.750	X:	0.010	Y:	0.032	Z:	0.054	yaw:	170.327	yaw rate:	236.127	Roll:	0.493	Pitch:	-1.307	Yaw:	211.368	Thrust:	55.624
Time:	0.275	Roll Set Point:	-0.006	Pitch Set Point:	0.001	Yaw Set Point:	-2.970	X_WP:	0.000	Y_WP:	0.000	Y_WP:	0.750	X:	0.009	Y:	0.033	Z:	0.054	yaw:	170.154	yaw rate:	17.237	Roll:	0.146	Pitch:	-1.437	Yaw:	237.024	Thrust:	56.783
Time:	0.296	Roll Set Point:	-0.006	Pitch Set Point:	0.001	Yaw Set Point:	-2.951	X_WP:	0.000	Y_WP:	0.000	Y_WP:	0.750	X:	0.010	Y:	0.033	Z:	0.054	yaw:	169.052	yaw rate:	110.191	Roll:	0.024	Pitch:	-1.197	Yaw:	223.909	Thrust:	59.740
Time:	0.318	Roll Set Point:	-0.008	Pitch Set Point:	0.002	Yaw Set Point:	-2.906	X_WP:	0.000	Y_WP:	0.000	Y_WP:	0.750	X:	0.010	Y:	0.033	Z:	0.054	yaw:	166.499	yaw rate:	255.350	Roll:	0.809	Pitch:	-1.359	Yaw:	203.259	Thrust:	63.240
Time:	0.335	Roll Set Point:	-0.009	Pitch Set Point:	0.002	Yaw Set Point:	-2.880	X_WP:	0.000	Y_WP:	0.000	Y_WP:	0.750	X:	0.011	Y:	0.034	Z:	0.055	yaw:	164.996	yaw rate:	150.278	Roll:	0.401	Pitch:	-1.863	Yaw:	209.861	Thrust:	59.102
Time:	0.356	Roll Set Point:	-0.011	Pitch Set Point:	0.002	Yaw Set Point:	-2.839	X_WP:	0.000	Y_WP:	0.000	Y_WP:	0.750	X:	0.012	Y:	0.034	Z:	0.055	yaw:	162.681	yaw rate:	231.460	Roll:	0.471	Pitch:	-1.389	Yaw:	200.570	Thrust:	66.237
Time:	0.377	Roll Set Point:	-0.012	Pitch Set Point:	0.002	Yaw Set Point:	-2.794	X_WP:	0.000	Y_WP:	0.000	Y_WP:	0.750	X:	0.013	Y:	0.034	Z:	0.054	yaw:	160.104	yaw rate:	257.796	Roll:	0.966	Pitch:	-1.803	Yaw:	192.832	Thrust:	69.355
Time:	0.396	Roll Set Point:	-0.017	Pitch Set Point:	0.003	Yaw Set Point:	-2.682	X_WP:	0.000	Y_WP:	0.000	Y_WP:	0.750	X:	0.014	Y:	0.035	Z:	0.054	yaw:	153.677	yaw rate:	642.691	Roll:	2.905	Pitch:	-2.091	Yaw:	128.387	Thrust:	67.558
Time:	0.418	Roll Set Point:	-0.019	Pitch Set Point:	0.003	Yaw Set Point:	-2.627	X_WP:	0.000	Y_WP:	0.000	Y_WP:	0.750	X:	0.015	Y:	0.034	Z:	0.054	yaw:	150.502	yaw rate:	317.417	Roll:	0.574	Pitch:	-0.996	Yaw:	173.058	Thrust:	70.924
Time:	0.436	Roll Set Point:	-0.021	Pitch Set Point:	0.003	Yaw Set Point:	-2.584	X_WP:	0.000	Y_WP:	0.000	Y_WP:	0.750	X:	0.016	Y:	0.034	Z:	0.055	yaw:	148.024	yaw rate:	247.837	Roll:	1.075	Pitch:	-1.290	Yaw:	172.700	Thrust:	66.690
Time:	0.456	Roll Set Point:	-0.023	Pitch Set Point:	0.003	Yaw Set Point:	-2.517	X_WP:	0.000	Y_WP:	0.000	Y_WP:	0.750	X:	0.017	Y:	0.034	Z:	0.056	yaw:	144.222	yaw rate:	380.187	Roll:	1.560	Pitch:	-1.100	Yaw:	155.175	Thrust:	72.019
Time:	0.476	Roll Set Point:	-0.027	Pitch Set Point:	0.004	Yaw Set Point:	-2.409	X_WP:	0.000	Y_WP:	0.000	Y_WP:	0.750	X:	0.018	Y:	0.034	Z:	0.057	yaw:	138.030	yaw rate:	619.252	Roll:	2.608	Pitch:	-0.878	Yaw:	113.638	Thrust:	73.469
Time:	0.495	Roll Set Point:	-0.029	Pitch Set Point:	0.004	Yaw Set Point:	-2.345	X_WP:	0.000	Y_WP:	0.000	Y_WP:	0.750	X:	0.020	Y:	0.033	Z:	0.058	yaw:	134.367	yaw rate:	366.319	Roll:	0.746	Pitch:	-0.660	Yaw:	141.145	Thrust:	72.960
Time:	0.518	Roll Set Point:	-0.032	Pitch Set Point:	0.005	Yaw Set Point:	-2.259	X_WP:	0.000	Y_WP:	0.000	Y_WP:	0.750	X:	0.021	Y:	0.031	Z:	0.060	yaw:	129.439	yaw rate:	492.719	Roll:	1.200	Pitch:	-0.627	Yaw:	125.696	Thrust:	80.510
Time:	0.535	Roll Set Point:	-0.035	Pitch Set Point:	0.006	Yaw Set Point:	-2.166	X_WP:	0.000	Y_WP:	0.000	Y_WP:	0.750	X:	0.023	Y:	0.030	Z:	0.061	yaw:	124.120	yaw rate:	531.907	Roll:	1.133	Pitch:	-0.575	Yaw:	95.716	Thrust:	70.022
Time:	0.557	Roll Set Point:	-0.037	Pitch Set Point:	0.008	Yaw Set Point:	-2.083	X_WP:	0.000	Y_WP:	0.000	Y_WP:	0.750	X:	0.025	Y:	0.028	Z:	0.064	yaw:	119.344	yaw rate:	477.595	Roll:	0.435	Pitch:	-0.809	Yaw:	107.895	Thrust:	75.817
Time:	0.577	Roll Set Point:	-0.039	Pitch Set Point:	0.011	Yaw Set Point:	-1.962	X_WP:	0.000	Y_WP:	0.000	Y_WP:	0.750	X:	0.028	Y:	0.024	Z:	0.070	yaw:	112.428	yaw rate:	691.646	Roll:	0.429	Pitch:	-0.412	Yaw:	70.957	Thrust:	71.890
Time:	0.597	Roll Set Point:	-0.042	Pitch Set Point:	0.014	Yaw Set Point:	-1.860	X_WP:	0.000	Y_WP:	0.000	Y_WP:	0.750	X:	0.031	Y:	0.021	Z:	0.075	yaw:	106.564	yaw rate:	586.410	Roll:	0.270	Pitch:	-1.667	Yaw:	72.249	Thrust:	71.762
Time:	0.618	Roll Set Point:	-0.045	Pitch Set Point:	0.018	Yaw Set Point:	-1.776	X_WP:	0.000	Y_WP:	0.000	Y_WP:	0.750	X:	0.034	Y:	0.019	Z:	0.080	yaw:	101.735	yaw rate:	482.854	Roll:	0.081	Pitch:	-2.249	Yaw:	83.891	Thrust:	74.834
Time:	0.636	Roll Set Point:	-0.050	Pitch Set Point:	0.022	Yaw Set Point:	-1.676	X_WP:	0.000	Y_WP:	0.000	Y_WP:	0.750	X:	0.037	Y:	0.017	Z:	0.087	yaw:	96.010	yaw rate:	572.521	Roll:	1.394	Pitch:	-2.897	Yaw:	50.659	Thrust:	62.636
Time:	0.656	Roll Set Point:	-0.055	Pitch Set Point:	0.027	Yaw Set Point:	-1.577	X_WP:	0.000	Y_WP:	0.000	Y_WP:	0.750	X:	0.041	Y:	0.014	Z:	0.096	yaw:	90.350	yaw rate:	566.040	Roll:	1.199	Pitch:	-3.204	Yaw:	59.578	Thrust:	74.548
Time:	0.676	Roll Set Point:	-0.059	Pitch Set Point:	0.032	Yaw Set Point:	-1.496	X_WP:	0.000	Y_WP:	0.000	Y_WP:	0.750	X:	0.045	Y:	0.011	Z:	0.105	yaw:	85.698	yaw rate:	465.154	Roll:	1.217	Pitch:	-3.471	Yaw:	58.862	Thrust:	65.491
Time:	0.696	Roll Set Point:	-0.063	Pitch Set Point:	0.038	Yaw Set Point:	-1.418	X_WP:	0.000	Y_WP:	0.000	Y_WP:	0.750	X:	0.048	Y:	0.008	Z:	0.115	yaw:	81.235	yaw rate:	446.347	Roll:	1.150	Pitch:	-3.687	Yaw:	57.077	Thrust:	65.550
Time:	0.717	Roll Set Point:	-0.068	Pitch Set Point:	0.044	Yaw Set Point:	-1.345	X_WP:	0.000	Y_WP:	0.000	Y_WP:	0.750	X:	0.052	Y:	0.005	Z:	0.127	yaw:	77.090	yaw rate:	414.461	Roll:	1.674	Pitch:	-3.920	Yaw:	57.193	Thrust:	64.788
Time:	0.735	Roll Set Point:	-0.075	Pitch Set Point:	0.049	Yaw Set Point:	-1.263	X_WP:	0.000	Y_WP:	0.000	Y_WP:	0.750	X:	0.055	Y:	0.003	Z:	0.139	yaw:	72.386	yaw rate:	470.393	Roll:	2.699	Pitch:	-4.112	Yaw:	37.215	Thrust:	60.678
Time:	0.756	Roll Set Point:	-0.080	Pitch Set Point:	0.055	Yaw Set Point:	-1.212	X_WP:	0.000	Y_WP:	0.000	Y_WP:	0.750	X:	0.059	Y:	0.000	Z:	0.152	yaw:	69.414	yaw rate:	297.177	Roll:	1.888	Pitch:	-4.161	Yaw:	61.356	Thrust:	65.620
Time:	0.776	Roll Set Point:	-0.086	Pitch Set Point:	0.060	Yaw Set Point:	-1.146	X_WP:	0.000	Y_WP:	0.000	Y_WP:	0.750	X:	0.062	Y:	-0.002	Z:	0.165	yaw:	65.646	yaw rate:	376.845	Roll:	3.160	Pitch:	-3.851	Yaw:	41.570	Thrust:	58.900
Time:	0.795	Roll Set Point:	-0.089	Pitch Set Point:	0.065	Yaw Set Point:	-1.118	X_WP:	0.000	Y_WP:	0.000	Y_WP:	0.750	X:	0.065	Y:	-0.005	Z:	0.179	yaw:	64.036	yaw rate:	160.979	Roll:	1.373	Pitch:	-4.335	Yaw:	70.813	Thrust:	64.311
Time:	0.818	Roll Set Point:	-0.095	Pitch Set Point:	0.069	Yaw Set Point:	-1.059	X_WP:	0.000	Y_WP:	0.000	Y_WP:	0.750	X:	0.068	Y:	-0.007	Z:	0.193	yaw:	60.671	yaw rate:	336.457	Roll:	3.265	Pitch:	-3.512	Yaw:	47.245	Thrust:	69.998
Time:	0.835	Roll Set Point:	-0.098	Pitch Set Point:	0.074	Yaw Set Point:	-1.068	X_WP:	0.000	Y_WP:	0.000	Y_WP:	0.750	X:	0.071	Y:	-0.008	Z:	0.206	yaw:	61.198	yaw rate:	-52.610	Roll:	0.337	Pitch:	-5.419	Yaw:	95.026	Thrust:	57.023
Time:	0.856	Roll Set Point:	-0.102	Pitch Set Point:	0.078	Yaw Set Point:	-1.027	X_WP:	0.000	Y_WP:	0.000	Y_WP:	0.750	X:	0.073	Y:	-0.010	Z:	0.221	yaw:	58.825	yaw rate:	237.218	Roll:	2.412	Pitch:	-3.401	Yaw:	54.784	Thrust:	66.859
Time:	0.875	Roll Set Point:	-0.105	Pitch Set Point:	0.083	Yaw Set Point:	-1.002	X_WP:	0.000	Y_WP:	0.000	Y_WP:	0.750	X:	0.075	Y:	-0.013	Z:	0.235	yaw:	57.399	yaw rate:	142.625	Roll:	1.728	Pitch:	-4.022	Yaw:	62.532	Thrust:	57.973
Time:	0.896	Roll Set Point:	-0.104	Pitch Set Point:	0.083	Yaw Set Point:	-0.998	X_WP:	0.000	Y_WP:	0.000	Y_WP:	0.750	X:	0.074	Y:	-0.013	Z:	0.248	yaw:	57.171	yaw rate:	22.796	Roll:	0.368	Pitch:	-1.904	Yaw:	78.930	Thrust:	67.810
Time:	0.917	Roll Set Point:	-0.106	Pitch Set Point:	0.087	Yaw Set Point:	-0.982	X_WP:	0.000	Y_WP:	0.000	Y_WP:	0.750	X:	0.076	Y:	-0.015	Z:	0.262	yaw:	56.276	yaw rate:	89.511	Roll:	1.241	Pitch:	-3.682	Yaw:	69.746	Thrust:	70.191
Time:	0.935	Roll Set Point:	-0.117	Pitch Set Point:	0.092	Yaw Set Point:	-0.871	X_WP:	0.000	Y_WP:	0.000	Y_WP:	0.750	X:	0.080	Y:	-0.019	Z:	0.280	yaw:	49.933	yaw rate:	634.325	Roll:	7.664	Pitch:	-3.509	Yaw:	-19.299	Thrust:	51.438
Time:	0.955	Roll Set Point:	-0.120	Pitch Set Point:	0.095	Yaw Set Point:	-0.839	X_WP:	0.000	Y_WP:	0.000	Y_WP:	0.750	X:	0.081	Y:	-0.021	Z:	0.296	yaw:	48.053	yaw rate:	188.023	Roll:	2.454	Pitch:	-3.222	Yaw:	44.557	Thrust:	60.511
Time:	0.975	Roll Set Point:	-0.122	Pitch Set Point:	0.097	Yaw Set Point:	-0.798	X_WP:	0.000	Y_WP:	0.000	Y_WP:	0.750	X:	0.081	Y:	-0.023	Z:	0.311	yaw:	45.727	yaw rate:	232.511	Roll:	2.695	Pitch:	-2.059	Yaw:	34.681	Thrust:	59.880
Time:	0.996	Roll Set Point:	-0.122	Pitch Set Point:	0.100	Yaw Set Point:	-0.792	X_WP:	0.000	Y_WP:	0.000	Y_WP:	0.750	X:	0.082	Y:	-0.024	Z:	0.327	yaw:	45.396	yaw rate:	33.189	Roll:	0.844	Pitch:	-3.356	Yaw:	61.380	Thrust:	64.551
Time:	1.018	Roll Set Point:	1.034	Pitch Set Point:	0.634	Yaw Set Point:	-0.751	X_WP:	0.481	Y_WP:	1.180	Y_WP:	0.750	X:	0.081	Y:	-0.026	Z:	0.343	yaw:	43.047	yaw rate:	234.813	Roll:	-30.000	Pitch:	-30.000	Yaw:	33.236	Thrust:	71.502
Time:	1.035	Roll Set Point:	1.034	Pitch Set Point:	0.637	Yaw Set Point:	-0.750	X_WP:	0.481	Y_WP:	1.180	Y_WP:	0.750	X:	0.081	Y:	-0.027	Z:	0.359	yaw:	42.946	yaw rate:	10.153	Roll:	-30.000	Pitch:	-19.749	Yaw:	60.295	Thrust:	49.592
Time:	1.056	Roll Set Point:	1.022	Pitch Set Point:	0.667	Yaw Set Point:	-0.726	X_WP:	0.481	Y_WP:	1.180	Y_WP:	0.750	X:	0.080	Y:	-0.029	Z:	0.375	yaw:	41.571	yaw rate:	137.482	Roll:	-20.859	Pitch:	-30.000	Yaw:	42.098	Thrust:	62.902
Time:	1.075	Roll Set Point:	1.012	Pitch Set Point:	0.689	Yaw Set Point:	-0.706	X_WP:	0.481	Y_WP:	1.180	Y_WP:	0.750	X:	0.079	Y:	-0.030	Z:	0.391	yaw:	40.475	yaw rate:	109.560	Roll:	-22.700	Pitch:	-30.000	Yaw:	44.335	Thrust:	62.200
Time:	1.096	Roll Set Point:	1.009	Pitch Set Point:	0.701	Yaw Set Point:	-0.697	X_WP:	0.481	Y_WP:	1.180	Y_WP:	0.750	X:	0.078	Y:	-0.032	Z:	0.407	yaw:	39.942	yaw rate:	53.330	Roll:	-28.284	Pitch:	-28.343	Yaw:	50.834	Thrust:	61.943
Time:	1.119	Roll Set Point:	1.003	Pitch Set Point:	0.713	Yaw Set Point:	-0.685	X_WP:	0.481	Y_WP:	1.180	Y_WP:	0.750	X:	0.076	Y:	-0.031	Z:	0.424	yaw:	39.248	yaw rate:	69.466	Roll:	-25.486	Pitch:	-29.604	Yaw:	48.789	Thrust:	71.127
Time:	1.135	Roll Set Point:	0.988	Pitch Set Point:	0.739	Yaw Set Point:	-0.659	X_WP:	0.481	Y_WP:	1.180	Y_WP:	0.750	X:	0.074	Y:	-0.031	Z:	0.442	yaw:	37.740	yaw rate:	150.765	Roll:	-14.823	Pitch:	-30.000	Yaw:	30.998	Thrust:	37.849
Time:	1.157	Roll Set Point:	0.969	Pitch Set Point:	0.766	Yaw Set Point:	-0.628	X_WP:	0.481	Y_WP:	1.180	Y_WP:	0.750	X:	0.073	Y:	-0.029	Z:	0.459	yaw:	36.008	yaw rate:	173.201	Roll:	-13.349	Pitch:	-30.000	Yaw:	31.403	Thrust:	68.209
Time:	1.175	Roll Set Point:	0.954	Pitch Set Point:	0.780	Yaw Set Point:	-0.608	X_WP:	0.481	Y_WP:	1.180	Y_WP:	0.750	X:	0.071	Y:	-0.025	Z:	0.476	yaw:	34.836	yaw rate:	117.188	Roll:	-16.209	Pitch:	-30.000	Yaw:	34.645	Thrust:	54.036
Time:	1.196	Roll Set Point:	0.927	Pitch Set Point:	0.805	Yaw Set Point:	-0.573	X_WP:	0.481	Y_WP:	1.180	Y_WP:	0.750	X:	0.070	Y:	-0.020	Z:	0.493	yaw:	32.846	yaw rate:	199.025	Roll:	-5.374	Pitch:	-30.000	Yaw:	21.892	Thrust:	59.089
Time:	1.217	Roll Set Point:	0.972	Pitch Set Point:	0.730	Yaw Set Point:	-0.634	X_WP:	0.481	Y_WP:	1.180	Y_WP:	0.750	X:	0.068	Y:	-0.014	Z:	0.510	yaw:	36.337	yaw rate:	-349.091	Roll:	-30.000	Pitch:	30.000	Yaw:	95.648	Thrust:	66.344
Time:	1.236	Roll Set Point:	0.938	Pitch Set Point:	0.760	Yaw Set Point:	-0.590	X_WP:	0.481	Y_WP:	1.180	Y_WP:	0.750	X:	0.066	Y:	-0.006	Z:	0.525	yaw:	33.820	yaw rate:	251.637	Roll:	2.916	Pitch:	-30.000	Yaw:	12.619	Thrust:	49.488
Time:	1.256	Roll Set Point:	0.920	Pitch Set Point:	0.764	Yaw Set Point:	-0.569	X_WP:	0.481	Y_WP:	1.180	Y_WP:	0.750	X:	0.065	Y:	0.003	Z:	0.540	yaw:	32.581	yaw rate:	123.958	Roll:	-12.631	Pitch:	-30.000	Yaw:	32.207	Thrust:	68.134
Time:	1.276	Roll Set Point:	0.900	Pitch Set Point:	0.765	Yaw Set Point:	-0.546	X_WP:	0.481	Y_WP:	1.180	Y_WP:	0.750	X:	0.063	Y:	0.014	Z:	0.555	yaw:	31.289	yaw rate:	129.206	Roll:	-10.387	Pitch:	-30.000	Yaw:	28.353	Thrust:	60.886
Time:	1.296	Roll Set Point:	0.881	Pitch Set Point:	0.761	Yaw Set Point:	-0.525	X_WP:	0.481	Y_WP:	1.180	Y_WP:	0.750	X:	0.061	Y:	0.026	Z:	0.568	yaw:	30.059	yaw rate:	122.976	Roll:	-9.467	Pitch:	-30.000	Yaw:	27.494	Thrust:	62.469
Time:	1.319	Roll Set Point:	0.832	Pitch Set Point:	0.787	Yaw Set Point:	-0.469	X_WP:	0.481	Y_WP:	1.180	Y_WP:	0.750	X:	0.059	Y:	0.040	Z:	0.581	yaw:	26.851	yaw rate:	320.737	Roll:	10.759	Pitch:	-30.000	Yaw:	2.952	Thrust:	82.173
Time:	1.335	Roll Set Point:	0.790	Pitch Set Point:	0.798	Yaw Set Point:	-0.422	X_WP:	0.481	Y_WP:	1.180	Y_WP:	0.750	X:	0.057	Y:	0.055	Z:	0.593	yaw:	24.169	yaw rate:	268.215	Roll:	17.536	Pitch:	-30.000	Yaw:	-4.478	Thrust:	53.097
Time:	1.356	Roll Set Point:	0.763	Pitch Set Point:	0.788	Yaw Set Point:	-0.395	X_WP:	0.481	Y_WP:	1.180	Y_WP:	0.750	X:	0.056	Y:	0.071	Z:	0.605	yaw:	22.644	yaw rate:	152.530	Roll:	-0.230	Pitch:	-30.000	Yaw:	13.201	Thrust:	64.009
Time:	1.375	Roll Set Point:	0.747	Pitch Set Point:	0.763	Yaw Set Point:	-0.381	X_WP:	0.481	Y_WP:	1.180	Y_WP:	0.750	X:	0.054	Y:	0.090	Z:	0.619	yaw:	21.816	yaw rate:	82.798	Roll:	-7.866	Pitch:	-20.029	Yaw:	21.740	Thrust:	59.447
Time:	1.396	Roll Set Point:	0.778	Pitch Set Point:	0.687	Yaw Set Point:	-0.427	X_WP:	0.481	Y_WP:	1.180	Y_WP:	0.750	X:	0.054	Y:	0.110	Z:	0.631	yaw:	24.438	yaw rate:	-262.214	Roll:	-30.000	Pitch:	21.511	Yaw:	70.489	Thrust:	72.102
Time:	1.418	Roll Set Point:	0.767	Pitch Set Point:	0.650	Yaw Set Point:	-0.421	X_WP:	0.481	Y_WP:	1.180	Y_WP:	0.750	X:	0.053	Y:	0.131	Z:	0.644	yaw:	24.115	yaw rate:	32.291	Roll:	-14.955	Pitch:	-11.894	Yaw:	32.072	Thrust:	75.893
Time:	1.435	Roll Set Point:	0.796	Pitch Set Point:	0.566	Yaw Set Point:	-0.469	X_WP:	0.481	Y_WP:	1.180	Y_WP:	0.750	X:	0.051	Y:	0.154	Z:	0.656	yaw:	26.864	yaw rate:	-274.875	Roll:	-30.000	Pitch:	30.000	Yaw:	80.388	Thrust:	50.451
Time:	1.457	Roll Set Point:	0.764	Pitch Set Point:	0.547	Yaw Set Point:	-0.438	X_WP:	0.481	Y_WP:	1.180	Y_WP:	0.750	X:	0.050	Y:	0.178	Z:	0.668	yaw:	25.075	yaw rate:	178.935	Roll:	1.440	Pitch:	-25.302	Yaw:	14.909	Thrust:	70.971
Time:	1.475	Roll Set Point:	0.755	Pitch Set Point:	0.502	Yaw Set Point:	-0.433	X_WP:	0.481	Y_WP:	1.180	Y_WP:	0.750	X:	0.048	Y:	0.203	Z:	0.679	yaw:	24.806	yaw rate:	26.841	Roll:	-13.433	Pitch:	-3.804	Yaw:	32.914	Thrust:	62.796
Time:	1.496	Roll Set Point:	0.664	Pitch Set Point:	0.538	Yaw Set Point:	-0.323	X_WP:	0.481	Y_WP:	1.180	Y_WP:	0.750	X:	0.048	Y:	0.228	Z:	0.691	yaw:	18.485	yaw rate:	632.110	Roll:	30.000	Pitch:	-30.000	Yaw:	-53.423	Thrust:	66.655
Time:	1.518	Roll Set Point:	0.639	Pitch Set Point:	0.505	Yaw Set Point:	-0.294	X_WP:	0.481	Y_WP:	1.180	Y_WP:	0.750	X:	0.046	Y:	0.255	Z:	0.703	yaw:	16.843	yaw rate:	164.268	Roll:	2.379	Pitch:	-17.573	Yaw:	5.152	Thrust:	68.363
Time:	1.535	Roll Set Point:	0.548	Pitch Set Point:	0.522	Yaw Set Point:	-0.180	X_WP:	0.481	Y_WP:	1.180	Y_WP:	0.750	X:	0.043	Y:	0.282	Z:	0.713	yaw:	10.299	yaw rate:	654.326	Roll:	30.000	Pitch:	-30.000	Yaw:	-77.399	Thrust:	59.081
Time:	1.557	Roll Set Point:	0.540	Pitch Set Point:	0.468	Yaw Set Point:	-0.175	X_WP:	0.481	Y_WP:	1.180	Y_WP:	0.750	X:	0.043	Y:	0.311	Z:	0.725	yaw:	10.034	yaw rate:	26.504	Roll:	-10.867	Pitch:	-2.999	Yaw:	12.834	Thrust:	71.156
Time:	1.575	Roll Set Point:	0.522	Pitch Set Point:	0.421	Yaw Set Point:	-0.156	X_WP:	0.481	Y_WP:	1.180	Y_WP:	0.750	X:	0.042	Y:	0.340	Z:	0.736	yaw:	8.933	yaw rate:	110.129	Roll:	-0.227	Pitch:	-6.642	Yaw:	-0.705	Thrust:	57.710
Time:	1.596	Roll Set Point:	0.482	Pitch Set Point:	0.387	Yaw Set Point:	-0.110	X_WP:	0.481	Y_WP:	1.180	Y_WP:	0.750	X:	0.043	Y:	0.370	Z:	0.748	yaw:	6.282	yaw rate:	265.048	Roll:	17.357	Pitch:	-19.185	Yaw:	-23.810	Thrust:	62.159
Time:	1.617	Roll Set Point:	0.476	Pitch Set Point:	0.328	Yaw Set Point:	-0.108	X_WP:	0.481	Y_WP:	1.180	Y_WP:	0.750	X:	0.043	Y:	0.400	Z:	0.760	yaw:	6.198	yaw rate:	8.489	Roll:	-11.544	Pitch:	1.529	Yaw:	9.794	Thrust:	70.927
Time:	1.635	Roll Set Point:	0.506	Pitch Set Point:	0.238	Yaw Set Point:	-0.160	X_WP:	0.481	Y_WP:	1.180	Y_WP:	0.750	X:	0.044	Y:	0.431	Z:	0.772	yaw:	9.149	yaw rate:	-295.147	Roll:	-30.000	Pitch:	30.000	Yaw:	56.955	Thrust:	50.431
Time:	1.656	Roll Set Point:	0.506	Pitch Set Point:	0.171	Yaw Set Point:	-0.173	X_WP:	0.481	Y_WP:	1.180	Y_WP:	0.750	X:	0.046	Y:	0.462	Z:	0.784	yaw:	9.887	yaw rate:	-73.768	Roll:	-17.988	Pitch:	11.316	Yaw:	25.252	Thrust:	62.346
Time:	1.675	Roll Set Point:	0.530	Pitch Set Point:	0.077	Yaw Set Point:	-0.230	X_WP:	0.481	Y_WP:	1.180	Y_WP:	0.750	X:	0.048	Y:	0.493	Z:	0.797	yaw:	13.199	yaw rate:	-331.236	Roll:	-30.000	Pitch:	30.000	Yaw:	64.756	Thrust:	54.237
Time:	1.696	Roll Set Point:	0.516	Pitch Set Point:	0.020	Yaw Set Point:	-0.224	X_WP:	0.481	Y_WP:	1.180	Y_WP:	0.750	X:	0.050	Y:	0.524	Z:	0.809	yaw:	12.812	yaw rate:	38.747	Roll:	-6.421	Pitch:	5.499	Yaw:	14.820	Thrust:	57.602
Time:	1.717	Roll Set Point:	0.507	Pitch Set Point:	-0.042	Yaw Set Point:	-0.225	X_WP:	0.481	Y_WP:	1.180	Y_WP:	0.750	X:	0.051	Y:	0.555	Z:	0.821	yaw:	12.914	yaw rate:	-10.251	Roll:	-11.042	Pitch:	9.171	Yaw:	21.440	Thrust:	64.641
Time:	1.735	Roll Set Point:	0.488	Pitch Set Point:	-0.093	Yaw Set Point:	-0.208	X_WP:	0.481	Y_WP:	1.180	Y_WP:	0.750	X:	0.053	Y:	0.586	Z:	0.832	yaw:	11.894	yaw rate:	102.012	Roll:	-1.007	Pitch:	3.167	Yaw:	3.738	Thrust:	51.381
Time:	1.756	Roll Set Point:	0.467	Pitch Set Point:	-0.142	Yaw Set Point:	-0.188	X_WP:	0.481	Y_WP:	1.180	Y_WP:	0.750	X:	0.056	Y:	0.616	Z:	0.843	yaw:	10.768	yaw rate:	112.611	Roll:	-0.557	Pitch:	0.972	Yaw:	2.803	Thrust:	62.054
Time:	1.775	Roll Set Point:	0.434	Pitch Set Point:	-0.176	Yaw Set Point:	-0.135	X_WP:	0.481	Y_WP:	1.180	Y_WP:	0.750	X:	0.058	Y:	0.647	Z:	0.854	yaw:	7.722	yaw rate:	304.594	Roll:	13.369	Pitch:	-11.526	Yaw:	-30.345	Thrust:	47.799
Time:	1.795	Roll Set Point:	0.470	Pitch Set Point:	-0.293	Yaw Set Point:	-0.238	X_WP:	0.481	Y_WP:	1.180	Y_WP:	0.750	X:	0.058	Y:	0.680	Z:	0.864	yaw:	13.611	yaw rate:	-588.868	Roll:	-30.000	Pitch:	30.000	Yaw:	93.892	Thrust:	65.747
Time:	1.819	Roll Set Point:	0.463	Pitch Set Point:	-0.363	Yaw Set Point:	-0.256	X_WP:	0.481	Y_WP:	1.180	Y_WP:	0.750	X:	0.062	Y:	0.710	Z:	0.875	yaw:	14.656	yaw rate:	-104.577	Roll:	-13.165	Pitch:	17.534	Yaw:	34.663	Thrust:	69.635
Time:	1.835	Roll Set Point:	0.447	Pitch Set Point:	-0.420	Yaw Set Point:	-0.256	X_WP:	0.481	Y_WP:	1.180	Y_WP:	0.750	X:	0.066	Y:	0.740	Z:	0.886	yaw:	14.690	yaw rate:	-3.404	Roll:	-4.448	Pitch:	17.770	Yaw:	22.701	Thrust:	35.924
Time:	1.858	Roll Set Point:	0.432	Pitch Set Point:	-0.477	Yaw Set Point:	-0.261	X_WP:	0.481	Y_WP:	1.180	Y_WP:	0.750	X:	0.071	Y:	0.768	Z:	0.897	yaw:	14.929	yaw rate:	-23.862	Roll:	-7.196	Pitch:	11.988	Yaw:	25.865	Thrust:	68.767
Time:	1.876	Roll Set Point:	0.413	Pitch Set Point:	-0.526	Yaw Set Point:	-0.253	X_WP:	0.481	Y_WP:	1.180	Y_WP:	0.750	X:	0.076	Y:	0.796	Z:	0.908	yaw:	14.470	yaw rate:	45.888	Roll:	-1.721	Pitch:	12.082	Yaw:	15.205	Thrust:	39.543
Time:	1.896	Roll Set Point:	0.399	Pitch Set Point:	-0.582	Yaw Set Point:	-0.263	X_WP:	0.481	Y_WP:	1.180	Y_WP:	0.750	X:	0.081	Y:	0.823	Z:	0.919	yaw:	15.048	yaw rate:	-57.786	Roll:	-7.104	Pitch:	16.837	Yaw:	30.361	Thrust:	54.580
Time:	1.917	Roll Set Point:	0.380	Pitch Set Point:	-0.627	Yaw Set Point:	-0.257	X_WP:	0.481	Y_WP:	1.180	Y_WP:	0.750	X:	0.086	Y:	0.848	Z:	0.929	yaw:	14.708	yaw rate:	33.977	Roll:	-3.110	Pitch:	10.312	Yaw:	18.001	Thrust:	54.083
Time:	1.935	Roll Set Point:	0.370	Pitch Set Point:	-0.686	Yaw Set Point:	-0.282	X_WP:	0.481	Y_WP:	1.180	Y_WP:	0.750	X:	0.090	Y:	0.872	Z:	0.939	yaw:	16.157	yaw rate:	-144.912	Roll:	-9.070	Pitch:	24.205	Yaw:	44.814	Thrust:	43.544
Time:	1.959	Roll Set Point:	0.356	Pitch Set Point:	-0.733	Yaw Set Point:	-0.287	X_WP:	0.481	Y_WP:	1.180	Y_WP:	0.750	X:	0.095	Y:	0.896	Z:	0.949	yaw:	16.457	yaw rate:	-30.002	Roll:	-6.755	Pitch:	11.529	Yaw:	28.667	Thrust:	69.887
Time:	1.975	Roll Set Point:	0.342	Pitch Set Point:	-0.775	Yaw Set Point:	-0.284	X_WP:	0.481	Y_WP:	1.180	Y_WP:	0.750	X:	0.099	Y:	0.919	Z:	0.959	yaw:	16.256	yaw rate:	20.133	Roll:	-2.308	Pitch:	14.260	Yaw:	21.325	Thrust:	35.714
Time:	1.996	Roll Set Point:	0.327	Pitch Set Point:	-0.817	Yaw Set Point:	-0.286	X_WP:	0.481	Y_WP:	1.180	Y_WP:	0.750	X:	0.103	Y:	0.940	Z:	0.968	yaw:	16.383	yaw rate:	-12.691	Roll:	-5.004	Pitch:	12.887	Yaw:	26.545	Thrust:	50.210
Time:	2.017	Roll Set Point:	0.307	Pitch Set Point:	-0.836	Yaw Set Point:	-0.240	X_WP:	0.481	Y_WP:	1.180	Y_WP:	0.750	X:	0.108	Y:	0.960	Z:	0.977	yaw:	13.755	yaw rate:	262.811	Roll:	-0.038	Pitch:	-5.341	Yaw:	-10.743	Thrust:	57.624
Time:	2.035	Roll Set Point:	0.291	Pitch Set Point:	-0.867	Yaw Set Point:	-0.224	X_WP:	0.481	Y_WP:	1.180	Y_WP:	0.750	X:	0.113	Y:	0.980	Z:	0.985	yaw:	12.852	yaw rate:	90.264	Roll:	-2.902	Pitch:	6.768	Yaw:	6.649	Thrust:	43.141
Time:	2.056	Roll Set Point:	0.278	Pitch Set Point:	-0.910	Yaw Set Point:	-0.238	X_WP:	0.481	Y_WP:	1.180	Y_WP:	0.750	X:	0.118	Y:	0.999	Z:	0.993	yaw:	13.664	yaw rate:	-81.169	Roll:	-5.488	Pitch:	15.810	Yaw:	31.459	Thrust:	54.375
Time:	2.075	Roll Set Point:	0.266	Pitch Set Point:	-0.957	Yaw Set Point:	-0.267	X_WP:	0.481	Y_WP:	1.180	Y_WP:	0.750	X:	0.123	Y:	1.018	Z:	1.000	yaw:	15.306	yaw rate:	-164.225	Roll:	-5.647	Pitch:	21.911	Yaw:	45.313	Thrust:	50.362
Time:	2.096	Roll Set Point:	0.243	Pitch Set Point:	-0.953	Yaw Set Point:	-0.181	X_WP:	0.481	Y_WP:	1.180	Y_WP:	0.750	X:	0.129	Y:	1.034	Z:	1.007	yaw:	10.352	yaw rate:	495.468	Roll:	2.370	Pitch:	-19.133	Yaw:	-48.095	Thrust:	49.767
Time:	2.119	Roll Set Point:	0.229	Pitch Set Point:	-0.986	Yaw Set Point:	-0.180	X_WP:	0.481	Y_WP:	1.180	Y_WP:	0.750	X:	0.135	Y:	1.051	Z:	1.015	yaw:	10.331	yaw rate:	2.073	Roll:	-5.055	Pitch:	9.417	Yaw:	16.447	Thrust:	61.362
Time:	2.135	Roll Set Point:	0.215	Pitch Set Point:	-1.017	Yaw Set Point:	-0.180	X_WP:	0.481	Y_WP:	1.180	Y_WP:	0.750	X:	0.140	Y:	1.067	Z:	1.020	yaw:	10.289	yaw rate:	4.143	Roll:	-2.735	Pitch:	12.246	Yaw:	15.399	Thrust:	36.566
Time:	2.157	Roll Set Point:	0.202	Pitch Set Point:	-1.050	Yaw Set Point:	-0.186	X_WP:	0.481	Y_WP:	1.180	Y_WP:	0.750	X:	0.146	Y:	1.083	Z:	1.025	yaw:	10.637	yaw rate:	-34.750	Roll:	-4.606	Pitch:	11.125	Yaw:	21.178	Thrust:	61.672
Time:	2.176	Roll Set Point:	0.186	Pitch Set Point:	-1.074	Yaw Set Point:	-0.176	X_WP:	0.481	Y_WP:	1.180	Y_WP:	0.750	X:	0.152	Y:	1.098	Z:	1.030	yaw:	10.102	yaw rate:	53.502	Roll:	-1.785	Pitch:	8.484	Yaw:	8.375	Thrust:	44.883
Time:	2.196	Roll Set Point:	0.171	Pitch Set Point:	-1.108	Yaw Set Point:	-0.193	X_WP:	0.481	Y_WP:	1.180	Y_WP:	0.750	X:	0.159	Y:	1.112	Z:	1.036	yaw:	11.067	yaw rate:	-96.528	Roll:	-3.006	Pitch:	14.022	Yaw:	29.983	Thrust:	50.578
Time:	2.218	Roll Set Point:	0.154	Pitch Set Point:	-1.126	Yaw Set Point:	-0.172	X_WP:	0.481	Y_WP:	1.180	Y_WP:	0.750	X:	0.166	Y:	1.125	Z:	1.040	yaw:	9.863	yaw rate:	120.392	Roll:	-2.649	Pitch:	2.983	Yaw:	1.420	Thrust:	57.807
Time:	2.235	Roll Set Point:	0.137	Pitch Set Point:	-1.147	Yaw Set Point:	-0.160	X_WP:	0.481	Y_WP:	1.180	Y_WP:	0.750	X:	0.173	Y:	1.138	Z:	1.045	yaw:	9.189	yaw rate:	67.434	Roll:	-0.991	Pitch:	7.164	Yaw:	4.625	Thrust:	39.722
Time:	2.255	Roll Set Point:	0.120	Pitch Set Point:	-1.168	Yaw Set Point:	-0.155	X_WP:	0.481	Y_WP:	1.180	Y_WP:	0.750	X:	0.181	Y:	1.151	Z:	1.048	yaw:	8.902	yaw rate:	28.637	Roll:	-1.208	Pitch:	7.801	Yaw:	10.700	Thrust:	50.671
Time:	2.276	Roll Set Point:	0.102	Pitch Set Point:	-1.192	Yaw Set Point:	-0.160	X_WP:	0.481	Y_WP:	1.180	Y_WP:	0.750	X:	0.189	Y:	1.162	Z:	1.052	yaw:	9.186	yaw rate:	-28.400	Roll:	-0.889	Pitch:	9.917	Yaw:	18.504	Thrust:	52.091
Time:	2.296	Roll Set Point:	0.084	Pitch Set Point:	-1.217	Yaw Set Point:	-0.170	X_WP:	0.481	Y_WP:	1.180	Y_WP:	0.750	X:	0.197	Y:	1.174	Z:	1.054	yaw:	9.760	yaw rate:	-57.316	Roll:	-0.645	Pitch:	11.592	Yaw:	23.113	Thrust:	52.157
Time:	2.317	Roll Set Point:	0.065	Pitch Set Point:	-1.225	Yaw Set Point:	-0.136	X_WP:	0.481	Y_WP:	1.180	Y_WP:	0.750	X:	0.207	Y:	1.184	Z:	1.057	yaw:	7.772	yaw rate:	198.777	Roll:	-0.780	Pitch:	-0.779	Yaw:	-11.217	Thrust:	53.904
Time:	2.335	Roll Set Point:	0.046	Pitch Set Point:	-1.258	Yaw Set Point:	-0.176	X_WP:	0.481	Y_WP:	1.180	Y_WP:	0.750	X:	0.214	Y:	1.196	Z:	1.057	yaw:	10.080	yaw rate:	-230.846	Roll:	2.563	Pitch:	20.401	Yaw:	49.190	Thrust:	50.821
Time:	2.357	Roll Set Point:	0.025	Pitch Set Point:	-1.283	Yaw Set Point:	-0.200	X_WP:	0.481	Y_WP:	1.180	Y_WP:	0.750	X:	0.223	Y:	1.206	Z:	1.058	yaw:	11.441	yaw rate:	-136.047	Roll:	1.234	Pitch:	12.751	Yaw:	34.652	Thrust:	59.390
Time:	2.376	Roll Set Point:	0.010	Pitch Set Point:	-1.285	Yaw Set Point:	-0.140	X_WP:	0.481	Y_WP:	1.180	Y_WP:	0.750	X:	0.232	Y:	1.215	Z:	1.058	yaw:	8.041	yaw rate:	340.013	Roll:	-2.046	Pitch:	-4.755	Yaw:	-34.785	Thrust:	46.891
Time:	2.396	Roll Set Point:	-0.008	Pitch Set Point:	-1.300	Yaw Set Point:	-0.129	X_WP:	0.481	Y_WP:	1.180	Y_WP:	0.750	X:	0.241	Y:	1.225	Z:	1.059	yaw:	7.415	yaw rate:	62.535	Roll:	-0.104	Pitch:	6.098	Yaw:	4.281	Thrust:	53.903
Time:	2.417	Roll Set Point:	-0.027	Pitch Set Point:	-1.318	Yaw Set Point:	-0.130	X_WP:	0.481	Y_WP:	1.180	Y_WP:	0.750	X:	0.250	Y:	1.234	Z:	1.058	yaw:	7.470	yaw rate:	-5.464	Roll:	1.335	Pitch:	8.645	Yaw:	13.214	Thrust:	56.993
Time:	2.435	Roll Set Point:	-0.047	Pitch Set Point:	-1.335	Yaw Set Point:	-0.135	X_WP:	0.481	Y_WP:	1.180	Y_WP:	0.750	X:	0.259	Y:	1.243	Z:	1.057	yaw:	7.734	yaw rate:	-26.365	Roll:	2.612	Pitch:	9.571	Yaw:	16.413	Thrust:	47.814
Time:	2.457	Roll Set Point:	-0.063	Pitch Set Point:	-1.342	Yaw Set Point:	-0.099	X_WP:	0.481	Y_WP:	1.180	Y_WP:	0.750	X:	0.268	Y:	1.250	Z:	1.056	yaw:	5.652	yaw rate:	208.151	Roll:	-1.227	Pitch:	1.088	Yaw:	-15.807	Thrust:	57.567
Time:	2.476	Roll Set Point:	-0.082	Pitch Set Point:	-1.356	Yaw Set Point:	-0.094	X_WP:	0.481	Y_WP:	1.180	Y_WP:	0.750	X:	0.277	Y:	1.258	Z:	1.055	yaw:	5.401	yaw rate:	25.149	Roll:	1.797	Pitch:	7.580	Yaw:	6.139	Thrust:	52.279
Time:	2.495	Roll Set Point:	-0.106	Pitch Set Point:	-1.376	Yaw Set Point:	-0.128	X_WP:	0.481	Y_WP:	1.180	Y_WP:	0.750	X:	0.287	Y:	1.266	Z:	1.053	yaw:	7.321	yaw rate:	-192.046	Roll:	6.322	Pitch:	13.665	Yaw:	38.101	Thrust:	52.090
Time:	2.522	Roll Set Point:	-0.123	Pitch Set Point:	-1.388	Yaw Set Point:	-0.113	X_WP:	0.481	Y_WP:	1.180	Y_WP:	0.750	X:	0.296	Y:	1.274	Z:	1.051	yaw:	6.473	yaw rate:	84.789	Roll:	-0.620	Pitch:	4.812	Yaw:	3.383	Thrust:	74.631
Time:	2.536	Roll Set Point:	-0.140	Pitch Set Point:	-1.397	Yaw Set Point:	-0.092	X_WP:	0.481	Y_WP:	1.180	Y_WP:	0.750	X:	0.306	Y:	1.280	Z:	1.049	yaw:	5.284	yaw rate:	118.895	Roll:	4.351	Pitch:	5.750	Yaw:	-13.728	Thrust:	35.385
Time:	2.556	Roll Set Point:	-0.158	Pitch Set Point:	-1.408	Yaw Set Point:	-0.085	X_WP:	0.481	Y_WP:	1.180	Y_WP:	0.750	X:	0.315	Y:	1.287	Z:	1.046	yaw:	4.851	yaw rate:	43.287	Roll:	1.953	Pitch:	6.560	Yaw:	3.130	Thrust:	54.527
Time:	2.576	Roll Set Point:	-0.182	Pitch Set Point:	-1.424	Yaw Set Point:	-0.119	X_WP:	0.481	Y_WP:	1.180	Y_WP:	0.750	X:	0.324	Y:	1.293	Z:	1.043	yaw:	6.823	yaw rate:	-197.127	Roll:	7.594	Pitch:	12.074	Yaw:	38.479	Thrust:	51.665
Time:	2.597	Roll Set Point:	-0.199	Pitch Set Point:	-1.433	Yaw Set Point:	-0.107	X_WP:	0.481	Y_WP:	1.180	Y_WP:	0.750	X:	0.333	Y:	1.299	Z:	1.040	yaw:	6.141	yaw rate:	68.158	Roll:	1.317	Pitch:	5.340	Yaw:	2.950	Thrust:	61.855
Time:	2.618	Roll Set Point:	-0.214	Pitch Set Point:	-1.441	Yaw Set Point:	-0.093	X_WP:	0.481	Y_WP:	1.180	Y_WP:	0.750	X:	0.342	Y:	1.304	Z:	1.036	yaw:	5.309	yaw rate:	83.233	Roll:	2.215	Pitch:	5.749	Yaw:	-1.678	Thrust:	52.581
Time:	2.635	Roll Set Point:	-0.235	Pitch Set Point:	-1.451	Yaw Set Point:	-0.109	X_WP:	0.481	Y_WP:	1.180	Y_WP:	0.750	X:	0.351	Y:	1.309	Z:	1.032	yaw:	6.224	yaw rate:	-91.488	Roll:	6.097	Pitch:	8.722	Yaw:	23.765	Thrust:	51.886
Time:	2.655	Roll Set Point:	-0.246	Pitch Set Point:	-1.456	Yaw Set Point:	-0.067	X_WP:	0.481	Y_WP:	1.180	Y_WP:	0.750	X:	0.359	Y:	1.314	Z:	1.027	yaw:	3.838	yaw rate:	238.541	Roll:	-1.582	Pitch:	2.841	Yaw:	-23.772	Thrust:	56.019
Time:	2.676	Roll Set Point:	-0.267	Pitch Set Point:	-1.466	Yaw Set Point:	-0.091	X_WP:	0.481	Y_WP:	1.180	Y_WP:	0.750	X:	0.367	Y:	1.318	Z:	1.023	yaw:	5.194	yaw rate:	-135.583	Roll:	6.147	Pitch:	8.491	Yaw:	26.657	Thrust:	56.839
Time:	2.695	Roll Set Point:	-0.287	Pitch Set Point:	-1.475	Yaw Set Point:	-0.114	X_WP:	0.481	Y_WP:	1.180	Y_WP:	0.750	X:	0.376	Y:	1.322	Z:	1.017	yaw:	6.547	yaw rate:	-135.304	Roll:	7.381	Pitch:	8.249	Yaw:	28.994	Thrust:	56.861
Time:	2.717	Roll Set Point:	-0.300	Pitch Set Point:	-1.479	Yaw Set Point:	-0.094	X_WP:	0.481	Y_WP:	1.180	Y_WP:	0.750	X:	0.384	Y:	1.325	Z:	1.012	yaw:	5.362	yaw rate:	118.455	Roll:	0.747	Pitch:	4.531	Yaw:	-4.356	Thrust:	60.208
Time:	2.739	Roll Set Point:	-0.317	Pitch Set Point:	-1.485	Yaw Set Point:	-0.098	X_WP:	0.481	Y_WP:	1.180	Y_WP:	0.750	X:	0.391	Y:	1.328	Z:	1.006	yaw:	5.643	yaw rate:	-28.098	Roll:	4.186	Pitch:	6.146	Yaw:	13.512	Thrust:	59.301
Time:	2.757	Roll Set Point:	-0.324	Pitch Set Point:	-1.487	Yaw Set Point:	-0.054	X_WP:	0.481	Y_WP:	1.180	Y_WP:	0.750	X:	0.399	Y:	1.331	Z:	1.000	yaw:	3.122	yaw rate:	252.152	Roll:	-2.393	Pitch:	3.001	Yaw:	-30.318	Thrust:	53.478
Time:	2.776	Roll Set Point:	-0.339	Pitch Set Point:	-1.492	Yaw Set Point:	-0.057	X_WP:	0.481	Y_WP:	1.180	Y_WP:	0.750	X:	0.406	Y:	1.334	Z:	0.994	yaw:	3.269	yaw rate:	-14.680	Roll:	3.965	Pitch:	6.050	Yaw:	8.485	Thrust:	55.328
Time:	2.796	Roll Set Point:	-0.356	Pitch Set Point:	-1.497	Yaw Set Point:	-0.071	X_WP:	0.481	Y_WP:	1.180	Y_WP:	0.750	X:	0.413	Y:	1.336	Z:	0.988	yaw:	4.071	yaw rate:	-80.224	Roll:	5.632	Pitch:	6.044	Yaw:	17.885	Thrust:	58.182
Time:	2.818	Roll Set Point:	-0.370	Pitch Set Point:	-1.499	Yaw Set Point:	-0.070	X_WP:	0.481	Y_WP:	1.180	Y_WP:	0.750	X:	0.420	Y:	1.338	Z:	0.982	yaw:	4.002	yaw rate:	6.897	Roll:	3.698	Pitch:	5.079	Yaw:	6.819	Thrust:	58.585
Time:	2.835	Roll Set Point:	-0.378	Pitch Set Point:	-1.501	Yaw Set Point:	-0.045	X_WP:	0.481	Y_WP:	1.180	Y_WP:	0.750	X:	0.426	Y:	1.339	Z:	0.976	yaw:	2.563	yaw rate:	143.926	Roll:	-0.290	Pitch:	4.077	Yaw:	-15.547	Thrust:	54.247
Time:	2.856	Roll Set Point:	-0.395	Pitch Set Point:	-1.504	Yaw Set Point:	-0.066	X_WP:	0.481	Y_WP:	1.180	Y_WP:	0.750	X:	0.433	Y:	1.340	Z:	0.970	yaw:	3.765	yaw rate:	-120.273	Roll:	6.718	Pitch:	5.551	Yaw:	22.737	Thrust:	57.478
Time:	2.876	Roll Set Point:	-0.401	Pitch Set Point:	-1.504	Yaw Set Point:	-0.036	X_WP:	0.481	Y_WP:	1.180	Y_WP:	0.750	X:	0.438	Y:	1.341	Z:	0.963	yaw:	2.077	yaw rate:	168.813	Roll:	-1.054	Pitch:	3.758	Yaw:	-16.903	Thrust:	55.235
Time:	2.895	Roll Set Point:	-0.418	Pitch Set Point:	-1.506	Yaw Set Point:	-0.062	X_WP:	0.481	Y_WP:	1.180	Y_WP:	0.750	X:	0.445	Y:	1.342	Z:	0.957	yaw:	3.533	yaw rate:	-145.598	Roll:	7.458	Pitch:	5.078	Yaw:	26.498	Thrust:	56.397
Time:	2.919	Roll Set Point:	-0.428	Pitch Set Point:	-1.506	Yaw Set Point:	-0.058	X_WP:	0.481	Y_WP:	1.180	Y_WP:	0.750	X:	0.450	Y:	1.342	Z:	0.951	yaw:	3.337	yaw rate:	19.638	Roll:	2.274	Pitch:	4.027	Yaw:	4.557	Thrust:	62.039
Time:	2.935	Roll Set Point:	-0.439	Pitch Set Point:	-1.506	Yaw Set Point:	-0.056	X_WP:	0.481	Y_WP:	1.180	Y_WP:	0.750	X:	0.455	Y:	1.342	Z:	0.945	yaw:	3.212	yaw rate:	12.541	Roll:	3.412	Pitch:	4.172	Yaw:	4.428	Thrust:	52.119
Time:	2.956	Roll Set Point:	-0.461	Pitch Set Point:	-1.508	Yaw Set Point:	-0.131	X_WP:	0.481	Y_WP:	1.180	Y_WP:	0.750	X:	0.460	Y:	1.343	Z:	0.936	yaw:	7.491	yaw rate:	-427.988	Roll:	13.479	Pitch:	5.187	Yaw:	66.927	Thrust:	61.582
Time:	2.975	Roll Set Point:	-0.454	Pitch Set Point:	-1.505	Yaw Set Point:	-0.041	X_WP:	0.481	Y_WP:	1.180	Y_WP:	0.750	X:	0.464	Y:	1.342	Z:	0.932	yaw:	2.321	yaw rate:	517.039	Roll:	-10.406	Pitch:	2.574	Yaw:	-64.027	Thrust:	50.873
Time:	2.997	Roll Set Point:	-0.471	Pitch Set Point:	-1.503	Yaw Set Point:	-0.079	X_WP:	0.481	Y_WP:	1.180	Y_WP:	0.750	X:	0.469	Y:	1.341	Z:	0.924	yaw:	4.534	yaw rate:	-221.292	Roll:	8.828	Pitch:	3.299	Yaw:	36.556	Thrust:	60.006
Time:	3.018	Roll Set Point:	-0.478	Pitch Set Point:	-1.501	Yaw Set Point:	-0.073	X_WP:	0.481	Y_WP:	1.180	Y_WP:	0.750	X:	0.474	Y:	1.340	Z:	0.918	yaw:	4.157	yaw rate:	37.706	Roll:	1.979	Pitch:	2.915	Yaw:	3.242	Thrust:	57.889
Time:	3.035	Roll Set Point:	-0.482	Pitch Set Point:	-1.499	Yaw Set Point:	-0.056	X_WP:	0.481	Y_WP:	1.180	Y_WP:	0.750	X:	0.477	Y:	1.340	Z:	0.911	yaw:	3.235	yaw rate:	92.174	Roll:	0.153	Pitch:	3.374	Yaw:	-7.131	Thrust:	54.440
Time:	3.055	Roll Set Point:	-0.489	Pitch Set Point:	-1.497	Yaw Set Point:	-0.057	X_WP:	0.481	Y_WP:	1.180	Y_WP:	0.750	X:	0.480	Y:	1.338	Z:	0.904	yaw:	3.286	yaw rate:	-5.084	Roll:	2.388	Pitch:	2.957	Yaw:	7.258	Thrust:	58.388
Time:	3.075	Roll Set Point:	-0.487	Pitch Set Point:	-1.493	Yaw Set Point:	-0.012	X_WP:	0.481	Y_WP:	1.180	Y_WP:	0.750	X:	0.483	Y:	1.337	Z:	0.898	yaw:	0.659	yaw rate:	262.663	Roll:	-4.522	Pitch:	2.658	Yaw:	-31.034	Thrust:	55.595
Time:	3.096	Roll Set Point:	-0.490	Pitch Set Point:	-1.491	Yaw Set Point:	-0.003	X_WP:	0.481	Y_WP:	1.180	Y_WP:	0.750	X:	0.485	Y:	1.335	Z:	0.891	yaw:	0.172	yaw rate:	48.781	Roll:	0.220	Pitch:	3.076	Yaw:	-4.000	Thrust:	58.026
Time:	3.118	Roll Set Point:	-0.499	Pitch Set Point:	-1.486	Yaw Set Point:	-0.025	X_WP:	0.481	Y_WP:	1.180	Y_WP:	0.750	X:	0.488	Y:	1.333	Z:	0.884	yaw:	1.419	yaw rate:	-124.709	Roll:	4.488	Pitch:	2.071	Yaw:	19.158	Thrust:	60.728
Time:	3.135	Roll Set Point:	-0.508	Pitch Set Point:	-1.482	Yaw Set Point:	-0.042	X_WP:	0.481	Y_WP:	1.180	Y_WP:	0.750	X:	0.491	Y:	1.331	Z:	0.877	yaw:	2.397	yaw rate:	-97.797	Roll:	5.009	Pitch:	1.897	Yaw:	19.993	Thrust:	53.483
Time:	3.156	Roll Set Point:	-0.511	Pitch Set Point:	-1.478	Yaw Set Point:	-0.040	X_WP:	0.481	Y_WP:	1.180	Y_WP:	0.750	X:	0.493	Y:	1.329	Z:	0.869	yaw:	2.272	yaw rate:	12.465	Roll:	1.072	Pitch:	2.111	Yaw:	3.781	Thrust:	59.975
Time:	3.176	Roll Set Point:	-0.512	Pitch Set Point:	-1.475	Yaw Set Point:	-0.030	X_WP:	0.481	Y_WP:	1.180	Y_WP:	0.750	X:	0.495	Y:	1.328	Z:	0.862	yaw:	1.708	yaw rate:	56.424	Roll:	-0.384	Pitch:	2.607	Yaw:	-3.455	Thrust:	58.378
Time:	3.196	Roll Set Point:	-0.519	Pitch Set Point:	-1.469	Yaw Set Point:	-0.041	X_WP:	0.481	Y_WP:	1.180	Y_WP:	0.750	X:	0.497	Y:	1.325	Z:	0.854	yaw:	2.366	yaw rate:	-65.876	Roll:	3.250	Pitch:	1.003	Yaw:	13.726	Thrust:	59.860
Time:	3.218	Roll Set Point:	-0.521	Pitch Set Point:	-1.464	Yaw Set Point:	-0.035	X_WP:	0.481	Y_WP:	1.180	Y_WP:	0.750	X:	0.499	Y:	1.322	Z:	0.847	yaw:	1.981	yaw rate:	38.595	Roll:	0.301	Pitch:	1.606	Yaw:	0.312	Thrust:	61.212
Time:	3.235	Roll Set Point:	-0.523	Pitch Set Point:	-1.459	Yaw Set Point:	-0.033	X_WP:	0.481	Y_WP:	1.180	Y_WP:	0.750	X:	0.500	Y:	1.320	Z:	0.840	yaw:	1.918	yaw rate:	6.247	Roll:	0.967	Pitch:	1.261	Yaw:	3.476	Thrust:	56.366
Time:	3.257	Roll Set Point:	-0.528	Pitch Set Point:	-1.453	Yaw Set Point:	-0.043	X_WP:	0.481	Y_WP:	1.180	Y_WP:	0.750	X:	0.502	Y:	1.317	Z:	0.832	yaw:	2.437	yaw rate:	-51.848	Roll:	2.376	Pitch:	1.016	Yaw:	11.760	Thrust:	62.971
Time:	3.276	Roll Set Point:	-0.525	Pitch Set Point:	-1.450	Yaw Set Point:	-0.020	X_WP:	0.481	Y_WP:	1.180	Y_WP:	0.750	X:	0.502	Y:	1.315	Z:	0.825	yaw:	1.121	yaw rate:	131.590	Roll:	-3.196	Pitch:	2.736	Yaw:	-14.514	Thrust:	57.748
Time:	3.295	Roll Set Point:	-0.527	Pitch Set Point:	-1.444	Yaw Set Point:	-0.017	X_WP:	0.481	Y_WP:	1.180	Y_WP:	0.750	X:	0.503	Y:	1.312	Z:	0.817	yaw:	0.948	yaw rate:	17.298	Roll:	0.650	Pitch:	0.457	Yaw:	0.812	Thrust:	58.648
Time:	3.318	Roll Set Point:	-0.527	Pitch Set Point:	-1.438	Yaw Set Point:	-0.013	X_WP:	0.481	Y_WP:	1.180	Y_WP:	0.750	X:	0.503	Y:	1.309	Z:	0.810	yaw:	0.756	yaw rate:	19.174	Roll:	-0.058	Pitch:	1.253	Yaw:	0.978	Thrust:	63.356
Time:	3.336	Roll Set Point:	-0.536	Pitch Set Point:	-1.433	Yaw Set Point:	-0.076	X_WP:	0.481	Y_WP:	1.180	Y_WP:	0.750	X:	0.504	Y:	1.308	Z:	0.802	yaw:	4.370	yaw rate:	-361.453	Roll:	8.086	Pitch:	-0.027	Yaw:	60.394	Thrust:	59.705
Time:	3.356	Roll Set Point:	-0.536	Pitch Set Point:	-1.426	Yaw Set Point:	-0.060	X_WP:	0.481	Y_WP:	1.180	Y_WP:	0.750	X:	0.505	Y:	1.304	Z:	0.795	yaw:	3.418	yaw rate:	95.248	Roll:	-0.866	Pitch:	0.472	Yaw:	-4.961	Thrust:	61.709
Time:	3.375	Roll Set Point:	-0.536	Pitch Set Point:	-1.419	Yaw Set Point:	-0.056	X_WP:	0.481	Y_WP:	1.180	Y_WP:	0.750	X:	0.505	Y:	1.300	Z:	0.788	yaw:	3.183	yaw rate:	23.544	Roll:	0.101	Pitch:	0.181	Yaw:	3.167	Thrust:	58.957
Time:	3.396	Roll Set Point:	-0.532	Pitch Set Point:	-1.415	Yaw Set Point:	-0.033	X_WP:	0.481	Y_WP:	1.180	Y_WP:	0.750	X:	0.505	Y:	1.298	Z:	0.782	yaw:	1.867	yaw rate:	131.580	Roll:	-2.949	Pitch:	1.246	Yaw:	-12.317	Thrust:	58.940
Time:	3.418	Roll Set Point:	-0.532	Pitch Set Point:	-1.409	Yaw Set Point:	-0.028	X_WP:	0.481	Y_WP:	1.180	Y_WP:	0.750	X:	0.505	Y:	1.295	Z:	0.775	yaw:	1.599	yaw rate:	26.799	Roll:	-0.095	Pitch:	0.623	Yaw:	1.244	Thrust:	63.389
Time:	3.435	Roll Set Point:	-0.533	Pitch Set Point:	-1.403	Yaw Set Point:	-0.034	X_WP:	0.481	Y_WP:	1.180	Y_WP:	0.750	X:	0.505	Y:	1.292	Z:	0.768	yaw:	1.937	yaw rate:	-33.783	Roll:	0.548	Pitch:	0.034	Yaw:	9.508	Thrust:	56.159
Time:	3.456	Roll Set Point:	-0.532	Pitch Set Point:	-1.397	Yaw Set Point:	-0.026	X_WP:	0.481	Y_WP:	1.180	Y_WP:	0.750	X:	0.505	Y:	1.289	Z:	0.762	yaw:	1.480	yaw rate:	45.653	Roll:	-0.891	Pitch:	0.458	Yaw:	-1.482	Thrust:	61.127
Time:	3.476	Roll Set Point:	-0.531	Pitch Set Point:	-1.392	Yaw Set Point:	-0.025	X_WP:	0.481	Y_WP:	1.180	Y_WP:	0.750	X:	0.505	Y:	1.286	Z:	0.756	yaw:	1.456	yaw rate:	2.434	Roll:	-0.389	Pitch:	0.497	Yaw:	3.662	Thrust:	59.610
Time:	3.495	Roll Set Point:	-0.530	Pitch Set Point:	-1.386	Yaw Set Point:	-0.024	X_WP:	0.481	Y_WP:	1.180	Y_WP:	0.750	X:	0.504	Y:	1.283	Z:	0.749	yaw:	1.402	yaw rate:	5.350	Roll:	-0.220	Pitch:	0.025	Yaw:	3.197	Thrust:	59.578
Time:	3.518	Roll Set Point:	-0.526	Pitch Set Point:	-1.381	Yaw Set Point:	-0.000	X_WP:	0.481	Y_WP:	1.180	Y_WP:	0.750	X:	0.504	Y:	1.281	Z:	0.743	yaw:	0.010	yaw rate:	139.211	Roll:	-2.579	Pitch:	1.034	Yaw:	-14.218	Thrust:	62.887
Time:	3.535	Roll Set Point:	-0.531	Pitch Set Point:	-1.376	Yaw Set Point:	-0.053	X_WP:	0.481	Y_WP:	1.180	Y_WP:	0.750	X:	0.503	Y:	1.279	Z:	0.737	yaw:	3.039	yaw rate:	-302.875	Roll:	4.656	Pitch:	-0.400	Yaw:	51.755	Thrust:	58.900
Time:	3.555	Roll Set Point:	-0.531	Pitch Set Point:	-1.371	Yaw Set Point:	-0.067	X_WP:	0.481	Y_WP:	1.180	Y_WP:	0.750	X:	0.503	Y:	1.276	Z:	0.731	yaw:	3.820	yaw rate:	-78.155	Roll:	0.628	Pitch:	0.027	Yaw:	17.573	Thrust:	60.458
Time:	3.574	Roll Set Point:	-0.529	Pitch Set Point:	-1.364	Yaw Set Point:	-0.034	X_WP:	0.481	Y_WP:	1.180	Y_WP:	0.750	X:	0.503	Y:	1.272	Z:	0.725	yaw:	1.931	yaw rate:	188.937	Roll:	-2.348	Pitch:	-0.384	Yaw:	-20.657	Thrust:	59.120
Time:	3.595	Roll Set Point:	-0.525	Pitch Set Point:	-1.360	Yaw Set Point:	-0.026	X_WP:	0.481	Y_WP:	1.180	Y_WP:	0.750	X:	0.502	Y:	1.270	Z:	0.720	yaw:	1.479	yaw rate:	45.238	Roll:	-1.805	Pitch:	0.660	Yaw:	-1.454	Thrust:	60.029
Time:	3.618	Roll Set Point:	-0.525	Pitch Set Point:	-1.354	Yaw Set Point:	-0.016	X_WP:	0.481	Y_WP:	1.180	Y_WP:	0.750	X:	0.502	Y:	1.267	Z:	0.715	yaw:	0.911	yaw rate:	56.760	Roll:	-0.682	Pitch:	-0.276	Yaw:	-3.601	Thrust:	62.778
Time:	3.635	Roll Set Point:	-0.525	Pitch Set Point:	-1.349	Yaw Set Point:	-0.016	X_WP:	0.481	Y_WP:	1.180	Y_WP:	0.750	X:	0.502	Y:	1.264	Z:	0.709	yaw:	0.915	yaw rate:	-0.363	Roll:	-0.033	Pitch:	-0.117	Yaw:	3.173	Thrust:	60.285
Time:	3.657	Roll Set Point:	-0.520	Pitch Set Point:	-1.345	Yaw Set Point:	0.005	X_WP:	0.481	Y_WP:	1.180	Y_WP:	0.750	X:	0.501	Y:	1.262	Z:	0.704	yaw:	-0.293	yaw rate:	120.802	Roll:	-2.522	Pitch:	0.582	Yaw:	-12.893	Thrust:	61.608
Time:	3.675	Roll Set Point:	-0.525	Pitch Set Point:	-1.338	Yaw Set Point:	-0.044	X_WP:	0.481	Y_WP:	1.180	Y_WP:	0.750	X:	0.501	Y:	1.259	Z:	0.699	yaw:	2.536	yaw rate:	-282.901	Roll:	3.917	Pitch:	-1.412	Yaw:	46.310	Thrust:	59.808
Time:	3.695	Roll Set Point:	-0.519	Pitch Set Point:	-1.335	Yaw Set Point:	0.003	X_WP:	0.481	Y_WP:	1.180	Y_WP:	0.750	X:	0.500	Y:	1.257	Z:	0.694	yaw:	-0.172	yaw rate:	270.789	Roll:	-4.412	Pitch:	0.972	Yaw:	-33.288	Thrust:	60.144
Time:	3.717	Roll Set Point:	-0.515	Pitch Set Point:	-1.331	Yaw Set Point:	0.037	X_WP:	0.481	Y_WP:	1.180	Y_WP:	0.750	X:	0.499	Y:	1.255	Z:	0.689	yaw:	-2.121	yaw rate:	194.887	Roll:	-2.830	Pitch:	0.412	Yaw:	-23.480	Thrust:	65.482
Time:	3.736	Roll Set Point:	-0.516	Pitch Set Point:	-1.326	Yaw Set Point:	0.010	X_WP:	0.481	Y_WP:	1.180	Y_WP:	0.750	X:	0.499	Y:	1.253	Z:	0.685	yaw:	-0.594	yaw rate:	-152.712	Roll:	1.316	Pitch:	-0.380	Yaw:	23.148	Thrust:	56.990
Time:	3.755	Roll Set Point:	-0.514	Pitch Set Point:	-1.321	Yaw Set Point:	0.033	X_WP:	0.481	Y_WP:	1.180	Y_WP:	0.750	X:	0.499	Y:	1.250	Z:	0.680	yaw:	-1.875	yaw rate:	128.126	Roll:	-1.933	Pitch:	-0.121	Yaw:	-17.879	Thrust:	60.474
Time:	3.775	Roll Set Point:	-0.515	Pitch Set Point:	-1.316	Yaw Set Point:	0.010	X_WP:	0.481	Y_WP:	1.180	Y_WP:	0.750	X:	0.499	Y:	1.248	Z:	0.676	yaw:	-0.592	yaw rate:	-128.339	Roll:	0.985	Pitch:	-0.546	Yaw:	17.869	Thrust:	62.055
Time:	3.796	Roll Set Point:	-0.515	Pitch Set Point:	-1.313	Yaw Set Point:	0.010	X_WP:	0.481	Y_WP:	1.180	Y_WP:	0.750	X:	0.498	Y:	1.246	Z:	0.672	yaw:	-0.564	yaw rate:	-2.789	Roll:	-0.490	Pitch:	0.026	Yaw:	1.584	Thrust:	60.660
Time:	3.818	Roll Set Point:	-0.513	Pitch Set Point:	-1.310	Yaw Set Point:	0.010	X_WP:	0.481	Y_WP:	1.180	Y_WP:	0.750	X:	0.497	Y:	1.245	Z:	0.668	yaw:	-0.547	yaw rate:	-1.650	Roll:	-0.955	Pitch:	0.463	Yaw:	1.592	Thrust:	65.942
Time:	3.837	Roll Set Point:	-0.514	Pitch Set Point:	-1.306	Yaw Set Point:	-0.012	X_WP:	0.481	Y_WP:	1.180	Y_WP:	0.750	X:	0.497	Y:	1.243	Z:	0.664	yaw:	0.702	yaw rate:	-124.927	Roll:	1.019	Pitch:	-0.361	Yaw:	20.002	Thrust:	58.966
Time:	3.855	Roll Set Point:	-0.514	Pitch Set Point:	-1.300	Yaw Set Point:	0.014	X_WP:	0.481	Y_WP:	1.180	Y_WP:	0.750	X:	0.498	Y:	1.240	Z:	0.660	yaw:	-0.805	yaw rate:	150.658	Roll:	-1.214	Pitch:	-0.993	Yaw:	-20.558	Thrust:	58.525
Time:	3.876	Roll Set Point:	-0.518	Pitch Set Point:	-1.295	Yaw Set Point:	-0.051	X_WP:	0.481	Y_WP:	1.180	Y_WP:	0.750	X:	0.498	Y:	1.238	Z:	0.656	yaw:	2.909	yaw rate:	-371.364	Roll:	3.524	Pitch:	-1.265	Yaw:	55.658	Thrust:	62.869
Time:	3.896	Roll Set Point:	-0.513	Pitch Set Point:	-1.292	Yaw Set Point:	0.007	X_WP:	0.481	Y_WP:	1.180	Y_WP:	0.750	X:	0.497	Y:	1.236	Z:	0.653	yaw:	-0.415	yaw rate:	332.379	Roll:	-3.750	Pitch:	0.759	Yaw:	-40.795	Thrust:	61.449
Time:	3.917	Roll Set Point:	-0.513	Pitch Set Point:	-1.289	Yaw Set Point:	0.001	X_WP:	0.481	Y_WP:	1.180	Y_WP:	0.750	X:	0.497	Y:	1.234	Z:	0.650	yaw:	-0.075	yaw rate:	-33.957	Roll:	-0.066	Pitch:	-0.247	Yaw:	6.177	Thrust:	62.670
Time:	3.935	Roll Set Point:	-0.513	Pitch Set Point:	-1.285	Yaw Set Point:	-0.001	X_WP:	0.481	Y_WP:	1.180	Y_WP:	0.750	X:	0.497	Y:	1.232	Z:	0.647	yaw:	0.058	yaw rate:	-13.298	Roll:	-0.366	Pitch:	-0.513	Yaw:	3.785	Thrust:	57.032
Time:	3.955	Roll Set Point:	-0.516	Pitch Set Point:	-1.280	Yaw Set Point:	-0.036	X_WP:	0.481	Y_WP:	1.180	Y_WP:	0.750	X:	0.498	Y:	1.230	Z:	0.644	yaw:	2.046	yaw rate:	-198.805	Roll:	1.835	Pitch:	-1.007	Yaw:	30.631	Thrust:	65.033
Time:	3.976	Roll Set Point:	-0.516	Pitch Set Point:	-1.277	Yaw Set Point:	-0.054	X_WP:	0.481	Y_WP:	1.180	Y_WP:	0.750	X:	0.497	Y:	1.229	Z:	0.641	yaw:	3.116	yaw rate:	-107.035	Roll:	0.207	Pitch:	-0.421	Yaw:	20.101	Thrust:	63.480
Time:	3.995	Roll Set Point:	-0.512	Pitch Set Point:	-1.275	Yaw Set Point:	0.006	X_WP:	0.481	Y_WP:	1.180	Y_WP:	0.750	X:	0.497	Y:	1.227	Z:	0.639	yaw:	-0.316	yaw rate:	343.192	Roll:	-3.384	Pitch:	0.762	Yaw:	-44.407	Thrust:	58.492
Time:	4.017	Roll Set Point:	-0.511	Pitch Set Point:	-1.272	Yaw Set Point:	0.007	X_WP:	0.481	Y_WP:	1.180	Y_WP:	0.750	X:	0.496	Y:	1.226	Z:	0.638	yaw:	-0.392	yaw rate:	7.635	Roll:	-0.622	Pitch:	-0.112	Yaw:	0.696	Thrust:	63.108
Time:	4.035	Roll Set Point:	-0.513	Pitch Set Point:	-1.268	Yaw Set Point:	-0.022	X_WP:	0.481	Y_WP:	1.180	Y_WP:	0.750	X:	0.497	Y:	1.224	Z:	0.635	yaw:	1.258	yaw rate:	-165.018	Roll:	1.157	Pitch:	-1.002	Yaw:	27.348	Thrust:	58.647
Time:	4.056	Roll Set Point:	-0.513	Pitch Set Point:	-1.265	Yaw Set Point:	-0.049	X_WP:	0.481	Y_WP:	1.180	Y_WP:	0.750	X:	0.496	Y:	1.223	Z:	0.633	yaw:	2.816	yaw rate:	-155.756	Roll:	0.498	Pitch:	-0.548	Yaw:	26.263	Thrust:	61.984
Time:	4.075	Roll Set Point:	-0.514	Pitch Set Point:	-1.262	Yaw Set Point:	-0.044	X_WP:	0.481	Y_WP:	1.180	Y_WP:	0.750	X:	0.496	Y:	1.221	Z:	0.631	yaw:	2.511	yaw rate:	30.461	Roll:	-0.240	Pitch:	-0.352	Yaw:	1.557	Thrust:	62.899
Time:	4.097	Roll Set Point:	-0.509	Pitch Set Point:	-1.259	Yaw Set Point:	0.009	X_WP:	0.481	Y_WP:	1.180	Y_WP:	0.750	X:	0.495	Y:	1.220	Z:	0.629	yaw:	-0.504	yaw rate:	301.506	Roll:	-2.873	Pitch:	0.303	Yaw:	-36.236	Thrust:	63.670
Time:	4.117	Roll Set Point:	-0.509	Pitch Set Point:	-1.257	Yaw Set Point:	0.000	X_WP:	0.481	Y_WP:	1.180	Y_WP:	0.750	X:	0.495	Y:	1.218	Z:	0.628	yaw:	-0.018	yaw rate:	-48.607	Roll:	-0.095	Pitch:	-0.182	Yaw:	8.152	Thrust:	63.159
Time:	4.136	Roll Set Point:	-0.510	Pitch Set Point:	-1.254	Yaw Set Point:	-0.017	X_WP:	0.481	Y_WP:	1.180	Y_WP:	0.750	X:	0.495	Y:	1.217	Z:	0.627	yaw:	0.964	yaw rate:	-98.228	Roll:	0.379	Pitch:	-0.752	Yaw:	17.681	Thrust:	55.109
Time:	4.157	Roll Set Point:	-0.509	Pitch Set Point:	-1.252	Yaw Set Point:	-0.004	X_WP:	0.481	Y_WP:	1.180	Y_WP:	0.750	X:	0.495	Y:	1.216	Z:	0.626	yaw:	0.255	yaw rate:	70.962	Roll:	-1.172	Pitch:	0.198	Yaw:	-6.336	Thrust:	64.520
Time:	4.175	Roll Set Point:	-0.510	Pitch Set Point:	-1.249	Yaw Set Point:	-0.031	X_WP:	0.481	Y_WP:	1.180	Y_WP:	0.750	X:	0.495	Y:	1.215	Z:	0.625	yaw:	1.777	yaw rate:	-152.196	Roll:	1.017	Pitch:	-0.610	Yaw:	25.045	Thrust:	60.097
Time:	4.195	Roll Set Point:	-0.509	Pitch Set Point:	-1.248	Yaw Set Point:	-0.037	X_WP:	0.481	Y_WP:	1.180	Y_WP:	0.750	X:	0.494	Y:	1.214	Z:	0.625	yaw:	2.139	yaw rate:	-36.233	Roll:	-0.866	Pitch:	0.088	Yaw:	9.718	Thrust:	59.375
Time:	4.218	Roll Set Point:	-0.507	Pitch Set Point:	-1.246	Yaw Set Point:	-0.017	X_WP:	0.481	Y_WP:	1.180	Y_WP:	0.750	X:	0.494	Y:	1.213	Z:	0.624	yaw:	0.996	yaw rate:	114.262	Roll:	-1.535	Pitch:	0.078	Yaw:	-9.847	Thrust:	66.820
Time:	4.235	Roll Set Point:	-0.506	Pitch Set Point:	-1.243	Yaw Set Point:	0.008	X_WP:	0.481	Y_WP:	1.180	Y_WP:	0.750	X:	0.494	Y:	1.211	Z:	0.624	yaw:	-0.478	yaw rate:	147.452	Roll:	-0.805	Pitch:	-0.493	Yaw:	-21.497	Thrust:	53.660
Time:	4.255	Roll Set Point:	-0.506	Pitch Set Point:	-1.241	Yaw Set Point:	0.009	X_WP:	0.481	Y_WP:	1.180	Y_WP:	0.750	X:	0.494	Y:	1.210	Z:	0.624	yaw:	-0.525	yaw rate:	4.643	Roll:	-0.637	Pitch:	-0.166	Yaw:	0.731	Thrust:	62.126
Time:	4.275	Roll Set Point:	-0.508	Pitch Set Point:	-1.239	Yaw Set Point:	-0.043	X_WP:	0.481	Y_WP:	1.180	Y_WP:	0.750	X:	0.494	Y:	1.210	Z:	0.624	yaw:	2.484	yaw rate:	-300.873	Roll:	1.175	Pitch:	-0.573	Yaw:	44.680	Thrust:	60.532
Time:	4.296	Roll Set Point:	-0.508	Pitch Set Point:	-1.236	Yaw Set Point:	-0.045	X_WP:	0.481	Y_WP:	1.180	Y_WP:	0.750	X:	0.494	Y:	1.208	Z:	0.623	yaw:	2.593	yaw rate:	-10.911	Roll:	-0.110	Pitch:	-0.651	Yaw:	7.060	Thrust:	64.537
Time:	4.317	Roll Set Point:	-0.504	Pitch Set Point:	-1.236	Yaw Set Point:	0.003	X_WP:	0.481	Y_WP:	1.180	Y_WP:	0.750	X:	0.493	Y:	1.208	Z:	0.623	yaw:	-0.157	yaw rate:	274.977	Roll:	-2.668	Pitch:	0.797	Yaw:	-31.881	Thrust:	62.645
Time:	4.336	Roll Set Point:	-0.505	Pitch Set Point:	-1.233	Yaw Set Point:	-0.017	X_WP:	0.481	Y_WP:	1.180	Y_WP:	0.750	X:	0.493	Y:	1.207	Z:	0.624	yaw:	0.961	yaw rate:	-111.799	Roll:	0.584	Pitch:	-0.844	Yaw:	19.634	Thrust:	55.890
Time:	4.358	Roll Set Point:	-0.504	Pitch Set Point:	-1.232	Yaw Set Point:	0.008	X_WP:	0.481	Y_WP:	1.180	Y_WP:	0.750	X:	0.493	Y:	1.206	Z:	0.624	yaw:	-0.446	yaw rate:	140.699	Roll:	-1.372	Pitch:	0.250	Yaw:	-14.259	Thrust:	70.870
Time:	4.376	Roll Set Point:	-0.506	Pitch Set Point:	-1.229	Yaw Set Point:	-0.038	X_WP:	0.481	Y_WP:	1.180	Y_WP:	0.750	X:	0.493	Y:	1.205	Z:	0.623	yaw:	2.192	yaw rate:	-263.805	Roll:	1.575	Pitch:	-1.204	Yaw:	45.198	Thrust:	55.175
Time:	4.396	Roll Set Point:	-0.506	Pitch Set Point:	-1.228	Yaw Set Point:	-0.049	X_WP:	0.481	Y_WP:	1.180	Y_WP:	0.750	X:	0.493	Y:	1.204	Z:	0.624	yaw:	2.807	yaw rate:	-61.441	Roll:	-0.393	Pitch:	-0.064	Yaw:	13.802	Thrust:	63.158
Time:	4.417	Roll Set Point:	-0.505	Pitch Set Point:	-1.227	Yaw Set Point:	-0.055	X_WP:	0.481	Y_WP:	1.180	Y_WP:	0.750	X:	0.493	Y:	1.204	Z:	0.624	yaw:	3.171	yaw rate:	-36.407	Roll:	-0.515	Pitch:	-0.028	Yaw:	10.982	Thrust:	65.511
Time:	4.436	Roll Set Point:	-0.505	Pitch Set Point:	-1.226	Yaw Set Point:	-0.053	X_WP:	0.481	Y_WP:	1.180	Y_WP:	0.750	X:	0.492	Y:	1.203	Z:	0.625	yaw:	3.055	yaw rate:	11.591	Roll:	-0.618	Pitch:	-0.221	Yaw:	4.527	Thrust:	56.774
Time:	4.456	Roll Set Point:	-0.504	Pitch Set Point:	-1.225	Yaw Set Point:	-0.048	X_WP:	0.481	Y_WP:	1.180	Y_WP:	0.750	X:	0.492	Y:	1.202	Z:	0.626	yaw:	2.762	yaw rate:	29.298	Roll:	-0.748	Pitch:	-0.009	Yaw:	1.890	Thrust:	63.265
Time:	4.476	Roll Set Point:	-0.502	Pitch Set Point:	-1.223	Yaw Set Point:	-0.009	X_WP:	0.481	Y_WP:	1.180	Y_WP:	0.750	X:	0.491	Y:	1.202	Z:	0.627	yaw:	0.532	yaw rate:	222.986	Roll:	-1.688	Pitch:	0.094	Yaw:	-27.991	Thrust:	56.962
Time:	4.495	Roll Set Point:	-0.501	Pitch Set Point:	-1.222	Yaw Set Point:	-0.004	X_WP:	0.481	Y_WP:	1.180	Y_WP:	0.750	X:	0.491	Y:	1.201	Z:	0.629	yaw:	0.206	yaw rate:	32.643	Roll:	-0.731	Pitch:	-0.117	Yaw:	-1.781	Thrust:	61.659
Time:	4.518	Roll Set Point:	-0.502	Pitch Set Point:	-1.220	Yaw Set Point:	-0.027	X_WP:	0.481	Y_WP:	1.180	Y_WP:	0.750	X:	0.491	Y:	1.200	Z:	0.629	yaw:	1.563	yaw rate:	-135.705	Roll:	0.127	Pitch:	-0.401	Yaw:	20.062	Thrust:	71.797
Time:	4.536	Roll Set Point:	-0.500	Pitch Set Point:	-1.220	Yaw Set Point:	-0.005	X_WP:	0.481	Y_WP:	1.180	Y_WP:	0.750	X:	0.491	Y:	1.200	Z:	0.631	yaw:	0.283	yaw rate:	127.953	Roll:	-1.553	Pitch:	0.130	Yaw:	-16.863	Thrust:	52.152
Time:	4.556	Roll Set Point:	-0.500	Pitch Set Point:	-1.219	Yaw Set Point:	-0.021	X_WP:	0.481	Y_WP:	1.180	Y_WP:	0.750	X:	0.490	Y:	1.199	Z:	0.633	yaw:	1.228	yaw rate:	-94.522	Roll:	-0.423	Pitch:	-0.075	Yaw:	16.055	Thrust:	60.606
Time:	4.576	Roll Set Point:	-0.500	Pitch Set Point:	-1.218	Yaw Set Point:	-0.014	X_WP:	0.481	Y_WP:	1.180	Y_WP:	0.750	X:	0.491	Y:	1.199	Z:	0.635	yaw:	0.784	yaw rate:	44.496	Roll:	-0.334	Pitch:	-0.115	Yaw:	-2.500	Thrust:	62.977
Time:	4.596	Roll Set Point:	-0.500	Pitch Set Point:	-1.217	Yaw Set Point:	-0.029	X_WP:	0.481	Y_WP:	1.180	Y_WP:	0.750	X:	0.490	Y:	1.198	Z:	0.637	yaw:	1.646	yaw rate:	-86.262	Roll:	-0.393	Pitch:	-0.195	Yaw:	15.989	Thrust:	57.294
Time:	4.618	Roll Set Point:	-0.498	Pitch Set Point:	-1.216	Yaw Set Point:	0.006	X_WP:	0.481	Y_WP:	1.180	Y_WP:	0.750	X:	0.490	Y:	1.198	Z:	0.640	yaw:	-0.366	yaw rate:	201.166	Roll:	-1.492	Pitch:	0.229	Yaw:	-21.818	Thrust:	66.238
Time:	4.635	Roll Set Point:	-0.498	Pitch Set Point:	-1.215	Yaw Set Point:	-0.026	X_WP:	0.481	Y_WP:	1.180	Y_WP:	0.750	X:	0.489	Y:	1.198	Z:	0.642	yaw:	1.465	yaw rate:	-183.039	Roll:	-0.153	Pitch:	-0.114	Yaw:	31.453	Thrust:	51.010
Time:	4.655	Roll Set Point:	-0.496	Pitch Set Point:	-1.215	Yaw Set Point:	0.007	X_WP:	0.481	Y_WP:	1.180	Y_WP:	0.750	X:	0.489	Y:	1.197	Z:	0.645	yaw:	-0.373	yaw rate:	183.783	Roll:	-1.357	Pitch:	0.240	Yaw:	-22.507	Thrust:	57.760
Time:	4.676	Roll Set Point:	-0.495	Pitch Set Point:	-1.215	Yaw Set Point:	0.027	X_WP:	0.481	Y_WP:	1.180	Y_WP:	0.750	X:	0.488	Y:	1.197	Z:	0.647	yaw:	-1.560	yaw rate:	118.717	Roll:	-1.200	Pitch:	0.138	Yaw:	-16.119	Thrust:	60.845
Time:	4.695	Roll Set Point:	-0.494	Pitch Set Point:	-1.214	Yaw Set Point:	0.033	X_WP:	0.481	Y_WP:	1.180	Y_WP:	0.750	X:	0.488	Y:	1.197	Z:	0.649	yaw:	-1.917	yaw rate:	35.721	Roll:	-0.846	Pitch:	-0.071	Yaw:	-5.176	Thrust:	61.640
Time:	4.717	Roll Set Point:	-0.493	Pitch Set Point:	-1.213	Yaw Set Point:	0.029	X_WP:	0.481	Y_WP:	1.180	Y_WP:	0.750	X:	0.488	Y:	1.196	Z:	0.652	yaw:	-1.671	yaw rate:	-24.662	Roll:	-0.819	Pitch:	0.086	Yaw:	2.797	Thrust:	64.019
Time:	4.739	Roll Set Point:	-0.492	Pitch Set Point:	-1.214	Yaw Set Point:	0.017	X_WP:	0.481	Y_WP:	1.180	Y_WP:	0.750	X:	0.487	Y:	1.197	Z:	0.655	yaw:	-0.964	yaw rate:	-70.717	Roll:	-1.100	Pitch:	0.544	Yaw:	9.156	Thrust:	54.380
Time:	4.756	Roll Set Point:	-0.493	Pitch Set Point:	-1.212	Yaw Set Point:	0.026	X_WP:	0.481	Y_WP:	1.180	Y_WP:	0.750	X:	0.487	Y:	1.196	Z:	0.657	yaw:	-1.509	yaw rate:	54.517	Roll:	-0.258	Pitch:	-0.508	Yaw:	-9.096	Thrust:	62.369
Time:	4.776	Roll Set Point:	-0.492	Pitch Set Point:	-1.211	Yaw Set Point:	0.031	X_WP:	0.481	Y_WP:	1.180	Y_WP:	0.750	X:	0.487	Y:	1.195	Z:	0.659	yaw:	-1.777	yaw rate:	26.821	Roll:	-0.781	Pitch:	-0.146	Yaw:	-4.033	Thrust:	60.540
Time:	4.796	Roll Set Point:	-0.492	Pitch Set Point:	-1.210	Yaw Set Point:	0.029	X_WP:	0.481	Y_WP:	1.180	Y_WP:	0.750	X:	0.487	Y:	1.195	Z:	0.662	yaw:	-1.673	yaw rate:	-10.439	Roll:	-0.720	Pitch:	-0.038	Yaw:	0.954	Thrust:	59.151
Time:	4.817	Roll Set Point:	-0.491	Pitch Set Point:	-1.210	Yaw Set Point:	0.018	X_WP:	0.481	Y_WP:	1.180	Y_WP:	0.750	X:	0.486	Y:	1.195	Z:	0.664	yaw:	-1.018	yaw rate:	-65.462	Roll:	-0.583	Pitch:	0.025	Yaw:	8.656	Thrust:	64.865
Time:	4.835	Roll Set Point:	-0.490	Pitch Set Point:	-1.209	Yaw Set Point:	0.045	X_WP:	0.481	Y_WP:	1.180	Y_WP:	0.750	X:	0.486	Y:	1.194	Z:	0.667	yaw:	-2.569	yaw rate:	155.135	Roll:	-1.343	Pitch:	-0.050	Yaw:	-24.032	Thrust:	54.279
Time:	4.856	Roll Set Point:	-0.490	Pitch Set Point:	-1.209	Yaw Set Point:	0.028	X_WP:	0.481	Y_WP:	1.180	Y_WP:	0.750	X:	0.486	Y:	1.194	Z:	0.669	yaw:	-1.594	yaw rate:	-97.498	Roll:	-0.548	Pitch:	-0.082	Yaw:	12.138	Thrust:	62.481
Time:	4.876	Roll Set Point:	-0.490	Pitch Set Point:	-1.208	Yaw Set Point:	0.025	X_WP:	0.481	Y_WP:	1.180	Y_WP:	0.750	X:	0.486	Y:	1.194	Z:	0.672	yaw:	-1.410	yaw rate:	-18.448	Roll:	-0.473	Pitch:	0.089	Yaw:	2.329	Thrust:	60.899
Time:	4.895	Roll Set Point:	-0.489	Pitch Set Point:	-1.209	Yaw Set Point:	0.022	X_WP:	0.481	Y_WP:	1.180	Y_WP:	0.750	X:	0.485	Y:	1.194	Z:	0.674	yaw:	-1.263	yaw rate:	-14.661	Roll:	-1.122	Pitch:	0.388	Yaw:	2.031	Thrust:	59.625
Time:	4.919	Roll Set Point:	-0.488	Pitch Set Point:	-1.208	Yaw Set Point:	0.042	X_WP:	0.481	Y_WP:	1.180	Y_WP:	0.750	X:	0.485	Y:	1.194	Z:	0.677	yaw:	-2.396	yaw rate:	113.276	Roll:	-1.138	Pitch:	-0.160	Yaw:	-14.144	Thrust:	69.090
Time:	4.935	Roll Set Point:	-0.490	Pitch Set Point:	-1.206	Yaw Set Point:	0.000	X_WP:	0.481	Y_WP:	1.180	Y_WP:	0.750	X:	0.486	Y:	1.193	Z:	0.679	yaw:	-0.024	yaw rate:	-237.178	Roll:	0.796	Pitch:	-0.647	Yaw:	37.787	Thrust:	52.976
Time:	4.957	Roll Set Point:	-0.489	Pitch Set Point:	-1.206	Yaw Set Point:	0.004	X_WP:	0.481	Y_WP:	1.180	Y_WP:	0.750	X:	0.485	Y:	1.193	Z:	0.681	yaw:	-0.235	yaw rate:	21.069	Roll:	-0.821	Pitch:	-0.081	Yaw:	-0.889	Thrust:	66.854
Time:	4.975	Roll Set Point:	-0.489	Pitch Set Point:	-1.205	Yaw Set Point:	0.004	X_WP:	0.481	Y_WP:	1.180	Y_WP:	0.750	X:	0.485	Y:	1.192	Z:	0.683	yaw:	-0.211	yaw rate:	-2.396	Roll:	-0.748	Pitch:	0.023	Yaw:	1.727	Thrust:	54.883
Time:	4.996	Roll Set Point:	-0.488	Pitch Set Point:	-1.205	Yaw Set Point:	0.009	X_WP:	0.481	Y_WP:	1.180	Y_WP:	0.750	X:	0.485	Y:	1.192	Z:	0.686	yaw:	-0.489	yaw rate:	27.852	Roll:	-0.818	Pitch:	-0.110	Yaw:	-2.270	Thrust:	64.174
Time:	5.018	Roll Set Point:	-0.488	Pitch Set Point:	-1.204	Yaw Set Point:	0.007	X_WP:	0.481	Y_WP:	1.180	Y_WP:	0.750	X:	0.485	Y:	1.192	Z:	0.688	yaw:	-0.414	yaw rate:	-7.559	Roll:	-0.728	Pitch:	0.016	Yaw:	2.337	Thrust:	65.712
Time:	5.036	Roll Set Point:	-0.487	Pitch Set Point:	-1.204	Yaw Set Point:	0.008	X_WP:	0.481	Y_WP:	1.180	Y_WP:	0.750	X:	0.484	Y:	1.192	Z:	0.690	yaw:	-0.471	yaw rate:	5.746	Roll:	-0.965	Pitch:	0.083	Yaw:	0.167	Thrust:	56.177
Time:	5.056	Roll Set Point:	-0.487	Pitch Set Point:	-1.204	Yaw Set Point:	-0.010	X_WP:	0.481	Y_WP:	1.180	Y_WP:	0.750	X:	0.484	Y:	1.192	Z:	0.692	yaw:	0.562	yaw rate:	-103.289	Roll:	-0.624	Pitch:	-0.090	Yaw:	16.164	Thrust:	61.900
Time:	5.076	Roll Set Point:	-0.484	Pitch Set Point:	-1.204	Yaw Set Point:	0.047	X_WP:	0.481	Y_WP:	1.180	Y_WP:	0.750	X:	0.483	Y:	1.192	Z:	0.694	yaw:	-2.685	yaw rate:	324.649	Roll:	-2.082	Pitch:	0.584	Yaw:	-44.269	Thrust:	61.796
Time:	5.096	Roll Set Point:	-0.486	Pitch Set Point:	-1.204	Yaw Set Point:	-0.000	X_WP:	0.481	Y_WP:	1.180	Y_WP:	0.750	X:	0.484	Y:	1.192	Z:	0.696	yaw:	0.016	yaw rate:	-270.129	Roll:	0.510	Pitch:	-0.195	Yaw:	36.819	Thrust:	63.808
Time:	5.121	Roll Set Point:	-0.487	Pitch Set Point:	-1.202	Yaw Set Point:	-0.008	X_WP:	0.481	Y_WP:	1.180	Y_WP:	0.750	X:	0.484	Y:	1.191	Z:	0.699	yaw:	0.460	yaw rate:	-44.358	Roll:	-0.415	Pitch:	-0.497	Yaw:	7.670	Thrust:	74.013
Time:	5.136	Roll Set Point:	-0.486	Pitch Set Point:	-1.202	Yaw Set Point:	-0.010	X_WP:	0.481	Y_WP:	1.180	Y_WP:	0.750	X:	0.483	Y:	1.191	Z:	0.701	yaw:	0.558	yaw rate:	-9.759	Roll:	-0.900	Pitch:	0.102	Yaw:	3.845	Thrust:	43.519
Time:	5.159	Roll Set Point:	-0.485	Pitch Set Point:	-1.202	Yaw Set Point:	-0.014	X_WP:	0.481	Y_WP:	1.180	Y_WP:	0.750	X:	0.483	Y:	1.191	Z:	0.704	yaw:	0.795	yaw rate:	-23.696	Roll:	-0.854	Pitch:	0.037	Yaw:	5.907	Thrust:	71.080
Time:	5.176	Roll Set Point:	-0.483	Pitch Set Point:	-1.203	Yaw Set Point:	-0.009	X_WP:	0.481	Y_WP:	1.180	Y_WP:	0.750	X:	0.482	Y:	1.191	Z:	0.708	yaw:	0.537	yaw rate:	25.769	Roll:	-1.556	Pitch:	0.595	Yaw:	-1.307	Thrust:	47.963
Time:	5.197	Roll Set Point:	-0.482	Pitch Set Point:	-1.202	Yaw Set Point:	0.041	X_WP:	0.481	Y_WP:	1.180	Y_WP:	0.750	X:	0.482	Y:	1.191	Z:	0.711	yaw:	-2.334	yaw rate:	287.055	Roll:	-1.562	Pitch:	-0.154	Yaw:	-37.907	Thrust:	63.017
Time:	5.221	Roll Set Point:	-0.481	Pitch Set Point:	-1.202	Yaw Set Point:	0.040	X_WP:	0.481	Y_WP:	1.180	Y_WP:	0.750	X:	0.482	Y:	1.191	Z:	0.714	yaw:	-2.271	yaw rate:	-6.281	Roll:	-0.827	Pitch:	-0.077	Yaw:	-0.356	Thrust:	67.842
Time:	5.236	Roll Set Point:	-0.482	Pitch Set Point:	-1.202	Yaw Set Point:	-0.002	X_WP:	0.481	Y_WP:	1.180	Y_WP:	0.750	X:	0.481	Y:	1.191	Z:	0.718	yaw:	0.097	yaw rate:	-236.805	Roll:	-0.289	Pitch:	0.317	Yaw:	41.336	Thrust:	44.091
Time:	5.257	Roll Set Point:	-0.481	Pitch Set Point:	-1.201	Yaw Set Point:	0.023	X_WP:	0.481	Y_WP:	1.180	Y_WP:	0.750	X:	0.481	Y:	1.190	Z:	0.722	yaw:	-1.323	yaw rate:	142.032	Roll:	-1.168	Pitch:	-0.367	Yaw:	-18.133	Thrust:	59.995
Time:	5.277	Roll Set Point:	-0.480	Pitch Set Point:	-1.202	Yaw Set Point:	-0.005	X_WP:	0.481	Y_WP:	1.180	Y_WP:	0.750	X:	0.481	Y:	1.191	Z:	0.726	yaw:	0.266	yaw rate:	-158.911	Roll:	-0.994	Pitch:	0.815	Yaw:	23.402	Thrust:	55.081
Time:	5.296	Roll Set Point:	-0.479	Pitch Set Point:	-1.201	Yaw Set Point:	0.048	X_WP:	0.481	Y_WP:	1.180	Y_WP:	0.750	X:	0.480	Y:	1.190	Z:	0.729	yaw:	-2.727	yaw rate:	299.287	Roll:	-1.493	Pitch:	-0.592	Yaw:	-41.319	Thrust:	55.784
Time:	5.321	Roll Set Point:	-0.479	Pitch Set Point:	-1.202	Yaw Set Point:	-0.014	X_WP:	0.481	Y_WP:	1.180	Y_WP:	0.750	X:	0.480	Y:	1.191	Z:	0.733	yaw:	0.816	yaw rate:	-354.334	Roll:	-0.395	Pitch:	0.643	Yaw:	41.713	Thrust:	68.292
