Time:	0.043	Roll Set Point:	-0.143	Pitch Set Point:	1.823	Yaw Set Point:	-0.018	X_WP:	0.000	Y_WP:	0.000	Y_WP:	0.750	X:	0.080	Y:	-0.911	Z:	0.043	yaw:	1.031	yaw rate:	-16.950	Roll:	1.836	Pitch:	-26.458	Yaw:	1.440	Thrust:	38.868
Time:	0.063	Roll Set Point:	-0.146	Pitch Set Point:	1.823	Yaw Set Point:	-0.015	X_WP:	0.000	Y_WP:	0.000	Y_WP:	0.750	X:	0.080	Y:	-0.911	Z:	0.043	yaw:	0.844	yaw rate:	18.734	Roll:	4.455	Pitch:	-26.332	Yaw:	-1.242	Thrust:	40.628
Time:	0.084	Roll Set Point:	-0.146	Pitch Set Point:	1.823	Yaw Set Point:	-0.015	X_WP:	0.000	Y_WP:	0.000	Y_WP:	0.750	X:	0.080	Y:	-0.911	Z:	0.043	yaw:	0.863	yaw rate:	-1.907	Roll:	1.672	Pitch:	-26.566	Yaw:	1.464	Thrust:	42.225
Time:	0.106	Roll Set Point:	-0.146	Pitch Set Point:	1.823	Yaw Set Point:	-0.015	X_WP:	0.000	Y_WP:	0.000	Y_WP:	0.750	X:	0.080	Y:	-0.911	Z:	0.043	yaw:	0.860	yaw rate:	0.317	Roll:	1.974	Pitch:	-26.601	Yaw:	1.182	Thrust:	44.335
Time:	0.123	Roll Set Point:	-0.146	Pitch Set Point:	1.823	Yaw Set Point:	-0.015	X_WP:	0.000	Y_WP:	0.000	Y_WP:	0.750	X:	0.080	Y:	-0.911	Z:	0.043	yaw:	0.863	yaw rate:	-0.367	Roll:	1.864	Pitch:	-26.614	Yaw:	1.282	Thrust:	44.977
Time:	0.143	Roll Set Point:	-0.146	Pitch Set Point:	1.823	Yaw Set Point:	-0.015	X_WP:	0.000	Y_WP:	0.000	Y_WP:	0.750	X:	0.080	Y:	-0.911	Z:	0.043	yaw:	0.853	yaw rate:	1.058	Roll:	2.087	Pitch:	-26.681	Yaw:	1.076	Thrust:	46.948
Time:	0.165	Roll Set Point:	-0.146	Pitch Set Point:	1.823	Yaw Set Point:	-0.015	X_WP:	0.000	Y_WP:	0.000	Y_WP:	0.750	X:	0.080	Y:	-0.911	Z:	0.043	yaw:	0.853	yaw rate:	-0.065	Roll:	1.917	Pitch:	-26.729	Yaw:	1.242	Thrust:	50.227
Time:	0.183	Roll Set Point:	-0.146	Pitch Set Point:	1.823	Yaw Set Point:	-0.015	X_WP:	0.000	Y_WP:	0.000	Y_WP:	0.750	X:	0.080	Y:	-0.911	Z:	0.043	yaw:	0.840	yaw rate:	1.361	Roll:	2.157	Pitch:	-26.748	Yaw:	1.011	Thrust:	50.009
Time:	0.203	Roll Set Point:	-0.146	Pitch Set Point:	1.823	Yaw Set Point:	-0.015	X_WP:	0.000	Y_WP:	0.000	Y_WP:	0.750	X:	0.080	Y:	-0.911	Z:	0.043	yaw:	0.863	yaw rate:	-2.372	Roll:	1.580	Pitch:	-26.826	Yaw:	1.569	Thrust:	52.280
Time:	0.222	Roll Set Point:	-0.146	Pitch Set Point:	1.823	Yaw Set Point:	-0.015	X_WP:	0.000	Y_WP:	0.000	Y_WP:	0.750	X:	0.080	Y:	-0.911	Z:	0.043	yaw:	0.837	yaw rate:	2.608	Roll:	2.318	Pitch:	-26.857	Yaw:	0.866	Thrust:	53.474
Time:	0.244	Roll Set Point:	-0.146	Pitch Set Point:	1.823	Yaw Set Point:	-0.015	X_WP:	0.000	Y_WP:	0.000	Y_WP:	0.750	X:	0.080	Y:	-0.911	Z:	0.043	yaw:	0.861	yaw rate:	-2.364	Roll:	1.625	Pitch:	-26.924	Yaw:	1.562	Thrust:	56.592
Time:	0.263	Roll Set Point:	-0.146	Pitch Set Point:	1.823	Yaw Set Point:	-0.015	X_WP:	0.000	Y_WP:	0.000	Y_WP:	0.750	X:	0.080	Y:	-0.911	Z:	0.043	yaw:	0.847	yaw rate:	1.373	Roll:	2.162	Pitch:	-26.946	Yaw:	1.072	Thrust:	57.644
Time:	0.283	Roll Set Point:	-0.146	Pitch Set Point:	1.823	Yaw Set Point:	-0.015	X_WP:	0.000	Y_WP:	0.000	Y_WP:	0.750	X:	0.080	Y:	-0.911	Z:	0.043	yaw:	0.854	yaw rate:	-0.720	Roll:	1.866	Pitch:	-27.022	Yaw:	1.360	Thrust:	59.463
Time:	0.303	Roll Set Point:	-0.143	Pitch Set Point:	1.823	Yaw Set Point:	-0.018	X_WP:	0.000	Y_WP:	0.000	Y_WP:	0.750	X:	0.080	Y:	-0.911	Z:	0.043	yaw:	1.045	yaw rate:	-19.024	Roll:	-0.734	Pitch:	-27.219	Yaw:	4.100	Thrust:	60.375
Time:	0.323	Roll Set Point:	-0.146	Pitch Set Point:	1.823	Yaw Set Point:	-0.015	X_WP:	0.000	Y_WP:	0.000	Y_WP:	0.750	X:	0.080	Y:	-0.911	Z:	0.043	yaw:	0.845	yaw rate:	19.952	Roll:	4.634	Pitch:	-26.929	Yaw:	-1.292	Thrust:	62.985
Time:	0.343	Roll Set Point:	-0.143	Pitch Set Point:	1.823	Yaw Set Point:	-0.018	X_WP:	0.000	Y_WP:	0.000	Y_WP:	0.750	X:	0.080	Y:	-0.911	Z:	0.043	yaw:	1.041	yaw rate:	-19.591	Roll:	-0.837	Pitch:	-27.320	Yaw:	4.091	Thrust:	64.577
Time:	0.365	Roll Set Point:	-0.146	Pitch Set Point:	1.823	Yaw Set Point:	-0.015	X_WP:	0.000	Y_WP:	0.000	Y_WP:	0.750	X:	0.080	Y:	-0.911	Z:	0.043	yaw:	0.861	yaw rate:	18.053	Roll:	4.385	Pitch:	-27.057	Yaw:	-0.953	Thrust:	67.193
Time:	0.383	Roll Set Point:	-0.146	Pitch Set Point:	1.823	Yaw Set Point:	-0.015	X_WP:	0.000	Y_WP:	0.000	Y_WP:	0.750	X:	0.080	Y:	-0.911	Z:	0.043	yaw:	0.848	yaw rate:	1.228	Roll:	2.136	Pitch:	-27.144	Yaw:	1.115	Thrust:	66.360
Time:	0.404	Roll Set Point:	-0.146	Pitch Set Point:	1.823	Yaw Set Point:	-0.015	X_WP:	0.000	Y_WP:	0.000	Y_WP:	0.750	X:	0.080	Y:	-0.911	Z:	0.043	yaw:	0.847	yaw rate:	0.154	Roll:	2.018	Pitch:	-27.235	Yaw:	1.276	Thrust:	70.027
Time:	0.423	Roll Set Point:	-0.146	Pitch Set Point:	1.823	Yaw Set Point:	-0.015	X_WP:	0.000	Y_WP:	0.000	Y_WP:	0.750	X:	0.080	Y:	-0.911	Z:	0.043	yaw:	0.853	yaw rate:	-0.596	Roll:	1.888	Pitch:	-27.182	Yaw:	1.385	Thrust:	70.466
Time:	0.443	Roll Set Point:	-0.146	Pitch Set Point:	1.823	Yaw Set Point:	-0.015	X_WP:	0.000	Y_WP:	0.000	Y_WP:	0.750	X:	0.080	Y:	-0.911	Z:	0.043	yaw:	0.849	yaw rate:	0.385	Roll:	2.044	Pitch:	-27.185	Yaw:	1.253	Thrust:	71.988
Time:	0.464	Roll Set Point:	-0.146	Pitch Set Point:	1.823	Yaw Set Point:	-0.015	X_WP:	0.000	Y_WP:	0.000	Y_WP:	0.750	X:	0.080	Y:	-0.911	Z:	0.043	yaw:	0.852	yaw rate:	-0.281	Roll:	1.957	Pitch:	-27.225	Yaw:	1.361	Thrust:	76.841
Time:	0.483	Roll Set Point:	-0.143	Pitch Set Point:	1.823	Yaw Set Point:	-0.018	X_WP:	0.000	Y_WP:	0.000	Y_WP:	0.750	X:	0.080	Y:	-0.911	Z:	0.043	yaw:	1.059	yaw rate:	-20.690	Roll:	-0.974	Pitch:	-27.375	Yaw:	4.495	Thrust:	73.928
Time:	0.503	Roll Set Point:	-0.146	Pitch Set Point:	1.823	Yaw Set Point:	-0.015	X_WP:	0.000	Y_WP:	0.000	Y_WP:	0.750	X:	0.080	Y:	-0.911	Z:	0.043	yaw:	0.849	yaw rate:	20.923	Roll:	4.909	Pitch:	-26.995	Yaw:	-1.473	Thrust:	76.942
Time:	0.524	Roll Set Point:	-0.146	Pitch Set Point:	1.823	Yaw Set Point:	-0.015	X_WP:	0.000	Y_WP:	0.000	Y_WP:	0.750	X:	0.080	Y:	-0.911	Z:	0.043	yaw:	0.849	yaw rate:	0.053	Roll:	2.011	Pitch:	-27.240	Yaw:	1.331	Thrust:	80.957
Time:	0.542	Roll Set Point:	-0.143	Pitch Set Point:	1.823	Yaw Set Point:	-0.018	X_WP:	0.000	Y_WP:	0.000	Y_WP:	0.750	X:	0.080	Y:	-0.911	Z:	0.043	yaw:	1.051	yaw rate:	-20.166	Roll:	-0.913	Pitch:	-27.359	Yaw:	4.378	Thrust:	79.376
Time:	0.567	Roll Set Point:	-0.143	Pitch Set Point:	1.823	Yaw Set Point:	-0.018	X_WP:	0.000	Y_WP:	0.000	Y_WP:	0.750	X:	0.080	Y:	-0.911	Z:	0.043	yaw:	1.030	yaw rate:	2.071	Roll:	2.164	Pitch:	-27.369	Yaw:	1.424	Thrust:	94.159
Time:	0.583	Roll Set Point:	-0.146	Pitch Set Point:	1.823	Yaw Set Point:	-0.015	X_WP:	0.000	Y_WP:	0.000	Y_WP:	0.750	X:	0.080	Y:	-0.911	Z:	0.043	yaw:	0.850	yaw rate:	17.988	Roll:	5.195	Pitch:	-26.860	Yaw:	-1.716	Thrust:	74.313
Time:	0.603	Roll Set Point:	-0.146	Pitch Set Point:	1.823	Yaw Set Point:	-0.015	X_WP:	0.000	Y_WP:	0.000	Y_WP:	0.750	X:	0.080	Y:	-0.911	Z:	0.043	yaw:	0.849	yaw rate:	0.109	Roll:	1.999	Pitch:	-27.158	Yaw:	1.344	Thrust:	85.926
Time:	0.623	Roll Set Point:	-0.143	Pitch Set Point:	1.823	Yaw Set Point:	-0.018	X_WP:	0.000	Y_WP:	0.000	Y_WP:	0.750	X:	0.080	Y:	-0.911	Z:	0.043	yaw:	1.053	yaw rate:	-20.397	Roll:	-0.749	Pitch:	-27.386	Yaw:	4.339	Thrust:	87.757
Time:	0.643	Roll Set Point:	-0.146	Pitch Set Point:	1.823	Yaw Set Point:	-0.015	X_WP:	0.000	Y_WP:	0.000	Y_WP:	0.750	X:	0.080	Y:	-0.911	Z:	0.043	yaw:	0.851	yaw rate:	20.148	Roll:	4.755	Pitch:	-27.065	Yaw:	-1.161	Thrust:	90.249
Time:	0.664	Roll Set Point:	-0.146	Pitch Set Point:	1.823	Yaw Set Point:	-0.015	X_WP:	0.000	Y_WP:	0.000	Y_WP:	0.750	X:	0.080	Y:	-0.911	Z:	0.043	yaw:	0.855	yaw rate:	-0.340	Roll:	1.974	Pitch:	-27.217	Yaw:	1.439	Thrust:	92.715
Time:	0.683	Roll Set Point:	-0.146	Pitch Set Point:	1.823	Yaw Set Point:	-0.015	X_WP:	0.000	Y_WP:	0.000	Y_WP:	0.750	X:	0.080	Y:	-0.911	Z:	0.043	yaw:	0.859	yaw rate:	-0.443	Roll:	1.948	Pitch:	-27.187	Yaw:	1.449	Thrust:	92.644
Time:	0.704	Roll Set Point:	-0.146	Pitch Set Point:	1.823	Yaw Set Point:	-0.015	X_WP:	0.000	Y_WP:	0.000	Y_WP:	0.750	X:	0.080	Y:	-0.911	Z:	0.043	yaw:	0.852	yaw rate:	0.732	Roll:	2.137	Pitch:	-27.207	Yaw:	1.318	Thrust:	95.481
Time:	0.724	Roll Set Point:	-0.146	Pitch Set Point:	1.823	Yaw Set Point:	-0.015	X_WP:	0.000	Y_WP:	0.000	Y_WP:	0.750	X:	0.080	Y:	-0.911	Z:	0.043	yaw:	0.864	yaw rate:	-1.254	Roll:	1.876	Pitch:	-27.250	Yaw:	1.581	Thrust:	97.463
Time:	0.743	Roll Set Point:	-0.146	Pitch Set Point:	1.823	Yaw Set Point:	-0.015	X_WP:	0.000	Y_WP:	0.000	Y_WP:	0.750	X:	0.080	Y:	-0.911	Z:	0.043	yaw:	0.833	yaw rate:	3.163	Roll:	2.487	Pitch:	-27.122	Yaw:	0.939	Thrust:	95.766
Time:	0.764	Roll Set Point:	-0.146	Pitch Set Point:	1.823	Yaw Set Point:	-0.015	X_WP:	0.000	Y_WP:	0.000	Y_WP:	0.750	X:	0.080	Y:	-0.911	Z:	0.043	yaw:	0.847	yaw rate:	-1.444	Roll:	1.867	Pitch:	-27.266	Yaw:	1.598	Thrust:	100.000
Time:	0.783	Roll Set Point:	-0.146	Pitch Set Point:	1.823	Yaw Set Point:	-0.015	X_WP:	0.000	Y_WP:	0.000	Y_WP:	0.750	X:	0.080	Y:	-0.911	Z:	0.043	yaw:	0.860	yaw rate:	-1.263	Roll:	1.847	Pitch:	-27.163	Yaw:	1.592	Thrust:	97.310
Time:	0.803	Roll Set Point:	-0.146	Pitch Set Point:	1.823	Yaw Set Point:	-0.015	X_WP:	0.000	Y_WP:	0.000	Y_WP:	0.750	X:	0.080	Y:	-0.911	Z:	0.043	yaw:	0.866	yaw rate:	-0.658	Roll:	1.955	Pitch:	-27.210	Yaw:	1.530	Thrust:	100.000
Time:	0.824	Roll Set Point:	-0.146	Pitch Set Point:	1.823	Yaw Set Point:	-0.015	X_WP:	0.000	Y_WP:	0.000	Y_WP:	0.750	X:	0.080	Y:	-0.911	Z:	0.043	yaw:	0.834	yaw rate:	3.275	Roll:	2.476	Pitch:	-27.181	Yaw:	0.992	Thrust:	100.000
Time:	0.843	Roll Set Point:	-0.146	Pitch Set Point:	1.823	Yaw Set Point:	-0.015	X_WP:	0.000	Y_WP:	0.000	Y_WP:	0.750	X:	0.080	Y:	-0.911	Z:	0.043	yaw:	0.864	yaw rate:	-2.990	Roll:	1.627	Pitch:	-27.224	Yaw:	1.847	Thrust:	100.000
Time:	0.863	Roll Set Point:	-0.146	Pitch Set Point:	1.823	Yaw Set Point:	-0.015	X_WP:	0.000	Y_WP:	0.000	Y_WP:	0.750	X:	0.080	Y:	-0.911	Z:	0.043	yaw:	0.854	yaw rate:	0.987	Roll:	2.186	Pitch:	-27.197	Yaw:	1.330	Thrust:	100.000
Time:	0.884	Roll Set Point:	-0.146	Pitch Set Point:	1.823	Yaw Set Point:	-0.015	X_WP:	0.000	Y_WP:	0.000	Y_WP:	0.750	X:	0.080	Y:	-0.911	Z:	0.043	yaw:	0.844	yaw rate:	0.975	Roll:	2.186	Pitch:	-27.197	Yaw:	1.313	Thrust:	100.000
Time:	0.905	Roll Set Point:	-0.146	Pitch Set Point:	1.823	Yaw Set Point:	-0.015	X_WP:	0.000	Y_WP:	0.000	Y_WP:	0.750	X:	0.080	Y:	-0.911	Z:	0.043	yaw:	0.855	yaw rate:	-1.135	Roll:	1.906	Pitch:	-27.241	Yaw:	1.615	Thrust:	100.000
Time:	0.923	Roll Set Point:	-0.143	Pitch Set Point:	1.823	Yaw Set Point:	-0.018	X_WP:	0.000	Y_WP:	0.000	Y_WP:	0.750	X:	0.080	Y:	-0.911	Z:	0.043	yaw:	1.051	yaw rate:	-19.548	Roll:	-0.710	Pitch:	-27.371	Yaw:	4.494	Thrust:	100.000
Time:	0.942	Roll Set Point:	-0.146	Pitch Set Point:	1.823	Yaw Set Point:	-0.015	X_WP:	0.000	Y_WP:	0.000	Y_WP:	0.750	X:	0.080	Y:	-0.911	Z:	0.043	yaw:	0.844	yaw rate:	20.677	Roll:	4.988	Pitch:	-26.978	Yaw:	-1.348	Thrust:	100.000
Time:	0.963	Roll Set Point:	-0.146	Pitch Set Point:	1.823	Yaw Set Point:	-0.015	X_WP:	0.000	Y_WP:	0.000	Y_WP:	0.750	X:	0.080	Y:	-0.911	Z:	0.043	yaw:	0.840	yaw rate:	0.360	Roll:	2.118	Pitch:	-27.232	Yaw:	1.423	Thrust:	100.000
Time:	0.983	Roll Set Point:	-0.146	Pitch Set Point:	1.823	Yaw Set Point:	-0.015	X_WP:	0.000	Y_WP:	0.000	Y_WP:	0.750	X:	0.080	Y:	-0.911	Z:	0.043	yaw:	0.843	yaw rate:	-0.307	Roll:	2.044	Pitch:	-27.208	Yaw:	1.504	Thrust:	100.000
Time:	1.004	Roll Set Point:	-0.146	Pitch Set Point:	1.823	Yaw Set Point:	-0.015	X_WP:	0.000	Y_WP:	0.000	Y_WP:	0.750	X:	0.080	Y:	-0.911	Z:	0.043	yaw:	0.848	yaw rate:	-0.437	Roll:	2.018	Pitch:	-27.232	Yaw:	1.544	Thrust:	100.000
Time:	1.023	Roll Set Point:	-0.146	Pitch Set Point:	1.823	Yaw Set Point:	-0.015	X_WP:	0.000	Y_WP:	0.000	Y_WP:	0.750	X:	0.080	Y:	-0.911	Z:	0.043	yaw:	0.855	yaw rate:	-0.759	Roll:	1.976	Pitch:	-27.162	Yaw:	1.588	Thrust:	100.000
Time:	1.043	Roll Set Point:	-0.143	Pitch Set Point:	1.823	Yaw Set Point:	-0.018	X_WP:	0.000	Y_WP:	0.000	Y_WP:	0.750	X:	0.080	Y:	-0.911	Z:	0.043	yaw:	1.039	yaw rate:	-18.369	Roll:	-0.516	Pitch:	-27.365	Yaw:	4.150	Thrust:	100.000
Time:	1.064	Roll Set Point:	-0.146	Pitch Set Point:	1.823	Yaw Set Point:	-0.015	X_WP:	0.000	Y_WP:	0.000	Y_WP:	0.750	X:	0.080	Y:	-0.911	Z:	0.043	yaw:	0.866	yaw rate:	17.280	Roll:	4.422	Pitch:	-27.106	Yaw:	-0.642	Thrust:	100.000
Time:	1.084	Roll Set Point:	-0.146	Pitch Set Point:	1.823	Yaw Set Point:	-0.015	X_WP:	0.000	Y_WP:	0.000	Y_WP:	0.750	X:	0.080	Y:	-0.911	Z:	0.043	yaw:	0.860	yaw rate:	0.640	Roll:	2.171	Pitch:	-27.198	Yaw:	1.442	Thrust:	100.000
Time:	1.104	Roll Set Point:	-0.146	Pitch Set Point:	1.823	Yaw Set Point:	-0.015	X_WP:	0.000	Y_WP:	0.000	Y_WP:	0.750	X:	0.080	Y:	-0.911	Z:	0.043	yaw:	0.845	yaw rate:	1.518	Roll:	2.337	Pitch:	-27.202	Yaw:	1.326	Thrust:	100.000
Time:	1.123	Roll Set Point:	-0.143	Pitch Set Point:	1.823	Yaw Set Point:	-0.018	X_WP:	0.000	Y_WP:	0.000	Y_WP:	0.750	X:	0.080	Y:	-0.911	Z:	0.043	yaw:	1.041	yaw rate:	-19.651	Roll:	-0.804	Pitch:	-27.342	Yaw:	4.547	Thrust:	100.000
Time:	1.146	Roll Set Point:	-0.146	Pitch Set Point:	1.823	Yaw Set Point:	-0.015	X_WP:	0.000	Y_WP:	0.000	Y_WP:	0.750	X:	0.080	Y:	-0.911	Z:	0.043	yaw:	0.849	yaw rate:	19.190	Roll:	4.564	Pitch:	-27.149	Yaw:	-0.586	Thrust:	100.000
Time:	1.165	Roll Set Point:	-0.146	Pitch Set Point:	1.823	Yaw Set Point:	-0.015	X_WP:	0.000	Y_WP:	0.000	Y_WP:	0.750	X:	0.080	Y:	-0.911	Z:	0.043	yaw:	0.860	yaw rate:	-1.078	Roll:	1.911	Pitch:	-27.179	Yaw:	1.671	Thrust:	100.000
Time:	1.185	Roll Set Point:	-0.146	Pitch Set Point:	1.823	Yaw Set Point:	-0.015	X_WP:	0.000	Y_WP:	0.000	Y_WP:	0.750	X:	0.080	Y:	-0.911	Z:	0.043	yaw:	0.853	yaw rate:	0.753	Roll:	2.224	Pitch:	-27.198	Yaw:	1.458	Thrust:	100.000
Time:	1.204	Roll Set Point:	-0.146	Pitch Set Point:	1.823	Yaw Set Point:	-0.015	X_WP:	0.000	Y_WP:	0.000	Y_WP:	0.750	X:	0.080	Y:	-0.911	Z:	0.043	yaw:	0.867	yaw rate:	-1.418	Roll:	1.872	Pitch:	-27.178	Yaw:	1.744	Thrust:	100.000
Time:	1.224	Roll Set Point:	-0.146	Pitch Set Point:	1.823	Yaw Set Point:	-0.015	X_WP:	0.000	Y_WP:	0.000	Y_WP:	0.750	X:	0.080	Y:	-0.911	Z:	0.043	yaw:	0.853	yaw rate:	1.344	Roll:	2.304	Pitch:	-27.209	Yaw:	1.375	Thrust:	100.000
Time:	1.243	Roll Set Point:	-0.146	Pitch Set Point:	1.823	Yaw Set Point:	-0.015	X_WP:	0.000	Y_WP:	0.000	Y_WP:	0.750	X:	0.080	Y:	-0.911	Z:	0.043	yaw:	0.844	yaw rate:	0.918	Roll:	2.239	Pitch:	-27.177	Yaw:	1.420	Thrust:	100.000
Time:	1.264	Roll Set Point:	-0.146	Pitch Set Point:	1.823	Yaw Set Point:	-0.015	X_WP:	0.000	Y_WP:	0.000	Y_WP:	0.750	X:	0.080	Y:	-0.911	Z:	0.043	yaw:	0.855	yaw rate:	-1.100	Roll:	1.943	Pitch:	-27.183	Yaw:	1.730	Thrust:	100.000
Time:	1.284	Roll Set Point:	-0.146	Pitch Set Point:	1.823	Yaw Set Point:	-0.015	X_WP:	0.000	Y_WP:	0.000	Y_WP:	0.750	X:	0.080	Y:	-0.911	Z:	0.043	yaw:	0.851	yaw rate:	0.394	Roll:	2.193	Pitch:	-27.219	Yaw:	1.503	Thrust:	100.000
Time:	1.303	Roll Set Point:	-0.146	Pitch Set Point:	1.823	Yaw Set Point:	-0.015	X_WP:	0.000	Y_WP:	0.000	Y_WP:	0.750	X:	0.080	Y:	-0.911	Z:	0.043	yaw:	0.844	yaw rate:	0.685	Roll:	2.235	Pitch:	-27.217	Yaw:	1.474	Thrust:	100.000
Time:	1.325	Roll Set Point:	-0.143	Pitch Set Point:	1.823	Yaw Set Point:	-0.018	X_WP:	0.000	Y_WP:	0.000	Y_WP:	0.750	X:	0.080	Y:	-0.911	Z:	0.043	yaw:	1.041	yaw rate:	-19.620	Roll:	-0.640	Pitch:	-27.388	Yaw:	4.305	Thrust:	100.000
Time:	1.344	Roll Set Point:	-0.146	Pitch Set Point:	1.823	Yaw Set Point:	-0.015	X_WP:	0.000	Y_WP:	0.000	Y_WP:	0.750	X:	0.080	Y:	-0.911	Z:	0.043	yaw:	0.864	yaw rate:	17.644	Roll:	4.580	Pitch:	-27.000	Yaw:	-0.776	Thrust:	100.000
Time:	1.366	Roll Set Point:	-0.146	Pitch Set Point:	1.823	Yaw Set Point:	-0.015	X_WP:	0.000	Y_WP:	0.000	Y_WP:	0.750	X:	0.080	Y:	-0.911	Z:	0.043	yaw:	0.850	yaw rate:	1.384	Roll:	2.345	Pitch:	-27.267	Yaw:	1.461	Thrust:	100.000
Time:	1.385	Roll Set Point:	-0.146	Pitch Set Point:	1.823	Yaw Set Point:	-0.015	X_WP:	0.000	Y_WP:	0.000	Y_WP:	0.750	X:	0.080	Y:	-0.911	Z:	0.043	yaw:	0.851	yaw rate:	-0.105	Roll:	2.100	Pitch:	-27.171	Yaw:	1.595	Thrust:	100.000
Time:	1.403	Roll Set Point:	-0.143	Pitch Set Point:	1.823	Yaw Set Point:	-0.018	X_WP:	0.000	Y_WP:	0.000	Y_WP:	0.750	X:	0.080	Y:	-0.911	Z:	0.043	yaw:	1.042	yaw rate:	-19.099	Roll:	-0.638	Pitch:	-27.348	Yaw:	4.564	Thrust:	100.000
Time:	1.423	Roll Set Point:	-0.143	Pitch Set Point:	1.823	Yaw Set Point:	-0.018	X_WP:	0.000	Y_WP:	0.000	Y_WP:	0.750	X:	0.080	Y:	-0.911	Z:	0.043	yaw:	1.050	yaw rate:	-0.731	Roll:	1.938	Pitch:	-27.227	Yaw:	1.986	Thrust:	100.000
Time:	1.443	Roll Set Point:	-0.146	Pitch Set Point:	1.823	Yaw Set Point:	-0.015	X_WP:	0.000	Y_WP:	0.000	Y_WP:	0.750	X:	0.080	Y:	-0.911	Z:	0.043	yaw:	0.854	yaw rate:	19.551	Roll:	4.743	Pitch:	-27.025	Yaw:	-0.836	Thrust:	100.000
Time:	1.466	Roll Set Point:	-0.143	Pitch Set Point:	1.823	Yaw Set Point:	-0.018	X_WP:	0.000	Y_WP:	0.000	Y_WP:	0.750	X:	0.080	Y:	-0.911	Z:	0.043	yaw:	1.042	yaw rate:	-18.790	Roll:	-0.422	Pitch:	-27.405	Yaw:	4.251	Thrust:	100.000
Time:	1.484	Roll Set Point:	-0.146	Pitch Set Point:	1.823	Yaw Set Point:	-0.015	X_WP:	0.000	Y_WP:	0.000	Y_WP:	0.750	X:	0.080	Y:	-0.911	Z:	0.043	yaw:	0.850	yaw rate:	19.161	Roll:	4.842	Pitch:	-26.999	Yaw:	-1.043	Thrust:	100.000
Time:	1.503	Roll Set Point:	-0.146	Pitch Set Point:	1.823	Yaw Set Point:	-0.015	X_WP:	0.000	Y_WP:	0.000	Y_WP:	0.750	X:	0.080	Y:	-0.911	Z:	0.043	yaw:	0.865	yaw rate:	-1.449	Roll:	1.937	Pitch:	-27.200	Yaw:	1.841	Thrust:	100.000
Time:	1.524	Roll Set Point:	-0.146	Pitch Set Point:	1.823	Yaw Set Point:	-0.015	X_WP:	0.000	Y_WP:	0.000	Y_WP:	0.750	X:	0.080	Y:	-0.911	Z:	0.043	yaw:	0.848	yaw rate:	1.706	Roll:	2.391	Pitch:	-27.210	Yaw:	1.447	Thrust:	100.000
Time:	1.544	Roll Set Point:	-0.146	Pitch Set Point:	1.823	Yaw Set Point:	-0.015	X_WP:	0.000	Y_WP:	0.000	Y_WP:	0.750	X:	0.080	Y:	-0.911	Z:	0.043	yaw:	0.865	yaw rate:	-1.733	Roll:	1.915	Pitch:	-27.211	Yaw:	1.903	Thrust:	100.000
Time:	1.567	Roll Set Point:	-0.146	Pitch Set Point:	1.823	Yaw Set Point:	-0.015	X_WP:	0.000	Y_WP:	0.000	Y_WP:	0.750	X:	0.080	Y:	-0.911	Z:	0.043	yaw:	0.871	yaw rate:	-0.549	Roll:	2.116	Pitch:	-27.273	Yaw:	1.800	Thrust:	100.000
Time:	1.584	Roll Set Point:	-0.143	Pitch Set Point:	1.823	Yaw Set Point:	-0.018	X_WP:	0.000	Y_WP:	0.000	Y_WP:	0.750	X:	0.080	Y:	-0.911	Z:	0.043	yaw:	1.046	yaw rate:	-17.511	Roll:	-0.394	Pitch:	-27.311	Yaw:	4.445	Thrust:	100.000
Time:	1.604	Roll Set Point:	-0.146	Pitch Set Point:	1.823	Yaw Set Point:	-0.015	X_WP:	0.000	Y_WP:	0.000	Y_WP:	0.750	X:	0.080	Y:	-0.911	Z:	0.043	yaw:	0.846	yaw rate:	19.956	Roll:	4.895	Pitch:	-27.028	Yaw:	-0.843	Thrust:	100.000
Time:	1.624	Roll Set Point:	-0.142	Pitch Set Point:	1.823	Yaw Set Point:	-0.019	X_WP:	0.000	Y_WP:	0.000	Y_WP:	0.750	X:	0.080	Y:	-0.911	Z:	0.043	yaw:	1.061	yaw rate:	-21.517	Roll:	-0.873	Pitch:	-27.403	Yaw:	4.841	Thrust:	100.000
Time:	1.645	Roll Set Point:	-0.143	Pitch Set Point:	1.823	Yaw Set Point:	-0.018	X_WP:	0.000	Y_WP:	0.000	Y_WP:	0.750	X:	0.080	Y:	-0.911	Z:	0.043	yaw:	1.057	yaw rate:	0.474	Roll:	2.166	Pitch:	-27.236	Yaw:	1.930	Thrust:	100.000
Time:	1.665	Roll Set Point:	-0.146	Pitch Set Point:	1.823	Yaw Set Point:	-0.015	X_WP:	0.000	Y_WP:	0.000	Y_WP:	0.750	X:	0.080	Y:	-0.911	Z:	0.043	yaw:	0.864	yaw rate:	19.286	Roll:	4.953	Pitch:	-26.986	Yaw:	-0.837	Thrust:	100.000
Time:	1.684	Roll Set Point:	-0.143	Pitch Set Point:	1.823	Yaw Set Point:	-0.018	X_WP:	0.000	Y_WP:	0.000	Y_WP:	0.750	X:	0.080	Y:	-0.911	Z:	0.043	yaw:	1.044	yaw rate:	-17.989	Roll:	-0.283	Pitch:	-27.360	Yaw:	4.412	Thrust:	100.000
Time:	1.704	Roll Set Point:	-0.146	Pitch Set Point:	1.823	Yaw Set Point:	-0.015	X_WP:	0.000	Y_WP:	0.000	Y_WP:	0.750	X:	0.080	Y:	-0.911	Z:	0.043	yaw:	0.856	yaw rate:	18.802	Roll:	4.829	Pitch:	-27.032	Yaw:	-0.743	Thrust:	100.000
Time:	1.723	Roll Set Point:	-0.143	Pitch Set Point:	1.823	Yaw Set Point:	-0.018	X_WP:	0.000	Y_WP:	0.000	Y_WP:	0.750	X:	0.080	Y:	-0.911	Z:	0.043	yaw:	1.045	yaw rate:	-18.920	Roll:	-0.539	Pitch:	-27.377	Yaw:	4.547	Thrust:	100.000
Time:	1.743	Roll Set Point:	-0.146	Pitch Set Point:	1.823	Yaw Set Point:	-0.015	X_WP:	0.000	Y_WP:	0.000	Y_WP:	0.750	X:	0.080	Y:	-0.911	Z:	0.043	yaw:	0.849	yaw rate:	19.594	Roll:	4.903	Pitch:	-26.997	Yaw:	-0.887	Thrust:	100.000
Time:	1.765	Roll Set Point:	-0.146	Pitch Set Point:	1.823	Yaw Set Point:	-0.015	X_WP:	0.000	Y_WP:	0.000	Y_WP:	0.750	X:	0.080	Y:	-0.911	Z:	0.043	yaw:	0.836	yaw rate:	1.295	Roll:	2.395	Pitch:	-27.272	Yaw:	1.627	Thrust:	100.000
Time:	1.791	Roll Set Point:	-0.146	Pitch Set Point:	1.823	Yaw Set Point:	-0.015	X_WP:	0.000	Y_WP:	0.000	Y_WP:	0.750	X:	0.080	Y:	-0.911	Z:	0.043	yaw:	0.855	yaw rate:	-1.927	Roll:	1.977	Pitch:	-27.242	Yaw:	2.077	Thrust:	100.000
Time:	1.803	Roll Set Point:	-0.146	Pitch Set Point:	1.823	Yaw Set Point:	-0.015	X_WP:	0.000	Y_WP:	0.000	Y_WP:	0.750	X:	0.080	Y:	-0.911	Z:	0.043	yaw:	0.854	yaw rate:	0.098	Roll:	2.184	Pitch:	-27.123	Yaw:	1.502	Thrust:	100.000
Time:	1.824	Roll Set Point:	-0.146	Pitch Set Point:	1.823	Yaw Set Point:	-0.015	X_WP:	0.000	Y_WP:	0.000	Y_WP:	0.750	X:	0.080	Y:	-0.911	Z:	0.043	yaw:	0.858	yaw rate:	-0.377	Roll:	2.152	Pitch:	-27.206	Yaw:	1.810	Thrust:	100.000
Time:	1.843	Roll Set Point:	-0.146	Pitch Set Point:	1.823	Yaw Set Point:	-0.015	X_WP:	0.000	Y_WP:	0.000	Y_WP:	0.750	X:	0.080	Y:	-0.911	Z:	0.043	yaw:	0.850	yaw rate:	0.813	Roll:	2.331	Pitch:	-27.182	Yaw:	1.631	Thrust:	100.000
Time:	1.865	Roll Set Point:	-0.146	Pitch Set Point:	1.823	Yaw Set Point:	-0.015	X_WP:	0.000	Y_WP:	0.000	Y_WP:	0.750	X:	0.080	Y:	-0.911	Z:	0.043	yaw:	0.853	yaw rate:	-0.279	Roll:	2.184	Pitch:	-27.274	Yaw:	1.827	Thrust:	100.000
Time:	1.882	Roll Set Point:	-0.146	Pitch Set Point:	1.823	Yaw Set Point:	-0.015	X_WP:	0.000	Y_WP:	0.000	Y_WP:	0.750	X:	0.080	Y:	-0.911	Z:	0.043	yaw:	0.845	yaw rate:	0.770	Roll:	2.324	Pitch:	-27.120	Yaw:	1.596	Thrust:	100.000
Time:	1.903	Roll Set Point:	-0.146	Pitch Set Point:	1.823	Yaw Set Point:	-0.015	X_WP:	0.000	Y_WP:	0.000	Y_WP:	0.750	X:	0.080	Y:	-0.911	Z:	0.043	yaw:	0.856	yaw rate:	-1.135	Roll:	2.042	Pitch:	-27.176	Yaw:	1.907	Thrust:	100.000
Time:	1.924	Roll Set Point:	-0.143	Pitch Set Point:	1.823	Yaw Set Point:	-0.018	X_WP:	0.000	Y_WP:	0.000	Y_WP:	0.750	X:	0.080	Y:	-0.911	Z:	0.043	yaw:	1.028	yaw rate:	-17.154	Roll:	0.013	Pitch:	-27.432	Yaw:	4.079	Thrust:	100.000
Time:	1.945	Roll Set Point:	-0.146	Pitch Set Point:	1.823	Yaw Set Point:	-0.015	X_WP:	0.000	Y_WP:	0.000	Y_WP:	0.750	X:	0.080	Y:	-0.911	Z:	0.043	yaw:	0.850	yaw rate:	17.740	Roll:	4.599	Pitch:	-27.082	Yaw:	-0.543	Thrust:	100.000
Time:	1.968	Roll Set Point:	-0.143	Pitch Set Point:	1.823	Yaw Set Point:	-0.018	X_WP:	0.000	Y_WP:	0.000	Y_WP:	0.750	X:	0.080	Y:	-0.911	Z:	0.043	yaw:	1.047	yaw rate:	-19.669	Roll:	-0.288	Pitch:	-27.437	Yaw:	4.363	Thrust:	100.000
Time:	1.986	Roll Set Point:	-0.146	Pitch Set Point:	1.823	Yaw Set Point:	-0.015	X_WP:	0.000	Y_WP:	0.000	Y_WP:	0.750	X:	0.080	Y:	-0.911	Z:	0.043	yaw:	0.862	yaw rate:	18.471	Roll:	4.885	Pitch:	-26.998	Yaw:	-1.012	Thrust:	100.000
Time:	2.004	Roll Set Point:	-0.143	Pitch Set Point:	1.823	Yaw Set Point:	-0.018	X_WP:	0.000	Y_WP:	0.000	Y_WP:	0.750	X:	0.080	Y:	-0.911	Z:	0.043	yaw:	1.038	yaw rate:	-17.571	Roll:	-0.562	Pitch:	-27.324	Yaw:	4.511	Thrust:	100.000
Time:	2.024	Roll Set Point:	-0.146	Pitch Set Point:	1.823	Yaw Set Point:	-0.015	X_WP:	0.000	Y_WP:	0.000	Y_WP:	0.750	X:	0.080	Y:	-0.911	Z:	0.043	yaw:	0.857	yaw rate:	18.073	Roll:	4.602	Pitch:	-27.023	Yaw:	-0.468	Thrust:	100.000
Time:	2.046	Roll Set Point:	-0.146	Pitch Set Point:	1.823	Yaw Set Point:	-0.015	X_WP:	0.000	Y_WP:	0.000	Y_WP:	0.750	X:	0.080	Y:	-0.911	Z:	0.043	yaw:	0.865	yaw rate:	-0.752	Roll:	2.143	Pitch:	-27.254	Yaw:	1.975	Thrust:	100.000
Time:	2.065	Roll Set Point:	-0.146	Pitch Set Point:	1.823	Yaw Set Point:	-0.015	X_WP:	0.000	Y_WP:	0.000	Y_WP:	0.750	X:	0.080	Y:	-0.911	Z:	0.043	yaw:	0.863	yaw rate:	0.173	Roll:	2.288	Pitch:	-27.190	Yaw:	1.785	Thrust:	100.000
Time:	2.085	Roll Set Point:	-0.146	Pitch Set Point:	1.823	Yaw Set Point:	-0.015	X_WP:	0.000	Y_WP:	0.000	Y_WP:	0.750	X:	0.080	Y:	-0.911	Z:	0.043	yaw:	0.851	yaw rate:	1.191	Roll:	2.408	Pitch:	-27.195	Yaw:	1.662	Thrust:	100.000
Time:	2.105	Roll Set Point:	-0.143	Pitch Set Point:	1.823	Yaw Set Point:	-0.018	X_WP:	0.000	Y_WP:	0.000	Y_WP:	0.750	X:	0.080	Y:	-0.911	Z:	0.043	yaw:	1.047	yaw rate:	-19.566	Roll:	-0.738	Pitch:	-27.360	Yaw:	4.756	Thrust:	100.000
Time:	2.124	Roll Set Point:	-0.146	Pitch Set Point:	1.823	Yaw Set Point:	-0.015	X_WP:	0.000	Y_WP:	0.000	Y_WP:	0.750	X:	0.080	Y:	-0.911	Z:	0.043	yaw:	0.869	yaw rate:	17.784	Roll:	4.655	Pitch:	-27.065	Yaw:	-0.472	Thrust:	100.000
Time:	2.144	Roll Set Point:	-0.146	Pitch Set Point:	1.823	Yaw Set Point:	-0.015	X_WP:	0.000	Y_WP:	0.000	Y_WP:	0.750	X:	0.080	Y:	-0.911	Z:	0.043	yaw:	0.861	yaw rate:	0.785	Roll:	2.351	Pitch:	-27.172	Yaw:	1.740	Thrust:	100.000
Time:	2.167	Roll Set Point:	-0.146	Pitch Set Point:	1.823	Yaw Set Point:	-0.015	X_WP:	0.000	Y_WP:	0.000	Y_WP:	0.750	X:	0.080	Y:	-0.911	Z:	0.043	yaw:	0.861	yaw rate:	0.017	Roll:	2.281	Pitch:	-27.260	Yaw:	1.956	Thrust:	100.000
Time:	2.186	Roll Set Point:	-0.146	Pitch Set Point:	1.823	Yaw Set Point:	-0.015	X_WP:	0.000	Y_WP:	0.000	Y_WP:	0.750	X:	0.080	Y:	-0.911	Z:	0.043	yaw:	0.837	yaw rate:	2.405	Roll:	2.599	Pitch:	-27.193	Yaw:	1.501	Thrust:	100.000
Time:	2.206	Roll Set Point:	-0.143	Pitch Set Point:	1.823	Yaw Set Point:	-0.018	X_WP:	0.000	Y_WP:	0.000	Y_WP:	0.750	X:	0.080	Y:	-0.911	Z:	0.043	yaw:	1.041	yaw rate:	-20.349	Roll:	-0.853	Pitch:	-27.393	Yaw:	4.915	Thrust:	100.000
Time:	2.226	Roll Set Point:	-0.146	Pitch Set Point:	1.823	Yaw Set Point:	-0.015	X_WP:	0.000	Y_WP:	0.000	Y_WP:	0.750	X:	0.080	Y:	-0.911	Z:	0.043	yaw:	0.866	yaw rate:	17.442	Roll:	4.579	Pitch:	-27.039	Yaw:	-0.282	Thrust:	100.000
Time:	2.244	Roll Set Point:	-0.146	Pitch Set Point:	1.823	Yaw Set Point:	-0.015	X_WP:	0.000	Y_WP:	0.000	Y_WP:	0.750	X:	0.080	Y:	-0.911	Z:	0.043	yaw:	0.851	yaw rate:	1.487	Roll:	2.473	Pitch:	-27.121	Yaw:	1.621	Thrust:	100.000
Time:	2.268	Roll Set Point:	-0.146	Pitch Set Point:	1.823	Yaw Set Point:	-0.015	X_WP:	0.000	Y_WP:	0.000	Y_WP:	0.750	X:	0.080	Y:	-0.911	Z:	0.043	yaw:	0.862	yaw rate:	-1.114	Roll:	2.167	Pitch:	-27.321	Yaw:	2.111	Thrust:	100.000
Time:	2.288	Roll Set Point:	-0.143	Pitch Set Point:	1.823	Yaw Set Point:	-0.018	X_WP:	0.000	Y_WP:	0.000	Y_WP:	0.750	X:	0.080	Y:	-0.911	Z:	0.043	yaw:	1.046	yaw rate:	-18.411	Roll:	-0.058	Pitch:	-27.395	Yaw:	4.521	Thrust:	100.000
Time:	2.303	Roll Set Point:	-0.146	Pitch Set Point:	1.823	Yaw Set Point:	-0.015	X_WP:	0.000	Y_WP:	0.000	Y_WP:	0.750	X:	0.080	Y:	-0.911	Z:	0.043	yaw:	0.848	yaw rate:	19.867	Roll:	5.596	Pitch:	-26.821	Yaw:	-1.592	Thrust:	100.000
Time:	2.324	Roll Set Point:	-0.143	Pitch Set Point:	1.823	Yaw Set Point:	-0.018	X_WP:	0.000	Y_WP:	0.000	Y_WP:	0.750	X:	0.080	Y:	-0.911	Z:	0.043	yaw:	1.049	yaw rate:	-20.123	Roll:	-0.518	Pitch:	-27.394	Yaw:	4.732	Thrust:	100.000
Time:	2.343	Roll Set Point:	-0.146	Pitch Set Point:	1.823	Yaw Set Point:	-0.015	X_WP:	0.000	Y_WP:	0.000	Y_WP:	0.750	X:	0.080	Y:	-0.911	Z:	0.043	yaw:	0.862	yaw rate:	18.722	Roll:	4.915	Pitch:	-27.048	Yaw:	-0.569	Thrust:	100.000
Time:	2.365	Roll Set Point:	-0.146	Pitch Set Point:	1.823	Yaw Set Point:	-0.015	X_WP:	0.000	Y_WP:	0.000	Y_WP:	0.750	X:	0.080	Y:	-0.911	Z:	0.043	yaw:	0.846	yaw rate:	1.597	Roll:	2.501	Pitch:	-27.212	Yaw:	1.769	Thrust:	100.000
Time:	2.385	Roll Set Point:	-0.146	Pitch Set Point:	1.823	Yaw Set Point:	-0.015	X_WP:	0.000	Y_WP:	0.000	Y_WP:	0.750	X:	0.080	Y:	-0.911	Z:	0.043	yaw:	0.859	yaw rate:	-1.324	Roll:	2.128	Pitch:	-27.190	Yaw:	2.092	Thrust:	100.000
Time:	2.403	Roll Set Point:	-0.146	Pitch Set Point:	1.823	Yaw Set Point:	-0.015	X_WP:	0.000	Y_WP:	0.000	Y_WP:	0.750	X:	0.080	Y:	-0.911	Z:	0.043	yaw:	0.872	yaw rate:	-1.327	Roll:	2.103	Pitch:	-27.191	Yaw:	2.078	Thrust:	100.000
Time:	2.424	Roll Set Point:	-0.143	Pitch Set Point:	1.823	Yaw Set Point:	-0.018	X_WP:	0.000	Y_WP:	0.000	Y_WP:	0.750	X:	0.080	Y:	-0.911	Z:	0.043	yaw:	1.033	yaw rate:	-16.048	Roll:	0.103	Pitch:	-27.388	Yaw:	4.188	Thrust:	100.000
Time:	2.443	Roll Set Point:	-0.146	Pitch Set Point:	1.823	Yaw Set Point:	-0.015	X_WP:	0.000	Y_WP:	0.000	Y_WP:	0.750	X:	0.080	Y:	-0.911	Z:	0.043	yaw:	0.845	yaw rate:	18.736	Roll:	4.929	Pitch:	-26.989	Yaw:	-0.690	Thrust:	100.000
Time:	2.466	Roll Set Point:	-0.143	Pitch Set Point:	1.823	Yaw Set Point:	-0.018	X_WP:	0.000	Y_WP:	0.000	Y_WP:	0.750	X:	0.080	Y:	-0.911	Z:	0.043	yaw:	1.055	yaw rate:	-20.920	Roll:	-0.620	Pitch:	-27.433	Yaw:	4.745	Thrust:	100.000
Time:	2.484	Roll Set Point:	-0.146	Pitch Set Point:	1.823	Yaw Set Point:	-0.015	X_WP:	0.000	Y_WP:	0.000	Y_WP:	0.750	X:	0.080	Y:	-0.911	Z:	0.043	yaw:	0.841	yaw rate:	21.345	Roll:	5.181	Pitch:	-27.031	Yaw:	-1.232	Thrust:	100.000
Time:	2.504	Roll Set Point:	-0.146	Pitch Set Point:	1.823	Yaw Set Point:	-0.015	X_WP:	0.000	Y_WP:	0.000	Y_WP:	0.750	X:	0.080	Y:	-0.911	Z:	0.043	yaw:	0.855	yaw rate:	-1.329	Roll:	2.117	Pitch:	-27.202	Yaw:	2.139	Thrust:	100.000
Time:	2.523	Roll Set Point:	-0.146	Pitch Set Point:	1.823	Yaw Set Point:	-0.015	X_WP:	0.000	Y_WP:	0.000	Y_WP:	0.750	X:	0.080	Y:	-0.911	Z:	0.043	yaw:	0.856	yaw rate:	-0.130	Roll:	2.304	Pitch:	-27.158	Yaw:	1.956	Thrust:	100.000
Time:	2.543	Roll Set Point:	-0.146	Pitch Set Point:	1.823	Yaw Set Point:	-0.015	X_WP:	0.000	Y_WP:	0.000	Y_WP:	0.750	X:	0.080	Y:	-0.911	Z:	0.043	yaw:	0.848	yaw rate:	0.740	Roll:	2.441	Pitch:	-27.206	Yaw:	1.866	Thrust:	100.000
Time:	2.565	Roll Set Point:	-0.146	Pitch Set Point:	1.823	Yaw Set Point:	-0.015	X_WP:	0.000	Y_WP:	0.000	Y_WP:	0.750	X:	0.080	Y:	-0.911	Z:	0.043	yaw:	0.844	yaw rate:	0.402	Roll:	2.399	Pitch:	-27.233	Yaw:	1.984	Thrust:	100.000
Time:	2.584	Roll Set Point:	-0.146	Pitch Set Point:	1.823	Yaw Set Point:	-0.015	X_WP:	0.000	Y_WP:	0.000	Y_WP:	0.750	X:	0.080	Y:	-0.911	Z:	0.043	yaw:	0.856	yaw rate:	-1.120	Roll:	2.177	Pitch:	-27.210	Yaw:	2.104	Thrust:	100.000
Time:	2.605	Roll Set Point:	-0.143	Pitch Set Point:	1.823	Yaw Set Point:	-0.018	X_WP:	0.000	Y_WP:	0.000	Y_WP:	0.750	X:	0.080	Y:	-0.911	Z:	0.043	yaw:	1.028	yaw rate:	-17.246	Roll:	-0.064	Pitch:	-27.372	Yaw:	4.431	Thrust:	100.000
Time:	2.624	Roll Set Point:	-0.146	Pitch Set Point:	1.823	Yaw Set Point:	-0.015	X_WP:	0.000	Y_WP:	0.000	Y_WP:	0.750	X:	0.080	Y:	-0.911	Z:	0.043	yaw:	0.839	yaw rate:	18.897	Roll:	4.940	Pitch:	-27.052	Yaw:	-0.557	Thrust:	100.000
Time:	2.643	Roll Set Point:	-0.144	Pitch Set Point:	1.823	Yaw Set Point:	-0.017	X_WP:	0.000	Y_WP:	0.000	Y_WP:	0.750	X:	0.080	Y:	-0.911	Z:	0.043	yaw:	0.969	yaw rate:	-13.015	Roll:	0.428	Pitch:	-27.251	Yaw:	3.911	Thrust:	100.000
Time:	2.666	Roll Set Point:	-0.146	Pitch Set Point:	1.823	Yaw Set Point:	-0.015	X_WP:	0.000	Y_WP:	0.000	Y_WP:	0.750	X:	0.080	Y:	-0.911	Z:	0.043	yaw:	0.846	yaw rate:	12.312	Roll:	3.857	Pitch:	-27.221	Yaw:	0.675	Thrust:	100.000
Time:	2.684	Roll Set Point:	-0.146	Pitch Set Point:	1.823	Yaw Set Point:	-0.015	X_WP:	0.000	Y_WP:	0.000	Y_WP:	0.750	X:	0.080	Y:	-0.911	Z:	0.043	yaw:	0.835	yaw rate:	1.121	Roll:	2.486	Pitch:	-27.128	Yaw:	1.757	Thrust:	100.000
Time:	2.703	Roll Set Point:	-0.146	Pitch Set Point:	1.823	Yaw Set Point:	-0.015	X_WP:	0.000	Y_WP:	0.000	Y_WP:	0.750	X:	0.080	Y:	-0.911	Z:	0.043	yaw:	0.847	yaw rate:	-1.243	Roll:	2.127	Pitch:	-27.145	Yaw:	2.149	Thrust:	100.000
Time:	2.724	Roll Set Point:	-0.146	Pitch Set Point:	1.823	Yaw Set Point:	-0.015	X_WP:	0.000	Y_WP:	0.000	Y_WP:	0.750	X:	0.080	Y:	-0.911	Z:	0.043	yaw:	0.850	yaw rate:	-0.296	Roll:	2.365	Pitch:	-27.263	Yaw:	2.085	Thrust:	100.000
Time:	2.744	Roll Set Point:	-0.143	Pitch Set Point:	1.823	Yaw Set Point:	-0.018	X_WP:	0.000	Y_WP:	0.000	Y_WP:	0.750	X:	0.080	Y:	-0.911	Z:	0.043	yaw:	1.053	yaw rate:	-20.250	Roll:	-0.547	Pitch:	-27.380	Yaw:	4.984	Thrust:	100.000
Time:	2.765	Roll Set Point:	-0.146	Pitch Set Point:	1.823	Yaw Set Point:	-0.015	X_WP:	0.000	Y_WP:	0.000	Y_WP:	0.750	X:	0.080	Y:	-0.911	Z:	0.043	yaw:	0.847	yaw rate:	20.572	Roll:	5.077	Pitch:	-27.067	Yaw:	-0.590	Thrust:	100.000
Time:	2.784	Roll Set Point:	-0.146	Pitch Set Point:	1.823	Yaw Set Point:	-0.015	X_WP:	0.000	Y_WP:	0.000	Y_WP:	0.750	X:	0.080	Y:	-0.911	Z:	0.043	yaw:	0.853	yaw rate:	-0.584	Roll:	2.248	Pitch:	-27.162	Yaw:	2.086	Thrust:	100.000
Time:	2.804	Roll Set Point:	-0.146	Pitch Set Point:	1.823	Yaw Set Point:	-0.015	X_WP:	0.000	Y_WP:	0.000	Y_WP:	0.750	X:	0.080	Y:	-0.911	Z:	0.043	yaw:	0.862	yaw rate:	-0.930	Roll:	2.266	Pitch:	-27.262	Yaw:	2.240	Thrust:	100.000
Time:	2.824	Roll Set Point:	-0.146	Pitch Set Point:	1.823	Yaw Set Point:	-0.015	X_WP:	0.000	Y_WP:	0.000	Y_WP:	0.750	X:	0.080	Y:	-0.911	Z:	0.043	yaw:	0.837	yaw rate:	2.525	Roll:	2.726	Pitch:	-27.152	Yaw:	1.654	Thrust:	100.000
Time:	2.843	Roll Set Point:	-0.143	Pitch Set Point:	1.823	Yaw Set Point:	-0.018	X_WP:	0.000	Y_WP:	0.000	Y_WP:	0.750	X:	0.080	Y:	-0.911	Z:	0.043	yaw:	1.050	yaw rate:	-21.281	Roll:	-0.782	Pitch:	-27.371	Yaw:	5.164	Thrust:	100.000
Time:	2.868	Roll Set Point:	-0.143	Pitch Set Point:	1.823	Yaw Set Point:	-0.018	X_WP:	0.000	Y_WP:	0.000	Y_WP:	0.750	X:	0.080	Y:	-0.911	Z:	0.043	yaw:	1.040	yaw rate:	0.929	Roll:	2.453	Pitch:	-27.330	Yaw:	2.409	Thrust:	100.000
Time:	2.884	Roll Set Point:	-0.144	Pitch Set Point:	1.823	Yaw Set Point:	-0.017	X_WP:	0.000	Y_WP:	0.000	Y_WP:	0.750	X:	0.080	Y:	-0.911	Z:	0.043	yaw:	0.958	yaw rate:	8.252	Roll:	3.593	Pitch:	-27.017	Yaw:	0.743	Thrust:	100.000
Time:	2.907	Roll Set Point:	-0.144	Pitch Set Point:	1.823	Yaw Set Point:	-0.017	X_WP:	0.000	Y_WP:	0.000	Y_WP:	0.750	X:	0.080	Y:	-0.911	Z:	0.043	yaw:	0.964	yaw rate:	-0.630	Roll:	2.329	Pitch:	-27.357	Yaw:	2.466	Thrust:	100.000
Time:	2.924	Roll Set Point:	-0.144	Pitch Set Point:	1.823	Yaw Set Point:	-0.017	X_WP:	0.000	Y_WP:	0.000	Y_WP:	0.750	X:	0.080	Y:	-0.911	Z:	0.043	yaw:	0.975	yaw rate:	-1.027	Roll:	2.106	Pitch:	-27.056	Yaw:	2.269	Thrust:	100.000
Time:	2.943	Roll Set Point:	-0.144	Pitch Set Point:	1.823	Yaw Set Point:	-0.017	X_WP:	0.000	Y_WP:	0.000	Y_WP:	0.750	X:	0.080	Y:	-0.911	Z:	0.043	yaw:	0.949	yaw rate:	2.529	Roll:	2.667	Pitch:	-27.156	Yaw:	1.883	Thrust:	100.000
Time:	2.964	Roll Set Point:	-0.144	Pitch Set Point:	1.823	Yaw Set Point:	-0.017	X_WP:	0.000	Y_WP:	0.000	Y_WP:	0.750	X:	0.080	Y:	-0.911	Z:	0.043	yaw:	0.977	yaw rate:	-2.788	Roll:	2.005	Pitch:	-27.297	Yaw:	2.668	Thrust:	100.000
Time:	2.984	Roll Set Point:	-0.144	Pitch Set Point:	1.823	Yaw Set Point:	-0.017	X_WP:	0.000	Y_WP:	0.000	Y_WP:	0.750	X:	0.080	Y:	-0.911	Z:	0.043	yaw:	0.969	yaw rate:	0.790	Roll:	2.459	Pitch:	-27.181	Yaw:	2.150	Thrust:	100.000
Time:	3.005	Roll Set Point:	-0.144	Pitch Set Point:	1.823	Yaw Set Point:	-0.017	X_WP:	0.000	Y_WP:	0.000	Y_WP:	0.750	X:	0.080	Y:	-0.911	Z:	0.043	yaw:	0.952	yaw rate:	1.735	Roll:	2.601	Pitch:	-27.230	Yaw:	2.089	Thrust:	100.000
Time:	3.023	Roll Set Point:	-0.144	Pitch Set Point:	1.823	Yaw Set Point:	-0.017	X_WP:	0.000	Y_WP:	0.000	Y_WP:	0.750	X:	0.080	Y:	-0.911	Z:	0.043	yaw:	0.971	yaw rate:	-1.877	Roll:	2.055	Pitch:	-27.136	Yaw:	2.488	Thrust:	100.000
Time:	3.044	Roll Set Point:	-0.144	Pitch Set Point:	1.823	Yaw Set Point:	-0.017	X_WP:	0.000	Y_WP:	0.000	Y_WP:	0.750	X:	0.080	Y:	-0.911	Z:	0.043	yaw:	0.951	yaw rate:	1.965	Roll:	2.636	Pitch:	-27.243	Yaw:	2.048	Thrust:	100.000
Time:	3.065	Roll Set Point:	-0.144	Pitch Set Point:	1.823	Yaw Set Point:	-0.017	X_WP:	0.000	Y_WP:	0.000	Y_WP:	0.750	X:	0.080	Y:	-0.911	Z:	0.043	yaw:	0.974	yaw rate:	-2.263	Roll:	2.052	Pitch:	-27.245	Yaw:	2.645	Thrust:	100.000
Time:	3.083	Roll Set Point:	-0.144	Pitch Set Point:	1.823	Yaw Set Point:	-0.017	X_WP:	0.000	Y_WP:	0.000	Y_WP:	0.750	X:	0.080	Y:	-0.911	Z:	0.043	yaw:	0.966	yaw rate:	0.769	Roll:	2.465	Pitch:	-27.164	Yaw:	2.131	Thrust:	100.000
Time:	3.103	Roll Set Point:	-0.144	Pitch Set Point:	1.823	Yaw Set Point:	-0.017	X_WP:	0.000	Y_WP:	0.000	Y_WP:	0.750	X:	0.080	Y:	-0.911	Z:	0.043	yaw:	0.968	yaw rate:	-0.175	Roll:	2.310	Pitch:	-27.154	Yaw:	2.316	Thrust:	100.000
Time:	3.124	Roll Set Point:	-0.144	Pitch Set Point:	1.823	Yaw Set Point:	-0.017	X_WP:	0.000	Y_WP:	0.000	Y_WP:	0.750	X:	0.080	Y:	-0.911	Z:	0.043	yaw:	0.970	yaw rate:	-0.283	Roll:	2.358	Pitch:	-27.267	Yaw:	2.398	Thrust:	100.000
Time:	3.144	Roll Set Point:	-0.147	Pitch Set Point:	1.823	Yaw Set Point:	-0.014	X_WP:	0.000	Y_WP:	0.000	Y_WP:	0.750	X:	0.080	Y:	-0.911	Z:	0.043	yaw:	0.823	yaw rate:	14.747	Roll:	4.527	Pitch:	-27.091	Yaw:	0.101	Thrust:	100.000
Time:	3.164	Roll Set Point:	-0.143	Pitch Set Point:	1.823	Yaw Set Point:	-0.018	X_WP:	0.000	Y_WP:	0.000	Y_WP:	0.750	X:	0.080	Y:	-0.911	Z:	0.043	yaw:	1.043	yaw rate:	-22.027	Roll:	-0.842	Pitch:	-27.387	Yaw:	5.240	Thrust:	100.000
Time:	3.183	Roll Set Point:	-0.142	Pitch Set Point:	1.824	Yaw Set Point:	-0.019	X_WP:	0.000	Y_WP:	0.000	Y_WP:	0.750	X:	0.080	Y:	-0.911	Z:	0.043	yaw:	1.087	yaw rate:	-4.371	Roll:	1.715	Pitch:	-27.246	Yaw:	3.058	Thrust:	100.000
Time:	3.204	Roll Set Point:	-0.144	Pitch Set Point:	1.823	Yaw Set Point:	-0.017	X_WP:	0.000	Y_WP:	0.000	Y_WP:	0.750	X:	0.080	Y:	-0.911	Z:	0.043	yaw:	0.960	yaw rate:	12.653	Roll:	4.108	Pitch:	-27.078	Yaw:	0.812	Thrust:	100.000
Time:	3.224	Roll Set Point:	-0.144	Pitch Set Point:	1.823	Yaw Set Point:	-0.017	X_WP:	0.000	Y_WP:	0.000	Y_WP:	0.750	X:	0.080	Y:	-0.911	Z:	0.043	yaw:	0.969	yaw rate:	-0.851	Roll:	2.267	Pitch:	-27.215	Yaw:	2.448	Thrust:	100.000
Time:	3.243	Roll Set Point:	-0.144	Pitch Set Point:	1.823	Yaw Set Point:	-0.017	X_WP:	0.000	Y_WP:	0.000	Y_WP:	0.750	X:	0.080	Y:	-0.911	Z:	0.043	yaw:	0.960	yaw rate:	0.863	Roll:	2.492	Pitch:	-27.182	Yaw:	2.186	Thrust:	100.000
Time:	3.265	Roll Set Point:	-0.144	Pitch Set Point:	1.823	Yaw Set Point:	-0.017	X_WP:	0.000	Y_WP:	0.000	Y_WP:	0.750	X:	0.080	Y:	-0.911	Z:	0.043	yaw:	0.965	yaw rate:	-0.476	Roll:	2.395	Pitch:	-27.271	Yaw:	2.560	Thrust:	100.000
Time:	3.284	Roll Set Point:	-0.144	Pitch Set Point:	1.823	Yaw Set Point:	-0.017	X_WP:	0.000	Y_WP:	0.000	Y_WP:	0.750	X:	0.080	Y:	-0.911	Z:	0.043	yaw:	0.977	yaw rate:	-1.182	Roll:	2.211	Pitch:	-27.182	Yaw:	2.482	Thrust:	100.000
Time:	3.304	Roll Set Point:	-0.144	Pitch Set Point:	1.823	Yaw Set Point:	-0.017	X_WP:	0.000	Y_WP:	0.000	Y_WP:	0.750	X:	0.080	Y:	-0.911	Z:	0.043	yaw:	0.962	yaw rate:	1.530	Roll:	2.586	Pitch:	-27.160	Yaw:	2.175	Thrust:	100.000
Time:	3.323	Roll Set Point:	-0.144	Pitch Set Point:	1.823	Yaw Set Point:	-0.017	X_WP:	0.000	Y_WP:	0.000	Y_WP:	0.750	X:	0.080	Y:	-0.911	Z:	0.043	yaw:	0.980	yaw rate:	-1.819	Roll:	2.158	Pitch:	-27.251	Yaw:	2.601	Thrust:	100.000
Time:	3.342	Roll Set Point:	-0.144	Pitch Set Point:	1.823	Yaw Set Point:	-0.017	X_WP:	0.000	Y_WP:	0.000	Y_WP:	0.750	X:	0.080	Y:	-0.911	Z:	0.043	yaw:	0.960	yaw rate:	1.984	Roll:	2.688	Pitch:	-27.172	Yaw:	2.101	Thrust:	100.000
Time:	3.365	Roll Set Point:	-0.144	Pitch Set Point:	1.823	Yaw Set Point:	-0.017	X_WP:	0.000	Y_WP:	0.000	Y_WP:	0.750	X:	0.080	Y:	-0.911	Z:	0.043	yaw:	0.963	yaw rate:	-0.342	Roll:	2.391	Pitch:	-27.246	Yaw:	2.581	Thrust:	100.000
Time:	3.384	Roll Set Point:	-0.144	Pitch Set Point:	1.823	Yaw Set Point:	-0.017	X_WP:	0.000	Y_WP:	0.000	Y_WP:	0.750	X:	0.080	Y:	-0.911	Z:	0.043	yaw:	0.971	yaw rate:	-0.721	Roll:	2.303	Pitch:	-27.224	Yaw:	2.445	Thrust:	100.000
Time:	3.404	Roll Set Point:	-0.144	Pitch Set Point:	1.823	Yaw Set Point:	-0.017	X_WP:	0.000	Y_WP:	0.000	Y_WP:	0.750	X:	0.080	Y:	-0.911	Z:	0.043	yaw:	0.968	yaw rate:	0.286	Roll:	2.433	Pitch:	-27.198	Yaw:	2.356	Thrust:	100.000
Time:	3.424	Roll Set Point:	-0.144	Pitch Set Point:	1.823	Yaw Set Point:	-0.017	X_WP:	0.000	Y_WP:	0.000	Y_WP:	0.750	X:	0.080	Y:	-0.911	Z:	0.043	yaw:	0.964	yaw rate:	0.344	Roll:	2.466	Pitch:	-27.162	Yaw:	2.342	Thrust:	100.000
Time:	3.444	Roll Set Point:	-0.143	Pitch Set Point:	1.823	Yaw Set Point:	-0.018	X_WP:	0.000	Y_WP:	0.000	Y_WP:	0.750	X:	0.080	Y:	-0.911	Z:	0.043	yaw:	1.020	yaw rate:	-5.554	Roll:	1.623	Pitch:	-27.265	Yaw:	3.240	Thrust:	100.000
Time:	3.465	Roll Set Point:	-0.141	Pitch Set Point:	1.824	Yaw Set Point:	-0.021	X_WP:	0.000	Y_WP:	0.000	Y_WP:	0.750	X:	0.080	Y:	-0.911	Z:	0.044	yaw:	1.198	yaw rate:	-17.834	Roll:	0.318	Pitch:	-27.427	Yaw:	5.003	Thrust:	100.000
Time:	3.483	Roll Set Point:	-0.143	Pitch Set Point:	1.823	Yaw Set Point:	-0.018	X_WP:	0.000	Y_WP:	0.000	Y_WP:	0.750	X:	0.080	Y:	-0.911	Z:	0.043	yaw:	1.059	yaw rate:	13.875	Roll:	4.057	Pitch:	-27.011	Yaw:	0.432	Thrust:	100.000
Time:	3.503	Roll Set Point:	-0.146	Pitch Set Point:	1.823	Yaw Set Point:	-0.015	X_WP:	0.000	Y_WP:	0.000	Y_WP:	0.750	X:	0.080	Y:	-0.911	Z:	0.043	yaw:	0.853	yaw rate:	20.605	Roll:	5.263	Pitch:	-27.019	Yaw:	-0.362	Thrust:	100.000
Time:	3.523	Roll Set Point:	-0.146	Pitch Set Point:	1.823	Yaw Set Point:	-0.015	X_WP:	0.000	Y_WP:	0.000	Y_WP:	0.750	X:	0.080	Y:	-0.911	Z:	0.043	yaw:	0.856	yaw rate:	-0.295	Roll:	2.457	Pitch:	-27.220	Yaw:	2.335	Thrust:	100.000
Time:	3.550	Roll Set Point:	-0.146	Pitch Set Point:	1.823	Yaw Set Point:	-0.015	X_WP:	0.000	Y_WP:	0.000	Y_WP:	0.750	X:	0.080	Y:	-0.911	Z:	0.043	yaw:	0.847	yaw rate:	0.952	Roll:	2.763	Pitch:	-27.423	Yaw:	2.568	Thrust:	100.000
Time:	3.563	Roll Set Point:	-0.146	Pitch Set Point:	1.823	Yaw Set Point:	-0.015	X_WP:	0.000	Y_WP:	0.000	Y_WP:	0.750	X:	0.080	Y:	-0.911	Z:	0.043	yaw:	0.860	yaw rate:	-1.300	Roll:	2.054	Pitch:	-26.978	Yaw:	2.204	Thrust:	100.000
Time:	3.583	Roll Set Point:	-0.146	Pitch Set Point:	1.823	Yaw Set Point:	-0.015	X_WP:	0.000	Y_WP:	0.000	Y_WP:	0.750	X:	0.080	Y:	-0.911	Z:	0.043	yaw:	0.865	yaw rate:	-0.496	Roll:	2.392	Pitch:	-27.199	Yaw:	2.402	Thrust:	100.000
Time:	3.604	Roll Set Point:	-0.146	Pitch Set Point:	1.823	Yaw Set Point:	-0.015	X_WP:	0.000	Y_WP:	0.000	Y_WP:	0.750	X:	0.080	Y:	-0.911	Z:	0.043	yaw:	0.862	yaw rate:	0.233	Roll:	2.534	Pitch:	-27.226	Yaw:	2.330	Thrust:	100.000
Time:	3.624	Roll Set Point:	-0.146	Pitch Set Point:	1.823	Yaw Set Point:	-0.015	X_WP:	0.000	Y_WP:	0.000	Y_WP:	0.750	X:	0.080	Y:	-0.911	Z:	0.043	yaw:	0.862	yaw rate:	0.070	Roll:	2.543	Pitch:	-27.217	Yaw:	2.332	Thrust:	100.000
Time:	3.643	Roll Set Point:	-0.146	Pitch Set Point:	1.823	Yaw Set Point:	-0.015	X_WP:	0.000	Y_WP:	0.000	Y_WP:	0.750	X:	0.080	Y:	-0.911	Z:	0.043	yaw:	0.845	yaw rate:	1.691	Roll:	2.730	Pitch:	-27.179	Yaw:	2.070	Thrust:	100.000
Time:	3.665	Roll Set Point:	-0.146	Pitch Set Point:	1.823	Yaw Set Point:	-0.014	X_WP:	0.000	Y_WP:	0.000	Y_WP:	0.750	X:	0.080	Y:	-0.911	Z:	0.043	yaw:	0.824	yaw rate:	2.109	Roll:	2.814	Pitch:	-27.203	Yaw:	2.084	Thrust:	100.000
Time:	3.683	Roll Set Point:	-0.141	Pitch Set Point:	1.824	Yaw Set Point:	-0.022	X_WP:	0.000	Y_WP:	0.000	Y_WP:	0.750	X:	0.080	Y:	-0.911	Z:	0.044	yaw:	1.241	yaw rate:	-41.746	Roll:	-3.372	Pitch:	-27.898	Yaw:	8.702	Thrust:	100.000
Time:	3.703	Roll Set Point:	-0.141	Pitch Set Point:	1.824	Yaw Set Point:	-0.022	X_WP:	0.000	Y_WP:	0.000	Y_WP:	0.750	X:	0.080	Y:	-0.911	Z:	0.044	yaw:	1.242	yaw rate:	-0.077	Roll:	2.283	Pitch:	-27.217	Yaw:	2.904	Thrust:	100.000
Time:	3.723	Roll Set Point:	-0.141	Pitch Set Point:	1.824	Yaw Set Point:	-0.021	X_WP:	0.000	Y_WP:	0.000	Y_WP:	0.750	X:	0.080	Y:	-0.911	Z:	0.044	yaw:	1.223	yaw rate:	1.937	Roll:	2.656	Pitch:	-27.192	Yaw:	2.613	Thrust:	100.000
Time:	3.743	Roll Set Point:	-0.141	Pitch Set Point:	1.824	Yaw Set Point:	-0.021	X_WP:	0.000	Y_WP:	0.000	Y_WP:	0.750	X:	0.080	Y:	-0.911	Z:	0.044	yaw:	1.219	yaw rate:	0.354	Roll:	2.383	Pitch:	-27.225	Yaw:	2.851	Thrust:	100.000
Time:	3.765	Roll Set Point:	-0.141	Pitch Set Point:	1.824	Yaw Set Point:	-0.021	X_WP:	0.000	Y_WP:	0.000	Y_WP:	0.750	X:	0.080	Y:	-0.911	Z:	0.044	yaw:	1.231	yaw rate:	-1.196	Roll:	2.260	Pitch:	-27.312	Yaw:	3.146	Thrust:	100.000
Time:	3.783	Roll Set Point:	-0.141	Pitch Set Point:	1.824	Yaw Set Point:	-0.021	X_WP:	0.000	Y_WP:	0.000	Y_WP:	0.750	X:	0.080	Y:	-0.911	Z:	0.044	yaw:	1.229	yaw rate:	0.212	Roll:	2.379	Pitch:	-27.163	Yaw:	2.808	Thrust:	100.000
Time:	3.804	Roll Set Point:	-0.137	Pitch Set Point:	1.825	Yaw Set Point:	-0.026	X_WP:	0.000	Y_WP:	0.000	Y_WP:	0.750	X:	0.080	Y:	-0.911	Z:	0.045	yaw:	1.483	yaw rate:	-25.381	Roll:	-1.202	Pitch:	-27.484	Yaw:	6.532	Thrust:	100.000
Time:	3.824	Roll Set Point:	-0.141	Pitch Set Point:	1.824	Yaw Set Point:	-0.021	X_WP:	0.000	Y_WP:	0.000	Y_WP:	0.750	X:	0.080	Y:	-0.911	Z:	0.044	yaw:	1.218	yaw rate:	26.435	Roll:	5.823	Pitch:	-27.008	Yaw:	-0.537	Thrust:	100.000
Time:	3.844	Roll Set Point:	-0.141	Pitch Set Point:	1.824	Yaw Set Point:	-0.022	X_WP:	0.000	Y_WP:	0.000	Y_WP:	0.750	X:	0.080	Y:	-0.911	Z:	0.044	yaw:	1.233	yaw rate:	-1.435	Roll:	2.172	Pitch:	-27.220	Yaw:	3.106	Thrust:	100.000
Time:	3.866	Roll Set Point:	-0.141	Pitch Set Point:	1.824	Yaw Set Point:	-0.021	X_WP:	0.000	Y_WP:	0.000	Y_WP:	0.750	X:	0.080	Y:	-0.911	Z:	0.044	yaw:	1.212	yaw rate:	2.036	Roll:	2.702	Pitch:	-27.263	Yaw:	2.872	Thrust:	100.000
Time:	3.884	Roll Set Point:	-0.141	Pitch Set Point:	1.824	Yaw Set Point:	-0.021	X_WP:	0.000	Y_WP:	0.000	Y_WP:	0.750	X:	0.080	Y:	-0.911	Z:	0.044	yaw:	1.227	yaw rate:	-1.428	Roll:	2.113	Pitch:	-27.177	Yaw:	3.020	Thrust:	100.000
Time:	3.903	Roll Set Point:	-0.137	Pitch Set Point:	1.825	Yaw Set Point:	-0.026	X_WP:	0.000	Y_WP:	0.000	Y_WP:	0.750	X:	0.080	Y:	-0.911	Z:	0.044	yaw:	1.505	yaw rate:	-27.835	Roll:	-1.397	Pitch:	-27.543	Yaw:	7.021	Thrust:	100.000
Time:	3.924	Roll Set Point:	-0.141	Pitch Set Point:	1.824	Yaw Set Point:	-0.022	X_WP:	0.000	Y_WP:	0.000	Y_WP:	0.750	X:	0.080	Y:	-0.911	Z:	0.044	yaw:	1.234	yaw rate:	27.132	Roll:	6.053	Pitch:	-26.910	Yaw:	-0.528	Thrust:	100.000
Time:	3.943	Roll Set Point:	-0.137	Pitch Set Point:	1.825	Yaw Set Point:	-0.026	X_WP:	0.000	Y_WP:	0.000	Y_WP:	0.750	X:	0.080	Y:	-0.911	Z:	0.045	yaw:	1.500	yaw rate:	-26.597	Roll:	-1.358	Pitch:	-27.505	Yaw:	6.887	Thrust:	100.000
Time:	3.963	Roll Set Point:	-0.141	Pitch Set Point:	1.824	Yaw Set Point:	-0.021	X_WP:	0.000	Y_WP:	0.000	Y_WP:	0.750	X:	0.080	Y:	-0.911	Z:	0.044	yaw:	1.223	yaw rate:	27.712	Roll:	6.019	Pitch:	-26.976	Yaw:	-0.629	Thrust:	100.000
Time:	3.984	Roll Set Point:	-0.141	Pitch Set Point:	1.824	Yaw Set Point:	-0.021	X_WP:	0.000	Y_WP:	0.000	Y_WP:	0.750	X:	0.080	Y:	-0.911	Z:	0.044	yaw:	1.209	yaw rate:	1.336	Roll:	2.575	Pitch:	-27.212	Yaw:	2.857	Thrust:	100.000
Time:	4.004	Roll Set Point:	-0.141	Pitch Set Point:	1.824	Yaw Set Point:	-0.021	X_WP:	0.000	Y_WP:	0.000	Y_WP:	0.750	X:	0.080	Y:	-0.911	Z:	0.044	yaw:	1.228	yaw rate:	-1.934	Roll:	2.161	Pitch:	-27.233	Yaw:	3.287	Thrust:	100.000
Time:	4.023	Roll Set Point:	-0.137	Pitch Set Point:	1.825	Yaw Set Point:	-0.026	X_WP:	0.000	Y_WP:	0.000	Y_WP:	0.750	X:	0.080	Y:	-0.911	Z:	0.045	yaw:	1.491	yaw rate:	-26.248	Roll:	-1.398	Pitch:	-27.499	Yaw:	6.971	Thrust:	100.000
Time:	4.042	Roll Set Point:	-0.137	Pitch Set Point:	1.825	Yaw Set Point:	-0.026	X_WP:	0.000	Y_WP:	0.000	Y_WP:	0.750	X:	0.080	Y:	-0.911	Z:	0.044	yaw:	1.499	yaw rate:	-0.842	Roll:	2.169	Pitch:	-27.242	Yaw:	3.465	Thrust:	100.000
Time:	4.063	Roll Set Point:	-0.141	Pitch Set Point:	1.824	Yaw Set Point:	-0.021	X_WP:	0.000	Y_WP:	0.000	Y_WP:	0.750	X:	0.080	Y:	-0.911	Z:	0.044	yaw:	1.226	yaw rate:	27.369	Roll:	6.114	Pitch:	-26.908	Yaw:	-0.374	Thrust:	100.000
Time:	4.085	Roll Set Point:	-0.141	Pitch Set Point:	1.824	Yaw Set Point:	-0.022	X_WP:	0.000	Y_WP:	0.000	Y_WP:	0.750	X:	0.080	Y:	-0.911	Z:	0.044	yaw:	1.244	yaw rate:	-1.789	Roll:	2.256	Pitch:	-27.311	Yaw:	3.369	Thrust:	100.000
Time:	4.104	Roll Set Point:	-0.141	Pitch Set Point:	1.824	Yaw Set Point:	-0.022	X_WP:	0.000	Y_WP:	0.000	Y_WP:	0.750	X:	0.080	Y:	-0.911	Z:	0.044	yaw:	1.242	yaw rate:	0.165	Roll:	2.383	Pitch:	-27.198	Yaw:	3.047	Thrust:	100.000
Time:	4.123	Roll Set Point:	-0.137	Pitch Set Point:	1.825	Yaw Set Point:	-0.026	X_WP:	0.000	Y_WP:	0.000	Y_WP:	0.750	X:	0.080	Y:	-0.911	Z:	0.044	yaw:	1.498	yaw rate:	-25.631	Roll:	-1.190	Pitch:	-27.516	Yaw:	6.890	Thrust:	100.000
Time:	4.143	Roll Set Point:	-0.141	Pitch Set Point:	1.824	Yaw Set Point:	-0.022	X_WP:	0.000	Y_WP:	0.000	Y_WP:	0.750	X:	0.080	Y:	-0.911	Z:	0.044	yaw:	1.240	yaw rate:	25.787	Roll:	5.833	Pitch:	-26.939	Yaw:	-0.244	Thrust:	100.000
Time:	4.166	Roll Set Point:	-0.141	Pitch Set Point:	1.824	Yaw Set Point:	-0.022	X_WP:	0.000	Y_WP:	0.000	Y_WP:	0.750	X:	0.080	Y:	-0.911	Z:	0.044	yaw:	1.239	yaw rate:	0.106	Roll:	2.480	Pitch:	-27.294	Yaw:	3.288	Thrust:	100.000
Time:	4.185	Roll Set Point:	-0.141	Pitch Set Point:	1.824	Yaw Set Point:	-0.021	X_WP:	0.000	Y_WP:	0.000	Y_WP:	0.750	X:	0.080	Y:	-0.911	Z:	0.044	yaw:	1.228	yaw rate:	1.110	Roll:	2.587	Pitch:	-27.216	Yaw:	2.828	Thrust:	100.000
Time:	4.205	Roll Set Point:	-0.141	Pitch Set Point:	1.824	Yaw Set Point:	-0.022	X_WP:	0.000	Y_WP:	0.000	Y_WP:	0.750	X:	0.080	Y:	-0.911	Z:	0.044	yaw:	1.236	yaw rate:	-0.815	Roll:	2.285	Pitch:	-27.168	Yaw:	3.219	Thrust:	100.000
Time:	4.224	Roll Set Point:	-0.141	Pitch Set Point:	1.824	Yaw Set Point:	-0.022	X_WP:	0.000	Y_WP:	0.000	Y_WP:	0.750	X:	0.080	Y:	-0.911	Z:	0.044	yaw:	1.243	yaw rate:	-0.658	Roll:	2.342	Pitch:	-27.237	Yaw:	3.199	Thrust:	100.000
Time:	4.245	Roll Set Point:	-0.140	Pitch Set Point:	1.824	Yaw Set Point:	-0.022	X_WP:	0.000	Y_WP:	0.000	Y_WP:	0.750	X:	0.080	Y:	-0.911	Z:	0.044	yaw:	1.253	yaw rate:	-0.972	Roll:	2.323	Pitch:	-27.286	Yaw:	3.326	Thrust:	100.000
Time:	4.267	Roll Set Point:	-0.141	Pitch Set Point:	1.824	Yaw Set Point:	-0.021	X_WP:	0.000	Y_WP:	0.000	Y_WP:	0.750	X:	0.080	Y:	-0.911	Z:	0.044	yaw:	1.226	yaw rate:	2.668	Roll:	2.821	Pitch:	-27.230	Yaw:	2.836	Thrust:	100.000
Time:	4.285	Roll Set Point:	-0.141	Pitch Set Point:	1.824	Yaw Set Point:	-0.022	X_WP:	0.000	Y_WP:	0.000	Y_WP:	0.750	X:	0.080	Y:	-0.911	Z:	0.044	yaw:	1.244	yaw rate:	-1.838	Roll:	2.128	Pitch:	-27.179	Yaw:	3.370	Thrust:	100.000
Time:	4.305	Roll Set Point:	-0.141	Pitch Set Point:	1.824	Yaw Set Point:	-0.022	X_WP:	0.000	Y_WP:	0.000	Y_WP:	0.750	X:	0.080	Y:	-0.911	Z:	0.044	yaw:	1.245	yaw rate:	-0.066	Roll:	2.375	Pitch:	-27.218	Yaw:	3.108	Thrust:	100.000
Time:	4.324	Roll Set Point:	-0.137	Pitch Set Point:	1.825	Yaw Set Point:	-0.026	X_WP:	0.000	Y_WP:	0.000	Y_WP:	0.750	X:	0.080	Y:	-0.911	Z:	0.045	yaw:	1.501	yaw rate:	-25.647	Roll:	-1.047	Pitch:	-27.519	Yaw:	6.929	Thrust:	100.000
Time:	4.344	Roll Set Point:	-0.141	Pitch Set Point:	1.824	Yaw Set Point:	-0.021	X_WP:	0.000	Y_WP:	0.000	Y_WP:	0.750	X:	0.080	Y:	-0.911	Z:	0.044	yaw:	1.230	yaw rate:	27.145	Roll:	6.042	Pitch:	-26.907	Yaw:	-0.339	Thrust:	100.000
Time:	4.365	Roll Set Point:	-0.141	Pitch Set Point:	1.824	Yaw Set Point:	-0.021	X_WP:	0.000	Y_WP:	0.000	Y_WP:	0.750	X:	0.080	Y:	-0.911	Z:	0.044	yaw:	1.223	yaw rate:	0.720	Roll:	2.539	Pitch:	-27.228	Yaw:	3.089	Thrust:	100.000
Time:	4.385	Roll Set Point:	-0.140	Pitch Set Point:	1.824	Yaw Set Point:	-0.022	X_WP:	0.000	Y_WP:	0.000	Y_WP:	0.750	X:	0.080	Y:	-0.911	Z:	0.044	yaw:	1.253	yaw rate:	-2.997	Roll:	2.106	Pitch:	-27.288	Yaw:	3.641	Thrust:	100.000
Time:	4.405	Roll Set Point:	-0.137	Pitch Set Point:	1.825	Yaw Set Point:	-0.026	X_WP:	0.000	Y_WP:	0.000	Y_WP:	0.750	X:	0.080	Y:	-0.911	Z:	0.045	yaw:	1.496	yaw rate:	-24.275	Roll:	-0.947	Pitch:	-27.474	Yaw:	6.721	Thrust:	100.000
Time:	4.425	Roll Set Point:	-0.136	Pitch Set Point:	1.824	Yaw Set Point:	-0.026	X_WP:	0.000	Y_WP:	0.000	Y_WP:	0.750	X:	0.080	Y:	-0.911	Z:	0.044	yaw:	1.494	yaw rate:	0.143	Roll:	2.152	Pitch:	-27.159	Yaw:	3.507	Thrust:	100.000
Time:	4.445	Roll Set Point:	-0.136	Pitch Set Point:	1.825	Yaw Set Point:	-0.026	X_WP:	0.000	Y_WP:	0.000	Y_WP:	0.750	X:	0.080	Y:	-0.911	Z:	0.044	yaw:	1.506	yaw rate:	-1.140	Roll:	2.200	Pitch:	-27.266	Yaw:	3.797	Thrust:	100.000
Time:	4.466	Roll Set Point:	-0.136	Pitch Set Point:	1.825	Yaw Set Point:	-0.026	X_WP:	0.000	Y_WP:	0.000	Y_WP:	0.750	X:	0.080	Y:	-0.911	Z:	0.044	yaw:	1.493	yaw rate:	1.299	Roll:	2.539	Pitch:	-27.270	Yaw:	3.500	Thrust:	100.000
Time:	4.484	Roll Set Point:	-0.136	Pitch Set Point:	1.825	Yaw Set Point:	-0.026	X_WP:	0.000	Y_WP:	0.000	Y_WP:	0.750	X:	0.080	Y:	-0.911	Z:	0.044	yaw:	1.502	yaw rate:	-0.919	Roll:	2.170	Pitch:	-27.149	Yaw:	3.609	Thrust:	100.000
Time:	4.504	Roll Set Point:	-0.136	Pitch Set Point:	1.824	Yaw Set Point:	-0.026	X_WP:	0.000	Y_WP:	0.000	Y_WP:	0.750	X:	0.080	Y:	-0.911	Z:	0.044	yaw:	1.493	yaw rate:	0.890	Roll:	2.450	Pitch:	-27.212	Yaw:	3.470	Thrust:	100.000
Time:	4.524	Roll Set Point:	-0.141	Pitch Set Point:	1.824	Yaw Set Point:	-0.020	X_WP:	0.000	Y_WP:	0.000	Y_WP:	0.750	X:	0.080	Y:	-0.911	Z:	0.044	yaw:	1.170	yaw rate:	32.309	Roll:	6.702	Pitch:	-26.982	Yaw:	-0.989	Thrust:	100.000
Time:	4.544	Roll Set Point:	-0.143	Pitch Set Point:	1.823	Yaw Set Point:	-0.018	X_WP:	0.000	Y_WP:	0.000	Y_WP:	0.750	X:	0.080	Y:	-0.911	Z:	0.043	yaw:	1.056	yaw rate:	11.355	Roll:	4.062	Pitch:	-26.814	Yaw:	1.546	Thrust:	100.000
Time:	4.565	Roll Set Point:	-0.146	Pitch Set Point:	1.823	Yaw Set Point:	-0.015	X_WP:	0.000	Y_WP:	0.000	Y_WP:	0.750	X:	0.080	Y:	-0.911	Z:	0.043	yaw:	0.859	yaw rate:	19.740	Roll:	5.220	Pitch:	-27.068	Yaw:	0.449	Thrust:	100.000
Time:	4.584	Roll Set Point:	-0.146	Pitch Set Point:	1.823	Yaw Set Point:	-0.015	X_WP:	0.000	Y_WP:	0.000	Y_WP:	0.750	X:	0.080	Y:	-0.911	Z:	0.043	yaw:	0.848	yaw rate:	1.100	Roll:	2.774	Pitch:	-27.181	Yaw:	2.496	Thrust:	100.000
Time:	4.604	Roll Set Point:	-0.142	Pitch Set Point:	1.824	Yaw Set Point:	-0.019	X_WP:	0.000	Y_WP:	0.000	Y_WP:	0.750	X:	0.080	Y:	-0.911	Z:	0.043	yaw:	1.067	yaw rate:	-21.945	Roll:	-0.452	Pitch:	-27.408	Yaw:	5.974	Thrust:	100.000
Time:	4.624	Roll Set Point:	-0.146	Pitch Set Point:	1.823	Yaw Set Point:	-0.015	X_WP:	0.000	Y_WP:	0.000	Y_WP:	0.750	X:	0.080	Y:	-0.911	Z:	0.043	yaw:	0.856	yaw rate:	21.167	Roll:	5.567	Pitch:	-27.002	Yaw:	-0.047	Thrust:	100.000
Time:	4.644	Roll Set Point:	-0.142	Pitch Set Point:	1.823	Yaw Set Point:	-0.019	X_WP:	0.000	Y_WP:	0.000	Y_WP:	0.750	X:	0.080	Y:	-0.911	Z:	0.043	yaw:	1.065	yaw rate:	-20.928	Roll:	-0.354	Pitch:	-27.389	Yaw:	5.791	Thrust:	100.000
Time:	4.665	Roll Set Point:	-0.146	Pitch Set Point:	1.823	Yaw Set Point:	-0.015	X_WP:	0.000	Y_WP:	0.000	Y_WP:	0.750	X:	0.080	Y:	-0.911	Z:	0.043	yaw:	0.858	yaw rate:	20.673	Roll:	5.376	Pitch:	-27.069	Yaw:	0.423	Thrust:	100.000
Time:	4.685	Roll Set Point:	-0.146	Pitch Set Point:	1.823	Yaw Set Point:	-0.015	X_WP:	0.000	Y_WP:	0.000	Y_WP:	0.750	X:	0.080	Y:	-0.911	Z:	0.043	yaw:	0.876	yaw rate:	-1.739	Roll:	2.391	Pitch:	-27.211	Yaw:	2.980	Thrust:	100.000
Time:	4.704	Roll Set Point:	-0.146	Pitch Set Point:	1.823	Yaw Set Point:	-0.015	X_WP:	0.000	Y_WP:	0.000	Y_WP:	0.750	X:	0.080	Y:	-0.911	Z:	0.043	yaw:	0.863	yaw rate:	1.267	Roll:	2.848	Pitch:	-27.180	Yaw:	2.604	Thrust:	100.000
Time:	4.724	Roll Set Point:	-0.146	Pitch Set Point:	1.823	Yaw Set Point:	-0.015	X_WP:	0.000	Y_WP:	0.000	Y_WP:	0.750	X:	0.080	Y:	-0.911	Z:	0.043	yaw:	0.867	yaw rate:	-0.412	Roll:	2.576	Pitch:	-27.197	Yaw:	2.858	Thrust:	100.000
Time:	4.744	Roll Set Point:	-0.146	Pitch Set Point:	1.823	Yaw Set Point:	-0.015	X_WP:	0.000	Y_WP:	0.000	Y_WP:	0.750	X:	0.080	Y:	-0.911	Z:	0.043	yaw:	0.853	yaw rate:	1.442	Roll:	2.876	Pitch:	-27.207	Yaw:	2.634	Thrust:	100.000
Time:	4.768	Roll Set Point:	-0.146	Pitch Set Point:	1.823	Yaw Set Point:	-0.015	X_WP:	0.000	Y_WP:	0.000	Y_WP:	0.750	X:	0.080	Y:	-0.911	Z:	0.043	yaw:	0.870	yaw rate:	-1.742	Roll:	2.421	Pitch:	-27.206	Yaw:	3.370	Thrust:	100.000
Time:	4.784	Roll Set Point:	-0.146	Pitch Set Point:	1.823	Yaw Set Point:	-0.015	X_WP:	0.000	Y_WP:	0.000	Y_WP:	0.750	X:	0.080	Y:	-0.911	Z:	0.043	yaw:	0.865	yaw rate:	0.540	Roll:	2.742	Pitch:	-27.198	Yaw:	2.422	Thrust:	100.000
Time:	4.804	Roll Set Point:	-0.146	Pitch Set Point:	1.823	Yaw Set Point:	-0.015	X_WP:	0.000	Y_WP:	0.000	Y_WP:	0.750	X:	0.080	Y:	-0.911	Z:	0.043	yaw:	0.873	yaw rate:	-0.888	Roll:	2.507	Pitch:	-27.218	Yaw:	2.926	Thrust:	100.000
Time:	4.823	Roll Set Point:	-0.146	Pitch Set Point:	1.823	Yaw Set Point:	-0.015	X_WP:	0.000	Y_WP:	0.000	Y_WP:	0.750	X:	0.080	Y:	-0.911	Z:	0.043	yaw:	0.867	yaw rate:	0.610	Roll:	2.739	Pitch:	-27.172	Yaw:	2.710	Thrust:	100.000
Time:	4.844	Roll Set Point:	-0.146	Pitch Set Point:	1.823	Yaw Set Point:	-0.015	X_WP:	0.000	Y_WP:	0.000	Y_WP:	0.750	X:	0.080	Y:	-0.911	Z:	0.043	yaw:	0.862	yaw rate:	0.550	Roll:	2.762	Pitch:	-27.194	Yaw:	2.763	Thrust:	100.000
Time:	4.867	Roll Set Point:	-0.146	Pitch Set Point:	1.823	Yaw Set Point:	-0.015	X_WP:	0.000	Y_WP:	0.000	Y_WP:	0.750	X:	0.080	Y:	-0.911	Z:	0.043	yaw:	0.865	yaw rate:	-0.323	Roll:	2.660	Pitch:	-27.290	Yaw:	3.197	Thrust:	100.000
Time:	4.885	Roll Set Point:	-0.146	Pitch Set Point:	1.823	Yaw Set Point:	-0.015	X_WP:	0.000	Y_WP:	0.000	Y_WP:	0.750	X:	0.080	Y:	-0.911	Z:	0.043	yaw:	0.855	yaw rate:	1.029	Roll:	2.818	Pitch:	-27.168	Yaw:	2.464	Thrust:	100.000
Time:	4.904	Roll Set Point:	-0.146	Pitch Set Point:	1.823	Yaw Set Point:	-0.015	X_WP:	0.000	Y_WP:	0.000	Y_WP:	0.750	X:	0.080	Y:	-0.911	Z:	0.043	yaw:	0.855	yaw rate:	-0.014	Roll:	2.618	Pitch:	-27.189	Yaw:	2.870	Thrust:	100.000
Time:	4.923	Roll Set Point:	-0.146	Pitch Set Point:	1.823	Yaw Set Point:	-0.015	X_WP:	0.000	Y_WP:	0.000	Y_WP:	0.750	X:	0.080	Y:	-0.911	Z:	0.043	yaw:	0.864	yaw rate:	-0.883	Roll:	2.557	Pitch:	-27.179	Yaw:	2.926	Thrust:	100.000
Time:	4.944	Roll Set Point:	-0.146	Pitch Set Point:	1.823	Yaw Set Point:	-0.015	X_WP:	0.000	Y_WP:	0.000	Y_WP:	0.750	X:	0.080	Y:	-0.911	Z:	0.043	yaw:	0.868	yaw rate:	-0.383	Roll:	2.580	Pitch:	-27.195	Yaw:	2.948	Thrust:	100.000
Time:	4.964	Roll Set Point:	-0.143	Pitch Set Point:	1.823	Yaw Set Point:	-0.018	X_WP:	0.000	Y_WP:	0.000	Y_WP:	0.750	X:	0.080	Y:	-0.911	Z:	0.043	yaw:	1.040	yaw rate:	-17.278	Roll:	0.289	Pitch:	-27.418	Yaw:	5.371	Thrust:	100.000
Time:	4.984	Roll Set Point:	-0.146	Pitch Set Point:	1.823	Yaw Set Point:	-0.015	X_WP:	0.000	Y_WP:	0.000	Y_WP:	0.750	X:	0.080	Y:	-0.911	Z:	0.043	yaw:	0.845	yaw rate:	19.551	Roll:	5.333	Pitch:	-27.005	Yaw:	0.226	Thrust:	100.000
Time:	5.004	Roll Set Point:	-0.146	Pitch Set Point:	1.823	Yaw Set Point:	-0.015	X_WP:	0.000	Y_WP:	0.000	Y_WP:	0.750	X:	0.080	Y:	-0.911	Z:	0.043	yaw:	0.857	yaw rate:	-1.262	Roll:	2.489	Pitch:	-27.178	Yaw:	3.071	Thrust:	100.000
Time:	5.025	Roll Set Point:	-0.146	Pitch Set Point:	1.823	Yaw Set Point:	-0.015	X_WP:	0.000	Y_WP:	0.000	Y_WP:	0.750	X:	0.080	Y:	-0.911	Z:	0.043	yaw:	0.876	yaw rate:	-1.847	Roll:	2.401	Pitch:	-27.262	Yaw:	3.143	Thrust:	100.000
Time:	5.045	Roll Set Point:	-0.146	Pitch Set Point:	1.823	Yaw Set Point:	-0.015	X_WP:	0.000	Y_WP:	0.000	Y_WP:	0.750	X:	0.080	Y:	-0.911	Z:	0.043	yaw:	0.864	yaw rate:	1.219	Roll:	2.816	Pitch:	-27.163	Yaw:	2.769	Thrust:	100.000
Time:	5.070	Roll Set Point:	-0.146	Pitch Set Point:	1.823	Yaw Set Point:	-0.015	X_WP:	0.000	Y_WP:	0.000	Y_WP:	0.750	X:	0.080	Y:	-0.911	Z:	0.043	yaw:	0.861	yaw rate:	0.245	Roll:	2.771	Pitch:	-27.282	Yaw:	3.271	Thrust:	100.000
Time:	5.085	Roll Set Point:	-0.146	Pitch Set Point:	1.823	Yaw Set Point:	-0.015	X_WP:	0.000	Y_WP:	0.000	Y_WP:	0.750	X:	0.080	Y:	-0.911	Z:	0.043	yaw:	0.856	yaw rate:	0.485	Roll:	2.698	Pitch:	-27.154	Yaw:	2.510	Thrust:	100.000
Time:	5.105	Roll Set Point:	-0.146	Pitch Set Point:	1.823	Yaw Set Point:	-0.015	X_WP:	0.000	Y_WP:	0.000	Y_WP:	0.750	X:	0.080	Y:	-0.911	Z:	0.043	yaw:	0.863	yaw rate:	-0.656	Roll:	2.560	Pitch:	-27.184	Yaw:	2.985	Thrust:	100.000
Time:	5.125	Roll Set Point:	-0.146	Pitch Set Point:	1.823	Yaw Set Point:	-0.015	X_WP:	0.000	Y_WP:	0.000	Y_WP:	0.750	X:	0.080	Y:	-0.911	Z:	0.043	yaw:	0.863	yaw rate:	0.029	Roll:	2.671	Pitch:	-27.235	Yaw:	2.984	Thrust:	100.000
Time:	5.149	Roll Set Point:	-0.146	Pitch Set Point:	1.823	Yaw Set Point:	-0.015	X_WP:	0.000	Y_WP:	0.000	Y_WP:	0.750	X:	0.080	Y:	-0.911	Z:	0.043	yaw:	0.859	yaw rate:	0.379	Roll:	2.792	Pitch:	-27.306	Yaw:	3.201	Thrust:	100.000
Time:	5.167	Roll Set Point:	-0.146	Pitch Set Point:	1.823	Yaw Set Point:	-0.015	X_WP:	0.000	Y_WP:	0.000	Y_WP:	0.750	X:	0.080	Y:	-0.911	Z:	0.043	yaw:	0.866	yaw rate:	-0.671	Roll:	2.478	Pitch:	-27.066	Yaw:	2.781	Thrust:	100.000
Time:	5.185	Roll Set Point:	-0.146	Pitch Set Point:	1.823	Yaw Set Point:	-0.015	X_WP:	0.000	Y_WP:	0.000	Y_WP:	0.750	X:	0.080	Y:	-0.911	Z:	0.043	yaw:	0.861	yaw rate:	0.513	Roll:	2.732	Pitch:	-27.208	Yaw:	2.747	Thrust:	100.000
Time:	5.205	Roll Set Point:	-0.146	Pitch Set Point:	1.823	Yaw Set Point:	-0.015	X_WP:	0.000	Y_WP:	0.000	Y_WP:	0.750	X:	0.080	Y:	-0.911	Z:	0.043	yaw:	0.878	yaw rate:	-1.700	Roll:	2.407	Pitch:	-27.212	Yaw:	3.177	Thrust:	100.000
Time:	5.225	Roll Set Point:	-0.143	Pitch Set Point:	1.823	Yaw Set Point:	-0.018	X_WP:	0.000	Y_WP:	0.000	Y_WP:	0.750	X:	0.080	Y:	-0.911	Z:	0.043	yaw:	1.055	yaw rate:	-17.725	Roll:	0.197	Pitch:	-27.376	Yaw:	5.544	Thrust:	100.000
Time:	5.244	Roll Set Point:	-0.146	Pitch Set Point:	1.823	Yaw Set Point:	-0.015	X_WP:	0.000	Y_WP:	0.000	Y_WP:	0.750	X:	0.080	Y:	-0.911	Z:	0.043	yaw:	0.867	yaw rate:	18.801	Roll:	5.342	Pitch:	-27.009	Yaw:	0.380	Thrust:	100.000
Time:	5.267	Roll Set Point:	-0.146	Pitch Set Point:	1.823	Yaw Set Point:	-0.015	X_WP:	0.000	Y_WP:	0.000	Y_WP:	0.750	X:	0.080	Y:	-0.911	Z:	0.043	yaw:	0.864	yaw rate:	0.312	Roll:	2.720	Pitch:	-27.238	Yaw:	3.167	Thrust:	100.000
Time:	5.285	Roll Set Point:	-0.143	Pitch Set Point:	1.823	Yaw Set Point:	-0.018	X_WP:	0.000	Y_WP:	0.000	Y_WP:	0.750	X:	0.080	Y:	-0.911	Z:	0.043	yaw:	1.053	yaw rate:	-18.918	Roll:	0.230	Pitch:	-27.369	Yaw:	5.762	Thrust:	100.000
Time:	5.306	Roll Set Point:	-0.146	Pitch Set Point:	1.823	Yaw Set Point:	-0.015	X_WP:	0.000	Y_WP:	0.000	Y_WP:	0.750	X:	0.080	Y:	-0.911	Z:	0.043	yaw:	0.873	yaw rate:	18.021	Roll:	5.148	Pitch:	-27.073	Yaw:	0.711	Thrust:	100.000
Time:	5.324	Roll Set Point:	-0.146	Pitch Set Point:	1.823	Yaw Set Point:	-0.015	X_WP:	0.000	Y_WP:	0.000	Y_WP:	0.750	X:	0.080	Y:	-0.911	Z:	0.043	yaw:	0.857	yaw rate:	1.545	Roll:	2.849	Pitch:	-27.119	Yaw:	2.578	Thrust:	100.000
