Time:	0.047	Roll Set Point:	-0.750	Pitch Set Point:	0.790	Yaw Set Point:	-1.629	X_WP:	0.000	Y_WP:	0.000	Y_WP:	0.500	X:	0.794	Y:	0.003	Z:	0.048	yaw:	93.313	yaw rate:	-1.888	Roll:	-1.256	Pitch:	-22.979	Yaw:	130.290	Thrust:	24.856
Time:	0.067	Roll Set Point:	-0.750	Pitch Set Point:	0.790	Yaw Set Point:	-1.628	X_WP:	0.000	Y_WP:	0.000	Y_WP:	0.500	X:	0.794	Y:	0.003	Z:	0.048	yaw:	93.299	yaw rate:	1.475	Roll:	-1.066	Pitch:	-23.029	Yaw:	130.723	Thrust:	26.018
Time:	0.089	Roll Set Point:	-0.752	Pitch Set Point:	0.790	Yaw Set Point:	-1.626	X_WP:	0.000	Y_WP:	0.000	Y_WP:	0.500	X:	0.794	Y:	0.002	Z:	0.048	yaw:	93.187	yaw rate:	11.168	Roll:	-0.043	Pitch:	-23.079	Yaw:	130.167	Thrust:	26.905
Time:	0.107	Roll Set Point:	-0.747	Pitch Set Point:	0.789	Yaw Set Point:	-1.633	X_WP:	0.000	Y_WP:	0.000	Y_WP:	0.500	X:	0.793	Y:	0.003	Z:	0.048	yaw:	93.557	yaw rate:	-36.952	Roll:	-5.611	Pitch:	-22.788	Yaw:	137.656	Thrust:	28.934
Time:	0.129	Roll Set Point:	-0.751	Pitch Set Point:	0.790	Yaw Set Point:	-1.628	X_WP:	0.000	Y_WP:	0.000	Y_WP:	0.500	X:	0.794	Y:	0.002	Z:	0.048	yaw:	93.257	yaw rate:	29.915	Roll:	1.694	Pitch:	-23.375	Yaw:	128.877	Thrust:	29.011
Time:	0.148	Roll Set Point:	-0.748	Pitch Set Point:	0.790	Yaw Set Point:	-1.631	X_WP:	0.000	Y_WP:	0.000	Y_WP:	0.500	X:	0.794	Y:	0.002	Z:	0.048	yaw:	93.431	yaw rate:	-17.401	Roll:	-3.590	Pitch:	-22.980	Yaw:	134.751	Thrust:	29.398
Time:	0.167	Roll Set Point:	-0.751	Pitch Set Point:	0.790	Yaw Set Point:	-1.628	X_WP:	0.000	Y_WP:	0.000	Y_WP:	0.500	X:	0.794	Y:	0.003	Z:	0.048	yaw:	93.278	yaw rate:	15.335	Roll:	0.608	Pitch:	-23.338	Yaw:	130.025	Thrust:	31.322
Time:	0.191	Roll Set Point:	-0.752	Pitch Set Point:	0.790	Yaw Set Point:	-1.626	X_WP:	0.000	Y_WP:	0.000	Y_WP:	0.500	X:	0.793	Y:	0.002	Z:	0.048	yaw:	93.168	yaw rate:	11.041	Roll:	-0.141	Pitch:	-23.324	Yaw:	131.223	Thrust:	33.465
Time:	0.207	Roll Set Point:	-0.756	Pitch Set Point:	0.790	Yaw Set Point:	-1.621	X_WP:	0.000	Y_WP:	0.000	Y_WP:	0.500	X:	0.793	Y:	0.002	Z:	0.048	yaw:	92.882	yaw rate:	28.546	Roll:	2.731	Pitch:	-23.322	Yaw:	126.636	Thrust:	32.089
Time:	0.227	Roll Set Point:	-0.751	Pitch Set Point:	0.790	Yaw Set Point:	-1.627	X_WP:	0.000	Y_WP:	0.000	Y_WP:	0.500	X:	0.793	Y:	0.002	Z:	0.048	yaw:	93.246	yaw rate:	-36.346	Roll:	-5.530	Pitch:	-23.152	Yaw:	136.946	Thrust:	34.746
Time:	0.246	Roll Set Point:	-0.760	Pitch Set Point:	0.790	Yaw Set Point:	-1.615	X_WP:	0.000	Y_WP:	0.000	Y_WP:	0.500	X:	0.793	Y:	0.002	Z:	0.048	yaw:	92.543	yaw rate:	70.225	Roll:	7.121	Pitch:	-23.594	Yaw:	121.818	Thrust:	35.197
Time:	0.267	Roll Set Point:	-0.755	Pitch Set Point:	0.790	Yaw Set Point:	-1.622	X_WP:	0.000	Y_WP:	0.000	Y_WP:	0.500	X:	0.793	Y:	0.002	Z:	0.048	yaw:	92.939	yaw rate:	-39.527	Roll:	-5.721	Pitch:	-23.151	Yaw:	136.786	Thrust:	37.012
Time:	0.288	Roll Set Point:	-0.765	Pitch Set Point:	0.790	Yaw Set Point:	-1.609	X_WP:	0.000	Y_WP:	0.000	Y_WP:	0.500	X:	0.793	Y:	0.002	Z:	0.048	yaw:	92.160	yaw rate:	77.821	Roll:	7.800	Pitch:	-23.640	Yaw:	121.113	Thrust:	38.791
Time:	0.307	Roll Set Point:	-0.768	Pitch Set Point:	0.791	Yaw Set Point:	-1.604	X_WP:	0.000	Y_WP:	0.000	Y_WP:	0.500	X:	0.793	Y:	0.001	Z:	0.048	yaw:	91.886	yaw rate:	27.458	Roll:	2.076	Pitch:	-23.252	Yaw:	126.424	Thrust:	37.723
Time:	0.327	Roll Set Point:	-0.771	Pitch Set Point:	0.791	Yaw Set Point:	-1.599	X_WP:	0.000	Y_WP:	0.000	Y_WP:	0.500	X:	0.792	Y:	0.001	Z:	0.049	yaw:	91.634	yaw rate:	25.225	Roll:	1.772	Pitch:	-23.552	Yaw:	126.611	Thrust:	40.042
Time:	0.347	Roll Set Point:	-0.772	Pitch Set Point:	0.792	Yaw Set Point:	-1.596	X_WP:	0.000	Y_WP:	0.000	Y_WP:	0.500	X:	0.792	Y:	-0.000	Z:	0.049	yaw:	91.434	yaw rate:	19.932	Roll:	0.981	Pitch:	-23.600	Yaw:	127.085	Thrust:	40.531
Time:	0.367	Roll Set Point:	-0.784	Pitch Set Point:	0.793	Yaw Set Point:	-1.580	X_WP:	0.000	Y_WP:	0.000	Y_WP:	0.500	X:	0.792	Y:	-0.000	Z:	0.049	yaw:	90.536	yaw rate:	89.874	Roll:	10.426	Pitch:	-23.639	Yaw:	116.190	Thrust:	40.859
Time:	0.389	Roll Set Point:	-0.786	Pitch Set Point:	0.793	Yaw Set Point:	-1.577	X_WP:	0.000	Y_WP:	0.000	Y_WP:	0.500	X:	0.792	Y:	-0.001	Z:	0.049	yaw:	90.345	yaw rate:	19.094	Roll:	1.331	Pitch:	-23.283	Yaw:	125.999	Thrust:	44.336
Time:	0.406	Roll Set Point:	-0.797	Pitch Set Point:	0.793	Yaw Set Point:	-1.562	X_WP:	0.000	Y_WP:	0.000	Y_WP:	0.500	X:	0.791	Y:	-0.002	Z:	0.050	yaw:	89.468	yaw rate:	87.693	Roll:	10.404	Pitch:	-22.840	Yaw:	114.020	Thrust:	41.722
Time:	0.427	Roll Set Point:	-0.825	Pitch Set Point:	0.792	Yaw Set Point:	-1.523	X_WP:	0.000	Y_WP:	0.000	Y_WP:	0.500	X:	0.790	Y:	-0.002	Z:	0.050	yaw:	87.264	yaw rate:	220.397	Roll:	26.009	Pitch:	-22.256	Yaw:	95.992	Thrust:	43.780
Time:	0.447	Roll Set Point:	-0.837	Pitch Set Point:	0.790	Yaw Set Point:	-1.505	X_WP:	0.000	Y_WP:	0.000	Y_WP:	0.500	X:	0.789	Y:	-0.003	Z:	0.051	yaw:	86.233	yaw rate:	103.071	Roll:	12.969	Pitch:	-21.824	Yaw:	108.950	Thrust:	44.676
Time:	0.467	Roll Set Point:	-0.846	Pitch Set Point:	0.790	Yaw Set Point:	-1.490	X_WP:	0.000	Y_WP:	0.000	Y_WP:	0.500	X:	0.787	Y:	-0.004	Z:	0.053	yaw:	85.389	yaw rate:	84.447	Roll:	10.142	Pitch:	-21.813	Yaw:	110.003	Thrust:	44.260
Time:	0.493	Roll Set Point:	-0.861	Pitch Set Point:	0.788	Yaw Set Point:	-1.468	X_WP:	0.000	Y_WP:	0.000	Y_WP:	0.500	X:	0.786	Y:	-0.006	Z:	0.055	yaw:	84.108	yaw rate:	128.089	Roll:	13.563	Pitch:	-21.676	Yaw:	107.277	Thrust:	51.927
Time:	0.507	Roll Set Point:	-0.894	Pitch Set Point:	0.782	Yaw Set Point:	-1.422	X_WP:	0.000	Y_WP:	0.000	Y_WP:	0.500	X:	0.783	Y:	-0.006	Z:	0.057	yaw:	81.473	yaw rate:	263.464	Roll:	30.000	Pitch:	-15.335	Yaw:	64.176	Thrust:	34.476
Time:	0.540	Roll Set Point:	-0.921	Pitch Set Point:	0.775	Yaw Set Point:	-1.383	X_WP:	0.000	Y_WP:	0.000	Y_WP:	0.500	X:	0.781	Y:	-0.006	Z:	0.059	yaw:	79.240	yaw rate:	223.273	Roll:	19.280	Pitch:	-19.770	Yaw:	96.570	Thrust:	64.247
Time:	0.554	Roll Set Point:	-0.924	Pitch Set Point:	0.771	Yaw Set Point:	-1.372	X_WP:	0.000	Y_WP:	0.000	Y_WP:	0.500	X:	0.778	Y:	-0.008	Z:	0.061	yaw:	78.595	yaw rate:	64.572	Roll:	12.931	Pitch:	-16.603	Yaw:	98.459	Thrust:	35.312
Time:	0.569	Roll Set Point:	-0.903	Pitch Set Point:	0.772	Yaw Set Point:	-1.391	X_WP:	0.000	Y_WP:	0.000	Y_WP:	0.500	X:	0.774	Y:	-0.009	Z:	0.063	yaw:	79.726	yaw rate:	-113.124	Roll:	-15.736	Pitch:	-21.826	Yaw:	132.513	Thrust:	37.947
Time:	0.589	Roll Set Point:	-0.913	Pitch Set Point:	0.766	Yaw Set Point:	-1.370	X_WP:	0.000	Y_WP:	0.000	Y_WP:	0.500	X:	0.770	Y:	-0.010	Z:	0.067	yaw:	78.488	yaw rate:	123.821	Roll:	17.449	Pitch:	-16.111	Yaw:	95.034	Thrust:	46.271
Time:	0.607	Roll Set Point:	-0.910	Pitch Set Point:	0.762	Yaw Set Point:	-1.366	X_WP:	0.000	Y_WP:	0.000	Y_WP:	0.500	X:	0.765	Y:	-0.011	Z:	0.068	yaw:	78.242	yaw rate:	24.587	Roll:	5.219	Pitch:	-18.299	Yaw:	107.487	Thrust:	46.864
Time:	0.627	Roll Set Point:	-0.888	Pitch Set Point:	0.761	Yaw Set Point:	-1.383	X_WP:	0.000	Y_WP:	0.000	Y_WP:	0.500	X:	0.759	Y:	-0.013	Z:	0.070	yaw:	79.251	yaw rate:	-100.912	Roll:	-9.546	Pitch:	-20.093	Yaw:	125.522	Thrust:	51.876
Time:	0.647	Roll Set Point:	-0.877	Pitch Set Point:	0.759	Yaw Set Point:	-1.385	X_WP:	0.000	Y_WP:	0.000	Y_WP:	0.500	X:	0.753	Y:	-0.016	Z:	0.071	yaw:	79.347	yaw rate:	-9.657	Roll:	-0.784	Pitch:	-18.000	Yaw:	114.055	Thrust:	53.408
Time:	0.667	Roll Set Point:	-0.872	Pitch Set Point:	0.755	Yaw Set Point:	-1.383	X_WP:	0.000	Y_WP:	0.000	Y_WP:	0.500	X:	0.748	Y:	-0.017	Z:	0.073	yaw:	79.224	yaw rate:	12.298	Roll:	3.212	Pitch:	-17.863	Yaw:	111.035	Thrust:	51.861
Time:	0.688	Roll Set Point:	-0.882	Pitch Set Point:	0.746	Yaw Set Point:	-1.357	X_WP:	0.000	Y_WP:	0.000	Y_WP:	0.500	X:	0.742	Y:	-0.017	Z:	0.074	yaw:	77.756	yaw rate:	146.845	Roll:	17.963	Pitch:	-14.223	Yaw:	92.420	Thrust:	57.953
Time:	0.707	Roll Set Point:	-0.880	Pitch Set Point:	0.740	Yaw Set Point:	-1.341	X_WP:	0.000	Y_WP:	0.000	Y_WP:	0.500	X:	0.733	Y:	-0.021	Z:	0.076	yaw:	76.842	yaw rate:	91.428	Roll:	9.940	Pitch:	-12.931	Yaw:	96.632	Thrust:	52.291
Time:	0.727	Roll Set Point:	-0.899	Pitch Set Point:	0.727	Yaw Set Point:	-1.297	X_WP:	0.000	Y_WP:	0.000	Y_WP:	0.500	X:	0.725	Y:	-0.023	Z:	0.077	yaw:	74.312	yaw rate:	252.931	Roll:	28.270	Pitch:	-8.497	Yaw:	72.762	Thrust:	56.522
Time:	0.747	Roll Set Point:	-0.902	Pitch Set Point:	0.717	Yaw Set Point:	-1.270	X_WP:	0.000	Y_WP:	0.000	Y_WP:	0.500	X:	0.715	Y:	-0.026	Z:	0.078	yaw:	72.771	yaw rate:	154.123	Roll:	16.560	Pitch:	-9.086	Yaw:	82.817	Thrust:	58.593
Time:	0.767	Roll Set Point:	-0.957	Pitch Set Point:	0.686	Yaw Set Point:	-1.161	X_WP:	0.000	Y_WP:	0.000	Y_WP:	0.500	X:	0.704	Y:	-0.029	Z:	0.076	yaw:	66.502	yaw rate:	626.885	Roll:	30.000	Pitch:	8.334	Yaw:	12.526	Thrust:	64.879
Time:	0.789	Roll Set Point:	-0.958	Pitch Set Point:	0.671	Yaw Set Point:	-1.127	X_WP:	0.000	Y_WP:	0.000	Y_WP:	0.500	X:	0.691	Y:	-0.033	Z:	0.074	yaw:	64.547	yaw rate:	195.484	Roll:	18.271	Pitch:	-5.303	Yaw:	69.802	Thrust:	72.041
Time:	0.808	Roll Set Point:	-0.946	Pitch Set Point:	0.656	Yaw Set Point:	-1.103	X_WP:	0.000	Y_WP:	0.000	Y_WP:	0.500	X:	0.675	Y:	-0.037	Z:	0.073	yaw:	63.198	yaw rate:	134.984	Roll:	11.528	Pitch:	-1.277	Yaw:	71.015	Thrust:	63.489
Time:	0.829	Roll Set Point:	-0.981	Pitch Set Point:	0.619	Yaw Set Point:	-0.997	X_WP:	0.000	Y_WP:	0.000	Y_WP:	0.500	X:	0.659	Y:	-0.042	Z:	0.071	yaw:	57.146	yaw rate:	605.186	Roll:	30.000	Pitch:	18.330	Yaw:	5.573	Thrust:	71.175
Time:	0.847	Roll Set Point:	-0.983	Pitch Set Point:	0.593	Yaw Set Point:	-0.940	X_WP:	0.000	Y_WP:	0.000	Y_WP:	0.500	X:	0.642	Y:	-0.047	Z:	0.069	yaw:	53.842	yaw rate:	330.355	Roll:	27.534	Pitch:	11.892	Yaw:	29.053	Thrust:	65.701
Time:	0.867	Roll Set Point:	-0.982	Pitch Set Point:	0.565	Yaw Set Point:	-0.876	X_WP:	0.000	Y_WP:	0.000	Y_WP:	0.500	X:	0.624	Y:	-0.053	Z:	0.067	yaw:	50.183	yaw rate:	365.926	Roll:	25.949	Pitch:	12.875	Yaw:	24.342	Thrust:	73.716
Time:	0.889	Roll Set Point:	-0.978	Pitch Set Point:	0.536	Yaw Set Point:	-0.807	X_WP:	0.000	Y_WP:	0.000	Y_WP:	0.500	X:	0.604	Y:	-0.059	Z:	0.065	yaw:	46.256	yaw rate:	392.687	Roll:	23.669	Pitch:	14.074	Yaw:	19.506	Thrust:	76.470
Time:	0.907	Roll Set Point:	-0.972	Pitch Set Point:	0.505	Yaw Set Point:	-0.734	X_WP:	0.000	Y_WP:	0.000	Y_WP:	0.500	X:	0.583	Y:	-0.065	Z:	0.063	yaw:	42.068	yaw rate:	418.779	Roll:	24.484	Pitch:	21.022	Yaw:	-0.196	Thrust:	67.965
Time:	0.928	Roll Set Point:	-0.960	Pitch Set Point:	0.473	Yaw Set Point:	-0.659	X_WP:	0.000	Y_WP:	0.000	Y_WP:	0.500	X:	0.561	Y:	-0.072	Z:	0.062	yaw:	37.749	yaw rate:	431.919	Roll:	19.980	Pitch:	17.617	Yaw:	2.940	Thrust:	79.079
Time:	0.947	Roll Set Point:	-0.942	Pitch Set Point:	0.443	Yaw Set Point:	-0.584	X_WP:	0.000	Y_WP:	0.000	Y_WP:	0.500	X:	0.538	Y:	-0.080	Z:	0.061	yaw:	33.447	yaw rate:	430.231	Roll:	16.715	Pitch:	22.306	Yaw:	-12.174	Thrust:	69.432
Time:	0.968	Roll Set Point:	-0.907	Pitch Set Point:	0.433	Yaw Set Point:	-0.549	X_WP:	0.000	Y_WP:	0.000	Y_WP:	0.500	X:	0.514	Y:	-0.089	Z:	0.063	yaw:	31.429	yaw rate:	201.780	Roll:	1.722	Pitch:	5.173	Yaw:	20.708	Thrust:	70.811
Time:	0.993	Roll Set Point:	-0.869	Pitch Set Point:	0.425	Yaw Set Point:	-0.513	X_WP:	0.000	Y_WP:	0.000	Y_WP:	0.500	X:	0.490	Y:	-0.098	Z:	0.065	yaw:	29.403	yaw rate:	202.559	Roll:	1.751	Pitch:	1.494	Yaw:	22.192	Thrust:	83.620
Time:	1.008	Roll Set Point:	-0.828	Pitch Set Point:	0.418	Yaw Set Point:	-0.474	X_WP:	0.000	Y_WP:	0.000	Y_WP:	0.500	X:	0.465	Y:	-0.109	Z:	0.066	yaw:	27.151	yaw rate:	225.257	Roll:	-5.073	Pitch:	9.268	Yaw:	1.526	Thrust:	58.322
Time:	1.028	Roll Set Point:	-0.783	Pitch Set Point:	0.417	Yaw Set Point:	-0.442	X_WP:	0.000	Y_WP:	0.000	Y_WP:	0.500	X:	0.438	Y:	-0.121	Z:	0.068	yaw:	25.305	yaw rate:	184.587	Roll:	-6.379	Pitch:	2.108	Yaw:	12.702	Thrust:	71.053
Time:	1.046	Roll Set Point:	-0.732	Pitch Set Point:	0.421	Yaw Set Point:	-0.417	X_WP:	0.000	Y_WP:	0.000	Y_WP:	0.500	X:	0.411	Y:	-0.133	Z:	0.071	yaw:	23.872	yaw rate:	143.312	Roll:	-10.981	Pitch:	-1.600	Yaw:	14.693	Thrust:	65.123
Time:	1.068	Roll Set Point:	-0.685	Pitch Set Point:	0.424	Yaw Set Point:	-0.376	X_WP:	0.000	Y_WP:	0.000	Y_WP:	0.500	X:	0.383	Y:	-0.147	Z:	0.074	yaw:	21.561	yaw rate:	231.118	Roll:	-6.734	Pitch:	-0.213	Yaw:	4.282	Thrust:	74.000
Time:	1.088	Roll Set Point:	-0.639	Pitch Set Point:	0.426	Yaw Set Point:	-0.321	X_WP:	0.000	Y_WP:	0.000	Y_WP:	0.500	X:	0.354	Y:	-0.161	Z:	0.079	yaw:	18.414	yaw rate:	314.638	Roll:	-5.195	Pitch:	1.470	Yaw:	-12.472	Thrust:	68.920
Time:	1.107	Roll Set Point:	-0.593	Pitch Set Point:	0.433	Yaw Set Point:	-0.265	X_WP:	0.000	Y_WP:	0.000	Y_WP:	0.500	X:	0.325	Y:	-0.177	Z:	0.085	yaw:	15.197	yaw rate:	321.763	Roll:	-8.227	Pitch:	0.106	Yaw:	-22.345	Thrust:	58.289
Time:	1.136	Roll Set Point:	-0.544	Pitch Set Point:	0.444	Yaw Set Point:	-0.217	X_WP:	0.000	Y_WP:	0.000	Y_WP:	0.500	X:	0.296	Y:	-0.193	Z:	0.092	yaw:	12.418	yaw rate:	277.831	Roll:	-3.593	Pitch:	-5.865	Yaw:	-4.242	Thrust:	96.715
Time:	1.148	Roll Set Point:	-0.494	Pitch Set Point:	0.461	Yaw Set Point:	-0.177	X_WP:	0.000	Y_WP:	0.000	Y_WP:	0.500	X:	0.268	Y:	-0.209	Z:	0.100	yaw:	10.146	yaw rate:	227.229	Roll:	-24.592	Pitch:	-8.726	Yaw:	-36.273	Thrust:	24.534
Time:	1.168	Roll Set Point:	-0.443	Pitch Set Point:	0.482	Yaw Set Point:	-0.148	X_WP:	0.000	Y_WP:	0.000	Y_WP:	0.500	X:	0.239	Y:	-0.225	Z:	0.108	yaw:	8.466	yaw rate:	167.968	Roll:	-14.143	Pitch:	-12.679	Yaw:	-9.053	Thrust:	58.543
Time:	1.189	Roll Set Point:	-0.392	Pitch Set Point:	0.505	Yaw Set Point:	-0.118	X_WP:	0.000	Y_WP:	0.000	Y_WP:	0.500	X:	0.211	Y:	-0.241	Z:	0.118	yaw:	6.788	yaw rate:	167.882	Roll:	-11.020	Pitch:	-13.389	Yaw:	-8.269	Thrust:	67.875
Time:	1.206	Roll Set Point:	-0.340	Pitch Set Point:	0.530	Yaw Set Point:	-0.104	X_WP:	0.000	Y_WP:	0.000	Y_WP:	0.500	X:	0.184	Y:	-0.256	Z:	0.128	yaw:	5.938	yaw rate:	84.995	Roll:	-20.679	Pitch:	-18.548	Yaw:	-3.059	Thrust:	45.572
Time:	1.228	Roll Set Point:	-0.296	Pitch Set Point:	0.553	Yaw Set Point:	-0.064	X_WP:	0.000	Y_WP:	0.000	Y_WP:	0.500	X:	0.157	Y:	-0.272	Z:	0.138	yaw:	3.695	yaw rate:	224.305	Roll:	-8.648	Pitch:	-14.787	Yaw:	-19.179	Thrust:	67.378
Time:	1.246	Roll Set Point:	-0.256	Pitch Set Point:	0.576	Yaw Set Point:	-0.021	X_WP:	0.000	Y_WP:	0.000	Y_WP:	0.500	X:	0.131	Y:	-0.287	Z:	0.149	yaw:	1.203	yaw rate:	249.152	Roll:	-9.429	Pitch:	-16.637	Yaw:	-33.199	Thrust:	48.012
Time:	1.267	Roll Set Point:	-0.208	Pitch Set Point:	0.603	Yaw Set Point:	-0.011	X_WP:	0.000	Y_WP:	0.000	Y_WP:	0.500	X:	0.105	Y:	-0.301	Z:	0.159	yaw:	0.613	yaw rate:	58.983	Roll:	-15.611	Pitch:	-19.808	Yaw:	-4.546	Thrust:	60.535
Time:	1.288	Roll Set Point:	-0.161	Pitch Set Point:	0.628	Yaw Set Point:	-0.005	X_WP:	0.000	Y_WP:	0.000	Y_WP:	0.500	X:	0.081	Y:	-0.314	Z:	0.170	yaw:	0.291	yaw rate:	32.168	Roll:	-15.735	Pitch:	-19.844	Yaw:	-1.390	Thrust:	63.414
Time:	1.306	Roll Set Point:	-0.121	Pitch Set Point:	0.652	Yaw Set Point:	0.019	X_WP:	0.000	Y_WP:	0.000	Y_WP:	0.500	X:	0.057	Y:	-0.327	Z:	0.182	yaw:	-1.091	yaw rate:	138.214	Roll:	-12.227	Pitch:	-20.630	Yaw:	-19.764	Thrust:	47.467
Time:	1.327	Roll Set Point:	-0.068	Pitch Set Point:	0.675	Yaw Set Point:	-0.007	X_WP:	0.000	Y_WP:	0.000	Y_WP:	0.500	X:	0.035	Y:	-0.337	Z:	0.191	yaw:	0.388	yaw rate:	-147.840	Roll:	-24.216	Pitch:	-20.666	Yaw:	21.640	Thrust:	62.890
Time:	1.347	Roll Set Point:	-0.030	Pitch Set Point:	0.695	Yaw Set Point:	0.004	X_WP:	0.000	Y_WP:	0.000	Y_WP:	0.500	X:	0.014	Y:	-0.347	Z:	0.202	yaw:	-0.241	yaw rate:	62.911	Roll:	-13.972	Pitch:	-19.192	Yaw:	-6.557	Thrust:	59.253
Time:	1.368	Roll Set Point:	-0.013	Pitch Set Point:	0.713	Yaw Set Point:	0.069	X_WP:	0.000	Y_WP:	0.000	Y_WP:	0.500	X:	-0.006	Y:	-0.357	Z:	0.214	yaw:	-3.950	yaw rate:	370.864	Roll:	3.531	Pitch:	-18.408	Yaw:	-50.482	Thrust:	58.385
Time:	1.389	Roll Set Point:	0.026	Pitch Set Point:	0.728	Yaw Set Point:	0.070	X_WP:	0.000	Y_WP:	0.000	Y_WP:	0.500	X:	-0.025	Y:	-0.364	Z:	0.223	yaw:	-3.990	yaw rate:	3.984	Roll:	-15.286	Pitch:	-18.450	Yaw:	-4.036	Thrust:	66.120
Time:	1.409	Roll Set Point:	0.058	Pitch Set Point:	0.741	Yaw Set Point:	0.075	X_WP:	0.000	Y_WP:	0.000	Y_WP:	0.500	X:	-0.043	Y:	-0.369	Z:	0.233	yaw:	-4.269	yaw rate:	27.884	Roll:	-11.931	Pitch:	-17.167	Yaw:	-7.421	Thrust:	63.647
Time:	1.427	Roll Set Point:	0.098	Pitch Set Point:	0.749	Yaw Set Point:	0.061	X_WP:	0.000	Y_WP:	0.000	Y_WP:	0.500	X:	-0.060	Y:	-0.373	Z:	0.242	yaw:	-3.479	yaw rate:	-78.945	Roll:	-21.497	Pitch:	-15.879	Yaw:	8.296	Thrust:	54.228
Time:	1.447	Roll Set Point:	0.116	Pitch Set Point:	0.759	Yaw Set Point:	0.088	X_WP:	0.000	Y_WP:	0.000	Y_WP:	0.500	X:	-0.075	Y:	-0.377	Z:	0.251	yaw:	-5.025	yaw rate:	154.569	Roll:	-4.220	Pitch:	-16.958	Yaw:	-25.498	Thrust:	61.756
Time:	1.469	Roll Set Point:	0.147	Pitch Set Point:	0.762	Yaw Set Point:	0.083	X_WP:	0.000	Y_WP:	0.000	Y_WP:	0.500	X:	-0.089	Y:	-0.378	Z:	0.260	yaw:	-4.764	yaw rate:	-26.090	Roll:	-13.872	Pitch:	-13.533	Yaw:	-1.503	Thrust:	73.826
Time:	1.490	Roll Set Point:	0.178	Pitch Set Point:	0.764	Yaw Set Point:	0.066	X_WP:	0.000	Y_WP:	0.000	Y_WP:	0.500	X:	-0.101	Y:	-0.379	Z:	0.268	yaw:	-3.781	yaw rate:	-98.259	Roll:	-17.587	Pitch:	-12.358	Yaw:	9.171	Thrust:	66.338
Time:	1.507	Roll Set Point:	0.213	Pitch Set Point:	0.758	Yaw Set Point:	0.037	X_WP:	0.000	Y_WP:	0.000	Y_WP:	0.500	X:	-0.113	Y:	-0.377	Z:	0.275	yaw:	-2.111	yaw rate:	-167.001	Roll:	-24.237	Pitch:	-8.323	Yaw:	24.230	Thrust:	55.752
Time:	1.527	Roll Set Point:	0.232	Pitch Set Point:	0.754	Yaw Set Point:	0.044	X_WP:	0.000	Y_WP:	0.000	Y_WP:	0.500	X:	-0.124	Y:	-0.374	Z:	0.283	yaw:	-2.511	yaw rate:	39.997	Roll:	-9.660	Pitch:	-10.397	Yaw:	-6.788	Thrust:	68.364
Time:	1.546	Roll Set Point:	0.234	Pitch Set Point:	0.752	Yaw Set Point:	0.089	X_WP:	0.000	Y_WP:	0.000	Y_WP:	0.500	X:	-0.134	Y:	-0.371	Z:	0.293	yaw:	-5.104	yaw rate:	259.226	Roll:	3.632	Pitch:	-13.075	Yaw:	-39.961	Thrust:	60.668
Time:	1.567	Roll Set Point:	0.242	Pitch Set Point:	0.743	Yaw Set Point:	0.120	X_WP:	0.000	Y_WP:	0.000	Y_WP:	0.500	X:	-0.143	Y:	-0.364	Z:	0.300	yaw:	-6.855	yaw rate:	175.105	Roll:	-0.996	Pitch:	-9.649	Yaw:	-30.526	Thrust:	66.425
Time:	1.589	Roll Set Point:	0.257	Pitch Set Point:	0.731	Yaw Set Point:	0.121	X_WP:	0.000	Y_WP:	0.000	Y_WP:	0.500	X:	-0.151	Y:	-0.358	Z:	0.307	yaw:	-6.947	yaw rate:	9.229	Roll:	-8.369	Pitch:	-7.602	Yaw:	-8.897	Thrust:	76.385
Time:	1.607	Roll Set Point:	0.277	Pitch Set Point:	0.714	Yaw Set Point:	0.098	X_WP:	0.000	Y_WP:	0.000	Y_WP:	0.500	X:	-0.156	Y:	-0.350	Z:	0.315	yaw:	-5.616	yaw rate:	-133.106	Roll:	-16.467	Pitch:	-2.236	Yaw:	13.405	Thrust:	58.035
Time:	1.628	Roll Set Point:	0.291	Pitch Set Point:	0.694	Yaw Set Point:	0.090	X_WP:	0.000	Y_WP:	0.000	Y_WP:	0.500	X:	-0.161	Y:	-0.341	Z:	0.322	yaw:	-5.128	yaw rate:	-48.792	Roll:	-10.520	Pitch:	-3.030	Yaw:	0.544	Thrust:	73.668
Time:	1.647	Roll Set Point:	0.298	Pitch Set Point:	0.675	Yaw Set Point:	0.088	X_WP:	0.000	Y_WP:	0.000	Y_WP:	0.500	X:	-0.164	Y:	-0.331	Z:	0.330	yaw:	-5.059	yaw rate:	-6.929	Roll:	-7.474	Pitch:	-1.737	Yaw:	-4.631	Thrust:	59.484
Time:	1.667	Roll Set Point:	0.301	Pitch Set Point:	0.654	Yaw Set Point:	0.096	X_WP:	0.000	Y_WP:	0.000	Y_WP:	0.500	X:	-0.166	Y:	-0.320	Z:	0.338	yaw:	-5.493	yaw rate:	43.442	Roll:	-4.274	Pitch:	-2.670	Yaw:	-11.719	Thrust:	70.470
Time:	1.689	Roll Set Point:	0.318	Pitch Set Point:	0.624	Yaw Set Point:	0.058	X_WP:	0.000	Y_WP:	0.000	Y_WP:	0.500	X:	-0.168	Y:	-0.307	Z:	0.345	yaw:	-3.308	yaw rate:	-218.539	Roll:	-16.252	Pitch:	4.396	Yaw:	22.943	Thrust:	73.150
Time:	1.706	Roll Set Point:	0.314	Pitch Set Point:	0.600	Yaw Set Point:	0.074	X_WP:	0.000	Y_WP:	0.000	Y_WP:	0.500	X:	-0.168	Y:	-0.294	Z:	0.354	yaw:	-4.247	yaw rate:	93.889	Roll:	-0.260	Pitch:	0.582	Yaw:	-19.109	Thrust:	53.974
Time:	1.727	Roll Set Point:	0.317	Pitch Set Point:	0.572	Yaw Set Point:	0.065	X_WP:	0.000	Y_WP:	0.000	Y_WP:	0.500	X:	-0.168	Y:	-0.281	Z:	0.363	yaw:	-3.743	yaw rate:	-50.330	Roll:	-6.458	Pitch:	3.165	Yaw:	2.638	Thrust:	64.917
Time:	1.747	Roll Set Point:	0.315	Pitch Set Point:	0.543	Yaw Set Point:	0.064	X_WP:	0.000	Y_WP:	0.000	Y_WP:	0.500	X:	-0.166	Y:	-0.266	Z:	0.372	yaw:	-3.695	yaw rate:	-4.804	Roll:	-3.600	Pitch:	3.667	Yaw:	-3.131	Thrust:	65.069
Time:	1.767	Roll Set Point:	0.312	Pitch Set Point:	0.512	Yaw Set Point:	0.068	X_WP:	0.000	Y_WP:	0.000	Y_WP:	0.500	X:	-0.165	Y:	-0.251	Z:	0.382	yaw:	-3.879	yaw rate:	18.394	Roll:	-2.975	Pitch:	4.303	Yaw:	-6.504	Thrust:	60.593
Time:	1.791	Roll Set Point:	0.309	Pitch Set Point:	0.480	Yaw Set Point:	0.063	X_WP:	0.000	Y_WP:	0.000	Y_WP:	0.500	X:	-0.162	Y:	-0.235	Z:	0.392	yaw:	-3.622	yaw rate:	-25.709	Roll:	-3.443	Pitch:	4.415	Yaw:	-0.661	Thrust:	80.226
Time:	1.809	Roll Set Point:	0.303	Pitch Set Point:	0.449	Yaw Set Point:	0.066	X_WP:	0.000	Y_WP:	0.000	Y_WP:	0.500	X:	-0.159	Y:	-0.219	Z:	0.401	yaw:	-3.759	yaw rate:	13.670	Roll:	-1.571	Pitch:	6.225	Yaw:	-6.129	Thrust:	52.131
Time:	1.829	Roll Set Point:	0.296	Pitch Set Point:	0.417	Yaw Set Point:	0.069	X_WP:	0.000	Y_WP:	0.000	Y_WP:	0.500	X:	-0.155	Y:	-0.203	Z:	0.411	yaw:	-3.926	yaw rate:	16.695	Roll:	-0.680	Pitch:	6.429	Yaw:	-6.359	Thrust:	59.971
Time:	1.847	Roll Set Point:	0.288	Pitch Set Point:	0.384	Yaw Set Point:	0.067	X_WP:	0.000	Y_WP:	0.000	Y_WP:	0.500	X:	-0.150	Y:	-0.187	Z:	0.422	yaw:	-3.835	yaw rate:	-9.052	Roll:	-0.681	Pitch:	9.429	Yaw:	-2.900	Thrust:	48.648
Time:	1.868	Roll Set Point:	0.279	Pitch Set Point:	0.350	Yaw Set Point:	0.065	X_WP:	0.000	Y_WP:	0.000	Y_WP:	0.500	X:	-0.145	Y:	-0.171	Z:	0.432	yaw:	-3.702	yaw rate:	-13.357	Roll:	-0.785	Pitch:	7.885	Yaw:	-2.200	Thrust:	62.235
Time:	1.890	Roll Set Point:	0.270	Pitch Set Point:	0.317	Yaw Set Point:	0.064	X_WP:	0.000	Y_WP:	0.000	Y_WP:	0.500	X:	-0.140	Y:	-0.154	Z:	0.443	yaw:	-3.694	yaw rate:	-0.797	Roll:	0.208	Pitch:	8.485	Yaw:	-3.696	Thrust:	70.003
Time:	1.907	Roll Set Point:	0.260	Pitch Set Point:	0.283	Yaw Set Point:	0.060	X_WP:	0.000	Y_WP:	0.000	Y_WP:	0.500	X:	-0.134	Y:	-0.138	Z:	0.454	yaw:	-3.452	yaw rate:	-24.126	Roll:	0.396	Pitch:	10.880	Yaw:	-0.019	Thrust:	39.275
Time:	1.929	Roll Set Point:	0.246	Pitch Set Point:	0.253	Yaw Set Point:	0.072	X_WP:	0.000	Y_WP:	0.000	Y_WP:	0.500	X:	-0.128	Y:	-0.122	Z:	0.464	yaw:	-4.146	yaw rate:	69.366	Roll:	2.667	Pitch:	7.349	Yaw:	-13.182	Thrust:	62.069
Time:	1.947	Roll Set Point:	0.237	Pitch Set Point:	0.217	Yaw Set Point:	0.052	X_WP:	0.000	Y_WP:	0.000	Y_WP:	0.500	X:	-0.121	Y:	-0.105	Z:	0.475	yaw:	-2.980	yaw rate:	-116.599	Roll:	-0.585	Pitch:	14.303	Yaw:	13.347	Thrust:	46.702
Time:	1.967	Roll Set Point:	0.225	Pitch Set Point:	0.186	Yaw Set Point:	0.059	X_WP:	0.000	Y_WP:	0.000	Y_WP:	0.500	X:	-0.115	Y:	-0.089	Z:	0.485	yaw:	-3.386	yaw rate:	40.603	Roll:	2.349	Pitch:	9.046	Yaw:	-8.873	Thrust:	60.080
Time:	1.989	Roll Set Point:	0.213	Pitch Set Point:	0.152	Yaw Set Point:	0.038	X_WP:	0.000	Y_WP:	0.000	Y_WP:	0.500	X:	-0.108	Y:	-0.074	Z:	0.495	yaw:	-2.200	yaw rate:	-118.664	Roll:	0.783	Pitch:	10.615	Yaw:	12.072	Thrust:	67.716
Time:	2.006	Roll Set Point:	0.400	Pitch Set Point:	0.131	Yaw Set Point:	0.044	X_WP:	0.200	Y_WP:	0.000	Y_WP:	0.500	X:	-0.101	Y:	-0.059	Z:	0.505	yaw:	-2.511	yaw rate:	31.110	Roll:	-30.000	Pitch:	3.518	Yaw:	-7.347	Thrust:	41.114
Time:	2.029	Roll Set Point:	0.387	Pitch Set Point:	0.100	Yaw Set Point:	0.041	X_WP:	0.200	Y_WP:	0.000	Y_WP:	0.500	X:	-0.094	Y:	-0.044	Z:	0.514	yaw:	-2.324	yaw rate:	-18.689	Roll:	-3.632	Pitch:	9.565	Yaw:	0.094	Thrust:	72.075
Time:	2.047	Roll Set Point:	0.372	Pitch Set Point:	0.077	Yaw Set Point:	0.059	X_WP:	0.200	Y_WP:	0.000	Y_WP:	0.500	X:	-0.087	Y:	-0.030	Z:	0.523	yaw:	-3.384	yaw rate:	106.000	Roll:	-1.290	Pitch:	6.454	Yaw:	-19.162	Thrust:	47.063
Time:	2.069	Roll Set Point:	0.359	Pitch Set Point:	0.043	Yaw Set Point:	0.039	X_WP:	0.200	Y_WP:	0.000	Y_WP:	0.500	X:	-0.080	Y:	-0.016	Z:	0.532	yaw:	-2.229	yaw rate:	-115.438	Roll:	-3.380	Pitch:	13.839	Yaw:	12.037	Thrust:	65.658
Time:	2.086	Roll Set Point:	0.347	Pitch Set Point:	0.015	Yaw Set Point:	0.038	X_WP:	0.200	Y_WP:	0.000	Y_WP:	0.500	X:	-0.073	Y:	-0.002	Z:	0.540	yaw:	-2.181	yaw rate:	-4.822	Roll:	-1.791	Pitch:	12.785	Yaw:	-1.447	Thrust:	46.740
Time:	2.109	Roll Set Point:	0.333	Pitch Set Point:	-0.010	Yaw Set Point:	0.044	X_WP:	0.200	Y_WP:	0.000	Y_WP:	0.500	X:	-0.066	Y:	0.011	Z:	0.548	yaw:	-2.502	yaw rate:	32.103	Roll:	-2.170	Pitch:	8.237	Yaw:	-6.097	Thrust:	67.300
Time:	2.130	Roll Set Point:	0.317	Pitch Set Point:	-0.039	Yaw Set Point:	0.029	X_WP:	0.200	Y_WP:	0.000	Y_WP:	0.500	X:	-0.058	Y:	0.023	Z:	0.556	yaw:	-1.662	yaw rate:	-84.029	Roll:	-1.354	Pitch:	12.775	Yaw:	9.319	Thrust:	63.093
Time:	2.146	Roll Set Point:	0.303	Pitch Set Point:	-0.060	Yaw Set Point:	0.039	X_WP:	0.200	Y_WP:	0.000	Y_WP:	0.500	X:	-0.051	Y:	0.035	Z:	0.564	yaw:	-2.256	yaw rate:	59.376	Roll:	0.156	Pitch:	10.304	Yaw:	-11.767	Thrust:	36.627
Time:	2.168	Roll Set Point:	0.286	Pitch Set Point:	-0.087	Yaw Set Point:	0.025	X_WP:	0.200	Y_WP:	0.000	Y_WP:	0.500	X:	-0.042	Y:	0.046	Z:	0.572	yaw:	-1.411	yaw rate:	-84.483	Roll:	-0.083	Pitch:	12.326	Yaw:	9.349	Thrust:	62.867
Time:	2.196	Roll Set Point:	0.268	Pitch Set Point:	-0.109	Yaw Set Point:	0.015	X_WP:	0.200	Y_WP:	0.000	Y_WP:	0.500	X:	-0.034	Y:	0.056	Z:	0.580	yaw:	-0.864	yaw rate:	-54.676	Roll:	-1.258	Pitch:	7.853	Yaw:	5.153	Thrust:	96.179
Time:	2.207	Roll Set Point:	0.253	Pitch Set Point:	-0.127	Yaw Set Point:	0.026	X_WP:	0.200	Y_WP:	0.000	Y_WP:	0.500	X:	-0.026	Y:	0.066	Z:	0.588	yaw:	-1.483	yaw rate:	61.857	Roll:	4.649	Pitch:	13.597	Yaw:	-16.890	Thrust:	1.922
Time:	2.230	Roll Set Point:	0.236	Pitch Set Point:	-0.145	Yaw Set Point:	0.028	X_WP:	0.200	Y_WP:	0.000	Y_WP:	0.500	X:	-0.017	Y:	0.075	Z:	0.595	yaw:	-1.610	yaw rate:	12.767	Roll:	-0.279	Pitch:	7.520	Yaw:	-2.614	Thrust:	70.663
Time:	2.247	Roll Set Point:	0.220	Pitch Set Point:	-0.159	Yaw Set Point:	0.040	X_WP:	0.200	Y_WP:	0.000	Y_WP:	0.500	X:	-0.009	Y:	0.084	Z:	0.603	yaw:	-2.274	yaw rate:	66.413	Roll:	1.194	Pitch:	7.843	Yaw:	-12.691	Thrust:	40.174
Time:	2.269	Roll Set Point:	0.203	Pitch Set Point:	-0.177	Yaw Set Point:	0.032	X_WP:	0.200	Y_WP:	0.000	Y_WP:	0.500	X:	0.000	Y:	0.091	Z:	0.609	yaw:	-1.814	yaw rate:	-45.994	Roll:	1.304	Pitch:	8.970	Yaw:	3.853	Thrust:	66.398
Time:	2.287	Roll Set Point:	0.186	Pitch Set Point:	-0.192	Yaw Set Point:	0.034	X_WP:	0.200	Y_WP:	0.000	Y_WP:	0.500	X:	0.008	Y:	0.099	Z:	0.615	yaw:	-1.970	yaw rate:	15.593	Roll:	2.120	Pitch:	9.012	Yaw:	-4.217	Thrust:	48.799
Time:	2.308	Roll Set Point:	0.167	Pitch Set Point:	-0.208	Yaw Set Point:	0.020	X_WP:	0.200	Y_WP:	0.000	Y_WP:	0.500	X:	0.018	Y:	0.106	Z:	0.620	yaw:	-1.151	yaw rate:	-81.974	Roll:	3.022	Pitch:	9.996	Yaw:	9.706	Thrust:	62.635
Time:	2.331	Roll Set Point:	0.150	Pitch Set Point:	-0.220	Yaw Set Point:	0.020	X_WP:	0.200	Y_WP:	0.000	Y_WP:	0.500	X:	0.026	Y:	0.112	Z:	0.623	yaw:	-1.137	yaw rate:	-1.399	Roll:	1.122	Pitch:	7.164	Yaw:	-0.428	Thrust:	76.194
Time:	2.347	Roll Set Point:	0.134	Pitch Set Point:	-0.231	Yaw Set Point:	0.029	X_WP:	0.200	Y_WP:	0.000	Y_WP:	0.500	X:	0.035	Y:	0.118	Z:	0.626	yaw:	-1.655	yaw rate:	51.874	Roll:	3.231	Pitch:	7.679	Yaw:	-10.249	Thrust:	43.629
Time:	2.369	Roll Set Point:	0.116	Pitch Set Point:	-0.243	Yaw Set Point:	0.024	X_WP:	0.200	Y_WP:	0.000	Y_WP:	0.500	X:	0.043	Y:	0.123	Z:	0.627	yaw:	-1.386	yaw rate:	-26.974	Roll:	2.603	Pitch:	7.794	Yaw:	2.311	Thrust:	70.760
Time:	2.388	Roll Set Point:	0.098	Pitch Set Point:	-0.253	Yaw Set Point:	0.018	X_WP:	0.200	Y_WP:	0.000	Y_WP:	0.500	X:	0.052	Y:	0.128	Z:	0.629	yaw:	-1.048	yaw rate:	-33.747	Roll:	3.703	Pitch:	7.648	Yaw:	3.769	Thrust:	65.272
Time:	2.407	Roll Set Point:	0.080	Pitch Set Point:	-0.263	Yaw Set Point:	0.009	X_WP:	0.200	Y_WP:	0.000	Y_WP:	0.500	X:	0.061	Y:	0.132	Z:	0.629	yaw:	-0.509	yaw rate:	-53.931	Roll:	5.015	Pitch:	8.612	Yaw:	7.843	Thrust:	59.069
Time:	2.428	Roll Set Point:	0.066	Pitch Set Point:	-0.269	Yaw Set Point:	0.023	X_WP:	0.200	Y_WP:	0.000	Y_WP:	0.500	X:	0.069	Y:	0.136	Z:	0.630	yaw:	-1.307	yaw rate:	79.769	Roll:	0.982	Pitch:	4.869	Yaw:	-10.402	Thrust:	71.437
Time:	2.447	Roll Set Point:	0.049	Pitch Set Point:	-0.276	Yaw Set Point:	0.021	X_WP:	0.200	Y_WP:	0.000	Y_WP:	0.500	X:	0.077	Y:	0.139	Z:	0.631	yaw:	-1.194	yaw rate:	-11.216	Roll:	3.764	Pitch:	6.293	Yaw:	0.649	Thrust:	62.790
Time:	2.469	Roll Set Point:	0.029	Pitch Set Point:	-0.282	Yaw Set Point:	0.003	X_WP:	0.200	Y_WP:	0.000	Y_WP:	0.500	X:	0.086	Y:	0.141	Z:	0.632	yaw:	-0.195	yaw rate:	-99.937	Roll:	5.190	Pitch:	6.515	Yaw:	12.401	Thrust:	72.855
Time:	2.495	Roll Set Point:	0.015	Pitch Set Point:	-0.284	Yaw Set Point:	0.016	X_WP:	0.200	Y_WP:	0.000	Y_WP:	0.500	X:	0.093	Y:	0.143	Z:	0.634	yaw:	-0.906	yaw rate:	71.079	Roll:	1.228	Pitch:	3.496	Yaw:	-7.965	Thrust:	79.495
Time:	2.506	Roll Set Point:	-0.002	Pitch Set Point:	-0.288	Yaw Set Point:	0.004	X_WP:	0.200	Y_WP:	0.000	Y_WP:	0.500	X:	0.101	Y:	0.144	Z:	0.635	yaw:	-0.230	yaw rate:	-67.594	Roll:	9.755	Pitch:	7.539	Yaw:	14.274	Thrust:	32.916
Time:	2.533	Roll Set Point:	-0.017	Pitch Set Point:	-0.289	Yaw Set Point:	0.007	X_WP:	0.200	Y_WP:	0.000	Y_WP:	0.500	X:	0.109	Y:	0.145	Z:	0.638	yaw:	-0.391	yaw rate:	16.150	Roll:	2.330	Pitch:	3.513	Yaw:	-1.081	Thrust:	85.740
Time:	2.546	Roll Set Point:	-0.032	Pitch Set Point:	-0.289	Yaw Set Point:	0.006	X_WP:	0.200	Y_WP:	0.000	Y_WP:	0.500	X:	0.116	Y:	0.145	Z:	0.640	yaw:	-0.320	yaw rate:	-7.112	Roll:	6.707	Pitch:	3.840	Yaw:	1.456	Thrust:	33.661
Time:	2.567	Roll Set Point:	-0.048	Pitch Set Point:	-0.290	Yaw Set Point:	-0.004	X_WP:	0.200	Y_WP:	0.000	Y_WP:	0.500	X:	0.124	Y:	0.145	Z:	0.643	yaw:	0.252	yaw rate:	-57.241	Roll:	5.069	Pitch:	4.207	Yaw:	8.510	Thrust:	58.939
Time:	2.591	Roll Set Point:	-0.061	Pitch Set Point:	-0.287	Yaw Set Point:	-0.002	X_WP:	0.200	Y_WP:	0.000	Y_WP:	0.500	X:	0.130	Y:	0.143	Z:	0.646	yaw:	0.127	yaw rate:	12.468	Roll:	2.485	Pitch:	2.386	Yaw:	-0.282	Thrust:	71.559
Time:	2.607	Roll Set Point:	-0.072	Pitch Set Point:	-0.283	Yaw Set Point:	0.013	X_WP:	0.200	Y_WP:	0.000	Y_WP:	0.500	X:	0.137	Y:	0.142	Z:	0.649	yaw:	-0.727	yaw rate:	85.471	Roll:	2.986	Pitch:	1.015	Yaw:	-14.333	Thrust:	41.575
Time:	2.630	Roll Set Point:	-0.085	Pitch Set Point:	-0.281	Yaw Set Point:	0.005	X_WP:	0.200	Y_WP:	0.000	Y_WP:	0.500	X:	0.143	Y:	0.141	Z:	0.652	yaw:	-0.295	yaw rate:	-43.243	Roll:	3.619	Pitch:	2.699	Yaw:	5.323	Thrust:	70.591
Time:	2.646	Roll Set Point:	-0.098	Pitch Set Point:	-0.276	Yaw Set Point:	0.007	X_WP:	0.200	Y_WP:	0.000	Y_WP:	0.500	X:	0.149	Y:	0.138	Z:	0.654	yaw:	-0.394	yaw rate:	9.947	Roll:	4.645	Pitch:	1.182	Yaw:	-1.476	Thrust:	43.703
Time:	2.671	Roll Set Point:	-0.111	Pitch Set Point:	-0.272	Yaw Set Point:	-0.005	X_WP:	0.200	Y_WP:	0.000	Y_WP:	0.500	X:	0.155	Y:	0.136	Z:	0.656	yaw:	0.294	yaw rate:	-68.834	Roll:	3.832	Pitch:	2.041	Yaw:	8.765	Thrust:	71.666
Time:	2.687	Roll Set Point:	-0.121	Pitch Set Point:	-0.267	Yaw Set Point:	0.001	X_WP:	0.200	Y_WP:	0.000	Y_WP:	0.500	X:	0.161	Y:	0.133	Z:	0.658	yaw:	-0.080	yaw rate:	37.428	Roll:	3.566	Pitch:	0.450	Yaw:	-5.389	Thrust:	46.298
Time:	2.708	Roll Set Point:	-0.131	Pitch Set Point:	-0.262	Yaw Set Point:	-0.004	X_WP:	0.200	Y_WP:	0.000	Y_WP:	0.500	X:	0.165	Y:	0.131	Z:	0.660	yaw:	0.239	yaw rate:	-31.894	Roll:	3.613	Pitch:	1.371	Yaw:	5.189	Thrust:	59.491
Time:	2.730	Roll Set Point:	-0.143	Pitch Set Point:	-0.255	Yaw Set Point:	-0.015	X_WP:	0.200	Y_WP:	0.000	Y_WP:	0.500	X:	0.171	Y:	0.127	Z:	0.661	yaw:	0.884	yaw rate:	-64.562	Roll:	4.390	Pitch:	0.574	Yaw:	9.836	Thrust:	64.362
Time:	2.747	Roll Set Point:	-0.152	Pitch Set Point:	-0.250	Yaw Set Point:	-0.012	X_WP:	0.200	Y_WP:	0.000	Y_WP:	0.500	X:	0.175	Y:	0.125	Z:	0.662	yaw:	0.712	yaw rate:	17.226	Roll:	3.522	Pitch:	0.051	Yaw:	-1.083	Thrust:	45.035
Time:	2.774	Roll Set Point:	-0.160	Pitch Set Point:	-0.243	Yaw Set Point:	-0.009	X_WP:	0.200	Y_WP:	0.000	Y_WP:	0.500	X:	0.179	Y:	0.121	Z:	0.664	yaw:	0.532	yaw rate:	18.004	Roll:	1.774	Pitch:	0.666	Yaw:	0.173	Thrust:	85.200
Time:	2.788	Roll Set Point:	-0.168	Pitch Set Point:	-0.236	Yaw Set Point:	-0.008	X_WP:	0.200	Y_WP:	0.000	Y_WP:	0.500	X:	0.184	Y:	0.118	Z:	0.665	yaw:	0.464	yaw rate:	6.762	Roll:	4.429	Pitch:	-1.087	Yaw:	-0.133	Thrust:	31.042
Time:	2.807	Roll Set Point:	-0.176	Pitch Set Point:	-0.228	Yaw Set Point:	-0.010	X_WP:	0.200	Y_WP:	0.000	Y_WP:	0.500	X:	0.188	Y:	0.114	Z:	0.667	yaw:	0.589	yaw rate:	-12.480	Roll:	3.470	Pitch:	-0.838	Yaw:	3.272	Thrust:	51.264
Time:	2.826	Roll Set Point:	-0.184	Pitch Set Point:	-0.221	Yaw Set Point:	-0.017	X_WP:	0.200	Y_WP:	0.000	Y_WP:	0.500	X:	0.191	Y:	0.111	Z:	0.669	yaw:	0.978	yaw rate:	-38.895	Roll:	3.588	Pitch:	-0.442	Yaw:	7.483	Thrust:	52.649
Time:	2.847	Roll Set Point:	-0.191	Pitch Set Point:	-0.214	Yaw Set Point:	-0.020	X_WP:	0.200	Y_WP:	0.000	Y_WP:	0.500	X:	0.194	Y:	0.107	Z:	0.670	yaw:	1.122	yaw rate:	-14.385	Roll:	2.622	Pitch:	-0.241	Yaw:	4.209	Thrust:	56.218
Time:	2.869	Roll Set Point:	-0.198	Pitch Set Point:	-0.207	Yaw Set Point:	-0.022	X_WP:	0.200	Y_WP:	0.000	Y_WP:	0.500	X:	0.198	Y:	0.103	Z:	0.671	yaw:	1.232	yaw rate:	-11.002	Roll:	2.666	Pitch:	-0.621	Yaw:	3.927	Thrust:	64.010
Time:	2.892	Roll Set Point:	-0.204	Pitch Set Point:	-0.199	Yaw Set Point:	-0.025	X_WP:	0.200	Y_WP:	0.000	Y_WP:	0.500	X:	0.201	Y:	0.099	Z:	0.672	yaw:	1.409	yaw rate:	-17.665	Roll:	2.740	Pitch:	-0.736	Yaw:	4.925	Thrust:	62.545
Time:	2.908	Roll Set Point:	-0.210	Pitch Set Point:	-0.192	Yaw Set Point:	-0.020	X_WP:	0.200	Y_WP:	0.000	Y_WP:	0.500	X:	0.204	Y:	0.096	Z:	0.671	yaw:	1.157	yaw rate:	25.184	Roll:	2.585	Pitch:	-1.385	Yaw:	-1.978	Thrust:	46.021
Time:	2.930	Roll Set Point:	-0.214	Pitch Set Point:	-0.185	Yaw Set Point:	-0.024	X_WP:	0.200	Y_WP:	0.000	Y_WP:	0.500	X:	0.206	Y:	0.092	Z:	0.671	yaw:	1.380	yaw rate:	-22.364	Roll:	2.249	Pitch:	-0.661	Yaw:	5.533	Thrust:	62.907
Time:	2.946	Roll Set Point:	-0.217	Pitch Set Point:	-0.178	Yaw Set Point:	-0.003	X_WP:	0.200	Y_WP:	0.000	Y_WP:	0.500	X:	0.208	Y:	0.089	Z:	0.670	yaw:	0.177	yaw rate:	120.323	Roll:	0.404	Pitch:	-0.963	Yaw:	-17.938	Thrust:	46.433
Time:	2.970	Roll Set Point:	-0.223	Pitch Set Point:	-0.171	Yaw Set Point:	-0.026	X_WP:	0.200	Y_WP:	0.000	Y_WP:	0.500	X:	0.210	Y:	0.086	Z:	0.670	yaw:	1.493	yaw rate:	-131.600	Roll:	3.475	Pitch:	-0.921	Yaw:	17.703	Thrust:	67.743
Time:	2.995	Roll Set Point:	-0.225	Pitch Set Point:	-0.165	Yaw Set Point:	-0.005	X_WP:	0.200	Y_WP:	0.000	Y_WP:	0.500	X:	0.212	Y:	0.082	Z:	0.669	yaw:	0.279	yaw rate:	121.435	Roll:	0.284	Pitch:	-0.317	Yaw:	-11.952	Thrust:	69.173
Time:	3.007	Roll Set Point:	-0.231	Pitch Set Point:	-0.157	Yaw Set Point:	-0.026	X_WP:	0.200	Y_WP:	0.000	Y_WP:	0.500	X:	0.214	Y:	0.079	Z:	0.668	yaw:	1.466	yaw rate:	-118.760	Roll:	5.242	Pitch:	-3.285	Yaw:	25.584	Thrust:	35.110
Time:	3.031	Roll Set Point:	-0.233	Pitch Set Point:	-0.152	Yaw Set Point:	-0.019	X_WP:	0.200	Y_WP:	0.000	Y_WP:	0.500	X:	0.216	Y:	0.076	Z:	0.667	yaw:	1.097	yaw rate:	36.976	Roll:	1.149	Pitch:	-0.225	Yaw:	-1.651	Thrust:	67.705
Time:	3.047	Roll Set Point:	-0.233	Pitch Set Point:	-0.146	Yaw Set Point:	0.002	X_WP:	0.200	Y_WP:	0.000	Y_WP:	0.500	X:	0.217	Y:	0.073	Z:	0.665	yaw:	-0.119	yaw rate:	121.538	Roll:	-0.267	Pitch:	-0.927	Yaw:	-18.671	Thrust:	47.411
Time:	3.070	Roll Set Point:	-0.239	Pitch Set Point:	-0.139	Yaw Set Point:	-0.027	X_WP:	0.200	Y_WP:	0.000	Y_WP:	0.500	X:	0.219	Y:	0.070	Z:	0.665	yaw:	1.570	yaw rate:	-168.850	Roll:	3.602	Pitch:	-1.590	Yaw:	22.766	Thrust:	63.257
Time:	3.090	Roll Set Point:	-0.242	Pitch Set Point:	-0.133	Yaw Set Point:	-0.029	X_WP:	0.200	Y_WP:	0.000	Y_WP:	0.500	X:	0.220	Y:	0.067	Z:	0.664	yaw:	1.654	yaw rate:	-8.372	Roll:	1.604	Pitch:	-1.122	Yaw:	4.289	Thrust:	58.989
Time:	3.109	Roll Set Point:	-0.243	Pitch Set Point:	-0.128	Yaw Set Point:	-0.030	X_WP:	0.200	Y_WP:	0.000	Y_WP:	0.500	X:	0.221	Y:	0.064	Z:	0.662	yaw:	1.716	yaw rate:	-6.286	Roll:	1.452	Pitch:	-1.026	Yaw:	4.121	Thrust:	53.081
Time:	3.138	Roll Set Point:	-0.243	Pitch Set Point:	-0.124	Yaw Set Point:	-0.005	X_WP:	0.200	Y_WP:	0.000	Y_WP:	0.500	X:	0.221	Y:	0.062	Z:	0.661	yaw:	0.281	yaw rate:	143.552	Roll:	-0.041	Pitch:	0.148	Yaw:	-11.420	Thrust:	80.963
Time:	3.152	Roll Set Point:	-0.247	Pitch Set Point:	-0.117	Yaw Set Point:	-0.030	X_WP:	0.200	Y_WP:	0.000	Y_WP:	0.500	X:	0.223	Y:	0.059	Z:	0.660	yaw:	1.740	yaw rate:	-145.929	Roll:	3.996	Pitch:	-3.056	Yaw:	30.270	Thrust:	38.367
Time:	3.168	Roll Set Point:	-0.245	Pitch Set Point:	-0.114	Yaw Set Point:	0.001	X_WP:	0.200	Y_WP:	0.000	Y_WP:	0.500	X:	0.223	Y:	0.057	Z:	0.658	yaw:	-0.058	yaw rate:	179.813	Roll:	-1.051	Pitch:	-0.209	Yaw:	-29.056	Thrust:	42.502
Time:	3.191	Roll Set Point:	-0.249	Pitch Set Point:	-0.108	Yaw Set Point:	-0.029	X_WP:	0.200	Y_WP:	0.000	Y_WP:	0.500	X:	0.224	Y:	0.055	Z:	0.657	yaw:	1.685	yaw rate:	-174.318	Roll:	2.599	Pitch:	-1.318	Yaw:	24.003	Thrust:	62.239
Time:	3.207	Roll Set Point:	-0.249	Pitch Set Point:	-0.104	Yaw Set Point:	-0.029	X_WP:	0.200	Y_WP:	0.000	Y_WP:	0.500	X:	0.224	Y:	0.052	Z:	0.656	yaw:	1.662	yaw rate:	2.347	Roll:	1.060	Pitch:	-1.097	Yaw:	2.762	Thrust:	46.013
Time:	3.228	Roll Set Point:	-0.250	Pitch Set Point:	-0.100	Yaw Set Point:	-0.028	X_WP:	0.200	Y_WP:	0.000	Y_WP:	0.500	X:	0.224	Y:	0.050	Z:	0.654	yaw:	1.615	yaw rate:	4.633	Roll:	0.930	Pitch:	-0.799	Yaw:	2.666	Thrust:	56.300
Time:	3.248	Roll Set Point:	-0.249	Pitch Set Point:	-0.098	Yaw Set Point:	-0.007	X_WP:	0.200	Y_WP:	0.000	Y_WP:	0.500	X:	0.224	Y:	0.049	Z:	0.653	yaw:	0.393	yaw rate:	122.215	Roll:	-0.315	Pitch:	0.196	Yaw:	-14.876	Thrust:	52.313
Time:	3.267	Roll Set Point:	-0.248	Pitch Set Point:	-0.094	Yaw Set Point:	0.000	X_WP:	0.200	Y_WP:	0.000	Y_WP:	0.500	X:	0.224	Y:	0.047	Z:	0.651	yaw:	-0.003	yaw rate:	39.615	Roll:	0.221	Pitch:	-0.384	Yaw:	-4.359	Thrust:	53.829
Time:	3.290	Roll Set Point:	-0.249	Pitch Set Point:	-0.091	Yaw Set Point:	-0.005	X_WP:	0.200	Y_WP:	0.000	Y_WP:	0.500	X:	0.224	Y:	0.045	Z:	0.650	yaw:	0.279	yaw rate:	-28.230	Roll:	1.150	Pitch:	-0.636	Yaw:	4.709	Thrust:	62.147
Time:	3.307	Roll Set Point:	-0.249	Pitch Set Point:	-0.087	Yaw Set Point:	-0.005	X_WP:	0.200	Y_WP:	0.000	Y_WP:	0.500	X:	0.224	Y:	0.044	Z:	0.647	yaw:	0.261	yaw rate:	1.841	Roll:	0.593	Pitch:	-0.809	Yaw:	0.867	Thrust:	46.042
Time:	3.330	Roll Set Point:	-0.249	Pitch Set Point:	-0.085	Yaw Set Point:	-0.005	X_WP:	0.200	Y_WP:	0.000	Y_WP:	0.500	X:	0.224	Y:	0.042	Z:	0.645	yaw:	0.281	yaw rate:	-1.990	Roll:	0.724	Pitch:	-0.309	Yaw:	1.733	Thrust:	61.835
Time:	3.347	Roll Set Point:	-0.249	Pitch Set Point:	-0.082	Yaw Set Point:	-0.006	X_WP:	0.200	Y_WP:	0.000	Y_WP:	0.500	X:	0.224	Y:	0.041	Z:	0.642	yaw:	0.365	yaw rate:	-8.447	Roll:	0.651	Pitch:	-0.763	Yaw:	2.637	Thrust:	49.797
Time:	3.368	Roll Set Point:	-0.248	Pitch Set Point:	-0.079	Yaw Set Point:	-0.007	X_WP:	0.200	Y_WP:	0.000	Y_WP:	0.500	X:	0.224	Y:	0.040	Z:	0.639	yaw:	0.377	yaw rate:	-1.118	Roll:	0.508	Pitch:	-0.172	Yaw:	1.708	Thrust:	60.335
Time:	3.393	Roll Set Point:	-0.247	Pitch Set Point:	-0.078	Yaw Set Point:	-0.008	X_WP:	0.200	Y_WP:	0.000	Y_WP:	0.500	X:	0.223	Y:	0.039	Z:	0.635	yaw:	0.441	yaw rate:	-6.394	Roll:	0.192	Pitch:	0.170	Yaw:	2.481	Thrust:	67.162
Time:	3.407	Roll Set Point:	-0.247	Pitch Set Point:	-0.075	Yaw Set Point:	-0.008	X_WP:	0.200	Y_WP:	0.000	Y_WP:	0.500	X:	0.223	Y:	0.038	Z:	0.631	yaw:	0.486	yaw rate:	-4.585	Roll:	0.934	Pitch:	-1.081	Yaw:	2.218	Thrust:	45.533
Time:	3.431	Roll Set Point:	-0.248	Pitch Set Point:	-0.072	Yaw Set Point:	-0.034	X_WP:	0.200	Y_WP:	0.000	Y_WP:	0.500	X:	0.224	Y:	0.036	Z:	0.627	yaw:	1.974	yaw rate:	-148.802	Roll:	1.520	Pitch:	-0.894	Yaw:	19.815	Thrust:	70.311
Time:	3.447	Roll Set Point:	-0.246	Pitch Set Point:	-0.072	Yaw Set Point:	-0.002	X_WP:	0.200	Y_WP:	0.000	Y_WP:	0.500	X:	0.223	Y:	0.036	Z:	0.623	yaw:	0.119	yaw rate:	185.520	Roll:	-1.353	Pitch:	0.916	Yaw:	-29.300	Thrust:	50.441
Time:	3.470	Roll Set Point:	-0.247	Pitch Set Point:	-0.069	Yaw Set Point:	-0.029	X_WP:	0.200	Y_WP:	0.000	Y_WP:	0.500	X:	0.223	Y:	0.035	Z:	0.618	yaw:	1.670	yaw rate:	-155.083	Roll:	1.391	Pitch:	-0.803	Yaw:	21.271	Thrust:	66.216
Time:	3.487	Roll Set Point:	-0.244	Pitch Set Point:	-0.069	Yaw Set Point:	-0.002	X_WP:	0.200	Y_WP:	0.000	Y_WP:	0.500	X:	0.222	Y:	0.035	Z:	0.613	yaw:	0.111	yaw rate:	155.899	Roll:	-1.409	Pitch:	1.312	Yaw:	-22.604	Thrust:	52.763
Time:	3.508	Roll Set Point:	-0.244	Pitch Set Point:	-0.068	Yaw Set Point:	-0.006	X_WP:	0.200	Y_WP:	0.000	Y_WP:	0.500	X:	0.222	Y:	0.034	Z:	0.608	yaw:	0.364	yaw rate:	-25.334	Roll:	0.742	Pitch:	-0.243	Yaw:	4.778	Thrust:	63.677
Time:	3.527	Roll Set Point:	-0.242	Pitch Set Point:	-0.067	Yaw Set Point:	0.002	X_WP:	0.200	Y_WP:	0.000	Y_WP:	0.500	X:	0.221	Y:	0.034	Z:	0.602	yaw:	-0.086	yaw rate:	45.032	Roll:	-0.484	Pitch:	0.391	Yaw:	-5.325	Thrust:	60.692
Time:	3.548	Roll Set Point:	-0.242	Pitch Set Point:	-0.066	Yaw Set Point:	-0.007	X_WP:	0.200	Y_WP:	0.000	Y_WP:	0.500	X:	0.221	Y:	0.033	Z:	0.597	yaw:	0.388	yaw rate:	-47.382	Roll:	0.915	Pitch:	-0.174	Yaw:	7.491	Thrust:	62.779
Time:	3.567	Roll Set Point:	-0.242	Pitch Set Point:	-0.065	Yaw Set Point:	-0.012	X_WP:	0.200	Y_WP:	0.000	Y_WP:	0.500	X:	0.221	Y:	0.033	Z:	0.591	yaw:	0.705	yaw rate:	-31.714	Roll:	0.574	Pitch:	0.115	Yaw:	6.262	Thrust:	60.299
Time:	3.590	Roll Set Point:	-0.243	Pitch Set Point:	-0.063	Yaw Set Point:	-0.035	X_WP:	0.200	Y_WP:	0.000	Y_WP:	0.500	X:	0.221	Y:	0.032	Z:	0.586	yaw:	2.014	yaw rate:	-130.918	Roll:	1.286	Pitch:	-0.502	Yaw:	19.042	Thrust:	67.988
Time:	3.606	Roll Set Point:	-0.242	Pitch Set Point:	-0.062	Yaw Set Point:	-0.038	X_WP:	0.200	Y_WP:	0.000	Y_WP:	0.500	X:	0.221	Y:	0.032	Z:	0.580	yaw:	2.158	yaw rate:	-14.425	Roll:	0.380	Pitch:	0.236	Yaw:	6.151	Thrust:	55.266
Time:	3.630	Roll Set Point:	-0.242	Pitch Set Point:	-0.062	Yaw Set Point:	-0.036	X_WP:	0.200	Y_WP:	0.000	Y_WP:	0.500	X:	0.220	Y:	0.031	Z:	0.575	yaw:	2.089	yaw rate:	6.976	Roll:	0.484	Pitch:	0.275	Yaw:	3.379	Thrust:	67.888
Time:	3.647	Roll Set Point:	-0.242	Pitch Set Point:	-0.061	Yaw Set Point:	-0.050	X_WP:	0.200	Y_WP:	0.000	Y_WP:	0.500	X:	0.220	Y:	0.031	Z:	0.570	yaw:	2.874	yaw rate:	-78.499	Roll:	0.869	Pitch:	0.078	Yaw:	17.010	Thrust:	54.772
Time:	3.668	Roll Set Point:	-0.241	Pitch Set Point:	-0.061	Yaw Set Point:	-0.043	X_WP:	0.200	Y_WP:	0.000	Y_WP:	0.500	X:	0.220	Y:	0.031	Z:	0.565	yaw:	2.435	yaw rate:	43.853	Roll:	0.101	Pitch:	0.420	Yaw:	-0.908	Thrust:	64.370
Time:	3.689	Roll Set Point:	-0.240	Pitch Set Point:	-0.061	Yaw Set Point:	-0.032	X_WP:	0.200	Y_WP:	0.000	Y_WP:	0.500	X:	0.219	Y:	0.031	Z:	0.560	yaw:	1.825	yaw rate:	61.013	Roll:	0.117	Pitch:	0.436	Yaw:	-4.197	Thrust:	61.516
Time:	3.709	Roll Set Point:	-0.239	Pitch Set Point:	-0.061	Yaw Set Point:	-0.033	X_WP:	0.200	Y_WP:	0.000	Y_WP:	0.500	X:	0.219	Y:	0.031	Z:	0.556	yaw:	1.901	yaw rate:	-7.594	Roll:	0.446	Pitch:	0.406	Yaw:	4.767	Thrust:	61.105
Time:	3.726	Roll Set Point:	-0.239	Pitch Set Point:	-0.061	Yaw Set Point:	-0.031	X_WP:	0.200	Y_WP:	0.000	Y_WP:	0.500	X:	0.219	Y:	0.031	Z:	0.551	yaw:	1.765	yaw rate:	13.633	Roll:	0.330	Pitch:	0.486	Yaw:	1.353	Thrust:	54.387
Time:	3.747	Roll Set Point:	-0.238	Pitch Set Point:	-0.061	Yaw Set Point:	-0.026	X_WP:	0.200	Y_WP:	0.000	Y_WP:	0.500	X:	0.219	Y:	0.031	Z:	0.547	yaw:	1.515	yaw rate:	24.993	Roll:	0.289	Pitch:	0.567	Yaw:	0.200	Thrust:	61.403
Time:	3.773	Roll Set Point:	-0.238	Pitch Set Point:	-0.061	Yaw Set Point:	-0.029	X_WP:	0.200	Y_WP:	0.000	Y_WP:	0.500	X:	0.219	Y:	0.031	Z:	0.543	yaw:	1.679	yaw rate:	-16.431	Roll:	0.670	Pitch:	0.259	Yaw:	5.500	Thrust:	71.607
Time:	3.792	Roll Set Point:	-0.237	Pitch Set Point:	-0.062	Yaw Set Point:	-0.002	X_WP:	0.200	Y_WP:	0.000	Y_WP:	0.500	X:	0.218	Y:	0.031	Z:	0.539	yaw:	0.107	yaw rate:	157.182	Roll:	-0.784	Pitch:	1.404	Yaw:	-20.618	Thrust:	54.962
Time:	3.808	Roll Set Point:	-0.236	Pitch Set Point:	-0.063	Yaw Set Point:	0.000	X_WP:	0.200	Y_WP:	0.000	Y_WP:	0.500	X:	0.218	Y:	0.031	Z:	0.535	yaw:	-0.022	yaw rate:	12.885	Roll:	0.416	Pitch:	0.669	Yaw:	-1.098	Thrust:	53.909
Time:	3.826	Roll Set Point:	-0.236	Pitch Set Point:	-0.063	Yaw Set Point:	-0.002	X_WP:	0.200	Y_WP:	0.000	Y_WP:	0.500	X:	0.218	Y:	0.031	Z:	0.532	yaw:	0.115	yaw rate:	-13.658	Roll:	0.587	Pitch:	0.632	Yaw:	3.191	Thrust:	54.529
Time:	3.849	Roll Set Point:	-0.236	Pitch Set Point:	-0.063	Yaw Set Point:	-0.003	X_WP:	0.200	Y_WP:	0.000	Y_WP:	0.500	X:	0.218	Y:	0.031	Z:	0.528	yaw:	0.172	yaw rate:	-5.742	Roll:	0.574	Pitch:	0.453	Yaw:	2.205	Thrust:	63.179
Time:	3.870	Roll Set Point:	-0.236	Pitch Set Point:	-0.063	Yaw Set Point:	-0.002	X_WP:	0.200	Y_WP:	0.000	Y_WP:	0.500	X:	0.218	Y:	0.032	Z:	0.525	yaw:	0.090	yaw rate:	8.258	Roll:	0.449	Pitch:	0.515	Yaw:	0.466	Thrust:	63.863
Time:	3.886	Roll Set Point:	-0.236	Pitch Set Point:	-0.064	Yaw Set Point:	0.000	X_WP:	0.200	Y_WP:	0.000	Y_WP:	0.500	X:	0.218	Y:	0.032	Z:	0.521	yaw:	-0.004	yaw rate:	9.377	Roll:	0.269	Pitch:	1.060	Yaw:	-0.608	Thrust:	50.048
Time:	3.907	Roll Set Point:	-0.236	Pitch Set Point:	-0.064	Yaw Set Point:	0.002	X_WP:	0.200	Y_WP:	0.000	Y_WP:	0.500	X:	0.218	Y:	0.032	Z:	0.518	yaw:	-0.089	yaw rate:	8.522	Roll:	0.618	Pitch:	0.542	Yaw:	-0.009	Thrust:	60.380
Time:	3.926	Roll Set Point:	-0.236	Pitch Set Point:	-0.064	Yaw Set Point:	0.004	X_WP:	0.200	Y_WP:	0.000	Y_WP:	0.500	X:	0.218	Y:	0.032	Z:	0.515	yaw:	-0.216	yaw rate:	12.631	Roll:	0.524	Pitch:	0.611	Yaw:	-0.848	Thrust:	57.732
Time:	3.948	Roll Set Point:	-0.238	Pitch Set Point:	-0.063	Yaw Set Point:	-0.024	X_WP:	0.200	Y_WP:	0.000	Y_WP:	0.500	X:	0.218	Y:	0.032	Z:	0.511	yaw:	1.350	yaw rate:	-156.606	Roll:	1.664	Pitch:	0.005	Yaw:	22.566	Thrust:	61.124
Time:	3.970	Roll Set Point:	-0.238	Pitch Set Point:	-0.063	Yaw Set Point:	-0.024	X_WP:	0.200	Y_WP:	0.000	Y_WP:	0.500	X:	0.219	Y:	0.032	Z:	0.508	yaw:	1.347	yaw rate:	0.385	Roll:	0.779	Pitch:	0.419	Yaw:	3.124	Thrust:	64.296
Time:	3.993	Roll Set Point:	-0.237	Pitch Set Point:	-0.064	Yaw Set Point:	-0.000	X_WP:	0.200	Y_WP:	0.000	Y_WP:	0.500	X:	0.219	Y:	0.032	Z:	0.504	yaw:	0.010	yaw rate:	133.636	Roll:	-0.006	Pitch:	1.041	Yaw:	-13.419	Thrust:	67.216
Time:	4.006	Roll Set Point:	-0.240	Pitch Set Point:	-0.064	Yaw Set Point:	-0.023	X_WP:	0.200	Y_WP:	0.000	Y_WP:	0.500	X:	0.220	Y:	0.032	Z:	0.501	yaw:	1.298	yaw rate:	-128.785	Roll:	2.425	Pitch:	-0.084	Yaw:	28.390	Thrust:	43.909
Time:	4.030	Roll Set Point:	-0.240	Pitch Set Point:	-0.064	Yaw Set Point:	-0.024	X_WP:	0.200	Y_WP:	0.000	Y_WP:	0.500	X:	0.220	Y:	0.032	Z:	0.498	yaw:	1.386	yaw rate:	-8.773	Roll:	0.782	Pitch:	0.495	Yaw:	4.317	Thrust:	68.164
Time:	4.047	Roll Set Point:	-0.237	Pitch Set Point:	-0.066	Yaw Set Point:	0.001	X_WP:	0.200	Y_WP:	0.000	Y_WP:	0.500	X:	0.219	Y:	0.033	Z:	0.494	yaw:	-0.042	yaw rate:	142.741	Roll:	-1.231	Pitch:	1.998	Yaw:	-21.651	Thrust:	54.677
Time:	4.070	Roll Set Point:	-0.240	Pitch Set Point:	-0.064	Yaw Set Point:	-0.022	X_WP:	0.200	Y_WP:	0.000	Y_WP:	0.500	X:	0.220	Y:	0.032	Z:	0.491	yaw:	1.258	yaw rate:	-129.932	Roll:	1.738	Pitch:	-0.246	Yaw:	17.838	Thrust:	66.164
Time:	4.087	Roll Set Point:	-0.240	Pitch Set Point:	-0.065	Yaw Set Point:	-0.023	X_WP:	0.200	Y_WP:	0.000	Y_WP:	0.500	X:	0.220	Y:	0.033	Z:	0.488	yaw:	1.340	yaw rate:	-8.194	Roll:	0.890	Pitch:	0.581	Yaw:	4.154	Thrust:	54.709
Time:	4.108	Roll Set Point:	-0.239	Pitch Set Point:	-0.066	Yaw Set Point:	0.005	X_WP:	0.200	Y_WP:	0.000	Y_WP:	0.500	X:	0.219	Y:	0.033	Z:	0.485	yaw:	-0.275	yaw rate:	161.461	Roll:	-0.364	Pitch:	1.490	Yaw:	-19.673	Thrust:	61.218
Time:	4.127	Roll Set Point:	-0.240	Pitch Set Point:	-0.065	Yaw Set Point:	-0.013	X_WP:	0.200	Y_WP:	0.000	Y_WP:	0.500	X:	0.220	Y:	0.033	Z:	0.482	yaw:	0.725	yaw rate:	-100.021	Roll:	1.448	Pitch:	0.113	Yaw:	15.868	Thrust:	57.696
Time:	4.147	Roll Set Point:	-0.240	Pitch Set Point:	-0.066	Yaw Set Point:	-0.011	X_WP:	0.200	Y_WP:	0.000	Y_WP:	0.500	X:	0.220	Y:	0.033	Z:	0.479	yaw:	0.637	yaw rate:	8.874	Roll:	0.798	Pitch:	0.629	Yaw:	1.004	Thrust:	60.585
Time:	4.169	Roll Set Point:	-0.242	Pitch Set Point:	-0.065	Yaw Set Point:	-0.016	X_WP:	0.200	Y_WP:	0.000	Y_WP:	0.500	X:	0.221	Y:	0.033	Z:	0.477	yaw:	0.905	yaw rate:	-26.839	Roll:	1.166	Pitch:	0.207	Yaw:	5.881	Thrust:	61.774
Time:	4.188	Roll Set Point:	-0.242	Pitch Set Point:	-0.065	Yaw Set Point:	-0.012	X_WP:	0.200	Y_WP:	0.000	Y_WP:	0.500	X:	0.221	Y:	0.032	Z:	0.474	yaw:	0.681	yaw rate:	22.429	Roll:	0.711	Pitch:	0.456	Yaw:	-0.774	Thrust:	59.531
Time:	4.211	Roll Set Point:	-0.242	Pitch Set Point:	-0.065	Yaw Set Point:	-0.012	X_WP:	0.200	Y_WP:	0.000	Y_WP:	0.500	X:	0.221	Y:	0.033	Z:	0.470	yaw:	0.674	yaw rate:	0.711	Roll:	0.647	Pitch:	0.692	Yaw:	2.254	Thrust:	67.682
Time:	4.229	Roll Set Point:	-0.242	Pitch Set Point:	-0.065	Yaw Set Point:	-0.016	X_WP:	0.200	Y_WP:	0.000	Y_WP:	0.500	X:	0.221	Y:	0.033	Z:	0.467	yaw:	0.945	yaw rate:	-27.142	Roll:	1.027	Pitch:	0.554	Yaw:	6.448	Thrust:	55.294
Time:	4.248	Roll Set Point:	-0.241	Pitch Set Point:	-0.067	Yaw Set Point:	0.009	X_WP:	0.200	Y_WP:	0.000	Y_WP:	0.500	X:	0.221	Y:	0.033	Z:	0.465	yaw:	-0.543	yaw rate:	148.780	Roll:	-0.343	Pitch:	1.433	Yaw:	-19.459	Thrust:	59.341
Time:	4.266	Roll Set Point:	-0.243	Pitch Set Point:	-0.065	Yaw Set Point:	-0.014	X_WP:	0.200	Y_WP:	0.000	Y_WP:	0.500	X:	0.221	Y:	0.033	Z:	0.463	yaw:	0.796	yaw rate:	-133.910	Roll:	1.756	Pitch:	-0.292	Yaw:	21.439	Thrust:	55.489
Time:	4.292	Roll Set Point:	-0.243	Pitch Set Point:	-0.065	Yaw Set Point:	-0.014	X_WP:	0.200	Y_WP:	0.000	Y_WP:	0.500	X:	0.221	Y:	0.033	Z:	0.460	yaw:	0.829	yaw rate:	-3.234	Roll:	0.883	Pitch:	0.467	Yaw:	3.062	Thrust:	72.610
Time:	4.307	Roll Set Point:	-0.242	Pitch Set Point:	-0.067	Yaw Set Point:	0.014	X_WP:	0.200	Y_WP:	0.000	Y_WP:	0.500	X:	0.221	Y:	0.033	Z:	0.458	yaw:	-0.779	yaw rate:	160.797	Roll:	-0.742	Pitch:	1.776	Yaw:	-27.204	Thrust:	48.233
Time:	4.328	Roll Set Point:	-0.243	Pitch Set Point:	-0.066	Yaw Set Point:	-0.003	X_WP:	0.200	Y_WP:	0.000	Y_WP:	0.500	X:	0.221	Y:	0.033	Z:	0.456	yaw:	0.187	yaw rate:	-96.669	Roll:	1.432	Pitch:	0.087	Yaw:	13.648	Thrust:	62.681
Time:	4.347	Roll Set Point:	-0.243	Pitch Set Point:	-0.065	Yaw Set Point:	-0.003	X_WP:	0.200	Y_WP:	0.000	Y_WP:	0.500	X:	0.222	Y:	0.033	Z:	0.454	yaw:	0.155	yaw rate:	3.253	Roll:	0.783	Pitch:	0.384	Yaw:	0.962	Thrust:	57.629
Time:	4.367	Roll Set Point:	-0.243	Pitch Set Point:	-0.065	Yaw Set Point:	-0.007	X_WP:	0.200	Y_WP:	0.000	Y_WP:	0.500	X:	0.222	Y:	0.033	Z:	0.452	yaw:	0.402	yaw rate:	-24.684	Roll:	0.920	Pitch:	0.438	Yaw:	5.029	Thrust:	60.593
Time:	4.391	Roll Set Point:	-0.242	Pitch Set Point:	-0.066	Yaw Set Point:	0.012	X_WP:	0.200	Y_WP:	0.000	Y_WP:	0.500	X:	0.221	Y:	0.033	Z:	0.450	yaw:	-0.697	yaw rate:	109.833	Roll:	0.078	Pitch:	1.020	Yaw:	-11.759	Thrust:	67.648
Time:	4.406	Roll Set Point:	-0.244	Pitch Set Point:	-0.065	Yaw Set Point:	-0.012	X_WP:	0.200	Y_WP:	0.000	Y_WP:	0.500	X:	0.222	Y:	0.033	Z:	0.449	yaw:	0.663	yaw rate:	-135.962	Roll:	1.724	Pitch:	0.085	Yaw:	24.629	Thrust:	50.193
Time:	4.432	Roll Set Point:	-0.244	Pitch Set Point:	-0.065	Yaw Set Point:	-0.004	X_WP:	0.200	Y_WP:	0.000	Y_WP:	0.500	X:	0.222	Y:	0.032	Z:	0.447	yaw:	0.222	yaw rate:	44.086	Roll:	0.787	Pitch:	0.217	Yaw:	-2.717	Thrust:	73.587
Time:	4.447	Roll Set Point:	-0.244	Pitch Set Point:	-0.064	Yaw Set Point:	-0.007	X_WP:	0.200	Y_WP:	0.000	Y_WP:	0.500	X:	0.222	Y:	0.032	Z:	0.445	yaw:	0.421	yaw rate:	-19.847	Roll:	0.960	Pitch:	0.463	Yaw:	4.987	Thrust:	49.125
Time:	4.469	Roll Set Point:	-0.245	Pitch Set Point:	-0.064	Yaw Set Point:	-0.009	X_WP:	0.200	Y_WP:	0.000	Y_WP:	0.500	X:	0.222	Y:	0.032	Z:	0.443	yaw:	0.522	yaw rate:	-10.174	Roll:	0.865	Pitch:	0.363	Yaw:	3.327	Thrust:	66.201
Time:	4.498	Roll Set Point:	-0.243	Pitch Set Point:	-0.065	Yaw Set Point:	0.017	X_WP:	0.200	Y_WP:	0.000	Y_WP:	0.500	X:	0.222	Y:	0.032	Z:	0.441	yaw:	-0.996	yaw rate:	151.779	Roll:	-0.038	Pitch:	0.848	Yaw:	-12.943	Thrust:	85.681
Time:	4.509	Roll Set Point:	-0.244	Pitch Set Point:	-0.064	Yaw Set Point:	0.005	X_WP:	0.200	Y_WP:	0.000	Y_WP:	0.500	X:	0.222	Y:	0.032	Z:	0.440	yaw:	-0.280	yaw rate:	-71.503	Roll:	1.968	Pitch:	-0.466	Yaw:	18.050	Thrust:	36.559
Time:	4.529	Roll Set Point:	-0.243	Pitch Set Point:	-0.064	Yaw Set Point:	0.021	X_WP:	0.200	Y_WP:	0.000	Y_WP:	0.500	X:	0.222	Y:	0.032	Z:	0.438	yaw:	-1.198	yaw rate:	91.736	Roll:	-0.072	Pitch:	1.035	Yaw:	-12.711	Thrust:	60.665
Time:	4.547	Roll Set Point:	-0.246	Pitch Set Point:	-0.063	Yaw Set Point:	-0.012	X_WP:	0.200	Y_WP:	0.000	Y_WP:	0.500	X:	0.223	Y:	0.031	Z:	0.437	yaw:	0.665	yaw rate:	-186.274	Roll:	2.398	Pitch:	-0.649	Yaw:	28.373	Thrust:	55.954
Time:	4.567	Roll Set Point:	-0.246	Pitch Set Point:	-0.062	Yaw Set Point:	-0.004	X_WP:	0.200	Y_WP:	0.000	Y_WP:	0.500	X:	0.223	Y:	0.031	Z:	0.437	yaw:	0.208	yaw rate:	45.731	Roll:	0.577	Pitch:	0.261	Yaw:	-4.526	Thrust:	56.496
Time:	4.590	Roll Set Point:	-0.245	Pitch Set Point:	-0.061	Yaw Set Point:	-0.004	X_WP:	0.200	Y_WP:	0.000	Y_WP:	0.500	X:	0.222	Y:	0.031	Z:	0.435	yaw:	0.209	yaw rate:	-0.181	Roll:	0.408	Pitch:	0.350	Yaw:	1.771	Thrust:	70.631
Time:	4.606	Roll Set Point:	-0.246	Pitch Set Point:	-0.060	Yaw Set Point:	-0.018	X_WP:	0.200	Y_WP:	0.000	Y_WP:	0.500	X:	0.223	Y:	0.030	Z:	0.435	yaw:	1.047	yaw rate:	-83.787	Roll:	1.608	Pitch:	-0.063	Yaw:	15.744	Thrust:	48.967
Time:	4.630	Roll Set Point:	-0.244	Pitch Set Point:	-0.062	Yaw Set Point:	0.013	X_WP:	0.200	Y_WP:	0.000	Y_WP:	0.500	X:	0.222	Y:	0.031	Z:	0.434	yaw:	-0.772	yaw rate:	181.977	Roll:	-0.344	Pitch:	1.275	Yaw:	-20.568	Thrust:	67.974
Time:	4.646	Roll Set Point:	-0.244	Pitch Set Point:	-0.061	Yaw Set Point:	0.010	X_WP:	0.200	Y_WP:	0.000	Y_WP:	0.500	X:	0.222	Y:	0.030	Z:	0.434	yaw:	-0.547	yaw rate:	-22.539	Roll:	0.801	Pitch:	0.112	Yaw:	3.822	Thrust:	51.999
Time:	4.669	Roll Set Point:	-0.244	Pitch Set Point:	-0.060	Yaw Set Point:	0.003	X_WP:	0.200	Y_WP:	0.000	Y_WP:	0.500	X:	0.222	Y:	0.030	Z:	0.434	yaw:	-0.191	yaw rate:	-35.648	Roll:	0.815	Pitch:	0.102	Yaw:	5.351	Thrust:	64.572
Time:	4.690	Roll Set Point:	-0.244	Pitch Set Point:	-0.060	Yaw Set Point:	0.002	X_WP:	0.200	Y_WP:	0.000	Y_WP:	0.500	X:	0.222	Y:	0.030	Z:	0.433	yaw:	-0.142	yaw rate:	-4.830	Roll:	0.708	Pitch:	0.245	Yaw:	1.720	Thrust:	60.196
Time:	4.708	Roll Set Point:	-0.244	Pitch Set Point:	-0.059	Yaw Set Point:	-0.003	X_WP:	0.200	Y_WP:	0.000	Y_WP:	0.500	X:	0.222	Y:	0.029	Z:	0.433	yaw:	0.148	yaw rate:	-29.021	Roll:	0.847	Pitch:	0.075	Yaw:	5.462	Thrust:	57.798
Time:	4.729	Roll Set Point:	-0.243	Pitch Set Point:	-0.059	Yaw Set Point:	0.020	X_WP:	0.200	Y_WP:	0.000	Y_WP:	0.500	X:	0.222	Y:	0.029	Z:	0.433	yaw:	-1.142	yaw rate:	128.960	Roll:	-0.042	Pitch:	0.919	Yaw:	-16.581	Thrust:	61.965
Time:	4.747	Roll Set Point:	-0.244	Pitch Set Point:	-0.059	Yaw Set Point:	0.008	X_WP:	0.200	Y_WP:	0.000	Y_WP:	0.500	X:	0.222	Y:	0.029	Z:	0.432	yaw:	-0.471	yaw rate:	-67.035	Roll:	0.995	Pitch:	0.271	Yaw:	10.163	Thrust:	56.685
Time:	4.772	Roll Set Point:	-0.243	Pitch Set Point:	-0.058	Yaw Set Point:	0.007	X_WP:	0.200	Y_WP:	0.000	Y_WP:	0.500	X:	0.222	Y:	0.029	Z:	0.432	yaw:	-0.377	yaw rate:	-9.420	Roll:	0.574	Pitch:	0.293	Yaw:	2.000	Thrust:	59.126
Time:	4.790	Roll Set Point:	-0.243	Pitch Set Point:	-0.058	Yaw Set Point:	0.002	X_WP:	0.200	Y_WP:	0.000	Y_WP:	0.500	X:	0.222	Y:	0.029	Z:	0.432	yaw:	-0.122	yaw rate:	-25.563	Roll:	0.721	Pitch:	0.185	Yaw:	4.615	Thrust:	69.760
Time:	4.806	Roll Set Point:	-0.244	Pitch Set Point:	-0.057	Yaw Set Point:	-0.007	X_WP:	0.200	Y_WP:	0.000	Y_WP:	0.500	X:	0.222	Y:	0.029	Z:	0.432	yaw:	0.380	yaw rate:	-50.160	Roll:	1.026	Pitch:	0.006	Yaw:	9.485	Thrust:	49.923
Time:	4.830	Roll Set Point:	-0.243	Pitch Set Point:	-0.057	Yaw Set Point:	0.020	X_WP:	0.200	Y_WP:	0.000	Y_WP:	0.500	X:	0.222	Y:	0.028	Z:	0.432	yaw:	-1.151	yaw rate:	153.134	Roll:	0.168	Pitch:	0.719	Yaw:	-17.320	Thrust:	69.466
Time:	4.847	Roll Set Point:	-0.242	Pitch Set Point:	-0.056	Yaw Set Point:	0.005	X_WP:	0.200	Y_WP:	0.000	Y_WP:	0.500	X:	0.221	Y:	0.028	Z:	0.432	yaw:	-0.267	yaw rate:	-88.463	Roll:	0.730	Pitch:	-0.181	Yaw:	14.798	Thrust:	50.914
Time:	4.869	Roll Set Point:	-0.242	Pitch Set Point:	-0.056	Yaw Set Point:	0.009	X_WP:	0.200	Y_WP:	0.000	Y_WP:	0.500	X:	0.221	Y:	0.028	Z:	0.431	yaw:	-0.497	yaw rate:	23.059	Roll:	0.401	Pitch:	0.290	Yaw:	-1.946	Thrust:	69.506
Time:	4.898	Roll Set Point:	-0.241	Pitch Set Point:	-0.056	Yaw Set Point:	0.017	X_WP:	0.200	Y_WP:	0.000	Y_WP:	0.500	X:	0.221	Y:	0.028	Z:	0.431	yaw:	-0.986	yaw rate:	48.865	Roll:	0.479	Pitch:	0.408	Yaw:	-3.966	Thrust:	87.099
Time:	4.909	Roll Set Point:	-0.241	Pitch Set Point:	-0.055	Yaw Set Point:	0.009	X_WP:	0.200	Y_WP:	0.000	Y_WP:	0.500	X:	0.221	Y:	0.027	Z:	0.430	yaw:	-0.491	yaw rate:	-49.444	Roll:	0.881	Pitch:	-0.166	Yaw:	11.721	Thrust:	37.598
Time:	4.933	Roll Set Point:	-0.240	Pitch Set Point:	-0.056	Yaw Set Point:	0.030	X_WP:	0.200	Y_WP:	0.000	Y_WP:	0.500	X:	0.220	Y:	0.027	Z:	0.430	yaw:	-1.729	yaw rate:	123.713	Roll:	-0.151	Pitch:	0.751	Yaw:	-14.297	Thrust:	74.787
Time:	4.946	Roll Set Point:	-0.240	Pitch Set Point:	-0.055	Yaw Set Point:	0.025	X_WP:	0.200	Y_WP:	0.000	Y_WP:	0.500	X:	0.220	Y:	0.027	Z:	0.429	yaw:	-1.426	yaw rate:	-30.219	Roll:	1.047	Pitch:	0.041	Yaw:	4.865	Thrust:	42.006
Time:	4.969	Roll Set Point:	-0.240	Pitch Set Point:	-0.054	Yaw Set Point:	0.023	X_WP:	0.200	Y_WP:	0.000	Y_WP:	0.500	X:	0.220	Y:	0.027	Z:	0.429	yaw:	-1.324	yaw rate:	-10.232	Roll:	0.589	Pitch:	0.106	Yaw:	0.683	Thrust:	68.478
Time:	4.989	Roll Set Point:	-0.240	Pitch Set Point:	-0.053	Yaw Set Point:	0.005	X_WP:	0.200	Y_WP:	0.000	Y_WP:	0.500	X:	0.220	Y:	0.026	Z:	0.429	yaw:	-0.298	yaw rate:	-102.582	Roll:	1.030	Pitch:	-0.243	Yaw:	14.023	Thrust:	63.195
Time:	5.007	Roll Set Point:	-0.238	Pitch Set Point:	-0.054	Yaw Set Point:	0.031	X_WP:	0.200	Y_WP:	0.000	Y_WP:	0.500	X:	0.219	Y:	0.027	Z:	0.429	yaw:	-1.783	yaw rate:	148.506	Roll:	-0.657	Pitch:	1.481	Yaw:	-22.356	Thrust:	58.214
Time:	5.026	Roll Set Point:	-0.240	Pitch Set Point:	-0.052	Yaw Set Point:	0.012	X_WP:	0.200	Y_WP:	0.000	Y_WP:	0.500	X:	0.220	Y:	0.026	Z:	0.430	yaw:	-0.715	yaw rate:	-106.801	Roll:	1.840	Pitch:	-0.590	Yaw:	15.076	Thrust:	55.669
Time:	5.057	Roll Set Point:	-0.238	Pitch Set Point:	-0.052	Yaw Set Point:	0.018	X_WP:	0.200	Y_WP:	0.000	Y_WP:	0.500	X:	0.219	Y:	0.026	Z:	0.429	yaw:	-1.017	yaw rate:	30.123	Roll:	-0.143	Pitch:	0.421	Yaw:	-2.376	Thrust:	86.023
Time:	5.073	Roll Set Point:	-0.238	Pitch Set Point:	-0.052	Yaw Set Point:	0.014	X_WP:	0.200	Y_WP:	0.000	Y_WP:	0.500	X:	0.219	Y:	0.026	Z:	0.429	yaw:	-0.828	yaw rate:	-18.851	Roll:	0.680	Pitch:	0.048	Yaw:	2.722	Thrust:	57.488
Time:	5.097	Roll Set Point:	-0.238	Pitch Set Point:	-0.051	Yaw Set Point:	0.012	X_WP:	0.200	Y_WP:	0.000	Y_WP:	0.500	X:	0.219	Y:	0.025	Z:	0.430	yaw:	-0.686	yaw rate:	-14.226	Roll:	0.628	Pitch:	0.141	Yaw:	1.975	Thrust:	70.846
Time:	5.108	Roll Set Point:	-0.238	Pitch Set Point:	-0.050	Yaw Set Point:	0.005	X_WP:	0.200	Y_WP:	0.000	Y_WP:	0.500	X:	0.219	Y:	0.025	Z:	0.430	yaw:	-0.298	yaw rate:	-38.750	Roll:	0.786	Pitch:	-0.020	Yaw:	9.034	Thrust:	38.332
Time:	5.134	Roll Set Point:	-0.238	Pitch Set Point:	-0.050	Yaw Set Point:	0.023	X_WP:	0.200	Y_WP:	0.000	Y_WP:	0.500	X:	0.219	Y:	0.025	Z:	0.431	yaw:	-1.325	yaw rate:	102.649	Roll:	0.385	Pitch:	0.251	Yaw:	-11.052	Thrust:	77.810
Time:	5.147	Roll Set Point:	-0.237	Pitch Set Point:	-0.050	Yaw Set Point:	0.013	X_WP:	0.200	Y_WP:	0.000	Y_WP:	0.500	X:	0.219	Y:	0.025	Z:	0.431	yaw:	-0.744	yaw rate:	-58.078	Roll:	0.330	Pitch:	0.443	Yaw:	11.367	Thrust:	43.401
Time:	5.168	Roll Set Point:	-0.236	Pitch Set Point:	-0.050	Yaw Set Point:	0.032	X_WP:	0.200	Y_WP:	0.000	Y_WP:	0.500	X:	0.218	Y:	0.025	Z:	0.431	yaw:	-1.859	yaw rate:	111.527	Roll:	0.061	Pitch:	0.421	Yaw:	-14.850	Thrust:	65.551
Time:	5.192	Roll Set Point:	-0.236	Pitch Set Point:	-0.049	Yaw Set Point:	0.015	X_WP:	0.200	Y_WP:	0.000	Y_WP:	0.500	X:	0.218	Y:	0.024	Z:	0.431	yaw:	-0.875	yaw rate:	-98.419	Roll:	0.767	Pitch:	-0.000	Yaw:	11.278	Thrust:	71.581
Time:	5.207	Roll Set Point:	-0.236	Pitch Set Point:	-0.048	Yaw Set Point:	0.009	X_WP:	0.200	Y_WP:	0.000	Y_WP:	0.500	X:	0.218	Y:	0.024	Z:	0.430	yaw:	-0.491	yaw rate:	-38.374	Roll:	0.630	Pitch:	0.107	Yaw:	6.497	Thrust:	53.902
Time:	5.228	Roll Set Point:	-0.235	Pitch Set Point:	-0.049	Yaw Set Point:	0.020	X_WP:	0.200	Y_WP:	0.000	Y_WP:	0.500	X:	0.218	Y:	0.024	Z:	0.430	yaw:	-1.160	yaw rate:	66.861	Roll:	0.139	Pitch:	0.527	Yaw:	-8.696	Thrust:	66.243
Time:	5.248	Roll Set Point:	-0.236	Pitch Set Point:	-0.048	Yaw Set Point:	0.012	X_WP:	0.200	Y_WP:	0.000	Y_WP:	0.500	X:	0.218	Y:	0.024	Z:	0.430	yaw:	-0.668	yaw rate:	-49.226	Roll:	0.928	Pitch:	-0.035	Yaw:	6.829	Thrust:	64.673
Time:	5.273	Roll Set Point:	-0.235	Pitch Set Point:	-0.047	Yaw Set Point:	0.002	X_WP:	0.200	Y_WP:	0.000	Y_WP:	0.500	X:	0.218	Y:	0.023	Z:	0.430	yaw:	-0.103	yaw rate:	-56.428	Roll:	0.659	Pitch:	-0.056	Yaw:	7.140	Thrust:	78.583
Time:	5.291	Roll Set Point:	-0.234	Pitch Set Point:	-0.047	Yaw Set Point:	0.029	X_WP:	0.200	Y_WP:	0.000	Y_WP:	0.500	X:	0.218	Y:	0.023	Z:	0.430	yaw:	-1.643	yaw rate:	154.006	Roll:	-0.241	Pitch:	0.584	Yaw:	-23.944	Thrust:	54.110
Time:	5.309	Roll Set Point:	-0.233	Pitch Set Point:	-0.047	Yaw Set Point:	0.038	X_WP:	0.200	Y_WP:	0.000	Y_WP:	0.500	X:	0.217	Y:	0.023	Z:	0.428	yaw:	-2.152	yaw rate:	50.903	Roll:	-0.337	Pitch:	0.664	Yaw:	-9.417	Thrust:	64.482
Time:	5.330	Roll Set Point:	-0.234	Pitch Set Point:	-0.046	Yaw Set Point:	0.015	X_WP:	0.200	Y_WP:	0.000	Y_WP:	0.500	X:	0.217	Y:	0.023	Z:	0.428	yaw:	-0.837	yaw rate:	-131.526	Roll:	1.308	Pitch:	-0.436	Yaw:	15.922	Thrust:	69.497
