Time:	0.047	Roll Set Point:	0.012	Pitch Set Point:	-0.042	Yaw Set Point:	0.290	X_WP:	0.000	Y_WP:	0.000	Z_WP:	0.500	X:	-0.003	Y:	0.022	Z:	0.058	yaw:	-16.627	yaw rate:	1.103	Roll:	-0.045	Pitch:	0.101	Yaw:	-23.216	Thrust:	24.312
Time:	0.067	Roll Set Point:	0.012	Pitch Set Point:	-0.042	Yaw Set Point:	0.290	X_WP:	0.000	Y_WP:	0.000	Z_WP:	0.500	X:	-0.003	Y:	0.022	Z:	0.058	yaw:	-16.629	yaw rate:	0.204	Roll:	-0.035	Pitch:	0.088	Yaw:	-23.362	Thrust:	25.346
Time:	0.087	Roll Set Point:	0.012	Pitch Set Point:	-0.042	Yaw Set Point:	0.290	X_WP:	0.000	Y_WP:	0.000	Z_WP:	0.500	X:	-0.003	Y:	0.022	Z:	0.058	yaw:	-16.601	yaw rate:	-2.876	Roll:	-0.230	Pitch:	0.185	Yaw:	-23.008	Thrust:	26.043
Time:	0.107	Roll Set Point:	0.012	Pitch Set Point:	-0.042	Yaw Set Point:	0.291	X_WP:	0.000	Y_WP:	0.000	Z_WP:	0.500	X:	-0.003	Y:	0.022	Z:	0.058	yaw:	-16.686	yaw rate:	8.510	Roll:	-0.137	Pitch:	0.090	Yaw:	-24.754	Thrust:	27.392
Time:	0.128	Roll Set Point:	0.012	Pitch Set Point:	-0.042	Yaw Set Point:	0.290	X_WP:	0.000	Y_WP:	0.000	Z_WP:	0.500	X:	-0.003	Y:	0.022	Z:	0.058	yaw:	-16.608	yaw rate:	-7.809	Roll:	0.019	Pitch:	0.144	Yaw:	-22.696	Thrust:	28.719
Time:	0.147	Roll Set Point:	0.012	Pitch Set Point:	-0.042	Yaw Set Point:	0.291	X_WP:	0.000	Y_WP:	0.000	Z_WP:	0.500	X:	-0.003	Y:	0.022	Z:	0.058	yaw:	-16.656	yaw rate:	4.807	Roll:	0.188	Pitch:	0.003	Yaw:	-24.469	Thrust:	29.824
Time:	0.167	Roll Set Point:	0.012	Pitch Set Point:	-0.042	Yaw Set Point:	0.291	X_WP:	0.000	Y_WP:	0.000	Z_WP:	0.500	X:	-0.003	Y:	0.022	Z:	0.058	yaw:	-16.687	yaw rate:	3.076	Roll:	-0.269	Pitch:	0.174	Yaw:	-24.407	Thrust:	30.244
Time:	0.187	Roll Set Point:	0.012	Pitch Set Point:	-0.042	Yaw Set Point:	0.291	X_WP:	0.000	Y_WP:	0.000	Z_WP:	0.500	X:	-0.003	Y:	0.022	Z:	0.058	yaw:	-16.667	yaw rate:	-1.978	Roll:	-0.044	Pitch:	0.138	Yaw:	-23.803	Thrust:	31.785
Time:	0.207	Roll Set Point:	0.012	Pitch Set Point:	-0.042	Yaw Set Point:	0.287	X_WP:	0.000	Y_WP:	0.000	Z_WP:	0.500	X:	-0.003	Y:	0.022	Z:	0.058	yaw:	-16.446	yaw rate:	-22.116	Roll:	-0.054	Pitch:	-0.019	Yaw:	-21.008	Thrust:	32.994
Time:	0.229	Roll Set Point:	0.012	Pitch Set Point:	-0.042	Yaw Set Point:	0.289	X_WP:	0.000	Y_WP:	0.000	Z_WP:	0.500	X:	-0.003	Y:	0.022	Z:	0.058	yaw:	-16.558	yaw rate:	11.241	Roll:	-0.044	Pitch:	0.164	Yaw:	-25.605	Thrust:	34.950
Time:	0.247	Roll Set Point:	0.012	Pitch Set Point:	-0.042	Yaw Set Point:	0.290	X_WP:	0.000	Y_WP:	0.000	Z_WP:	0.500	X:	-0.003	Y:	0.022	Z:	0.058	yaw:	-16.589	yaw rate:	3.110	Roll:	-0.084	Pitch:	0.106	Yaw:	-24.666	Thrust:	33.677
Time:	0.267	Roll Set Point:	0.012	Pitch Set Point:	-0.042	Yaw Set Point:	0.290	X_WP:	0.000	Y_WP:	0.000	Z_WP:	0.500	X:	-0.003	Y:	0.022	Z:	0.058	yaw:	-16.618	yaw rate:	2.942	Roll:	0.016	Pitch:	0.148	Yaw:	-24.853	Thrust:	35.746
Time:	0.288	Roll Set Point:	0.012	Pitch Set Point:	-0.042	Yaw Set Point:	0.287	X_WP:	0.000	Y_WP:	0.000	Z_WP:	0.500	X:	-0.003	Y:	0.022	Z:	0.058	yaw:	-16.471	yaw rate:	-14.749	Roll:	-0.013	Pitch:	0.177	Yaw:	-22.416	Thrust:	36.857
Time:	0.307	Roll Set Point:	0.012	Pitch Set Point:	-0.042	Yaw Set Point:	0.288	X_WP:	0.000	Y_WP:	0.000	Z_WP:	0.500	X:	-0.003	Y:	0.022	Z:	0.058	yaw:	-16.509	yaw rate:	3.812	Roll:	-0.107	Pitch:	0.125	Yaw:	-25.087	Thrust:	38.159
Time:	0.327	Roll Set Point:	0.012	Pitch Set Point:	-0.042	Yaw Set Point:	0.288	X_WP:	0.000	Y_WP:	0.000	Z_WP:	0.500	X:	-0.003	Y:	0.022	Z:	0.058	yaw:	-16.498	yaw rate:	-1.129	Roll:	-0.034	Pitch:	0.111	Yaw:	-24.520	Thrust:	39.558
Time:	0.347	Roll Set Point:	0.012	Pitch Set Point:	-0.042	Yaw Set Point:	0.288	X_WP:	0.000	Y_WP:	0.000	Z_WP:	0.500	X:	-0.003	Y:	0.022	Z:	0.058	yaw:	-16.520	yaw rate:	2.250	Roll:	-0.035	Pitch:	0.118	Yaw:	-25.059	Thrust:	39.768
Time:	0.367	Roll Set Point:	0.012	Pitch Set Point:	-0.042	Yaw Set Point:	0.286	X_WP:	0.000	Y_WP:	0.000	Z_WP:	0.500	X:	-0.003	Y:	0.022	Z:	0.058	yaw:	-16.381	yaw rate:	-13.956	Roll:	0.008	Pitch:	0.070	Yaw:	-23.001	Thrust:	42.040
Time:	0.388	Roll Set Point:	0.012	Pitch Set Point:	-0.042	Yaw Set Point:	0.287	X_WP:	0.000	Y_WP:	0.000	Z_WP:	0.500	X:	-0.003	Y:	0.022	Z:	0.058	yaw:	-16.444	yaw rate:	6.294	Roll:	0.092	Pitch:	0.072	Yaw:	-25.816	Thrust:	43.406
Time:	0.407	Roll Set Point:	0.012	Pitch Set Point:	-0.042	Yaw Set Point:	0.287	X_WP:	0.000	Y_WP:	0.000	Z_WP:	0.500	X:	-0.003	Y:	0.022	Z:	0.058	yaw:	-16.430	yaw rate:	-1.351	Roll:	-0.059	Pitch:	0.125	Yaw:	-24.717	Thrust:	41.847
Time:	0.429	Roll Set Point:	0.012	Pitch Set Point:	-0.042	Yaw Set Point:	0.288	X_WP:	0.000	Y_WP:	0.000	Z_WP:	0.500	X:	-0.003	Y:	0.022	Z:	0.058	yaw:	-16.489	yaw rate:	5.899	Roll:	-0.026	Pitch:	0.075	Yaw:	-26.156	Thrust:	46.689
Time:	0.446	Roll Set Point:	0.012	Pitch Set Point:	-0.042	Yaw Set Point:	0.286	X_WP:	0.000	Y_WP:	0.000	Z_WP:	0.500	X:	-0.003	Y:	0.022	Z:	0.058	yaw:	-16.400	yaw rate:	-8.941	Roll:	-0.073	Pitch:	0.051	Yaw:	-23.409	Thrust:	42.812
Time:	0.468	Roll Set Point:	0.012	Pitch Set Point:	-0.042	Yaw Set Point:	0.285	X_WP:	0.000	Y_WP:	0.000	Z_WP:	0.500	X:	-0.003	Y:	0.022	Z:	0.058	yaw:	-16.355	yaw rate:	-4.443	Roll:	-0.111	Pitch:	0.038	Yaw:	-24.908	Thrust:	48.146
Time:	0.487	Roll Set Point:	0.012	Pitch Set Point:	-0.042	Yaw Set Point:	0.286	X_WP:	0.000	Y_WP:	0.000	Z_WP:	0.500	X:	-0.003	Y:	0.022	Z:	0.058	yaw:	-16.408	yaw rate:	5.289	Roll:	0.113	Pitch:	0.133	Yaw:	-26.108	Thrust:	47.627
Time:	0.507	Roll Set Point:	0.012	Pitch Set Point:	-0.042	Yaw Set Point:	0.289	X_WP:	0.000	Y_WP:	0.000	Z_WP:	0.500	X:	-0.003	Y:	0.022	Z:	0.058	yaw:	-16.585	yaw rate:	17.692	Roll:	-0.105	Pitch:	0.153	Yaw:	-28.126	Thrust:	47.666
Time:	0.528	Roll Set Point:	0.012	Pitch Set Point:	-0.042	Yaw Set Point:	0.288	X_WP:	0.000	Y_WP:	0.000	Z_WP:	0.500	X:	-0.003	Y:	0.022	Z:	0.058	yaw:	-16.526	yaw rate:	-5.932	Roll:	-0.042	Pitch:	0.115	Yaw:	-25.178	Thrust:	50.548
Time:	0.551	Roll Set Point:	0.012	Pitch Set Point:	-0.042	Yaw Set Point:	0.287	X_WP:	0.000	Y_WP:	0.000	Z_WP:	0.500	X:	-0.003	Y:	0.022	Z:	0.058	yaw:	-16.458	yaw rate:	-6.799	Roll:	-0.033	Pitch:	0.138	Yaw:	-25.629	Thrust:	54.960
Time:	0.568	Roll Set Point:	0.012	Pitch Set Point:	-0.042	Yaw Set Point:	0.286	X_WP:	0.000	Y_WP:	0.000	Z_WP:	0.500	X:	-0.003	Y:	0.022	Z:	0.058	yaw:	-16.401	yaw rate:	-5.673	Roll:	-0.056	Pitch:	0.039	Yaw:	-24.489	Thrust:	48.307
Time:	0.589	Roll Set Point:	0.012	Pitch Set Point:	-0.041	Yaw Set Point:	0.286	X_WP:	0.000	Y_WP:	0.000	Z_WP:	0.500	X:	-0.003	Y:	0.022	Z:	0.058	yaw:	-16.396	yaw rate:	-0.556	Roll:	-0.100	Pitch:	0.078	Yaw:	-25.946	Thrust:	53.202
Time:	0.607	Roll Set Point:	0.012	Pitch Set Point:	-0.041	Yaw Set Point:	0.283	X_WP:	0.000	Y_WP:	0.000	Z_WP:	0.500	X:	-0.003	Y:	0.022	Z:	0.058	yaw:	-16.215	yaw rate:	-18.081	Roll:	-0.061	Pitch:	0.120	Yaw:	-23.217	Thrust:	52.464
Time:	0.628	Roll Set Point:	0.012	Pitch Set Point:	-0.041	Yaw Set Point:	0.280	X_WP:	0.000	Y_WP:	0.000	Z_WP:	0.500	X:	-0.003	Y:	0.022	Z:	0.058	yaw:	-16.042	yaw rate:	-17.289	Roll:	-0.139	Pitch:	0.081	Yaw:	-23.691	Thrust:	56.280
Time:	0.647	Roll Set Point:	0.012	Pitch Set Point:	-0.041	Yaw Set Point:	0.275	X_WP:	0.000	Y_WP:	0.000	Z_WP:	0.500	X:	-0.003	Y:	0.021	Z:	0.058	yaw:	-15.774	yaw rate:	-26.740	Roll:	0.061	Pitch:	-0.051	Yaw:	-21.725	Thrust:	54.946
Time:	0.667	Roll Set Point:	0.012	Pitch Set Point:	-0.040	Yaw Set Point:	0.272	X_WP:	0.000	Y_WP:	0.000	Z_WP:	0.500	X:	-0.003	Y:	0.021	Z:	0.058	yaw:	-15.612	yaw rate:	-16.294	Roll:	0.006	Pitch:	-0.154	Yaw:	-23.311	Thrust:	57.537
Time:	0.690	Roll Set Point:	0.011	Pitch Set Point:	-0.039	Yaw Set Point:	0.258	X_WP:	0.000	Y_WP:	0.000	Z_WP:	0.500	X:	-0.003	Y:	0.020	Z:	0.058	yaw:	-14.763	yaw rate:	-84.829	Roll:	0.477	Pitch:	-0.424	Yaw:	-14.805	Thrust:	63.098
Time:	0.707	Roll Set Point:	0.012	Pitch Set Point:	-0.038	Yaw Set Point:	0.259	X_WP:	0.000	Y_WP:	0.000	Z_WP:	0.500	X:	-0.004	Y:	0.020	Z:	0.058	yaw:	-14.835	yaw rate:	7.159	Roll:	-0.434	Pitch:	-0.053	Yaw:	-25.071	Thrust:	53.104
Time:	0.729	Roll Set Point:	0.012	Pitch Set Point:	-0.037	Yaw Set Point:	0.251	X_WP:	0.000	Y_WP:	0.000	Z_WP:	0.500	X:	-0.004	Y:	0.019	Z:	0.058	yaw:	-14.358	yaw rate:	-47.724	Roll:	0.080	Pitch:	-0.180	Yaw:	-18.735	Thrust:	63.880
Time:	0.747	Roll Set Point:	0.012	Pitch Set Point:	-0.037	Yaw Set Point:	0.242	X_WP:	0.000	Y_WP:	0.000	Z_WP:	0.500	X:	-0.004	Y:	0.019	Z:	0.059	yaw:	-13.877	yaw rate:	-48.104	Roll:	-0.112	Pitch:	-0.241	Yaw:	-15.916	Thrust:	56.860
Time:	0.767	Roll Set Point:	0.013	Pitch Set Point:	-0.035	Yaw Set Point:	0.234	X_WP:	0.000	Y_WP:	0.000	Z_WP:	0.500	X:	-0.004	Y:	0.018	Z:	0.059	yaw:	-13.412	yaw rate:	-46.473	Roll:	-0.197	Pitch:	-0.420	Yaw:	-16.664	Thrust:	62.368
Time:	0.787	Roll Set Point:	0.013	Pitch Set Point:	-0.033	Yaw Set Point:	0.238	X_WP:	0.000	Y_WP:	0.000	Z_WP:	0.500	X:	-0.004	Y:	0.017	Z:	0.060	yaw:	-13.645	yaw rate:	23.321	Roll:	0.135	Pitch:	-0.840	Yaw:	-26.115	Thrust:	62.296
Time:	0.807	Roll Set Point:	0.013	Pitch Set Point:	-0.031	Yaw Set Point:	0.216	X_WP:	0.000	Y_WP:	0.000	Z_WP:	0.500	X:	-0.005	Y:	0.016	Z:	0.059	yaw:	-12.386	yaw rate:	-125.883	Roll:	0.281	Pitch:	-0.980	Yaw:	-4.350	Thrust:	64.143
Time:	0.829	Roll Set Point:	0.014	Pitch Set Point:	-0.029	Yaw Set Point:	0.202	X_WP:	0.000	Y_WP:	0.000	Z_WP:	0.500	X:	-0.005	Y:	0.015	Z:	0.061	yaw:	-11.588	yaw rate:	-79.806	Roll:	-0.318	Pitch:	-0.487	Yaw:	-11.033	Thrust:	65.469
Time:	0.847	Roll Set Point:	0.014	Pitch Set Point:	-0.026	Yaw Set Point:	0.194	X_WP:	0.000	Y_WP:	0.000	Z_WP:	0.500	X:	-0.006	Y:	0.013	Z:	0.062	yaw:	-11.136	yaw rate:	-45.244	Roll:	-0.029	Pitch:	-1.436	Yaw:	-12.619	Thrust:	59.771
Time:	0.867	Roll Set Point:	0.014	Pitch Set Point:	-0.022	Yaw Set Point:	0.183	X_WP:	0.000	Y_WP:	0.000	Z_WP:	0.500	X:	-0.006	Y:	0.012	Z:	0.063	yaw:	-10.506	yaw rate:	-62.995	Roll:	-0.059	Pitch:	-1.482	Yaw:	-10.246	Thrust:	64.661
Time:	0.889	Roll Set Point:	0.015	Pitch Set Point:	-0.017	Yaw Set Point:	0.183	X_WP:	0.000	Y_WP:	0.000	Z_WP:	0.500	X:	-0.007	Y:	0.009	Z:	0.065	yaw:	-10.480	yaw rate:	-2.562	Roll:	-0.077	Pitch:	-1.915	Yaw:	-18.606	Thrust:	68.409
Time:	0.907	Roll Set Point:	0.016	Pitch Set Point:	-0.012	Yaw Set Point:	0.166	X_WP:	0.000	Y_WP:	0.000	Z_WP:	0.500	X:	-0.008	Y:	0.007	Z:	0.067	yaw:	-9.528	yaw rate:	-95.218	Roll:	-0.296	Pitch:	-2.227	Yaw:	-3.977	Thrust:	62.966
Time:	0.928	Roll Set Point:	0.018	Pitch Set Point:	-0.006	Yaw Set Point:	0.152	X_WP:	0.000	Y_WP:	0.000	Z_WP:	0.500	X:	-0.009	Y:	0.004	Z:	0.069	yaw:	-8.693	yaw rate:	-83.490	Roll:	-0.578	Pitch:	-2.536	Yaw:	-5.532	Thrust:	66.539
Time:	0.947	Roll Set Point:	0.019	Pitch Set Point:	0.000	Yaw Set Point:	0.145	X_WP:	0.000	Y_WP:	0.000	Z_WP:	0.500	X:	-0.009	Y:	0.001	Z:	0.070	yaw:	-8.281	yaw rate:	-41.227	Roll:	-0.371	Pitch:	-2.579	Yaw:	-9.968	Thrust:	66.147
Time:	0.967	Roll Set Point:	0.021	Pitch Set Point:	0.008	Yaw Set Point:	0.135	X_WP:	0.000	Y_WP:	0.000	Z_WP:	0.500	X:	-0.011	Y:	-0.003	Z:	0.074	yaw:	-7.750	yaw rate:	-53.105	Roll:	-0.736	Pitch:	-3.127	Yaw:	-7.900	Thrust:	64.548
Time:	0.989	Roll Set Point:	0.023	Pitch Set Point:	0.016	Yaw Set Point:	0.122	X_WP:	0.000	Y_WP:	0.000	Z_WP:	0.500	X:	-0.012	Y:	-0.007	Z:	0.077	yaw:	-7.003	yaw rate:	-74.667	Roll:	-0.799	Pitch:	-3.314	Yaw:	-5.057	Thrust:	66.694
Time:	1.007	Roll Set Point:	0.025	Pitch Set Point:	0.024	Yaw Set Point:	0.116	X_WP:	0.000	Y_WP:	0.000	Z_WP:	0.500	X:	-0.013	Y:	-0.011	Z:	0.081	yaw:	-6.628	yaw rate:	-37.460	Roll:	-0.810	Pitch:	-3.611	Yaw:	-7.721	Thrust:	64.789
Time:	1.029	Roll Set Point:	0.028	Pitch Set Point:	0.033	Yaw Set Point:	0.107	X_WP:	0.000	Y_WP:	0.000	Z_WP:	0.500	X:	-0.015	Y:	-0.016	Z:	0.085	yaw:	-6.149	yaw rate:	-47.979	Roll:	-1.037	Pitch:	-3.571	Yaw:	-7.077	Thrust:	70.573
Time:	1.047	Roll Set Point:	0.031	Pitch Set Point:	0.042	Yaw Set Point:	0.104	X_WP:	0.000	Y_WP:	0.000	Z_WP:	0.500	X:	-0.017	Y:	-0.020	Z:	0.089	yaw:	-5.931	yaw rate:	-21.728	Roll:	-1.178	Pitch:	-4.503	Yaw:	-8.611	Thrust:	57.986
Time:	1.067	Roll Set Point:	0.034	Pitch Set Point:	0.052	Yaw Set Point:	0.099	X_WP:	0.000	Y_WP:	0.000	Z_WP:	0.500	X:	-0.018	Y:	-0.025	Z:	0.094	yaw:	-5.659	yaw rate:	-27.288	Roll:	-1.235	Pitch:	-4.224	Yaw:	-8.565	Thrust:	67.699
Time:	1.089	Roll Set Point:	0.037	Pitch Set Point:	0.063	Yaw Set Point:	0.094	X_WP:	0.000	Y_WP:	0.000	Z_WP:	0.500	X:	-0.020	Y:	-0.030	Z:	0.099	yaw:	-5.386	yaw rate:	-27.288	Roll:	-1.202	Pitch:	-4.363	Yaw:	-8.635	Thrust:	71.846
Time:	1.108	Roll Set Point:	0.040	Pitch Set Point:	0.073	Yaw Set Point:	0.093	X_WP:	0.000	Y_WP:	0.000	Z_WP:	0.500	X:	-0.022	Y:	-0.036	Z:	0.104	yaw:	-5.302	yaw rate:	-8.373	Roll:	-1.232	Pitch:	-4.905	Yaw:	-9.933	Thrust:	60.853
Time:	1.128	Roll Set Point:	0.042	Pitch Set Point:	0.084	Yaw Set Point:	0.099	X_WP:	0.000	Y_WP:	0.000	Z_WP:	0.500	X:	-0.023	Y:	-0.041	Z:	0.109	yaw:	-5.670	yaw rate:	36.835	Roll:	-0.835	Pitch:	-4.837	Yaw:	-16.746	Thrust:	66.369
Time:	1.147	Roll Set Point:	0.045	Pitch Set Point:	0.095	Yaw Set Point:	0.096	X_WP:	0.000	Y_WP:	0.000	Z_WP:	0.500	X:	-0.025	Y:	-0.047	Z:	0.114	yaw:	-5.509	yaw rate:	-16.116	Roll:	-1.213	Pitch:	-5.195	Yaw:	-9.505	Thrust:	65.522
Time:	1.167	Roll Set Point:	0.049	Pitch Set Point:	0.107	Yaw Set Point:	0.092	X_WP:	0.000	Y_WP:	0.000	Z_WP:	0.500	X:	-0.027	Y:	-0.052	Z:	0.120	yaw:	-5.264	yaw rate:	-24.500	Roll:	-1.458	Pitch:	-5.238	Yaw:	-8.140	Thrust:	66.490
Time:	1.190	Roll Set Point:	0.053	Pitch Set Point:	0.119	Yaw Set Point:	0.079	X_WP:	0.000	Y_WP:	0.000	Z_WP:	0.500	X:	-0.029	Y:	-0.059	Z:	0.126	yaw:	-4.506	yaw rate:	-75.818	Roll:	-1.865	Pitch:	-5.122	Yaw:	-1.151	Thrust:	71.650
Time:	1.207	Roll Set Point:	0.056	Pitch Set Point:	0.131	Yaw Set Point:	0.081	X_WP:	0.000	Y_WP:	0.000	Z_WP:	0.500	X:	-0.031	Y:	-0.064	Z:	0.132	yaw:	-4.629	yaw rate:	12.318	Roll:	-1.328	Pitch:	-5.610	Yaw:	-11.914	Thrust:	60.940
Time:	1.227	Roll Set Point:	0.060	Pitch Set Point:	0.143	Yaw Set Point:	0.077	X_WP:	0.000	Y_WP:	0.000	Z_WP:	0.500	X:	-0.033	Y:	-0.070	Z:	0.138	yaw:	-4.430	yaw rate:	-19.945	Roll:	-1.584	Pitch:	-5.469	Yaw:	-7.568	Thrust:	67.252
Time:	1.247	Roll Set Point:	0.063	Pitch Set Point:	0.155	Yaw Set Point:	0.073	X_WP:	0.000	Y_WP:	0.000	Z_WP:	0.500	X:	-0.034	Y:	-0.076	Z:	0.144	yaw:	-4.166	yaw rate:	-26.387	Roll:	-1.778	Pitch:	-5.457	Yaw:	-6.259	Thrust:	66.195
Time:	1.267	Roll Set Point:	0.067	Pitch Set Point:	0.166	Yaw Set Point:	0.069	X_WP:	0.000	Y_WP:	0.000	Z_WP:	0.500	X:	-0.036	Y:	-0.082	Z:	0.151	yaw:	-3.948	yaw rate:	-21.744	Roll:	-1.641	Pitch:	-5.270	Yaw:	-6.877	Thrust:	69.700
Time:	1.287	Roll Set Point:	0.071	Pitch Set Point:	0.178	Yaw Set Point:	0.066	X_WP:	0.000	Y_WP:	0.000	Z_WP:	0.500	X:	-0.038	Y:	-0.088	Z:	0.158	yaw:	-3.775	yaw rate:	-17.321	Roll:	-1.657	Pitch:	-5.598	Yaw:	-6.885	Thrust:	65.968
Time:	1.307	Roll Set Point:	0.075	Pitch Set Point:	0.190	Yaw Set Point:	0.060	X_WP:	0.000	Y_WP:	0.000	Z_WP:	0.500	X:	-0.040	Y:	-0.094	Z:	0.165	yaw:	-3.433	yaw rate:	-34.179	Roll:	-2.047	Pitch:	-5.388	Yaw:	-4.132	Thrust:	65.540
Time:	1.328	Roll Set Point:	0.079	Pitch Set Point:	0.201	Yaw Set Point:	0.047	X_WP:	0.000	Y_WP:	0.000	Z_WP:	0.500	X:	-0.042	Y:	-0.100	Z:	0.172	yaw:	-2.719	yaw rate:	-71.459	Roll:	-2.632	Pitch:	-5.128	Yaw:	1.102	Thrust:	69.530
Time:	1.347	Roll Set Point:	0.083	Pitch Set Point:	0.213	Yaw Set Point:	0.046	X_WP:	0.000	Y_WP:	0.000	Z_WP:	0.500	X:	-0.044	Y:	-0.105	Z:	0.179	yaw:	-2.661	yaw rate:	-5.744	Roll:	-1.664	Pitch:	-5.418	Yaw:	-6.920	Thrust:	66.017
Time:	1.367	Roll Set Point:	0.087	Pitch Set Point:	0.223	Yaw Set Point:	0.041	X_WP:	0.000	Y_WP:	0.000	Z_WP:	0.500	X:	-0.046	Y:	-0.111	Z:	0.187	yaw:	-2.354	yaw rate:	-30.733	Roll:	-2.039	Pitch:	-5.150	Yaw:	-3.290	Thrust:	65.173
Time:	1.388	Roll Set Point:	0.092	Pitch Set Point:	0.234	Yaw Set Point:	0.027	X_WP:	0.000	Y_WP:	0.000	Z_WP:	0.500	X:	-0.048	Y:	-0.116	Z:	0.195	yaw:	-1.549	yaw rate:	-80.451	Roll:	-3.054	Pitch:	-4.993	Yaw:	4.168	Thrust:	70.862
Time:	1.407	Roll Set Point:	0.094	Pitch Set Point:	0.244	Yaw Set Point:	0.035	X_WP:	0.000	Y_WP:	0.000	Z_WP:	0.500	X:	-0.049	Y:	-0.121	Z:	0.203	yaw:	-2.007	yaw rate:	45.786	Roll:	-0.612	Pitch:	-4.908	Yaw:	-12.841	Thrust:	61.842
Time:	1.429	Roll Set Point:	0.097	Pitch Set Point:	0.253	Yaw Set Point:	0.032	X_WP:	0.000	Y_WP:	0.000	Z_WP:	0.500	X:	-0.051	Y:	-0.126	Z:	0.211	yaw:	-1.837	yaw rate:	-17.030	Roll:	-1.677	Pitch:	-4.310	Yaw:	-5.051	Thrust:	78.717
Time:	1.447	Roll Set Point:	0.101	Pitch Set Point:	0.263	Yaw Set Point:	0.027	X_WP:	0.000	Y_WP:	0.000	Z_WP:	0.500	X:	-0.052	Y:	-0.131	Z:	0.220	yaw:	-1.569	yaw rate:	-26.808	Roll:	-2.304	Pitch:	-5.529	Yaw:	-1.646	Thrust:	48.720
Time:	1.467	Roll Set Point:	0.105	Pitch Set Point:	0.272	Yaw Set Point:	0.017	X_WP:	0.000	Y_WP:	0.000	Z_WP:	0.500	X:	-0.054	Y:	-0.136	Z:	0.228	yaw:	-0.988	yaw rate:	-58.134	Roll:	-2.633	Pitch:	-4.353	Yaw:	2.480	Thrust:	68.745
Time:	1.487	Roll Set Point:	0.106	Pitch Set Point:	0.281	Yaw Set Point:	0.025	X_WP:	0.000	Y_WP:	0.000	Z_WP:	0.500	X:	-0.055	Y:	-0.140	Z:	0.237	yaw:	-1.434	yaw rate:	44.646	Roll:	-0.245	Pitch:	-4.619	Yaw:	-11.806	Thrust:	67.588
Time:	1.507	Roll Set Point:	0.108	Pitch Set Point:	0.289	Yaw Set Point:	0.025	X_WP:	0.000	Y_WP:	0.000	Z_WP:	0.500	X:	-0.056	Y:	-0.144	Z:	0.246	yaw:	-1.428	yaw rate:	-0.625	Roll:	-1.206	Pitch:	-4.278	Yaw:	-5.952	Thrust:	64.210
Time:	1.527	Roll Set Point:	0.111	Pitch Set Point:	0.297	Yaw Set Point:	0.021	X_WP:	0.000	Y_WP:	0.000	Z_WP:	0.500	X:	-0.057	Y:	-0.148	Z:	0.257	yaw:	-1.216	yaw rate:	-21.207	Roll:	-1.877	Pitch:	-3.980	Yaw:	-2.972	Thrust:	65.413
Time:	1.546	Roll Set Point:	0.116	Pitch Set Point:	0.305	Yaw Set Point:	0.010	X_WP:	0.000	Y_WP:	0.000	Z_WP:	0.500	X:	-0.059	Y:	-0.152	Z:	0.267	yaw:	-0.547	yaw rate:	-66.852	Roll:	-2.923	Pitch:	-4.122	Yaw:	4.788	Thrust:	57.007
Time:	1.567	Roll Set Point:	0.118	Pitch Set Point:	0.312	Yaw Set Point:	0.008	X_WP:	0.000	Y_WP:	0.000	Z_WP:	0.500	X:	-0.060	Y:	-0.156	Z:	0.277	yaw:	-0.446	yaw rate:	-10.150	Roll:	-1.558	Pitch:	-3.923	Yaw:	-3.508	Thrust:	65.679
Time:	1.589	Roll Set Point:	0.119	Pitch Set Point:	0.319	Yaw Set Point:	0.012	X_WP:	0.000	Y_WP:	0.000	Z_WP:	0.500	X:	-0.061	Y:	-0.159	Z:	0.288	yaw:	-0.708	yaw rate:	26.217	Roll:	-0.403	Pitch:	-3.642	Yaw:	-8.488	Thrust:	64.242
Time:	1.607	Roll Set Point:	0.124	Pitch Set Point:	0.326	Yaw Set Point:	-0.001	X_WP:	0.000	Y_WP:	0.000	Z_WP:	0.500	X:	-0.062	Y:	-0.163	Z:	0.299	yaw:	0.080	yaw rate:	-78.764	Roll:	-3.247	Pitch:	-3.577	Yaw:	7.830	Thrust:	56.684
Time:	1.629	Roll Set Point:	0.126	Pitch Set Point:	0.332	Yaw Set Point:	-0.002	X_WP:	0.000	Y_WP:	0.000	Z_WP:	0.500	X:	-0.063	Y:	-0.166	Z:	0.311	yaw:	0.122	yaw rate:	-4.232	Roll:	-1.244	Pitch:	-3.322	Yaw:	-3.771	Thrust:	71.004
Time:	1.646	Roll Set Point:	0.126	Pitch Set Point:	0.338	Yaw Set Point:	0.004	X_WP:	0.000	Y_WP:	0.000	Z_WP:	0.500	X:	-0.063	Y:	-0.169	Z:	0.322	yaw:	-0.223	yaw rate:	34.547	Roll:	-0.179	Pitch:	-3.944	Yaw:	-9.021	Thrust:	43.988
Time:	1.667	Roll Set Point:	0.129	Pitch Set Point:	0.343	Yaw Set Point:	0.002	X_WP:	0.000	Y_WP:	0.000	Z_WP:	0.500	X:	-0.065	Y:	-0.171	Z:	0.334	yaw:	-0.092	yaw rate:	-13.185	Roll:	-1.740	Pitch:	-3.083	Yaw:	-2.709	Thrust:	63.051
Time:	1.690	Roll Set Point:	0.133	Pitch Set Point:	0.348	Yaw Set Point:	-0.007	X_WP:	0.000	Y_WP:	0.000	Z_WP:	0.500	X:	-0.066	Y:	-0.174	Z:	0.346	yaw:	0.381	yaw rate:	-47.256	Roll:	-2.275	Pitch:	-2.788	Yaw:	1.192	Thrust:	70.108
Time:	1.707	Roll Set Point:	0.134	Pitch Set Point:	0.353	Yaw Set Point:	-0.006	X_WP:	0.000	Y_WP:	0.000	Z_WP:	0.500	X:	-0.067	Y:	-0.177	Z:	0.357	yaw:	0.334	yaw rate:	4.685	Roll:	-1.053	Pitch:	-3.536	Yaw:	-3.619	Thrust:	45.274
Time:	1.727	Roll Set Point:	0.137	Pitch Set Point:	0.358	Yaw Set Point:	-0.010	X_WP:	0.000	Y_WP:	0.000	Z_WP:	0.500	X:	-0.067	Y:	-0.179	Z:	0.369	yaw:	0.581	yaw rate:	-24.711	Roll:	-1.863	Pitch:	-2.851	Yaw:	-0.002	Thrust:	60.902
Time:	1.746	Roll Set Point:	0.139	Pitch Set Point:	0.362	Yaw Set Point:	-0.012	X_WP:	0.000	Y_WP:	0.000	Z_WP:	0.500	X:	-0.068	Y:	-0.182	Z:	0.379	yaw:	0.703	yaw rate:	-12.161	Roll:	-1.571	Pitch:	-2.903	Yaw:	-1.108	Thrust:	54.418
Time:	1.768	Roll Set Point:	0.140	Pitch Set Point:	0.367	Yaw Set Point:	-0.009	X_WP:	0.000	Y_WP:	0.000	Z_WP:	0.500	X:	-0.069	Y:	-0.184	Z:	0.391	yaw:	0.505	yaw rate:	19.788	Roll:	-0.745	Pitch:	-2.964	Yaw:	-5.941	Thrust:	62.690
Time:	1.788	Roll Set Point:	0.144	Pitch Set Point:	0.371	Yaw Set Point:	-0.019	X_WP:	0.000	Y_WP:	0.000	Z_WP:	0.500	X:	-0.070	Y:	-0.186	Z:	0.402	yaw:	1.077	yaw rate:	-57.201	Roll:	-2.969	Pitch:	-2.570	Yaw:	4.911	Thrust:	58.561
Time:	1.807	Roll Set Point:	0.146	Pitch Set Point:	0.374	Yaw Set Point:	-0.021	X_WP:	0.000	Y_WP:	0.000	Z_WP:	0.500	X:	-0.071	Y:	-0.188	Z:	0.412	yaw:	1.212	yaw rate:	-13.526	Roll:	-1.580	Pitch:	-2.476	Yaw:	-0.395	Thrust:	57.713
Time:	1.830	Roll Set Point:	0.148	Pitch Set Point:	0.378	Yaw Set Point:	-0.022	X_WP:	0.000	Y_WP:	0.000	Z_WP:	0.500	X:	-0.072	Y:	-0.190	Z:	0.422	yaw:	1.287	yaw rate:	-7.505	Roll:	-1.304	Pitch:	-2.427	Yaw:	-1.930	Thrust:	72.337
Time:	1.846	Roll Set Point:	0.149	Pitch Set Point:	0.381	Yaw Set Point:	-0.018	X_WP:	0.000	Y_WP:	0.000	Z_WP:	0.500	X:	-0.073	Y:	-0.191	Z:	0.432	yaw:	1.040	yaw rate:	24.689	Roll:	-0.745	Pitch:	-2.929	Yaw:	-5.735	Thrust:	43.519
Time:	1.867	Roll Set Point:	0.152	Pitch Set Point:	0.384	Yaw Set Point:	-0.021	X_WP:	0.000	Y_WP:	0.000	Z_WP:	0.500	X:	-0.074	Y:	-0.193	Z:	0.442	yaw:	1.230	yaw rate:	-18.952	Roll:	-1.798	Pitch:	-2.231	Yaw:	0.064	Thrust:	63.273
Time:	1.887	Roll Set Point:	0.155	Pitch Set Point:	0.387	Yaw Set Point:	-0.029	X_WP:	0.000	Y_WP:	0.000	Z_WP:	0.500	X:	-0.075	Y:	-0.194	Z:	0.451	yaw:	1.674	yaw rate:	-44.379	Roll:	-2.745	Pitch:	-2.014	Yaw:	4.382	Thrust:	58.717
Time:	1.907	Roll Set Point:	0.156	Pitch Set Point:	0.389	Yaw Set Point:	-0.024	X_WP:	0.000	Y_WP:	0.000	Z_WP:	0.500	X:	-0.076	Y:	-0.196	Z:	0.461	yaw:	1.359	yaw rate:	31.497	Roll:	-0.410	Pitch:	-2.557	Yaw:	-6.155	Thrust:	59.644
Time:	1.928	Roll Set Point:	0.160	Pitch Set Point:	0.391	Yaw Set Point:	-0.033	X_WP:	0.000	Y_WP:	0.000	Z_WP:	0.500	X:	-0.077	Y:	-0.197	Z:	0.469	yaw:	1.871	yaw rate:	-51.233	Roll:	-2.863	Pitch:	-1.556	Yaw:	4.916	Thrust:	66.681
Time:	1.947	Roll Set Point:	0.163	Pitch Set Point:	0.393	Yaw Set Point:	-0.035	X_WP:	0.000	Y_WP:	0.000	Z_WP:	0.500	X:	-0.078	Y:	-0.198	Z:	0.479	yaw:	2.025	yaw rate:	-15.397	Roll:	-2.154	Pitch:	-2.111	Yaw:	1.446	Thrust:	50.319
Time:	1.967	Roll Set Point:	0.165	Pitch Set Point:	0.395	Yaw Set Point:	-0.031	X_WP:	0.000	Y_WP:	0.000	Z_WP:	0.500	X:	-0.079	Y:	-0.199	Z:	0.488	yaw:	1.776	yaw rate:	24.857	Roll:	-0.843	Pitch:	-2.033	Yaw:	-4.686	Thrust:	62.566
Time:	1.987	Roll Set Point:	0.169	Pitch Set Point:	0.396	Yaw Set Point:	-0.039	X_WP:	0.000	Y_WP:	0.000	Z_WP:	0.500	X:	-0.080	Y:	-0.200	Z:	0.496	yaw:	2.261	yaw rate:	-48.496	Roll:	-3.108	Pitch:	-1.646	Yaw:	5.500	Thrust:	62.066
Time:	2.007	Roll Set Point:	0.171	Pitch Set Point:	0.398	Yaw Set Point:	-0.040	X_WP:	0.000	Y_WP:	0.000	Z_WP:	0.500	X:	-0.081	Y:	-0.201	Z:	0.503	yaw:	2.266	yaw rate:	-0.459	Roll:	-1.480	Pitch:	-1.817	Yaw:	-0.653	Thrust:	62.101
Time:	2.029	Roll Set Point:	0.173	Pitch Set Point:	0.399	Yaw Set Point:	-0.040	X_WP:	0.000	Y_WP:	0.000	Z_WP:	0.500	X:	-0.083	Y:	-0.201	Z:	0.512	yaw:	2.294	yaw rate:	-2.760	Roll:	-1.617	Pitch:	-1.777	Yaw:	-0.825	Thrust:	72.122
Time:	2.046	Roll Set Point:	0.175	Pitch Set Point:	0.400	Yaw Set Point:	-0.035	X_WP:	0.000	Y_WP:	0.000	Z_WP:	0.500	X:	-0.084	Y:	-0.202	Z:	0.520	yaw:	2.031	yaw rate:	26.275	Roll:	-1.000	Pitch:	-1.948	Yaw:	-4.467	Thrust:	44.149
Time:	2.067	Roll Set Point:	0.178	Pitch Set Point:	0.401	Yaw Set Point:	-0.040	X_WP:	0.000	Y_WP:	0.000	Z_WP:	0.500	X:	-0.085	Y:	-0.202	Z:	0.528	yaw:	2.280	yaw rate:	-24.933	Roll:	-2.280	Pitch:	-1.671	Yaw:	2.603	Thrust:	60.670
Time:	2.089	Roll Set Point:	0.181	Pitch Set Point:	0.402	Yaw Set Point:	-0.042	X_WP:	0.000	Y_WP:	0.000	Z_WP:	0.500	X:	-0.086	Y:	-0.203	Z:	0.536	yaw:	2.405	yaw rate:	-12.442	Roll:	-2.141	Pitch:	-1.567	Yaw:	0.898	Thrust:	63.868
Time:	2.107	Roll Set Point:	0.183	Pitch Set Point:	0.403	Yaw Set Point:	-0.036	X_WP:	0.000	Y_WP:	0.000	Z_WP:	0.500	X:	-0.088	Y:	-0.203	Z:	0.544	yaw:	2.082	yaw rate:	32.261	Roll:	-0.824	Pitch:	-1.835	Yaw:	-5.115	Thrust:	55.078
Time:	2.128	Roll Set Point:	0.185	Pitch Set Point:	0.404	Yaw Set Point:	-0.036	X_WP:	0.000	Y_WP:	0.000	Z_WP:	0.500	X:	-0.089	Y:	-0.204	Z:	0.553	yaw:	2.038	yaw rate:	4.390	Roll:	-1.635	Pitch:	-1.696	Yaw:	-1.595	Thrust:	60.199
Time:	2.147	Roll Set Point:	0.188	Pitch Set Point:	0.404	Yaw Set Point:	-0.036	X_WP:	0.000	Y_WP:	0.000	Z_WP:	0.500	X:	-0.090	Y:	-0.204	Z:	0.561	yaw:	2.066	yaw rate:	-2.759	Roll:	-1.926	Pitch:	-1.582	Yaw:	-0.209	Thrust:	49.618
Time:	2.168	Roll Set Point:	0.191	Pitch Set Point:	0.405	Yaw Set Point:	-0.037	X_WP:	0.000	Y_WP:	0.000	Z_WP:	0.500	X:	-0.092	Y:	-0.204	Z:	0.569	yaw:	2.137	yaw rate:	-7.123	Roll:	-1.989	Pitch:	-1.493	Yaw:	-0.212	Thrust:	61.987
Time:	2.187	Roll Set Point:	0.193	Pitch Set Point:	0.405	Yaw Set Point:	-0.037	X_WP:	0.000	Y_WP:	0.000	Z_WP:	0.500	X:	-0.093	Y:	-0.204	Z:	0.577	yaw:	2.120	yaw rate:	1.661	Roll:	-1.835	Pitch:	-1.553	Yaw:	-0.913	Thrust:	56.521
Time:	2.207	Roll Set Point:	0.196	Pitch Set Point:	0.406	Yaw Set Point:	-0.037	X_WP:	0.000	Y_WP:	0.000	Z_WP:	0.500	X:	-0.094	Y:	-0.205	Z:	0.585	yaw:	2.144	yaw rate:	-2.317	Roll:	-1.904	Pitch:	-1.534	Yaw:	-0.289	Thrust:	52.947
Time:	2.229	Roll Set Point:	0.199	Pitch Set Point:	0.406	Yaw Set Point:	-0.038	X_WP:	0.000	Y_WP:	0.000	Z_WP:	0.500	X:	-0.096	Y:	-0.205	Z:	0.592	yaw:	2.194	yaw rate:	-5.088	Roll:	-1.932	Pitch:	-1.438	Yaw:	-0.493	Thrust:	67.641
Time:	2.246	Roll Set Point:	0.203	Pitch Set Point:	0.406	Yaw Set Point:	-0.047	X_WP:	0.000	Y_WP:	0.000	Z_WP:	0.500	X:	-0.097	Y:	-0.205	Z:	0.599	yaw:	2.685	yaw rate:	-49.075	Roll:	-3.615	Pitch:	-0.939	Yaw:	8.016	Thrust:	43.646
Time:	2.268	Roll Set Point:	0.207	Pitch Set Point:	0.406	Yaw Set Point:	-0.049	X_WP:	0.000	Y_WP:	0.000	Z_WP:	0.500	X:	-0.098	Y:	-0.206	Z:	0.606	yaw:	2.785	yaw rate:	-9.958	Roll:	-2.188	Pitch:	-1.332	Yaw:	1.292	Thrust:	60.844
Time:	2.287	Roll Set Point:	0.209	Pitch Set Point:	0.406	Yaw Set Point:	-0.045	X_WP:	0.000	Y_WP:	0.000	Z_WP:	0.500	X:	-0.100	Y:	-0.205	Z:	0.613	yaw:	2.567	yaw rate:	21.739	Roll:	-1.318	Pitch:	-1.529	Yaw:	-2.895	Thrust:	54.884
Time:	2.307	Roll Set Point:	0.212	Pitch Set Point:	0.406	Yaw Set Point:	-0.046	X_WP:	0.000	Y_WP:	0.000	Z_WP:	0.500	X:	-0.101	Y:	-0.205	Z:	0.619	yaw:	2.612	yaw rate:	-4.428	Roll:	-2.099	Pitch:	-1.399	Yaw:	0.680	Thrust:	55.356
Time:	2.327	Roll Set Point:	0.214	Pitch Set Point:	0.406	Yaw Set Point:	-0.046	X_WP:	0.000	Y_WP:	0.000	Z_WP:	0.500	X:	-0.103	Y:	-0.205	Z:	0.624	yaw:	2.651	yaw rate:	-3.917	Roll:	-2.066	Pitch:	-1.364	Yaw:	0.526	Thrust:	57.142
Time:	2.347	Roll Set Point:	0.218	Pitch Set Point:	0.406	Yaw Set Point:	-0.049	X_WP:	0.000	Y_WP:	0.000	Z_WP:	0.500	X:	-0.104	Y:	-0.206	Z:	0.629	yaw:	2.781	yaw rate:	-12.978	Roll:	-2.400	Pitch:	-1.197	Yaw:	1.962	Thrust:	60.988
Time:	2.367	Roll Set Point:	0.221	Pitch Set Point:	0.405	Yaw Set Point:	-0.050	X_WP:	0.000	Y_WP:	0.000	Z_WP:	0.500	X:	-0.105	Y:	-0.205	Z:	0.633	yaw:	2.874	yaw rate:	-9.357	Roll:	-2.170	Pitch:	-1.251	Yaw:	1.656	Thrust:	58.775
Time:	2.387	Roll Set Point:	0.224	Pitch Set Point:	0.405	Yaw Set Point:	-0.057	X_WP:	0.000	Y_WP:	0.000	Z_WP:	0.500	X:	-0.106	Y:	-0.206	Z:	0.637	yaw:	3.289	yaw rate:	-41.497	Roll:	-3.096	Pitch:	-0.939	Yaw:	6.659	Thrust:	57.805
Time:	2.407	Roll Set Point:	0.228	Pitch Set Point:	0.405	Yaw Set Point:	-0.059	X_WP:	0.000	Y_WP:	0.000	Z_WP:	0.500	X:	-0.108	Y:	-0.206	Z:	0.641	yaw:	3.406	yaw rate:	-11.711	Roll:	-2.362	Pitch:	-1.231	Yaw:	2.689	Thrust:	60.574
Time:	2.430	Roll Set Point:	0.230	Pitch Set Point:	0.405	Yaw Set Point:	-0.060	X_WP:	0.000	Y_WP:	0.000	Z_WP:	0.500	X:	-0.109	Y:	-0.206	Z:	0.644	yaw:	3.464	yaw rate:	-5.802	Roll:	-2.031	Pitch:	-1.351	Yaw:	1.602	Thrust:	67.144
Time:	2.446	Roll Set Point:	0.232	Pitch Set Point:	0.404	Yaw Set Point:	-0.054	X_WP:	0.000	Y_WP:	0.000	Z_WP:	0.500	X:	-0.110	Y:	-0.205	Z:	0.648	yaw:	3.117	yaw rate:	34.760	Roll:	-0.984	Pitch:	-1.643	Yaw:	-3.973	Thrust:	48.379
Time:	2.467	Roll Set Point:	0.235	Pitch Set Point:	0.404	Yaw Set Point:	-0.060	X_WP:	0.000	Y_WP:	0.000	Z_WP:	0.500	X:	-0.112	Y:	-0.206	Z:	0.650	yaw:	3.448	yaw rate:	-33.090	Roll:	-2.843	Pitch:	-1.084	Yaw:	5.442	Thrust:	62.910
Time:	2.489	Roll Set Point:	0.238	Pitch Set Point:	0.404	Yaw Set Point:	-0.060	X_WP:	0.000	Y_WP:	0.000	Z_WP:	0.500	X:	-0.113	Y:	-0.206	Z:	0.653	yaw:	3.453	yaw rate:	-0.554	Roll:	-1.978	Pitch:	-1.414	Yaw:	1.358	Thrust:	62.019
Time:	2.507	Roll Set Point:	0.240	Pitch Set Point:	0.404	Yaw Set Point:	-0.060	X_WP:	0.000	Y_WP:	0.000	Z_WP:	0.500	X:	-0.114	Y:	-0.205	Z:	0.655	yaw:	3.416	yaw rate:	3.714	Roll:	-1.837	Pitch:	-1.401	Yaw:	0.951	Thrust:	55.506
Time:	2.528	Roll Set Point:	0.242	Pitch Set Point:	0.404	Yaw Set Point:	-0.059	X_WP:	0.000	Y_WP:	0.000	Z_WP:	0.500	X:	-0.115	Y:	-0.205	Z:	0.658	yaw:	3.366	yaw rate:	4.972	Roll:	-1.734	Pitch:	-1.500	Yaw:	0.570	Thrust:	61.894
Time:	2.547	Roll Set Point:	0.243	Pitch Set Point:	0.403	Yaw Set Point:	-0.052	X_WP:	0.000	Y_WP:	0.000	Z_WP:	0.500	X:	-0.116	Y:	-0.205	Z:	0.660	yaw:	2.997	yaw rate:	36.946	Roll:	-0.851	Pitch:	-1.754	Yaw:	-4.062	Thrust:	58.240
Time:	2.567	Roll Set Point:	0.247	Pitch Set Point:	0.403	Yaw Set Point:	-0.058	X_WP:	0.000	Y_WP:	0.000	Z_WP:	0.500	X:	-0.117	Y:	-0.205	Z:	0.662	yaw:	3.297	yaw rate:	-30.026	Roll:	-2.665	Pitch:	-1.185	Yaw:	5.216	Thrust:	58.999
Time:	2.589	Roll Set Point:	0.249	Pitch Set Point:	0.403	Yaw Set Point:	-0.058	X_WP:	0.000	Y_WP:	0.000	Z_WP:	0.500	X:	-0.119	Y:	-0.205	Z:	0.664	yaw:	3.319	yaw rate:	-2.151	Roll:	-1.935	Pitch:	-1.369	Yaw:	1.453	Thrust:	61.571
Time:	2.607	Roll Set Point:	0.251	Pitch Set Point:	0.402	Yaw Set Point:	-0.058	X_WP:	0.000	Y_WP:	0.000	Z_WP:	0.500	X:	-0.120	Y:	-0.205	Z:	0.666	yaw:	3.300	yaw rate:	1.866	Roll:	-1.798	Pitch:	-1.373	Yaw:	1.268	Thrust:	53.486
Time:	2.627	Roll Set Point:	0.253	Pitch Set Point:	0.402	Yaw Set Point:	-0.057	X_WP:	0.000	Y_WP:	0.000	Z_WP:	0.500	X:	-0.121	Y:	-0.205	Z:	0.668	yaw:	3.238	yaw rate:	6.146	Roll:	-1.683	Pitch:	-1.529	Yaw:	0.341	Thrust:	61.229
Time:	2.646	Roll Set Point:	0.253	Pitch Set Point:	0.402	Yaw Set Point:	-0.049	X_WP:	0.000	Y_WP:	0.000	Z_WP:	0.500	X:	-0.122	Y:	-0.204	Z:	0.670	yaw:	2.822	yaw rate:	41.637	Roll:	-0.613	Pitch:	-1.899	Yaw:	-4.925	Thrust:	52.591
Time:	2.667	Roll Set Point:	0.255	Pitch Set Point:	0.402	Yaw Set Point:	-0.050	X_WP:	0.000	Y_WP:	0.000	Z_WP:	0.500	X:	-0.123	Y:	-0.204	Z:	0.671	yaw:	2.842	yaw rate:	-1.971	Roll:	-1.875	Pitch:	-1.371	Yaw:	0.818	Thrust:	61.741
Time:	2.689	Roll Set Point:	0.258	Pitch Set Point:	0.401	Yaw Set Point:	-0.055	X_WP:	0.000	Y_WP:	0.000	Z_WP:	0.500	X:	-0.124	Y:	-0.204	Z:	0.672	yaw:	3.168	yaw rate:	-32.588	Roll:	-2.786	Pitch:	-1.034	Yaw:	4.988	Thrust:	59.831
Time:	2.707	Roll Set Point:	0.259	Pitch Set Point:	0.401	Yaw Set Point:	-0.047	X_WP:	0.000	Y_WP:	0.000	Z_WP:	0.500	X:	-0.125	Y:	-0.203	Z:	0.673	yaw:	2.713	yaw rate:	45.436	Roll:	-0.545	Pitch:	-1.953	Yaw:	-5.586	Thrust:	55.939
Time:	2.728	Roll Set Point:	0.262	Pitch Set Point:	0.400	Yaw Set Point:	-0.053	X_WP:	0.000	Y_WP:	0.000	Z_WP:	0.500	X:	-0.126	Y:	-0.204	Z:	0.674	yaw:	3.061	yaw rate:	-34.786	Roll:	-2.748	Pitch:	-1.054	Yaw:	5.439	Thrust:	60.779
Time:	2.747	Roll Set Point:	0.264	Pitch Set Point:	0.400	Yaw Set Point:	-0.053	X_WP:	0.000	Y_WP:	0.000	Z_WP:	0.500	X:	-0.127	Y:	-0.203	Z:	0.674	yaw:	3.045	yaw rate:	1.595	Roll:	-1.862	Pitch:	-1.284	Yaw:	0.972	Thrust:	52.818
Time:	2.767	Roll Set Point:	0.265	Pitch Set Point:	0.399	Yaw Set Point:	-0.047	X_WP:	0.000	Y_WP:	0.000	Z_WP:	0.500	X:	-0.128	Y:	-0.203	Z:	0.675	yaw:	2.672	yaw rate:	37.309	Roll:	-0.829	Pitch:	-1.871	Yaw:	-4.321	Thrust:	59.603
Time:	2.788	Roll Set Point:	0.267	Pitch Set Point:	0.398	Yaw Set Point:	-0.052	X_WP:	0.000	Y_WP:	0.000	Z_WP:	0.500	X:	-0.128	Y:	-0.203	Z:	0.675	yaw:	2.998	yaw rate:	-32.640	Roll:	-2.696	Pitch:	-0.989	Yaw:	4.961	Thrust:	62.544
Time:	2.807	Roll Set Point:	0.270	Pitch Set Point:	0.398	Yaw Set Point:	-0.054	X_WP:	0.000	Y_WP:	0.000	Z_WP:	0.500	X:	-0.129	Y:	-0.202	Z:	0.674	yaw:	3.087	yaw rate:	-8.901	Roll:	-2.177	Pitch:	-1.142	Yaw:	2.625	Thrust:	54.810
Time:	2.830	Roll Set Point:	0.272	Pitch Set Point:	0.397	Yaw Set Point:	-0.054	X_WP:	0.000	Y_WP:	0.000	Z_WP:	0.500	X:	-0.130	Y:	-0.202	Z:	0.674	yaw:	3.120	yaw rate:	-3.230	Roll:	-1.929	Pitch:	-1.432	Yaw:	1.307	Thrust:	66.389
Time:	2.847	Roll Set Point:	0.273	Pitch Set Point:	0.396	Yaw Set Point:	-0.053	X_WP:	0.000	Y_WP:	0.000	Z_WP:	0.500	X:	-0.131	Y:	-0.202	Z:	0.674	yaw:	3.026	yaw rate:	9.338	Roll:	-1.559	Pitch:	-1.485	Yaw:	0.159	Thrust:	50.666
Time:	2.867	Roll Set Point:	0.275	Pitch Set Point:	0.396	Yaw Set Point:	-0.053	X_WP:	0.000	Y_WP:	0.000	Z_WP:	0.500	X:	-0.132	Y:	-0.201	Z:	0.673	yaw:	3.045	yaw rate:	-1.816	Roll:	-1.976	Pitch:	-1.264	Yaw:	1.444	Thrust:	59.255
Time:	2.889	Roll Set Point:	0.275	Pitch Set Point:	0.395	Yaw Set Point:	-0.046	X_WP:	0.000	Y_WP:	0.000	Z_WP:	0.500	X:	-0.133	Y:	-0.201	Z:	0.672	yaw:	2.644	yaw rate:	40.099	Roll:	-0.761	Pitch:	-1.958	Yaw:	-4.433	Thrust:	62.518
Time:	2.907	Roll Set Point:	0.277	Pitch Set Point:	0.395	Yaw Set Point:	-0.046	X_WP:	0.000	Y_WP:	0.000	Z_WP:	0.500	X:	-0.134	Y:	-0.200	Z:	0.671	yaw:	2.629	yaw rate:	1.421	Roll:	-1.892	Pitch:	-1.401	Yaw:	0.665	Thrust:	54.136
Time:	2.927	Roll Set Point:	0.280	Pitch Set Point:	0.394	Yaw Set Point:	-0.054	X_WP:	0.000	Y_WP:	0.000	Z_WP:	0.500	X:	-0.135	Y:	-0.201	Z:	0.669	yaw:	3.066	yaw rate:	-43.640	Roll:	-3.024	Pitch:	-0.833	Yaw:	6.814	Thrust:	62.922
Time:	2.947	Roll Set Point:	0.282	Pitch Set Point:	0.393	Yaw Set Point:	-0.054	X_WP:	0.000	Y_WP:	0.000	Z_WP:	0.500	X:	-0.136	Y:	-0.200	Z:	0.667	yaw:	3.096	yaw rate:	-3.031	Roll:	-1.994	Pitch:	-1.288	Yaw:	1.919	Thrust:	56.969
Time:	2.967	Roll Set Point:	0.284	Pitch Set Point:	0.392	Yaw Set Point:	-0.055	X_WP:	0.000	Y_WP:	0.000	Z_WP:	0.500	X:	-0.137	Y:	-0.200	Z:	0.665	yaw:	3.153	yaw rate:	-5.697	Roll:	-2.080	Pitch:	-1.317	Yaw:	2.107	Thrust:	60.103
Time:	2.987	Roll Set Point:	0.285	Pitch Set Point:	0.392	Yaw Set Point:	-0.049	X_WP:	0.000	Y_WP:	0.000	Z_WP:	0.500	X:	-0.138	Y:	-0.199	Z:	0.663	yaw:	2.787	yaw rate:	36.636	Roll:	-0.890	Pitch:	-1.893	Yaw:	-3.784	Thrust:	61.710
Time:	3.007	Roll Set Point:	0.287	Pitch Set Point:	0.391	Yaw Set Point:	-0.049	X_WP:	0.000	Y_WP:	0.000	Z_WP:	0.500	X:	-0.138	Y:	-0.199	Z:	0.661	yaw:	2.817	yaw rate:	-3.068	Roll:	-1.985	Pitch:	-1.368	Yaw:	1.531	Thrust:	57.231
Time:	3.030	Roll Set Point:	0.289	Pitch Set Point:	0.390	Yaw Set Point:	-0.055	X_WP:	0.000	Y_WP:	0.000	Z_WP:	0.500	X:	-0.139	Y:	-0.199	Z:	0.658	yaw:	3.172	yaw rate:	-35.439	Roll:	-2.771	Pitch:	-1.043	Yaw:	5.407	Thrust:	67.074
Time:	3.047	Roll Set Point:	0.290	Pitch Set Point:	0.390	Yaw Set Point:	-0.050	X_WP:	0.000	Y_WP:	0.000	Z_WP:	0.500	X:	-0.140	Y:	-0.198	Z:	0.656	yaw:	2.853	yaw rate:	31.846	Roll:	-1.010	Pitch:	-1.833	Yaw:	-3.295	Thrust:	53.251
Time:	3.067	Roll Set Point:	0.291	Pitch Set Point:	0.389	Yaw Set Point:	-0.049	X_WP:	0.000	Y_WP:	0.000	Z_WP:	0.500	X:	-0.141	Y:	-0.198	Z:	0.653	yaw:	2.821	yaw rate:	3.198	Roll:	-1.756	Pitch:	-1.535	Yaw:	0.691	Thrust:	60.259
Time:	3.087	Roll Set Point:	0.293	Pitch Set Point:	0.388	Yaw Set Point:	-0.050	X_WP:	0.000	Y_WP:	0.000	Z_WP:	0.500	X:	-0.142	Y:	-0.198	Z:	0.650	yaw:	2.882	yaw rate:	-6.037	Roll:	-2.016	Pitch:	-1.317	Yaw:	1.888	Thrust:	62.024
Time:	3.107	Roll Set Point:	0.295	Pitch Set Point:	0.388	Yaw Set Point:	-0.056	X_WP:	0.000	Y_WP:	0.000	Z_WP:	0.500	X:	-0.142	Y:	-0.198	Z:	0.647	yaw:	3.204	yaw rate:	-32.235	Roll:	-2.655	Pitch:	-1.048	Yaw:	6.029	Thrust:	59.944
Time:	3.128	Roll Set Point:	0.296	Pitch Set Point:	0.387	Yaw Set Point:	-0.056	X_WP:	0.000	Y_WP:	0.000	Z_WP:	0.500	X:	-0.143	Y:	-0.198	Z:	0.644	yaw:	3.208	yaw rate:	-0.438	Roll:	-1.826	Pitch:	-1.481	Yaw:	1.690	Thrust:	62.212
Time:	3.147	Roll Set Point:	0.298	Pitch Set Point:	0.387	Yaw Set Point:	-0.057	X_WP:	0.000	Y_WP:	0.000	Z_WP:	0.500	X:	-0.143	Y:	-0.198	Z:	0.641	yaw:	3.250	yaw rate:	-4.149	Roll:	-1.914	Pitch:	-1.359	Yaw:	2.436	Thrust:	56.397
Time:	3.168	Roll Set Point:	0.298	Pitch Set Point:	0.386	Yaw Set Point:	-0.052	X_WP:	0.000	Y_WP:	0.000	Z_WP:	0.500	X:	-0.144	Y:	-0.197	Z:	0.638	yaw:	2.995	yaw rate:	25.516	Roll:	-1.201	Pitch:	-1.869	Yaw:	-1.854	Thrust:	62.944
Time:	3.188	Roll Set Point:	0.299	Pitch Set Point:	0.386	Yaw Set Point:	-0.052	X_WP:	0.000	Y_WP:	0.000	Z_WP:	0.500	X:	-0.145	Y:	-0.197	Z:	0.634	yaw:	2.972	yaw rate:	2.229	Roll:	-1.703	Pitch:	-1.542	Yaw:	1.097	Thrust:	63.767
Time:	3.207	Roll Set Point:	0.301	Pitch Set Point:	0.386	Yaw Set Point:	-0.052	X_WP:	0.000	Y_WP:	0.000	Z_WP:	0.500	X:	-0.145	Y:	-0.197	Z:	0.631	yaw:	2.985	yaw rate:	-1.263	Roll:	-1.778	Pitch:	-1.457	Yaw:	1.876	Thrust:	56.965
Time:	3.228	Roll Set Point:	0.301	Pitch Set Point:	0.385	Yaw Set Point:	-0.052	X_WP:	0.000	Y_WP:	0.000	Z_WP:	0.500	X:	-0.146	Y:	-0.197	Z:	0.627	yaw:	2.953	yaw rate:	3.166	Roll:	-1.587	Pitch:	-1.632	Yaw:	0.972	Thrust:	61.686
Time:	3.247	Roll Set Point:	0.303	Pitch Set Point:	0.385	Yaw Set Point:	-0.058	X_WP:	0.000	Y_WP:	0.000	Z_WP:	0.500	X:	-0.146	Y:	-0.197	Z:	0.623	yaw:	3.326	yaw rate:	-37.271	Roll:	-2.726	Pitch:	-0.949	Yaw:	7.214	Thrust:	60.639
Time:	3.267	Roll Set Point:	0.304	Pitch Set Point:	0.384	Yaw Set Point:	-0.058	X_WP:	0.000	Y_WP:	0.000	Z_WP:	0.500	X:	-0.146	Y:	-0.197	Z:	0.619	yaw:	3.330	yaw rate:	-0.362	Roll:	-1.644	Pitch:	-1.537	Yaw:	2.081	Thrust:	61.082
Time:	3.290	Roll Set Point:	0.304	Pitch Set Point:	0.384	Yaw Set Point:	-0.052	X_WP:	0.000	Y_WP:	0.000	Z_WP:	0.500	X:	-0.147	Y:	-0.196	Z:	0.616	yaw:	3.007	yaw rate:	32.275	Roll:	-0.803	Pitch:	-2.045	Yaw:	-2.455	Thrust:	64.921
Time:	3.307	Roll Set Point:	0.304	Pitch Set Point:	0.384	Yaw Set Point:	-0.053	X_WP:	0.000	Y_WP:	0.000	Z_WP:	0.500	X:	-0.147	Y:	-0.196	Z:	0.612	yaw:	3.048	yaw rate:	-4.064	Roll:	-1.687	Pitch:	-1.467	Yaw:	2.592	Thrust:	58.141
Time:	3.329	Roll Set Point:	0.307	Pitch Set Point:	0.382	Yaw Set Point:	-0.066	X_WP:	0.000	Y_WP:	0.000	Z_WP:	0.500	X:	-0.147	Y:	-0.196	Z:	0.607	yaw:	3.804	yaw rate:	-75.608	Roll:	-3.495	Pitch:	-0.298	Yaw:	11.759	Thrust:	65.937
Time:	3.347	Roll Set Point:	0.305	Pitch Set Point:	0.384	Yaw Set Point:	-0.052	X_WP:	0.000	Y_WP:	0.000	Z_WP:	0.500	X:	-0.148	Y:	-0.196	Z:	0.604	yaw:	2.998	yaw rate:	80.605	Roll:	0.812	Pitch:	-3.382	Yaw:	-9.889	Thrust:	55.797
Time:	3.367	Roll Set Point:	0.309	Pitch Set Point:	0.381	Yaw Set Point:	-0.073	X_WP:	0.000	Y_WP:	0.000	Z_WP:	0.500	X:	-0.148	Y:	-0.196	Z:	0.599	yaw:	4.175	yaw rate:	-117.698	Roll:	-4.702	Pitch:	1.030	Yaw:	18.671	Thrust:	62.691
Time:	3.389	Roll Set Point:	0.307	Pitch Set Point:	0.382	Yaw Set Point:	-0.059	X_WP:	0.000	Y_WP:	0.000	Z_WP:	0.500	X:	-0.148	Y:	-0.196	Z:	0.595	yaw:	3.371	yaw rate:	80.346	Roll:	0.608	Pitch:	-3.228	Yaw:	-7.865	Thrust:	64.026
Time:	3.407	Roll Set Point:	0.307	Pitch Set Point:	0.382	Yaw Set Point:	-0.058	X_WP:	0.000	Y_WP:	0.000	Z_WP:	0.500	X:	-0.148	Y:	-0.196	Z:	0.591	yaw:	3.339	yaw rate:	3.263	Roll:	-1.416	Pitch:	-1.698	Yaw:	1.882	Thrust:	59.890
Time:	3.427	Roll Set Point:	0.308	Pitch Set Point:	0.382	Yaw Set Point:	-0.063	X_WP:	0.000	Y_WP:	0.000	Z_WP:	0.500	X:	-0.148	Y:	-0.196	Z:	0.586	yaw:	3.620	yaw rate:	-28.183	Roll:	-2.192	Pitch:	-1.309	Yaw:	6.409	Thrust:	62.092
Time:	3.447	Roll Set Point:	0.307	Pitch Set Point:	0.383	Yaw Set Point:	-0.056	X_WP:	0.000	Y_WP:	0.000	Z_WP:	0.500	X:	-0.148	Y:	-0.196	Z:	0.582	yaw:	3.200	yaw rate:	42.020	Roll:	-0.333	Pitch:	-2.373	Yaw:	-3.433	Thrust:	61.699
Time:	3.467	Roll Set Point:	0.307	Pitch Set Point:	0.383	Yaw Set Point:	-0.055	X_WP:	0.000	Y_WP:	0.000	Z_WP:	0.500	X:	-0.148	Y:	-0.196	Z:	0.577	yaw:	3.177	yaw rate:	2.276	Roll:	-1.403	Pitch:	-1.801	Yaw:	1.702	Thrust:	64.143
Time:	3.487	Roll Set Point:	0.307	Pitch Set Point:	0.383	Yaw Set Point:	-0.061	X_WP:	0.000	Y_WP:	0.000	Z_WP:	0.500	X:	-0.148	Y:	-0.196	Z:	0.573	yaw:	3.472	yaw rate:	-29.420	Roll:	-2.075	Pitch:	-1.409	Yaw:	6.382	Thrust:	63.059
Time:	3.507	Roll Set Point:	0.306	Pitch Set Point:	0.384	Yaw Set Point:	-0.053	X_WP:	0.000	Y_WP:	0.000	Z_WP:	0.500	X:	-0.148	Y:	-0.196	Z:	0.568	yaw:	3.049	yaw rate:	42.255	Roll:	-0.123	Pitch:	-2.465	Yaw:	-3.600	Thrust:	62.323
Time:	3.528	Roll Set Point:	0.306	Pitch Set Point:	0.384	Yaw Set Point:	-0.058	X_WP:	0.000	Y_WP:	0.000	Z_WP:	0.500	X:	-0.148	Y:	-0.196	Z:	0.563	yaw:	3.351	yaw rate:	-30.230	Roll:	-2.072	Pitch:	-1.465	Yaw:	6.194	Thrust:	63.454
Time:	3.547	Roll Set Point:	0.304	Pitch Set Point:	0.385	Yaw Set Point:	-0.050	X_WP:	0.000	Y_WP:	0.000	Z_WP:	0.500	X:	-0.147	Y:	-0.196	Z:	0.559	yaw:	2.855	yaw rate:	49.610	Roll:	0.158	Pitch:	-2.750	Yaw:	-5.075	Thrust:	60.809
Time:	3.567	Roll Set Point:	0.304	Pitch Set Point:	0.385	Yaw Set Point:	-0.050	X_WP:	0.000	Y_WP:	0.000	Z_WP:	0.500	X:	-0.147	Y:	-0.196	Z:	0.555	yaw:	2.844	yaw rate:	1.090	Roll:	-1.261	Pitch:	-1.955	Yaw:	1.454	Thrust:	65.538
Time:	3.587	Roll Set Point:	0.304	Pitch Set Point:	0.386	Yaw Set Point:	-0.053	X_WP:	0.000	Y_WP:	0.000	Z_WP:	0.500	X:	-0.147	Y:	-0.197	Z:	0.550	yaw:	3.054	yaw rate:	-20.935	Roll:	-1.712	Pitch:	-1.659	Yaw:	4.941	Thrust:	62.155
Time:	3.607	Roll Set Point:	0.302	Pitch Set Point:	0.387	Yaw Set Point:	-0.047	X_WP:	0.000	Y_WP:	0.000	Z_WP:	0.500	X:	-0.147	Y:	-0.197	Z:	0.546	yaw:	2.717	yaw rate:	33.625	Roll:	-0.335	Pitch:	-2.440	Yaw:	-2.818	Thrust:	62.808
Time:	3.628	Roll Set Point:	0.303	Pitch Set Point:	0.387	Yaw Set Point:	-0.054	X_WP:	0.000	Y_WP:	0.000	Z_WP:	0.500	X:	-0.146	Y:	-0.198	Z:	0.541	yaw:	3.070	yaw rate:	-35.301	Roll:	-2.207	Pitch:	-1.457	Yaw:	6.289	Thrust:	66.935
Time:	3.646	Roll Set Point:	0.301	Pitch Set Point:	0.388	Yaw Set Point:	-0.046	X_WP:	0.000	Y_WP:	0.000	Z_WP:	0.500	X:	-0.146	Y:	-0.197	Z:	0.537	yaw:	2.628	yaw rate:	44.211	Roll:	0.025	Pitch:	-2.687	Yaw:	-4.638	Thrust:	59.043
Time:	3.667	Roll Set Point:	0.302	Pitch Set Point:	0.388	Yaw Set Point:	-0.051	X_WP:	0.000	Y_WP:	0.000	Z_WP:	0.500	X:	-0.146	Y:	-0.198	Z:	0.532	yaw:	2.946	yaw rate:	-31.772	Roll:	-2.145	Pitch:	-1.524	Yaw:	5.926	Thrust:	65.243
Time:	3.689	Roll Set Point:	0.300	Pitch Set Point:	0.389	Yaw Set Point:	-0.044	X_WP:	0.000	Y_WP:	0.000	Z_WP:	0.500	X:	-0.146	Y:	-0.198	Z:	0.528	yaw:	2.524	yaw rate:	42.187	Roll:	-0.167	Pitch:	-2.614	Yaw:	-4.024	Thrust:	64.433
Time:	3.708	Roll Set Point:	0.300	Pitch Set Point:	0.390	Yaw Set Point:	-0.050	X_WP:	0.000	Y_WP:	0.000	Z_WP:	0.500	X:	-0.145	Y:	-0.199	Z:	0.524	yaw:	2.841	yaw rate:	-31.698	Roll:	-2.164	Pitch:	-1.554	Yaw:	6.016	Thrust:	62.341
Time:	3.727	Roll Set Point:	0.299	Pitch Set Point:	0.391	Yaw Set Point:	-0.043	X_WP:	0.000	Y_WP:	0.000	Z_WP:	0.500	X:	-0.145	Y:	-0.199	Z:	0.520	yaw:	2.466	yaw rate:	37.471	Roll:	-0.293	Pitch:	-2.601	Yaw:	-3.587	Thrust:	63.466
Time:	3.747	Roll Set Point:	0.299	Pitch Set Point:	0.392	Yaw Set Point:	-0.046	X_WP:	0.000	Y_WP:	0.000	Z_WP:	0.500	X:	-0.145	Y:	-0.199	Z:	0.516	yaw:	2.637	yaw rate:	-17.064	Roll:	-1.724	Pitch:	-1.847	Yaw:	3.889	Thrust:	62.744
Time:	3.767	Roll Set Point:	0.297	Pitch Set Point:	0.393	Yaw Set Point:	-0.038	X_WP:	0.000	Y_WP:	0.000	Z_WP:	0.500	X:	-0.145	Y:	-0.199	Z:	0.512	yaw:	2.184	yaw rate:	45.306	Roll:	-0.125	Pitch:	-2.763	Yaw:	-4.939	Thrust:	62.198
Time:	3.787	Roll Set Point:	0.297	Pitch Set Point:	0.393	Yaw Set Point:	-0.039	X_WP:	0.000	Y_WP:	0.000	Z_WP:	0.500	X:	-0.145	Y:	-0.200	Z:	0.509	yaw:	2.261	yaw rate:	-7.678	Roll:	-1.622	Pitch:	-1.740	Yaw:	2.098	Thrust:	63.150
Time:	3.807	Roll Set Point:	0.297	Pitch Set Point:	0.395	Yaw Set Point:	-0.043	X_WP:	0.000	Y_WP:	0.000	Z_WP:	0.500	X:	-0.144	Y:	-0.201	Z:	0.505	yaw:	2.466	yaw rate:	-20.512	Roll:	-1.717	Pitch:	-2.044	Yaw:	4.275	Thrust:	61.323
Time:	3.827	Roll Set Point:	0.296	Pitch Set Point:	0.395	Yaw Set Point:	-0.043	X_WP:	0.000	Y_WP:	0.000	Z_WP:	0.500	X:	-0.144	Y:	-0.201	Z:	0.501	yaw:	2.449	yaw rate:	1.656	Roll:	-1.429	Pitch:	-2.070	Yaw:	1.111	Thrust:	64.759
Time:	3.846	Roll Set Point:	0.295	Pitch Set Point:	0.397	Yaw Set Point:	-0.042	X_WP:	0.000	Y_WP:	0.000	Z_WP:	0.500	X:	-0.144	Y:	-0.202	Z:	0.498	yaw:	2.419	yaw rate:	2.988	Roll:	-1.037	Pitch:	-2.353	Yaw:	1.064	Thrust:	60.598
Time:	3.867	Roll Set Point:	0.294	Pitch Set Point:	0.398	Yaw Set Point:	-0.037	X_WP:	0.000	Y_WP:	0.000	Z_WP:	0.500	X:	-0.143	Y:	-0.202	Z:	0.495	yaw:	2.114	yaw rate:	30.584	Roll:	-0.613	Pitch:	-2.441	Yaw:	-2.948	Thrust:	63.297
Time:	3.887	Roll Set Point:	0.294	Pitch Set Point:	0.399	Yaw Set Point:	-0.036	X_WP:	0.000	Y_WP:	0.000	Z_WP:	0.500	X:	-0.143	Y:	-0.202	Z:	0.491	yaw:	2.072	yaw rate:	4.187	Roll:	-1.234	Pitch:	-2.183	Yaw:	0.403	Thrust:	63.401
Time:	3.907	Roll Set Point:	0.292	Pitch Set Point:	0.400	Yaw Set Point:	-0.034	X_WP:	0.000	Y_WP:	0.000	Z_WP:	0.500	X:	-0.143	Y:	-0.203	Z:	0.488	yaw:	1.920	yaw rate:	15.148	Roll:	-0.713	Pitch:	-2.631	Yaw:	-1.255	Thrust:	62.661
Time:	3.927	Roll Set Point:	0.293	Pitch Set Point:	0.401	Yaw Set Point:	-0.040	X_WP:	0.000	Y_WP:	0.000	Z_WP:	0.500	X:	-0.143	Y:	-0.203	Z:	0.484	yaw:	2.314	yaw rate:	-39.377	Roll:	-2.521	Pitch:	-1.440	Yaw:	6.191	Thrust:	65.581
Time:	3.947	Roll Set Point:	0.293	Pitch Set Point:	0.401	Yaw Set Point:	-0.040	X_WP:	0.000	Y_WP:	0.000	Z_WP:	0.500	X:	-0.142	Y:	-0.204	Z:	0.481	yaw:	2.309	yaw rate:	0.498	Roll:	-1.264	Pitch:	-2.085	Yaw:	1.265	Thrust:	62.809
Time:	3.967	Roll Set Point:	0.292	Pitch Set Point:	0.403	Yaw Set Point:	-0.040	X_WP:	0.000	Y_WP:	0.000	Z_WP:	0.500	X:	-0.142	Y:	-0.204	Z:	0.478	yaw:	2.292	yaw rate:	1.745	Roll:	-1.105	Pitch:	-2.436	Yaw:	1.099	Thrust:	63.075
Time:	3.989	Roll Set Point:	0.291	Pitch Set Point:	0.404	Yaw Set Point:	-0.033	X_WP:	0.000	Y_WP:	0.000	Z_WP:	0.500	X:	-0.142	Y:	-0.204	Z:	0.475	yaw:	1.866	yaw rate:	42.613	Roll:	-0.334	Pitch:	-2.698	Yaw:	-4.450	Thrust:	67.777
Time:	4.007	Roll Set Point:	0.290	Pitch Set Point:	0.405	Yaw Set Point:	-0.031	X_WP:	0.000	Y_WP:	0.000	Z_WP:	0.500	X:	-0.142	Y:	-0.205	Z:	0.471	yaw:	1.782	yaw rate:	8.361	Roll:	-1.043	Pitch:	-2.367	Yaw:	-0.402	Thrust:	60.248
Time:	4.029	Roll Set Point:	0.290	Pitch Set Point:	0.406	Yaw Set Point:	-0.031	X_WP:	0.000	Y_WP:	0.000	Z_WP:	0.500	X:	-0.142	Y:	-0.205	Z:	0.468	yaw:	1.800	yaw rate:	-1.790	Roll:	-1.595	Pitch:	-2.019	Yaw:	0.641	Thrust:	69.811
Time:	4.046	Roll Set Point:	0.290	Pitch Set Point:	0.407	Yaw Set Point:	-0.032	X_WP:	0.000	Y_WP:	0.000	Z_WP:	0.500	X:	-0.142	Y:	-0.206	Z:	0.465	yaw:	1.822	yaw rate:	-2.226	Roll:	-1.422	Pitch:	-1.976	Yaw:	1.294	Thrust:	57.738
Time:	4.067	Roll Set Point:	0.290	Pitch Set Point:	0.407	Yaw Set Point:	-0.037	X_WP:	0.000	Y_WP:	0.000	Z_WP:	0.500	X:	-0.142	Y:	-0.206	Z:	0.462	yaw:	2.104	yaw rate:	-28.157	Roll:	-2.205	Pitch:	-1.735	Yaw:	4.486	Thrust:	67.737
Time:	4.088	Roll Set Point:	0.289	Pitch Set Point:	0.408	Yaw Set Point:	-0.030	X_WP:	0.000	Y_WP:	0.000	Z_WP:	0.500	X:	-0.142	Y:	-0.206	Z:	0.459	yaw:	1.696	yaw rate:	40.760	Roll:	-0.233	Pitch:	-2.685	Yaw:	-4.760	Thrust:	62.112
Time:	4.107	Roll Set Point:	0.290	Pitch Set Point:	0.409	Yaw Set Point:	-0.036	X_WP:	0.000	Y_WP:	0.000	Z_WP:	0.500	X:	-0.141	Y:	-0.207	Z:	0.456	yaw:	2.083	yaw rate:	-38.666	Roll:	-2.579	Pitch:	-1.463	Yaw:	6.301	Thrust:	65.644
Time:	4.127	Roll Set Point:	0.288	Pitch Set Point:	0.411	Yaw Set Point:	-0.027	X_WP:	0.000	Y_WP:	0.000	Z_WP:	0.500	X:	-0.141	Y:	-0.207	Z:	0.453	yaw:	1.533	yaw rate:	54.996	Roll:	0.292	Pitch:	-3.354	Yaw:	-6.889	Thrust:	65.984
Time:	4.147	Roll Set Point:	0.288	Pitch Set Point:	0.412	Yaw Set Point:	-0.027	X_WP:	0.000	Y_WP:	0.000	Z_WP:	0.500	X:	-0.141	Y:	-0.208	Z:	0.450	yaw:	1.554	yaw rate:	-2.146	Roll:	-1.509	Pitch:	-1.977	Yaw:	0.708	Thrust:	64.085
Time:	4.167	Roll Set Point:	0.287	Pitch Set Point:	0.412	Yaw Set Point:	-0.025	X_WP:	0.000	Y_WP:	0.000	Z_WP:	0.500	X:	-0.141	Y:	-0.208	Z:	0.447	yaw:	1.426	yaw rate:	12.815	Roll:	-1.055	Pitch:	-2.258	Yaw:	-1.463	Thrust:	65.156
Time:	4.188	Roll Set Point:	0.286	Pitch Set Point:	0.413	Yaw Set Point:	-0.017	X_WP:	0.000	Y_WP:	0.000	Z_WP:	0.500	X:	-0.141	Y:	-0.208	Z:	0.445	yaw:	0.986	yaw rate:	44.021	Roll:	-0.263	Pitch:	-2.726	Yaw:	-5.858	Thrust:	68.713
Time:	4.207	Roll Set Point:	0.286	Pitch Set Point:	0.414	Yaw Set Point:	-0.017	X_WP:	0.000	Y_WP:	0.000	Z_WP:	0.500	X:	-0.141	Y:	-0.208	Z:	0.442	yaw:	0.998	yaw rate:	-1.226	Roll:	-1.473	Pitch:	-1.965	Yaw:	-0.073	Thrust:	61.783
Time:	4.229	Roll Set Point:	0.286	Pitch Set Point:	0.415	Yaw Set Point:	-0.017	X_WP:	0.000	Y_WP:	0.000	Z_WP:	0.500	X:	-0.141	Y:	-0.209	Z:	0.440	yaw:	0.967	yaw rate:	3.068	Roll:	-1.399	Pitch:	-2.153	Yaw:	-0.931	Thrust:	70.094
Time:	4.246	Roll Set Point:	0.286	Pitch Set Point:	0.415	Yaw Set Point:	-0.017	X_WP:	0.000	Y_WP:	0.000	Z_WP:	0.500	X:	-0.141	Y:	-0.209	Z:	0.437	yaw:	0.953	yaw rate:	1.407	Roll:	-1.334	Pitch:	-1.925	Yaw:	-0.418	Thrust:	58.870
Time:	4.267	Roll Set Point:	0.285	Pitch Set Point:	0.416	Yaw Set Point:	-0.017	X_WP:	0.000	Y_WP:	0.000	Z_WP:	0.500	X:	-0.141	Y:	-0.209	Z:	0.435	yaw:	0.959	yaw rate:	-0.548	Roll:	-1.436	Pitch:	-2.048	Yaw:	-0.430	Thrust:	67.898
Time:	4.289	Roll Set Point:	0.285	Pitch Set Point:	0.417	Yaw Set Point:	-0.014	X_WP:	0.000	Y_WP:	0.000	Z_WP:	0.500	X:	-0.141	Y:	-0.209	Z:	0.433	yaw:	0.816	yaw rate:	14.328	Roll:	-0.957	Pitch:	-2.343	Yaw:	-2.467	Thrust:	67.561
Time:	4.307	Roll Set Point:	0.286	Pitch Set Point:	0.417	Yaw Set Point:	-0.021	X_WP:	0.000	Y_WP:	0.000	Z_WP:	0.500	X:	-0.141	Y:	-0.210	Z:	0.431	yaw:	1.197	yaw rate:	-38.151	Roll:	-2.588	Pitch:	-1.390	Yaw:	5.606	Thrust:	60.585
Time:	4.327	Roll Set Point:	0.285	Pitch Set Point:	0.418	Yaw Set Point:	-0.020	X_WP:	0.000	Y_WP:	0.000	Z_WP:	0.500	X:	-0.140	Y:	-0.210	Z:	0.429	yaw:	1.143	yaw rate:	5.358	Roll:	-1.052	Pitch:	-2.355	Yaw:	-0.854	Thrust:	66.827
Time:	4.346	Roll Set Point:	0.284	Pitch Set Point:	0.418	Yaw Set Point:	-0.015	X_WP:	0.000	Y_WP:	0.000	Z_WP:	0.500	X:	-0.141	Y:	-0.210	Z:	0.428	yaw:	0.847	yaw rate:	29.690	Roll:	-0.605	Pitch:	-2.321	Yaw:	-4.559	Thrust:	61.115
Time:	4.367	Roll Set Point:	0.285	Pitch Set Point:	0.419	Yaw Set Point:	-0.020	X_WP:	0.000	Y_WP:	0.000	Z_WP:	0.500	X:	-0.140	Y:	-0.211	Z:	0.426	yaw:	1.156	yaw rate:	-30.989	Roll:	-2.195	Pitch:	-1.754	Yaw:	3.654	Thrust:	68.678
Time:	4.388	Roll Set Point:	0.285	Pitch Set Point:	0.419	Yaw Set Point:	-0.022	X_WP:	0.000	Y_WP:	0.000	Z_WP:	0.500	X:	-0.140	Y:	-0.211	Z:	0.425	yaw:	1.248	yaw rate:	-9.157	Roll:	-1.786	Pitch:	-1.725	Yaw:	1.246	Thrust:	64.726
Time:	4.407	Roll Set Point:	0.284	Pitch Set Point:	0.420	Yaw Set Point:	-0.017	X_WP:	0.000	Y_WP:	0.000	Z_WP:	0.500	X:	-0.140	Y:	-0.211	Z:	0.424	yaw:	1.002	yaw rate:	24.583	Roll:	-0.506	Pitch:	-2.604	Yaw:	-3.540	Thrust:	64.081
Time:	4.428	Roll Set Point:	0.284	Pitch Set Point:	0.420	Yaw Set Point:	-0.021	X_WP:	0.000	Y_WP:	0.000	Z_WP:	0.500	X:	-0.140	Y:	-0.212	Z:	0.423	yaw:	1.184	yaw rate:	-18.166	Roll:	-2.109	Pitch:	-1.544	Yaw:	2.152	Thrust:	67.504
Time:	4.447	Roll Set Point:	0.283	Pitch Set Point:	0.421	Yaw Set Point:	-0.016	X_WP:	0.000	Y_WP:	0.000	Z_WP:	0.500	X:	-0.140	Y:	-0.212	Z:	0.422	yaw:	0.935	yaw rate:	24.853	Roll:	-0.598	Pitch:	-2.283	Yaw:	-3.734	Thrust:	60.448
Time:	4.467	Roll Set Point:	0.284	Pitch Set Point:	0.421	Yaw Set Point:	-0.022	X_WP:	0.000	Y_WP:	0.000	Z_WP:	0.500	X:	-0.140	Y:	-0.212	Z:	0.421	yaw:	1.244	yaw rate:	-30.826	Roll:	-2.346	Pitch:	-1.636	Yaw:	3.938	Thrust:	66.985
Time:	4.488	Roll Set Point:	0.284	Pitch Set Point:	0.421	Yaw Set Point:	-0.019	X_WP:	0.000	Y_WP:	0.000	Z_WP:	0.500	X:	-0.140	Y:	-0.212	Z:	0.420	yaw:	1.065	yaw rate:	17.886	Roll:	-0.897	Pitch:	-2.161	Yaw:	-2.498	Thrust:	62.347
Time:	4.507	Roll Set Point:	0.285	Pitch Set Point:	0.421	Yaw Set Point:	-0.024	X_WP:	0.000	Y_WP:	0.000	Z_WP:	0.500	X:	-0.140	Y:	-0.212	Z:	0.419	yaw:	1.380	yaw rate:	-31.496	Roll:	-2.335	Pitch:	-1.409	Yaw:	4.671	Thrust:	65.554
Time:	4.527	Roll Set Point:	0.283	Pitch Set Point:	0.422	Yaw Set Point:	-0.017	X_WP:	0.000	Y_WP:	0.000	Z_WP:	0.500	X:	-0.140	Y:	-0.212	Z:	0.419	yaw:	0.989	yaw rate:	39.040	Roll:	-0.238	Pitch:	-2.558	Yaw:	-5.308	Thrust:	64.885
Time:	4.547	Roll Set Point:	0.283	Pitch Set Point:	0.423	Yaw Set Point:	-0.017	X_WP:	0.000	Y_WP:	0.000	Z_WP:	0.500	X:	-0.140	Y:	-0.212	Z:	0.419	yaw:	0.957	yaw rate:	3.266	Roll:	-1.262	Pitch:	-2.024	Yaw:	-0.721	Thrust:	63.844
Time:	4.567	Roll Set Point:	0.282	Pitch Set Point:	0.423	Yaw Set Point:	-0.017	X_WP:	0.000	Y_WP:	0.000	Z_WP:	0.500	X:	-0.139	Y:	-0.213	Z:	0.419	yaw:	0.975	yaw rate:	-1.848	Roll:	-1.396	Pitch:	-1.883	Yaw:	-0.017	Thrust:	63.976
Time:	4.588	Roll Set Point:	0.282	Pitch Set Point:	0.423	Yaw Set Point:	-0.017	X_WP:	0.000	Y_WP:	0.000	Z_WP:	0.500	X:	-0.139	Y:	-0.213	Z:	0.419	yaw:	0.995	yaw rate:	-2.012	Roll:	-1.397	Pitch:	-1.996	Yaw:	-0.070	Thrust:	64.129
Time:	4.607	Roll Set Point:	0.282	Pitch Set Point:	0.424	Yaw Set Point:	-0.017	X_WP:	0.000	Y_WP:	0.000	Z_WP:	0.500	X:	-0.139	Y:	-0.213	Z:	0.419	yaw:	0.964	yaw rate:	3.090	Roll:	-1.252	Pitch:	-2.040	Yaw:	-0.595	Thrust:	63.076
Time:	4.629	Roll Set Point:	0.282	Pitch Set Point:	0.424	Yaw Set Point:	-0.019	X_WP:	0.000	Y_WP:	0.000	Z_WP:	0.500	X:	-0.139	Y:	-0.213	Z:	0.419	yaw:	1.090	yaw rate:	-12.549	Roll:	-1.816	Pitch:	-1.734	Yaw:	1.204	Thrust:	70.836
Time:	4.647	Roll Set Point:	0.282	Pitch Set Point:	0.424	Yaw Set Point:	-0.019	X_WP:	0.000	Y_WP:	0.000	Z_WP:	0.500	X:	-0.139	Y:	-0.213	Z:	0.420	yaw:	1.100	yaw rate:	-1.023	Roll:	-1.309	Pitch:	-1.816	Yaw:	0.281	Thrust:	56.603
Time:	4.667	Roll Set Point:	0.283	Pitch Set Point:	0.424	Yaw Set Point:	-0.025	X_WP:	0.000	Y_WP:	0.000	Z_WP:	0.500	X:	-0.139	Y:	-0.214	Z:	0.420	yaw:	1.428	yaw rate:	-32.789	Roll:	-2.413	Pitch:	-1.401	Yaw:	4.606	Thrust:	65.368
Time:	4.688	Roll Set Point:	0.283	Pitch Set Point:	0.424	Yaw Set Point:	-0.026	X_WP:	0.000	Y_WP:	0.000	Z_WP:	0.500	X:	-0.139	Y:	-0.214	Z:	0.420	yaw:	1.500	yaw rate:	-7.160	Roll:	-1.686	Pitch:	-1.673	Yaw:	1.258	Thrust:	68.437
Time:	4.707	Roll Set Point:	0.282	Pitch Set Point:	0.425	Yaw Set Point:	-0.024	X_WP:	0.000	Y_WP:	0.000	Z_WP:	0.500	X:	-0.138	Y:	-0.214	Z:	0.421	yaw:	1.388	yaw rate:	11.103	Roll:	-0.811	Pitch:	-2.300	Yaw:	-1.087	Thrust:	58.033
Time:	4.728	Roll Set Point:	0.282	Pitch Set Point:	0.424	Yaw Set Point:	-0.021	X_WP:	0.000	Y_WP:	0.000	Z_WP:	0.500	X:	-0.139	Y:	-0.214	Z:	0.422	yaw:	1.204	yaw rate:	18.400	Roll:	-1.142	Pitch:	-1.900	Yaw:	-2.268	Thrust:	64.043
Time:	4.747	Roll Set Point:	0.281	Pitch Set Point:	0.424	Yaw Set Point:	-0.021	X_WP:	0.000	Y_WP:	0.000	Z_WP:	0.500	X:	-0.138	Y:	-0.214	Z:	0.423	yaw:	1.186	yaw rate:	1.808	Roll:	-1.222	Pitch:	-1.782	Yaw:	-0.112	Thrust:	62.130
Time:	4.767	Roll Set Point:	0.283	Pitch Set Point:	0.424	Yaw Set Point:	-0.028	X_WP:	0.000	Y_WP:	0.000	Z_WP:	0.500	X:	-0.138	Y:	-0.214	Z:	0.424	yaw:	1.603	yaw rate:	-41.632	Roll:	-2.638	Pitch:	-1.350	Yaw:	6.107	Thrust:	61.614
Time:	4.788	Roll Set Point:	0.281	Pitch Set Point:	0.424	Yaw Set Point:	-0.022	X_WP:	0.000	Y_WP:	0.000	Z_WP:	0.500	X:	-0.138	Y:	-0.214	Z:	0.426	yaw:	1.236	yaw rate:	36.713	Roll:	-0.346	Pitch:	-2.314	Yaw:	-4.502	Thrust:	63.147
Time:	4.807	Roll Set Point:	0.283	Pitch Set Point:	0.424	Yaw Set Point:	-0.030	X_WP:	0.000	Y_WP:	0.000	Z_WP:	0.500	X:	-0.138	Y:	-0.214	Z:	0.427	yaw:	1.712	yaw rate:	-47.625	Roll:	-2.890	Pitch:	-1.119	Yaw:	7.261	Thrust:	63.512
Time:	4.828	Roll Set Point:	0.281	Pitch Set Point:	0.424	Yaw Set Point:	-0.024	X_WP:	0.000	Y_WP:	0.000	Z_WP:	0.500	X:	-0.138	Y:	-0.214	Z:	0.428	yaw:	1.374	yaw rate:	33.774	Roll:	-0.384	Pitch:	-2.355	Yaw:	-4.032	Thrust:	64.024
Time:	4.847	Roll Set Point:	0.282	Pitch Set Point:	0.424	Yaw Set Point:	-0.026	X_WP:	0.000	Y_WP:	0.000	Z_WP:	0.500	X:	-0.138	Y:	-0.214	Z:	0.429	yaw:	1.510	yaw rate:	-13.600	Roll:	-1.900	Pitch:	-1.491	Yaw:	2.481	Thrust:	61.409
Time:	4.868	Roll Set Point:	0.282	Pitch Set Point:	0.424	Yaw Set Point:	-0.027	X_WP:	0.000	Y_WP:	0.000	Z_WP:	0.500	X:	-0.138	Y:	-0.214	Z:	0.431	yaw:	1.542	yaw rate:	-3.238	Roll:	-1.538	Pitch:	-1.804	Yaw:	0.979	Thrust:	65.299
Time:	4.888	Roll Set Point:	0.283	Pitch Set Point:	0.424	Yaw Set Point:	-0.033	X_WP:	0.000	Y_WP:	0.000	Z_WP:	0.500	X:	-0.138	Y:	-0.214	Z:	0.432	yaw:	1.889	yaw rate:	-34.648	Roll:	-2.516	Pitch:	-1.278	Yaw:	5.509	Thrust:	64.301
Time:	4.907	Roll Set Point:	0.282	Pitch Set Point:	0.424	Yaw Set Point:	-0.027	X_WP:	0.000	Y_WP:	0.000	Z_WP:	0.500	X:	-0.138	Y:	-0.214	Z:	0.433	yaw:	1.548	yaw rate:	34.138	Roll:	-0.318	Pitch:	-2.361	Yaw:	-4.124	Thrust:	60.176
Time:	4.928	Roll Set Point:	0.282	Pitch Set Point:	0.425	Yaw Set Point:	-0.032	X_WP:	0.000	Y_WP:	0.000	Z_WP:	0.500	X:	-0.138	Y:	-0.215	Z:	0.434	yaw:	1.821	yaw rate:	-27.389	Roll:	-2.117	Pitch:	-1.636	Yaw:	4.488	Thrust:	66.792
Time:	4.956	Roll Set Point:	0.282	Pitch Set Point:	0.425	Yaw Set Point:	-0.027	X_WP:	0.000	Y_WP:	0.000	Z_WP:	0.500	X:	-0.138	Y:	-0.214	Z:	0.435	yaw:	1.556	yaw rate:	26.566	Roll:	-1.258	Pitch:	-2.319	Yaw:	-2.321	Thrust:	92.446
Time:	4.968	Roll Set Point:	0.282	Pitch Set Point:	0.425	Yaw Set Point:	-0.032	X_WP:	0.000	Y_WP:	0.000	Z_WP:	0.500	X:	-0.138	Y:	-0.215	Z:	0.436	yaw:	1.820	yaw rate:	-26.374	Roll:	-2.170	Pitch:	-1.210	Yaw:	7.702	Thrust:	36.992
Time:	4.988	Roll Set Point:	0.283	Pitch Set Point:	0.425	Yaw Set Point:	-0.032	X_WP:	0.000	Y_WP:	0.000	Z_WP:	0.500	X:	-0.138	Y:	-0.215	Z:	0.437	yaw:	1.860	yaw rate:	-4.009	Roll:	-1.681	Pitch:	-1.750	Yaw:	1.622	Thrust:	65.960
Time:	5.007	Roll Set Point:	0.280	Pitch Set Point:	0.426	Yaw Set Point:	-0.023	X_WP:	0.000	Y_WP:	0.000	Z_WP:	0.500	X:	-0.138	Y:	-0.214	Z:	0.439	yaw:	1.292	yaw rate:	56.728	Roll:	0.484	Pitch:	-2.821	Yaw:	-7.549	Thrust:	58.365
Time:	5.027	Roll Set Point:	0.281	Pitch Set Point:	0.426	Yaw Set Point:	-0.027	X_WP:	0.000	Y_WP:	0.000	Z_WP:	0.500	X:	-0.138	Y:	-0.215	Z:	0.440	yaw:	1.521	yaw rate:	-22.897	Roll:	-1.998	Pitch:	-1.813	Yaw:	3.599	Thrust:	66.293
Time:	5.048	Roll Set Point:	0.279	Pitch Set Point:	0.426	Yaw Set Point:	-0.020	X_WP:	0.000	Y_WP:	0.000	Z_WP:	0.500	X:	-0.138	Y:	-0.215	Z:	0.441	yaw:	1.126	yaw rate:	39.536	Roll:	-0.219	Pitch:	-2.326	Yaw:	-5.051	Thrust:	62.417
Time:	5.068	Roll Set Point:	0.280	Pitch Set Point:	0.427	Yaw Set Point:	-0.024	X_WP:	0.000	Y_WP:	0.000	Z_WP:	0.500	X:	-0.137	Y:	-0.215	Z:	0.442	yaw:	1.360	yaw rate:	-23.448	Roll:	-1.932	Pitch:	-1.799	Yaw:	3.466	Thrust:	67.218
Time:	5.089	Roll Set Point:	0.279	Pitch Set Point:	0.427	Yaw Set Point:	-0.023	X_WP:	0.000	Y_WP:	0.000	Z_WP:	0.500	X:	-0.137	Y:	-0.215	Z:	0.443	yaw:	1.306	yaw rate:	5.487	Roll:	-1.140	Pitch:	-2.052	Yaw:	-0.326	Thrust:	67.188
Time:	5.108	Roll Set Point:	0.279	Pitch Set Point:	0.427	Yaw Set Point:	-0.023	X_WP:	0.000	Y_WP:	0.000	Z_WP:	0.500	X:	-0.137	Y:	-0.215	Z:	0.444	yaw:	1.299	yaw rate:	0.651	Roll:	-1.497	Pitch:	-1.716	Yaw:	0.502	Thrust:	61.326
Time:	5.128	Roll Set Point:	0.278	Pitch Set Point:	0.428	Yaw Set Point:	-0.015	X_WP:	0.000	Y_WP:	0.000	Z_WP:	0.500	X:	-0.137	Y:	-0.215	Z:	0.445	yaw:	0.869	yaw rate:	42.971	Roll:	-0.099	Pitch:	-2.572	Yaw:	-5.534	Thrust:	66.981
Time:	5.147	Roll Set Point:	0.278	Pitch Set Point:	0.428	Yaw Set Point:	-0.020	X_WP:	0.000	Y_WP:	0.000	Z_WP:	0.500	X:	-0.137	Y:	-0.215	Z:	0.446	yaw:	1.172	yaw rate:	-30.274	Roll:	-2.255	Pitch:	-1.484	Yaw:	4.569	Thrust:	63.410
Time:	5.168	Roll Set Point:	0.278	Pitch Set Point:	0.428	Yaw Set Point:	-0.022	X_WP:	0.000	Y_WP:	0.000	Z_WP:	0.500	X:	-0.137	Y:	-0.216	Z:	0.446	yaw:	1.256	yaw rate:	-8.343	Roll:	-1.576	Pitch:	-1.876	Yaw:	1.445	Thrust:	67.010
Time:	5.190	Roll Set Point:	0.275	Pitch Set Point:	0.430	Yaw Set Point:	-0.010	X_WP:	0.000	Y_WP:	0.000	Z_WP:	0.500	X:	-0.136	Y:	-0.216	Z:	0.448	yaw:	0.568	yaw rate:	68.757	Roll:	1.103	Pitch:	-3.237	Yaw:	-8.978	Thrust:	70.265
Time:	5.208	Roll Set Point:	0.275	Pitch Set Point:	0.430	Yaw Set Point:	-0.010	X_WP:	0.000	Y_WP:	0.000	Z_WP:	0.500	X:	-0.136	Y:	-0.216	Z:	0.449	yaw:	0.565	yaw rate:	0.256	Roll:	-1.410	Pitch:	-1.706	Yaw:	-0.445	Thrust:	58.277
Time:	5.228	Roll Set Point:	0.275	Pitch Set Point:	0.430	Yaw Set Point:	-0.015	X_WP:	0.000	Y_WP:	0.000	Z_WP:	0.500	X:	-0.136	Y:	-0.216	Z:	0.450	yaw:	0.864	yaw rate:	-29.814	Roll:	-2.028	Pitch:	-1.837	Yaw:	3.537	Thrust:	67.148
Time:	5.248	Roll Set Point:	0.274	Pitch Set Point:	0.431	Yaw Set Point:	-0.013	X_WP:	0.000	Y_WP:	0.000	Z_WP:	0.500	X:	-0.136	Y:	-0.216	Z:	0.451	yaw:	0.733	yaw rate:	13.024	Roll:	-0.884	Pitch:	-2.202	Yaw:	-2.020	Thrust:	63.570
Time:	5.268	Roll Set Point:	0.272	Pitch Set Point:	0.432	Yaw Set Point:	-0.003	X_WP:	0.000	Y_WP:	0.000	Z_WP:	0.500	X:	-0.135	Y:	-0.216	Z:	0.452	yaw:	0.173	yaw rate:	56.030	Roll:	0.574	Pitch:	-2.783	Yaw:	-8.216	Thrust:	64.727
Time:	5.292	Roll Set Point:	0.272	Pitch Set Point:	0.432	Yaw Set Point:	-0.004	X_WP:	0.000	Y_WP:	0.000	Z_WP:	0.500	X:	-0.135	Y:	-0.216	Z:	0.454	yaw:	0.254	yaw rate:	-8.094	Roll:	-1.533	Pitch:	-1.952	Yaw:	-0.147	Thrust:	72.028
Time:	5.308	Roll Set Point:	0.270	Pitch Set Point:	0.433	Yaw Set Point:	-0.001	X_WP:	0.000	Y_WP:	0.000	Z_WP:	0.500	X:	-0.135	Y:	-0.217	Z:	0.455	yaw:	0.078	yaw rate:	17.600	Roll:	-0.647	Pitch:	-2.294	Yaw:	-3.721	Thrust:	56.086
Time:	5.328	Roll Set Point:	0.270	Pitch Set Point:	0.434	Yaw Set Point:	-0.002	X_WP:	0.000	Y_WP:	0.000	Z_WP:	0.500	X:	-0.135	Y:	-0.217	Z:	0.456	yaw:	0.103	yaw rate:	-2.476	Roll:	-1.242	Pitch:	-2.052	Yaw:	-0.924	Thrust:	66.302
