Time:	0.039	Roll Set Point:	-0.034	Pitch Set Point:	-0.033	Yaw Set Point:	0.089	X_WP:	0.000	Y_WP:	0.000	Y_WP:	0.000	X:	0.018	Y:	0.016	Z:	0.057	yaw:	-5.091	yaw rate:	-0.279	Roll:	0.469	Pitch:	0.494	Yaw:	-7.109	Thrust:	0.000
Time:	0.056	Roll Set Point:	-0.034	Pitch Set Point:	-0.033	Yaw Set Point:	0.089	X_WP:	0.000	Y_WP:	0.000	Y_WP:	0.000	X:	0.018	Y:	0.016	Z:	0.057	yaw:	-5.094	yaw rate:	0.317	Roll:	0.480	Pitch:	0.500	Yaw:	-7.191	Thrust:	0.000
Time:	0.076	Roll Set Point:	-0.034	Pitch Set Point:	-0.033	Yaw Set Point:	0.089	X_WP:	0.000	Y_WP:	0.000	Y_WP:	0.000	X:	0.018	Y:	0.016	Z:	0.057	yaw:	-5.097	yaw rate:	0.253	Roll:	0.452	Pitch:	0.487	Yaw:	-7.220	Thrust:	0.000
Time:	0.097	Roll Set Point:	-0.034	Pitch Set Point:	-0.033	Yaw Set Point:	0.089	X_WP:	0.000	Y_WP:	0.000	Y_WP:	0.000	X:	0.018	Y:	0.016	Z:	0.057	yaw:	-5.098	yaw rate:	0.165	Roll:	0.481	Pitch:	0.503	Yaw:	-7.254	Thrust:	0.000
Time:	0.117	Roll Set Point:	-0.034	Pitch Set Point:	-0.033	Yaw Set Point:	0.089	X_WP:	0.000	Y_WP:	0.000	Y_WP:	0.000	X:	0.018	Y:	0.016	Z:	0.057	yaw:	-5.090	yaw rate:	-0.873	Roll:	0.480	Pitch:	0.494	Yaw:	-7.123	Thrust:	0.000
Time:	0.136	Roll Set Point:	-0.034	Pitch Set Point:	-0.033	Yaw Set Point:	0.089	X_WP:	0.000	Y_WP:	0.000	Y_WP:	0.000	X:	0.018	Y:	0.016	Z:	0.057	yaw:	-5.098	yaw rate:	0.786	Roll:	0.458	Pitch:	0.500	Yaw:	-7.397	Thrust:	0.000
Time:	0.156	Roll Set Point:	-0.034	Pitch Set Point:	-0.033	Yaw Set Point:	0.089	X_WP:	0.000	Y_WP:	0.000	Y_WP:	0.000	X:	0.018	Y:	0.016	Z:	0.057	yaw:	-5.096	yaw rate:	-0.183	Roll:	0.483	Pitch:	0.500	Yaw:	-7.303	Thrust:	0.000
Time:	0.177	Roll Set Point:	-0.034	Pitch Set Point:	-0.033	Yaw Set Point:	0.089	X_WP:	0.000	Y_WP:	0.000	Y_WP:	0.000	X:	0.018	Y:	0.016	Z:	0.057	yaw:	-5.094	yaw rate:	-0.173	Roll:	0.469	Pitch:	0.496	Yaw:	-7.349	Thrust:	0.000
Time:	0.196	Roll Set Point:	-0.034	Pitch Set Point:	-0.033	Yaw Set Point:	0.089	X_WP:	0.000	Y_WP:	0.000	Y_WP:	0.000	X:	0.018	Y:	0.016	Z:	0.057	yaw:	-5.099	yaw rate:	0.520	Roll:	0.486	Pitch:	0.503	Yaw:	-7.463	Thrust:	0.000
Time:	0.216	Roll Set Point:	-0.034	Pitch Set Point:	-0.033	Yaw Set Point:	0.089	X_WP:	0.000	Y_WP:	0.000	Y_WP:	0.000	X:	0.018	Y:	0.016	Z:	0.057	yaw:	-5.098	yaw rate:	-0.147	Roll:	0.468	Pitch:	0.499	Yaw:	-7.420	Thrust:	0.000
Time:	0.238	Roll Set Point:	-0.034	Pitch Set Point:	-0.033	Yaw Set Point:	0.089	X_WP:	0.000	Y_WP:	0.000	Y_WP:	0.000	X:	0.018	Y:	0.016	Z:	0.057	yaw:	-5.100	yaw rate:	0.228	Roll:	0.475	Pitch:	0.508	Yaw:	-7.524	Thrust:	0.000
Time:	0.257	Roll Set Point:	-0.034	Pitch Set Point:	-0.033	Yaw Set Point:	0.089	X_WP:	0.000	Y_WP:	0.000	Y_WP:	0.000	X:	0.018	Y:	0.016	Z:	0.057	yaw:	-5.098	yaw rate:	-0.244	Roll:	0.481	Pitch:	0.500	Yaw:	-7.446	Thrust:	0.000
Time:	0.276	Roll Set Point:	-0.034	Pitch Set Point:	-0.033	Yaw Set Point:	0.089	X_WP:	0.000	Y_WP:	0.000	Y_WP:	0.000	X:	0.018	Y:	0.016	Z:	0.057	yaw:	-5.095	yaw rate:	-0.306	Roll:	0.480	Pitch:	0.502	Yaw:	-7.502	Thrust:	0.000
Time:	0.298	Roll Set Point:	-0.034	Pitch Set Point:	-0.033	Yaw Set Point:	0.089	X_WP:	0.000	Y_WP:	0.000	Y_WP:	0.000	X:	0.018	Y:	0.016	Z:	0.057	yaw:	-5.094	yaw rate:	-0.039	Roll:	0.476	Pitch:	0.509	Yaw:	-7.607	Thrust:	0.000
Time:	0.316	Roll Set Point:	-0.034	Pitch Set Point:	-0.033	Yaw Set Point:	0.089	X_WP:	0.000	Y_WP:	0.000	Y_WP:	0.000	X:	0.018	Y:	0.016	Z:	0.057	yaw:	-5.091	yaw rate:	-0.293	Roll:	0.484	Pitch:	0.503	Yaw:	-7.545	Thrust:	0.000
Time:	0.337	Roll Set Point:	-0.034	Pitch Set Point:	-0.033	Yaw Set Point:	0.089	X_WP:	0.000	Y_WP:	0.000	Y_WP:	0.000	X:	0.018	Y:	0.016	Z:	0.057	yaw:	-5.098	yaw rate:	0.636	Roll:	0.484	Pitch:	0.510	Yaw:	-7.749	Thrust:	0.000
Time:	0.356	Roll Set Point:	-0.034	Pitch Set Point:	-0.033	Yaw Set Point:	0.089	X_WP:	0.000	Y_WP:	0.000	Y_WP:	0.000	X:	0.018	Y:	0.016	Z:	0.057	yaw:	-5.093	yaw rate:	-0.481	Roll:	0.481	Pitch:	0.505	Yaw:	-7.592	Thrust:	0.000
Time:	0.378	Roll Set Point:	-0.034	Pitch Set Point:	-0.033	Yaw Set Point:	0.089	X_WP:	0.000	Y_WP:	0.000	Y_WP:	0.000	X:	0.018	Y:	0.016	Z:	0.057	yaw:	-5.093	yaw rate:	0.055	Roll:	0.477	Pitch:	0.511	Yaw:	-7.755	Thrust:	0.000
Time:	0.396	Roll Set Point:	-0.034	Pitch Set Point:	-0.033	Yaw Set Point:	0.089	X_WP:	0.000	Y_WP:	0.000	Y_WP:	0.000	X:	0.018	Y:	0.016	Z:	0.057	yaw:	-5.097	yaw rate:	0.399	Roll:	0.488	Pitch:	0.501	Yaw:	-7.768	Thrust:	0.000
Time:	0.415	Roll Set Point:	-0.034	Pitch Set Point:	-0.033	Yaw Set Point:	0.089	X_WP:	0.000	Y_WP:	0.000	Y_WP:	0.000	X:	0.018	Y:	0.016	Z:	0.057	yaw:	-5.090	yaw rate:	-0.699	Roll:	0.486	Pitch:	0.517	Yaw:	-7.674	Thrust:	0.000
Time:	0.442	Roll Set Point:	-0.034	Pitch Set Point:	-0.033	Yaw Set Point:	0.089	X_WP:	0.000	Y_WP:	0.000	Y_WP:	0.000	X:	0.018	Y:	0.016	Z:	0.057	yaw:	-5.099	yaw rate:	0.859	Roll:	0.484	Pitch:	0.515	Yaw:	-8.150	Thrust:	0.000
Time:	0.470	Roll Set Point:	-0.034	Pitch Set Point:	-0.033	Yaw Set Point:	0.089	X_WP:	0.000	Y_WP:	0.000	Y_WP:	0.000	X:	0.018	Y:	0.016	Z:	0.057	yaw:	-5.098	yaw rate:	-0.118	Roll:	0.500	Pitch:	0.519	Yaw:	-8.137	Thrust:	0.000
Time:	0.487	Roll Set Point:	-0.034	Pitch Set Point:	-0.033	Yaw Set Point:	0.089	X_WP:	0.000	Y_WP:	0.000	Y_WP:	0.000	X:	0.018	Y:	0.016	Z:	0.057	yaw:	-5.092	yaw rate:	-0.610	Roll:	0.478	Pitch:	0.509	Yaw:	-7.684	Thrust:	0.000
Time:	0.512	Roll Set Point:	-0.034	Pitch Set Point:	-0.033	Yaw Set Point:	0.089	X_WP:	0.000	Y_WP:	0.000	Y_WP:	0.000	X:	0.018	Y:	0.016	Z:	0.057	yaw:	-5.103	yaw rate:	1.157	Roll:	0.496	Pitch:	0.518	Yaw:	-8.273	Thrust:	0.000
Time:	0.528	Roll Set Point:	-0.034	Pitch Set Point:	-0.033	Yaw Set Point:	0.089	X_WP:	0.000	Y_WP:	0.000	Y_WP:	0.000	X:	0.018	Y:	0.016	Z:	0.057	yaw:	-5.096	yaw rate:	-0.732	Roll:	0.474	Pitch:	0.511	Yaw:	-7.631	Thrust:	0.000
Time:	0.546	Roll Set Point:	-0.034	Pitch Set Point:	-0.033	Yaw Set Point:	0.089	X_WP:	0.000	Y_WP:	0.000	Y_WP:	0.000	X:	0.018	Y:	0.016	Z:	0.057	yaw:	-5.102	yaw rate:	0.606	Roll:	0.485	Pitch:	0.514	Yaw:	-8.062	Thrust:	0.000
Time:	0.569	Roll Set Point:	-0.034	Pitch Set Point:	-0.032	Yaw Set Point:	0.087	X_WP:	0.000	Y_WP:	0.000	Y_WP:	0.000	X:	0.018	Y:	0.015	Z:	0.057	yaw:	-4.962	yaw rate:	-13.962	Roll:	0.479	Pitch:	0.452	Yaw:	-6.359	Thrust:	0.000
Time:	0.588	Roll Set Point:	-0.034	Pitch Set Point:	-0.033	Yaw Set Point:	0.089	X_WP:	0.000	Y_WP:	0.000	Y_WP:	0.000	X:	0.018	Y:	0.016	Z:	0.057	yaw:	-5.099	yaw rate:	13.646	Roll:	0.518	Pitch:	0.598	Yaw:	-9.934	Thrust:	0.000
Time:	0.606	Roll Set Point:	-0.034	Pitch Set Point:	-0.033	Yaw Set Point:	0.089	X_WP:	0.000	Y_WP:	0.000	Y_WP:	0.000	X:	0.018	Y:	0.016	Z:	0.057	yaw:	-5.092	yaw rate:	-0.660	Roll:	0.485	Pitch:	0.503	Yaw:	-7.942	Thrust:	0.000
Time:	0.626	Roll Set Point:	-0.034	Pitch Set Point:	-0.033	Yaw Set Point:	0.089	X_WP:	0.000	Y_WP:	0.000	Y_WP:	0.000	X:	0.018	Y:	0.016	Z:	0.057	yaw:	-5.093	yaw rate:	0.127	Roll:	0.489	Pitch:	0.528	Yaw:	-8.166	Thrust:	0.000
Time:	0.651	Roll Set Point:	-0.034	Pitch Set Point:	-0.033	Yaw Set Point:	0.089	X_WP:	0.000	Y_WP:	0.000	Y_WP:	0.000	X:	0.018	Y:	0.016	Z:	0.057	yaw:	-5.096	yaw rate:	0.209	Roll:	0.505	Pitch:	0.525	Yaw:	-8.473	Thrust:	0.000
Time:	0.672	Roll Set Point:	-0.034	Pitch Set Point:	-0.033	Yaw Set Point:	0.089	X_WP:	0.000	Y_WP:	0.000	Y_WP:	0.000	X:	0.018	Y:	0.016	Z:	0.057	yaw:	-5.088	yaw rate:	-0.775	Roll:	0.491	Pitch:	0.512	Yaw:	-8.110	Thrust:	0.000
Time:	0.686	Roll Set Point:	-0.034	Pitch Set Point:	-0.033	Yaw Set Point:	0.089	X_WP:	0.000	Y_WP:	0.000	Y_WP:	0.000	X:	0.018	Y:	0.016	Z:	0.057	yaw:	-5.094	yaw rate:	0.601	Roll:	0.490	Pitch:	0.526	Yaw:	-8.072	Thrust:	0.000
Time:	0.710	Roll Set Point:	-0.034	Pitch Set Point:	-0.033	Yaw Set Point:	0.089	X_WP:	0.000	Y_WP:	0.000	Y_WP:	0.000	X:	0.018	Y:	0.016	Z:	0.057	yaw:	-5.093	yaw rate:	-0.116	Roll:	0.495	Pitch:	0.524	Yaw:	-8.452	Thrust:	0.000
Time:	0.726	Roll Set Point:	-0.034	Pitch Set Point:	-0.033	Yaw Set Point:	0.089	X_WP:	0.000	Y_WP:	0.000	Y_WP:	0.000	X:	0.018	Y:	0.016	Z:	0.057	yaw:	-5.092	yaw rate:	-0.048	Roll:	0.501	Pitch:	0.511	Yaw:	-8.101	Thrust:	0.000
Time:	0.746	Roll Set Point:	-0.034	Pitch Set Point:	-0.033	Yaw Set Point:	0.089	X_WP:	0.000	Y_WP:	0.000	Y_WP:	0.000	X:	0.018	Y:	0.016	Z:	0.057	yaw:	-5.097	yaw rate:	0.497	Roll:	0.492	Pitch:	0.533	Yaw:	-8.461	Thrust:	0.000
Time:	0.776	Roll Set Point:	-0.034	Pitch Set Point:	-0.033	Yaw Set Point:	0.089	X_WP:	0.000	Y_WP:	0.000	Y_WP:	0.000	X:	0.018	Y:	0.016	Z:	0.057	yaw:	-5.094	yaw rate:	-0.274	Roll:	0.513	Pitch:	0.538	Yaw:	-9.014	Thrust:	0.000
Time:	0.788	Roll Set Point:	-0.034	Pitch Set Point:	-0.033	Yaw Set Point:	0.089	X_WP:	0.000	Y_WP:	0.000	Y_WP:	0.000	X:	0.018	Y:	0.016	Z:	0.057	yaw:	-5.092	yaw rate:	-0.228	Roll:	0.496	Pitch:	0.513	Yaw:	-7.852	Thrust:	0.000
Time:	0.807	Roll Set Point:	-0.034	Pitch Set Point:	-0.033	Yaw Set Point:	0.089	X_WP:	0.000	Y_WP:	0.000	Y_WP:	0.000	X:	0.018	Y:	0.016	Z:	0.057	yaw:	-5.096	yaw rate:	0.359	Roll:	0.492	Pitch:	0.526	Yaw:	-8.352	Thrust:	0.000
Time:	0.827	Roll Set Point:	-0.034	Pitch Set Point:	-0.033	Yaw Set Point:	0.089	X_WP:	0.000	Y_WP:	0.000	Y_WP:	0.000	X:	0.018	Y:	0.016	Z:	0.057	yaw:	-5.092	yaw rate:	-0.371	Roll:	0.497	Pitch:	0.523	Yaw:	-8.412	Thrust:	0.000
Time:	0.851	Roll Set Point:	-0.034	Pitch Set Point:	-0.033	Yaw Set Point:	0.089	X_WP:	0.000	Y_WP:	0.000	Y_WP:	0.000	X:	0.018	Y:	0.016	Z:	0.057	yaw:	-5.096	yaw rate:	0.383	Roll:	0.513	Pitch:	0.535	Yaw:	-8.903	Thrust:	0.000
Time:	0.870	Roll Set Point:	-0.034	Pitch Set Point:	-0.033	Yaw Set Point:	0.089	X_WP:	0.000	Y_WP:	0.000	Y_WP:	0.000	X:	0.018	Y:	0.016	Z:	0.057	yaw:	-5.097	yaw rate:	0.069	Roll:	0.496	Pitch:	0.529	Yaw:	-8.589	Thrust:	0.000
Time:	0.887	Roll Set Point:	-0.034	Pitch Set Point:	-0.033	Yaw Set Point:	0.089	X_WP:	0.000	Y_WP:	0.000	Y_WP:	0.000	X:	0.018	Y:	0.016	Z:	0.057	yaw:	-5.093	yaw rate:	-0.397	Roll:	0.495	Pitch:	0.524	Yaw:	-8.219	Thrust:	0.000
Time:	0.911	Roll Set Point:	-0.034	Pitch Set Point:	-0.033	Yaw Set Point:	0.089	X_WP:	0.000	Y_WP:	0.000	Y_WP:	0.000	X:	0.018	Y:	0.016	Z:	0.057	yaw:	-5.098	yaw rate:	0.567	Roll:	0.506	Pitch:	0.539	Yaw:	-9.020	Thrust:	0.000
Time:	0.928	Roll Set Point:	-0.034	Pitch Set Point:	-0.033	Yaw Set Point:	0.089	X_WP:	0.000	Y_WP:	0.000	Y_WP:	0.000	X:	0.018	Y:	0.016	Z:	0.057	yaw:	-5.094	yaw rate:	-0.429	Roll:	0.512	Pitch:	0.531	Yaw:	-8.339	Thrust:	0.000
Time:	0.946	Roll Set Point:	-0.034	Pitch Set Point:	-0.033	Yaw Set Point:	0.089	X_WP:	0.000	Y_WP:	0.000	Y_WP:	0.000	X:	0.018	Y:	0.016	Z:	0.057	yaw:	-5.093	yaw rate:	-0.047	Roll:	0.501	Pitch:	0.515	Yaw:	-8.665	Thrust:	0.000
Time:	0.968	Roll Set Point:	-0.034	Pitch Set Point:	-0.033	Yaw Set Point:	0.089	X_WP:	0.000	Y_WP:	0.000	Y_WP:	0.000	X:	0.018	Y:	0.016	Z:	0.057	yaw:	-5.097	yaw rate:	0.395	Roll:	0.505	Pitch:	0.550	Yaw:	-8.978	Thrust:	0.000
Time:	0.989	Roll Set Point:	-0.034	Pitch Set Point:	-0.033	Yaw Set Point:	0.089	X_WP:	0.000	Y_WP:	0.000	Y_WP:	0.000	X:	0.018	Y:	0.016	Z:	0.057	yaw:	-5.096	yaw rate:	-0.177	Roll:	0.512	Pitch:	0.528	Yaw:	-8.768	Thrust:	0.000
Time:	1.006	Roll Set Point:	-0.034	Pitch Set Point:	-0.033	Yaw Set Point:	0.089	X_WP:	0.000	Y_WP:	0.000	Y_WP:	0.000	X:	0.018	Y:	0.016	Z:	0.057	yaw:	-5.091	yaw rate:	-0.478	Roll:	0.506	Pitch:	0.528	Yaw:	-8.519	Thrust:	0.000
Time:	1.026	Roll Set Point:	-0.034	Pitch Set Point:	-0.033	Yaw Set Point:	0.089	X_WP:	0.000	Y_WP:	0.000	Y_WP:	0.000	X:	0.018	Y:	0.016	Z:	0.057	yaw:	-5.094	yaw rate:	0.334	Roll:	0.499	Pitch:	0.535	Yaw:	-8.870	Thrust:	0.000
Time:	1.051	Roll Set Point:	-0.034	Pitch Set Point:	-0.033	Yaw Set Point:	0.089	X_WP:	0.000	Y_WP:	0.000	Y_WP:	0.000	X:	0.018	Y:	0.016	Z:	0.057	yaw:	-5.093	yaw rate:	-0.110	Roll:	0.526	Pitch:	0.552	Yaw:	-9.374	Thrust:	0.000
Time:	1.070	Roll Set Point:	-0.034	Pitch Set Point:	-0.033	Yaw Set Point:	0.089	X_WP:	0.000	Y_WP:	0.000	Y_WP:	0.000	X:	0.018	Y:	0.016	Z:	0.057	yaw:	-5.100	yaw rate:	0.675	Roll:	0.501	Pitch:	0.535	Yaw:	-8.985	Thrust:	0.000
Time:	1.086	Roll Set Point:	-0.034	Pitch Set Point:	-0.033	Yaw Set Point:	0.089	X_WP:	0.000	Y_WP:	0.000	Y_WP:	0.000	X:	0.018	Y:	0.016	Z:	0.057	yaw:	-5.099	yaw rate:	-0.130	Roll:	0.506	Pitch:	0.528	Yaw:	-8.545	Thrust:	0.000
Time:	1.111	Roll Set Point:	-0.034	Pitch Set Point:	-0.033	Yaw Set Point:	0.089	X_WP:	0.000	Y_WP:	0.000	Y_WP:	0.000	X:	0.018	Y:	0.016	Z:	0.057	yaw:	-5.095	yaw rate:	-0.398	Roll:	0.516	Pitch:	0.547	Yaw:	-9.290	Thrust:	0.000
Time:	1.126	Roll Set Point:	-0.034	Pitch Set Point:	-0.033	Yaw Set Point:	0.089	X_WP:	0.000	Y_WP:	0.000	Y_WP:	0.000	X:	0.018	Y:	0.016	Z:	0.057	yaw:	-5.087	yaw rate:	-0.779	Roll:	0.513	Pitch:	0.530	Yaw:	-8.567	Thrust:	0.000
Time:	1.146	Roll Set Point:	-0.034	Pitch Set Point:	-0.033	Yaw Set Point:	0.089	X_WP:	0.000	Y_WP:	0.000	Y_WP:	0.000	X:	0.018	Y:	0.016	Z:	0.057	yaw:	-5.099	yaw rate:	1.207	Roll:	0.507	Pitch:	0.543	Yaw:	-9.182	Thrust:	0.000
Time:	1.169	Roll Set Point:	-0.034	Pitch Set Point:	-0.033	Yaw Set Point:	0.089	X_WP:	0.000	Y_WP:	0.000	Y_WP:	0.000	X:	0.018	Y:	0.016	Z:	0.057	yaw:	-5.099	yaw rate:	0.031	Roll:	0.519	Pitch:	0.545	Yaw:	-9.374	Thrust:	0.000
Time:	1.189	Roll Set Point:	-0.034	Pitch Set Point:	-0.033	Yaw Set Point:	0.089	X_WP:	0.000	Y_WP:	0.000	Y_WP:	0.000	X:	0.018	Y:	0.016	Z:	0.057	yaw:	-5.099	yaw rate:	-0.024	Roll:	0.519	Pitch:	0.547	Yaw:	-9.251	Thrust:	0.000
Time:	1.206	Roll Set Point:	-0.034	Pitch Set Point:	-0.033	Yaw Set Point:	0.089	X_WP:	0.000	Y_WP:	0.000	Y_WP:	0.000	X:	0.018	Y:	0.016	Z:	0.057	yaw:	-5.098	yaw rate:	-0.075	Roll:	0.509	Pitch:	0.544	Yaw:	-8.822	Thrust:	0.000
Time:	1.226	Roll Set Point:	-0.034	Pitch Set Point:	-0.033	Yaw Set Point:	0.089	X_WP:	0.000	Y_WP:	0.000	Y_WP:	0.000	X:	0.018	Y:	0.016	Z:	0.057	yaw:	-5.096	yaw rate:	-0.172	Roll:	0.524	Pitch:	0.534	Yaw:	-9.204	Thrust:	0.000
Time:	1.249	Roll Set Point:	-0.034	Pitch Set Point:	-0.033	Yaw Set Point:	0.089	X_WP:	0.000	Y_WP:	0.000	Y_WP:	0.000	X:	0.018	Y:	0.016	Z:	0.057	yaw:	-5.094	yaw rate:	-0.286	Roll:	0.515	Pitch:	0.549	Yaw:	-9.435	Thrust:	0.000
Time:	1.266	Roll Set Point:	-0.034	Pitch Set Point:	-0.033	Yaw Set Point:	0.089	X_WP:	0.000	Y_WP:	0.000	Y_WP:	0.000	X:	0.018	Y:	0.016	Z:	0.057	yaw:	-5.095	yaw rate:	0.142	Roll:	0.521	Pitch:	0.552	Yaw:	-9.111	Thrust:	0.000
Time:	1.287	Roll Set Point:	-0.034	Pitch Set Point:	-0.033	Yaw Set Point:	0.089	X_WP:	0.000	Y_WP:	0.000	Y_WP:	0.000	X:	0.018	Y:	0.016	Z:	0.057	yaw:	-5.092	yaw rate:	-0.288	Roll:	0.511	Pitch:	0.543	Yaw:	-9.313	Thrust:	0.000
Time:	1.311	Roll Set Point:	-0.034	Pitch Set Point:	-0.033	Yaw Set Point:	0.089	X_WP:	0.000	Y_WP:	0.000	Y_WP:	0.000	X:	0.018	Y:	0.016	Z:	0.057	yaw:	-5.096	yaw rate:	0.366	Roll:	0.534	Pitch:	0.558	Yaw:	-9.848	Thrust:	0.000
Time:	1.327	Roll Set Point:	-0.034	Pitch Set Point:	-0.033	Yaw Set Point:	0.089	X_WP:	0.000	Y_WP:	0.000	Y_WP:	0.000	X:	0.018	Y:	0.016	Z:	0.057	yaw:	-5.092	yaw rate:	-0.383	Roll:	0.517	Pitch:	0.537	Yaw:	-8.873	Thrust:	0.000
Time:	1.346	Roll Set Point:	-0.034	Pitch Set Point:	-0.033	Yaw Set Point:	0.089	X_WP:	0.000	Y_WP:	0.000	Y_WP:	0.000	X:	0.018	Y:	0.016	Z:	0.057	yaw:	-5.094	yaw rate:	0.218	Roll:	0.510	Pitch:	0.545	Yaw:	-9.371	Thrust:	0.000
Time:	1.368	Roll Set Point:	-0.034	Pitch Set Point:	-0.033	Yaw Set Point:	0.089	X_WP:	0.000	Y_WP:	0.000	Y_WP:	0.000	X:	0.018	Y:	0.016	Z:	0.057	yaw:	-5.089	yaw rate:	-0.557	Roll:	0.535	Pitch:	0.559	Yaw:	-9.666	Thrust:	0.000
Time:	1.388	Roll Set Point:	-0.034	Pitch Set Point:	-0.033	Yaw Set Point:	0.089	X_WP:	0.000	Y_WP:	0.000	Y_WP:	0.000	X:	0.018	Y:	0.016	Z:	0.057	yaw:	-5.092	yaw rate:	0.307	Roll:	0.516	Pitch:	0.548	Yaw:	-9.366	Thrust:	0.000
Time:	1.406	Roll Set Point:	-0.034	Pitch Set Point:	-0.033	Yaw Set Point:	0.089	X_WP:	0.000	Y_WP:	0.000	Y_WP:	0.000	X:	0.018	Y:	0.016	Z:	0.057	yaw:	-5.097	yaw rate:	0.521	Roll:	0.532	Pitch:	0.553	Yaw:	-9.426	Thrust:	0.000
Time:	1.426	Roll Set Point:	-0.034	Pitch Set Point:	-0.033	Yaw Set Point:	0.089	X_WP:	0.000	Y_WP:	0.000	Y_WP:	0.000	X:	0.018	Y:	0.016	Z:	0.057	yaw:	-5.105	yaw rate:	0.824	Roll:	0.502	Pitch:	0.551	Yaw:	-9.732	Thrust:	0.000
Time:	1.452	Roll Set Point:	-0.034	Pitch Set Point:	-0.033	Yaw Set Point:	0.089	X_WP:	0.000	Y_WP:	0.000	Y_WP:	0.000	X:	0.018	Y:	0.016	Z:	0.057	yaw:	-5.092	yaw rate:	-1.332	Roll:	0.553	Pitch:	0.569	Yaw:	-10.137	Thrust:	0.000
Time:	1.466	Roll Set Point:	-0.034	Pitch Set Point:	-0.033	Yaw Set Point:	0.089	X_WP:	0.000	Y_WP:	0.000	Y_WP:	0.000	X:	0.018	Y:	0.016	Z:	0.057	yaw:	-5.096	yaw rate:	0.459	Roll:	0.509	Pitch:	0.542	Yaw:	-9.037	Thrust:	0.000
Time:	1.486	Roll Set Point:	-0.034	Pitch Set Point:	-0.033	Yaw Set Point:	0.089	X_WP:	0.000	Y_WP:	0.000	Y_WP:	0.000	X:	0.018	Y:	0.016	Z:	0.057	yaw:	-5.097	yaw rate:	0.018	Roll:	0.524	Pitch:	0.546	Yaw:	-9.659	Thrust:	0.000
Time:	1.512	Roll Set Point:	-0.034	Pitch Set Point:	-0.033	Yaw Set Point:	0.089	X_WP:	0.000	Y_WP:	0.000	Y_WP:	0.000	X:	0.018	Y:	0.016	Z:	0.057	yaw:	-5.097	yaw rate:	0.013	Roll:	0.536	Pitch:	0.575	Yaw:	-10.307	Thrust:	0.000
Time:	1.527	Roll Set Point:	-0.034	Pitch Set Point:	-0.033	Yaw Set Point:	0.089	X_WP:	0.000	Y_WP:	0.000	Y_WP:	0.000	X:	0.018	Y:	0.016	Z:	0.057	yaw:	-5.094	yaw rate:	-0.259	Roll:	0.534	Pitch:	0.546	Yaw:	-9.316	Thrust:	0.000
Time:	1.546	Roll Set Point:	-0.034	Pitch Set Point:	-0.033	Yaw Set Point:	0.089	X_WP:	0.000	Y_WP:	0.000	Y_WP:	0.000	X:	0.018	Y:	0.016	Z:	0.057	yaw:	-5.101	yaw rate:	0.681	Roll:	0.506	Pitch:	0.562	Yaw:	-9.745	Thrust:	0.000
Time:	1.568	Roll Set Point:	-0.034	Pitch Set Point:	-0.033	Yaw Set Point:	0.089	X_WP:	0.000	Y_WP:	0.000	Y_WP:	0.000	X:	0.018	Y:	0.016	Z:	0.057	yaw:	-5.102	yaw rate:	0.138	Roll:	0.535	Pitch:	0.563	Yaw:	-10.130	Thrust:	0.000
Time:	1.588	Roll Set Point:	-0.034	Pitch Set Point:	-0.033	Yaw Set Point:	0.089	X_WP:	0.000	Y_WP:	0.000	Y_WP:	0.000	X:	0.018	Y:	0.016	Z:	0.057	yaw:	-5.095	yaw rate:	-0.742	Roll:	0.551	Pitch:	0.560	Yaw:	-9.692	Thrust:	0.000
Time:	1.606	Roll Set Point:	-0.034	Pitch Set Point:	-0.033	Yaw Set Point:	0.089	X_WP:	0.000	Y_WP:	0.000	Y_WP:	0.000	X:	0.018	Y:	0.016	Z:	0.057	yaw:	-5.094	yaw rate:	-0.063	Roll:	0.509	Pitch:	0.543	Yaw:	-9.546	Thrust:	0.000
Time:	1.626	Roll Set Point:	-0.034	Pitch Set Point:	-0.033	Yaw Set Point:	0.089	X_WP:	0.000	Y_WP:	0.000	Y_WP:	0.000	X:	0.018	Y:	0.016	Z:	0.057	yaw:	-5.096	yaw rate:	0.157	Roll:	0.528	Pitch:	0.568	Yaw:	-10.012	Thrust:	0.000
Time:	1.652	Roll Set Point:	-0.034	Pitch Set Point:	-0.033	Yaw Set Point:	0.089	X_WP:	0.000	Y_WP:	0.000	Y_WP:	0.000	X:	0.018	Y:	0.016	Z:	0.057	yaw:	-5.089	yaw rate:	-0.685	Roll:	0.559	Pitch:	0.578	Yaw:	-10.601	Thrust:	0.000
Time:	1.667	Roll Set Point:	-0.034	Pitch Set Point:	-0.033	Yaw Set Point:	0.089	X_WP:	0.000	Y_WP:	0.000	Y_WP:	0.000	X:	0.018	Y:	0.016	Z:	0.057	yaw:	-5.092	yaw rate:	0.287	Roll:	0.528	Pitch:	0.558	Yaw:	-9.332	Thrust:	0.000
Time:	1.686	Roll Set Point:	-0.034	Pitch Set Point:	-0.033	Yaw Set Point:	0.089	X_WP:	0.000	Y_WP:	0.000	Y_WP:	0.000	X:	0.018	Y:	0.016	Z:	0.057	yaw:	-5.099	yaw rate:	0.747	Roll:	0.521	Pitch:	0.557	Yaw:	-10.111	Thrust:	0.000
Time:	1.714	Roll Set Point:	-0.034	Pitch Set Point:	-0.033	Yaw Set Point:	0.089	X_WP:	0.000	Y_WP:	0.000	Y_WP:	0.000	X:	0.018	Y:	0.016	Z:	0.057	yaw:	-5.095	yaw rate:	-0.455	Roll:	0.553	Pitch:	0.576	Yaw:	-10.766	Thrust:	0.000
Time:	1.727	Roll Set Point:	-0.034	Pitch Set Point:	-0.033	Yaw Set Point:	0.089	X_WP:	0.000	Y_WP:	0.000	Y_WP:	0.000	X:	0.018	Y:	0.016	Z:	0.057	yaw:	-5.097	yaw rate:	0.256	Roll:	0.529	Pitch:	0.559	Yaw:	-9.482	Thrust:	0.000
Time:	1.746	Roll Set Point:	-0.034	Pitch Set Point:	-0.033	Yaw Set Point:	0.089	X_WP:	0.000	Y_WP:	0.000	Y_WP:	0.000	X:	0.018	Y:	0.016	Z:	0.057	yaw:	-5.095	yaw rate:	-0.262	Roll:	0.533	Pitch:	0.563	Yaw:	-9.987	Thrust:	0.000
Time:	1.769	Roll Set Point:	-0.034	Pitch Set Point:	-0.033	Yaw Set Point:	0.089	X_WP:	0.000	Y_WP:	0.000	Y_WP:	0.000	X:	0.018	Y:	0.016	Z:	0.057	yaw:	-5.099	yaw rate:	0.401	Roll:	0.540	Pitch:	0.578	Yaw:	-10.643	Thrust:	0.000
Time:	1.788	Roll Set Point:	-0.034	Pitch Set Point:	-0.033	Yaw Set Point:	0.089	X_WP:	0.000	Y_WP:	0.000	Y_WP:	0.000	X:	0.018	Y:	0.016	Z:	0.057	yaw:	-5.093	yaw rate:	-0.588	Roll:	0.545	Pitch:	0.563	Yaw:	-10.059	Thrust:	0.000
Time:	1.806	Roll Set Point:	-0.034	Pitch Set Point:	-0.033	Yaw Set Point:	0.089	X_WP:	0.000	Y_WP:	0.000	Y_WP:	0.000	X:	0.018	Y:	0.016	Z:	0.057	yaw:	-5.094	yaw rate:	0.081	Roll:	0.538	Pitch:	0.565	Yaw:	-9.930	Thrust:	0.000
Time:	1.825	Roll Set Point:	-0.034	Pitch Set Point:	-0.033	Yaw Set Point:	0.089	X_WP:	0.000	Y_WP:	0.000	Y_WP:	0.000	X:	0.018	Y:	0.016	Z:	0.057	yaw:	-5.093	yaw rate:	-0.066	Roll:	0.534	Pitch:	0.562	Yaw:	-10.122	Thrust:	0.000
Time:	1.850	Roll Set Point:	-0.034	Pitch Set Point:	-0.033	Yaw Set Point:	0.089	X_WP:	0.000	Y_WP:	0.000	Y_WP:	0.000	X:	0.018	Y:	0.016	Z:	0.057	yaw:	-5.094	yaw rate:	0.149	Roll:	0.563	Pitch:	0.592	Yaw:	-11.142	Thrust:	0.000
Time:	1.866	Roll Set Point:	-0.034	Pitch Set Point:	-0.033	Yaw Set Point:	0.089	X_WP:	0.000	Y_WP:	0.000	Y_WP:	0.000	X:	0.018	Y:	0.016	Z:	0.057	yaw:	-5.092	yaw rate:	-0.290	Roll:	0.525	Pitch:	0.565	Yaw:	-9.663	Thrust:	0.000
Time:	1.887	Roll Set Point:	-0.034	Pitch Set Point:	-0.033	Yaw Set Point:	0.089	X_WP:	0.000	Y_WP:	0.000	Y_WP:	0.000	X:	0.018	Y:	0.016	Z:	0.057	yaw:	-5.094	yaw rate:	0.217	Roll:	0.536	Pitch:	0.559	Yaw:	-10.284	Thrust:	0.000
Time:	1.910	Roll Set Point:	-0.034	Pitch Set Point:	-0.033	Yaw Set Point:	0.089	X_WP:	0.000	Y_WP:	0.000	Y_WP:	0.000	X:	0.018	Y:	0.016	Z:	0.057	yaw:	-5.101	yaw rate:	0.731	Roll:	0.565	Pitch:	0.593	Yaw:	-11.203	Thrust:	0.000
Time:	1.932	Roll Set Point:	-0.034	Pitch Set Point:	-0.033	Yaw Set Point:	0.089	X_WP:	0.000	Y_WP:	0.000	Y_WP:	0.000	X:	0.018	Y:	0.016	Z:	0.057	yaw:	-5.096	yaw rate:	-0.529	Roll:	0.547	Pitch:	0.580	Yaw:	-10.659	Thrust:	0.000
Time:	1.947	Roll Set Point:	-0.034	Pitch Set Point:	-0.033	Yaw Set Point:	0.089	X_WP:	0.000	Y_WP:	0.000	Y_WP:	0.000	X:	0.018	Y:	0.016	Z:	0.057	yaw:	-5.095	yaw rate:	-0.110	Roll:	0.532	Pitch:	0.550	Yaw:	-9.549	Thrust:	0.000
Time:	1.969	Roll Set Point:	-0.034	Pitch Set Point:	-0.033	Yaw Set Point:	0.089	X_WP:	0.000	Y_WP:	0.000	Y_WP:	0.000	X:	0.018	Y:	0.016	Z:	0.057	yaw:	-5.099	yaw rate:	0.483	Roll:	0.547	Pitch:	0.584	Yaw:	-10.940	Thrust:	0.000
Time:	1.989	Roll Set Point:	-0.034	Pitch Set Point:	-0.033	Yaw Set Point:	0.089	X_WP:	0.000	Y_WP:	0.000	Y_WP:	0.000	X:	0.018	Y:	0.016	Z:	0.057	yaw:	-5.092	yaw rate:	-0.727	Roll:	0.554	Pitch:	0.576	Yaw:	-10.474	Thrust:	0.000
Time:	2.007	Roll Set Point:	-0.034	Pitch Set Point:	-0.033	Yaw Set Point:	0.089	X_WP:	0.000	Y_WP:	0.000	Y_WP:	0.000	X:	0.018	Y:	0.016	Z:	0.057	yaw:	-5.096	yaw rate:	0.354	Roll:	0.533	Pitch:	0.574	Yaw:	-10.307	Thrust:	0.000
Time:	2.027	Roll Set Point:	-0.034	Pitch Set Point:	-0.033	Yaw Set Point:	0.089	X_WP:	0.000	Y_WP:	0.000	Y_WP:	0.000	X:	0.018	Y:	0.016	Z:	0.057	yaw:	-5.095	yaw rate:	-0.065	Roll:	0.551	Pitch:	0.574	Yaw:	-10.548	Thrust:	0.000
Time:	2.049	Roll Set Point:	-0.034	Pitch Set Point:	-0.033	Yaw Set Point:	0.089	X_WP:	0.000	Y_WP:	0.000	Y_WP:	0.000	X:	0.018	Y:	0.016	Z:	0.057	yaw:	-5.097	yaw rate:	0.149	Roll:	0.566	Pitch:	0.591	Yaw:	-11.235	Thrust:	0.000
Time:	2.066	Roll Set Point:	-0.034	Pitch Set Point:	-0.033	Yaw Set Point:	0.089	X_WP:	0.000	Y_WP:	0.000	Y_WP:	0.000	X:	0.018	Y:	0.016	Z:	0.057	yaw:	-5.095	yaw rate:	-0.143	Roll:	0.531	Pitch:	0.567	Yaw:	-10.249	Thrust:	0.000
Time:	2.087	Roll Set Point:	-0.034	Pitch Set Point:	-0.033	Yaw Set Point:	0.089	X_WP:	0.000	Y_WP:	0.000	Y_WP:	0.000	X:	0.018	Y:	0.016	Z:	0.057	yaw:	-5.092	yaw rate:	-0.274	Roll:	0.551	Pitch:	0.582	Yaw:	-10.625	Thrust:	0.000
Time:	2.115	Roll Set Point:	-0.034	Pitch Set Point:	-0.033	Yaw Set Point:	0.089	X_WP:	0.000	Y_WP:	0.000	Y_WP:	0.000	X:	0.018	Y:	0.016	Z:	0.057	yaw:	-5.091	yaw rate:	-0.115	Roll:	0.583	Pitch:	0.595	Yaw:	-11.689	Thrust:	0.000
Time:	2.129	Roll Set Point:	-0.034	Pitch Set Point:	-0.033	Yaw Set Point:	0.089	X_WP:	0.000	Y_WP:	0.000	Y_WP:	0.000	X:	0.018	Y:	0.016	Z:	0.057	yaw:	-5.097	yaw rate:	0.580	Roll:	0.527	Pitch:	0.571	Yaw:	-10.541	Thrust:	0.000
Time:	2.146	Roll Set Point:	-0.034	Pitch Set Point:	-0.033	Yaw Set Point:	0.089	X_WP:	0.000	Y_WP:	0.000	Y_WP:	0.000	X:	0.018	Y:	0.016	Z:	0.057	yaw:	-5.092	yaw rate:	-0.497	Roll:	0.547	Pitch:	0.585	Yaw:	-10.210	Thrust:	0.000
Time:	2.169	Roll Set Point:	-0.034	Pitch Set Point:	-0.033	Yaw Set Point:	0.089	X_WP:	0.000	Y_WP:	0.000	Y_WP:	0.000	X:	0.018	Y:	0.016	Z:	0.057	yaw:	-5.102	yaw rate:	1.008	Roll:	0.573	Pitch:	0.595	Yaw:	-11.496	Thrust:	0.000
Time:	2.190	Roll Set Point:	-0.034	Pitch Set Point:	-0.033	Yaw Set Point:	0.089	X_WP:	0.000	Y_WP:	0.000	Y_WP:	0.000	X:	0.018	Y:	0.016	Z:	0.057	yaw:	-5.092	yaw rate:	-1.018	Roll:	0.554	Pitch:	0.583	Yaw:	-11.092	Thrust:	0.000
Time:	2.206	Roll Set Point:	-0.034	Pitch Set Point:	-0.033	Yaw Set Point:	0.089	X_WP:	0.000	Y_WP:	0.000	Y_WP:	0.000	X:	0.018	Y:	0.016	Z:	0.057	yaw:	-5.097	yaw rate:	0.535	Roll:	0.540	Pitch:	0.575	Yaw:	-10.079	Thrust:	0.000
Time:	2.226	Roll Set Point:	-0.034	Pitch Set Point:	-0.033	Yaw Set Point:	0.089	X_WP:	0.000	Y_WP:	0.000	Y_WP:	0.000	X:	0.018	Y:	0.016	Z:	0.057	yaw:	-5.098	yaw rate:	0.026	Roll:	0.545	Pitch:	0.584	Yaw:	-11.028	Thrust:	0.000
Time:	2.249	Roll Set Point:	-0.034	Pitch Set Point:	-0.033	Yaw Set Point:	0.089	X_WP:	0.000	Y_WP:	0.000	Y_WP:	0.000	X:	0.018	Y:	0.016	Z:	0.057	yaw:	-5.087	yaw rate:	-1.021	Roll:	0.581	Pitch:	0.602	Yaw:	-11.500	Thrust:	0.000
Time:	2.267	Roll Set Point:	-0.034	Pitch Set Point:	-0.033	Yaw Set Point:	0.089	X_WP:	0.000	Y_WP:	0.000	Y_WP:	0.000	X:	0.018	Y:	0.016	Z:	0.057	yaw:	-5.101	yaw rate:	1.398	Roll:	0.544	Pitch:	0.585	Yaw:	-10.809	Thrust:	0.000
Time:	2.287	Roll Set Point:	-0.034	Pitch Set Point:	-0.033	Yaw Set Point:	0.089	X_WP:	0.000	Y_WP:	0.000	Y_WP:	0.000	X:	0.018	Y:	0.016	Z:	0.057	yaw:	-5.097	yaw rate:	-0.491	Roll:	0.554	Pitch:	0.582	Yaw:	-11.160	Thrust:	0.000
Time:	2.311	Roll Set Point:	-0.034	Pitch Set Point:	-0.033	Yaw Set Point:	0.089	X_WP:	0.000	Y_WP:	0.000	Y_WP:	0.000	X:	0.018	Y:	0.016	Z:	0.057	yaw:	-5.092	yaw rate:	-0.418	Roll:	0.575	Pitch:	0.611	Yaw:	-11.880	Thrust:	0.000
Time:	2.328	Roll Set Point:	-0.034	Pitch Set Point:	-0.033	Yaw Set Point:	0.089	X_WP:	0.000	Y_WP:	0.000	Y_WP:	0.000	X:	0.018	Y:	0.016	Z:	0.057	yaw:	-5.092	yaw rate:	0.013	Roll:	0.568	Pitch:	0.584	Yaw:	-10.522	Thrust:	0.000
Time:	2.347	Roll Set Point:	-0.034	Pitch Set Point:	-0.033	Yaw Set Point:	0.089	X_WP:	0.000	Y_WP:	0.000	Y_WP:	0.000	X:	0.018	Y:	0.016	Z:	0.057	yaw:	-5.097	yaw rate:	0.454	Roll:	0.549	Pitch:	0.581	Yaw:	-10.901	Thrust:	0.000
Time:	2.369	Roll Set Point:	-0.034	Pitch Set Point:	-0.033	Yaw Set Point:	0.089	X_WP:	0.000	Y_WP:	0.000	Y_WP:	0.000	X:	0.018	Y:	0.016	Z:	0.057	yaw:	-5.100	yaw rate:	0.298	Roll:	0.561	Pitch:	0.606	Yaw:	-11.587	Thrust:	0.000
Time:	2.390	Roll Set Point:	-0.034	Pitch Set Point:	-0.033	Yaw Set Point:	0.089	X_WP:	0.000	Y_WP:	0.000	Y_WP:	0.000	X:	0.018	Y:	0.016	Z:	0.057	yaw:	-5.094	yaw rate:	-0.561	Roll:	0.575	Pitch:	0.598	Yaw:	-11.359	Thrust:	0.000
Time:	2.406	Roll Set Point:	-0.034	Pitch Set Point:	-0.033	Yaw Set Point:	0.089	X_WP:	0.000	Y_WP:	0.000	Y_WP:	0.000	X:	0.018	Y:	0.016	Z:	0.057	yaw:	-5.094	yaw rate:	-0.014	Roll:	0.557	Pitch:	0.571	Yaw:	-10.288	Thrust:	0.000
Time:	2.426	Roll Set Point:	-0.034	Pitch Set Point:	-0.033	Yaw Set Point:	0.089	X_WP:	0.000	Y_WP:	0.000	Y_WP:	0.000	X:	0.018	Y:	0.016	Z:	0.057	yaw:	-5.091	yaw rate:	-0.289	Roll:	0.558	Pitch:	0.598	Yaw:	-11.095	Thrust:	0.000
Time:	2.448	Roll Set Point:	-0.034	Pitch Set Point:	-0.033	Yaw Set Point:	0.089	X_WP:	0.000	Y_WP:	0.000	Y_WP:	0.000	X:	0.018	Y:	0.016	Z:	0.057	yaw:	-5.090	yaw rate:	-0.145	Roll:	0.580	Pitch:	0.603	Yaw:	-11.405	Thrust:	0.000
Time:	2.466	Roll Set Point:	-0.034	Pitch Set Point:	-0.033	Yaw Set Point:	0.089	X_WP:	0.000	Y_WP:	0.000	Y_WP:	0.000	X:	0.018	Y:	0.016	Z:	0.057	yaw:	-5.096	yaw rate:	0.621	Roll:	0.555	Pitch:	0.597	Yaw:	-10.852	Thrust:	0.000
Time:	2.487	Roll Set Point:	-0.034	Pitch Set Point:	-0.033	Yaw Set Point:	0.089	X_WP:	0.000	Y_WP:	0.000	Y_WP:	0.000	X:	0.018	Y:	0.016	Z:	0.057	yaw:	-5.101	yaw rate:	0.452	Roll:	0.565	Pitch:	0.591	Yaw:	-11.404	Thrust:	0.000
Time:	2.512	Roll Set Point:	-0.034	Pitch Set Point:	-0.033	Yaw Set Point:	0.089	X_WP:	0.000	Y_WP:	0.000	Y_WP:	0.000	X:	0.018	Y:	0.016	Z:	0.057	yaw:	-5.093	yaw rate:	-0.808	Roll:	0.588	Pitch:	0.619	Yaw:	-11.701	Thrust:	0.000
Time:	2.533	Roll Set Point:	-0.034	Pitch Set Point:	-0.033	Yaw Set Point:	0.089	X_WP:	0.000	Y_WP:	0.000	Y_WP:	0.000	X:	0.018	Y:	0.016	Z:	0.057	yaw:	-5.093	yaw rate:	0.066	Roll:	0.576	Pitch:	0.601	Yaw:	-11.340	Thrust:	0.000
Time:	2.546	Roll Set Point:	-0.034	Pitch Set Point:	-0.033	Yaw Set Point:	0.089	X_WP:	0.000	Y_WP:	0.000	Y_WP:	0.000	X:	0.018	Y:	0.016	Z:	0.057	yaw:	-5.097	yaw rate:	0.333	Roll:	0.543	Pitch:	0.584	Yaw:	-10.083	Thrust:	0.000
Time:	2.569	Roll Set Point:	-0.034	Pitch Set Point:	-0.033	Yaw Set Point:	0.089	X_WP:	0.000	Y_WP:	0.000	Y_WP:	0.000	X:	0.018	Y:	0.016	Z:	0.057	yaw:	-5.098	yaw rate:	0.103	Roll:	0.585	Pitch:	0.609	Yaw:	-11.658	Thrust:	0.000
Time:	2.591	Roll Set Point:	-0.034	Pitch Set Point:	-0.033	Yaw Set Point:	0.089	X_WP:	0.000	Y_WP:	0.000	Y_WP:	0.000	X:	0.018	Y:	0.016	Z:	0.057	yaw:	-5.095	yaw rate:	-0.288	Roll:	0.580	Pitch:	0.618	Yaw:	-11.392	Thrust:	0.000
Time:	2.606	Roll Set Point:	-0.034	Pitch Set Point:	-0.033	Yaw Set Point:	0.089	X_WP:	0.000	Y_WP:	0.000	Y_WP:	0.000	X:	0.018	Y:	0.016	Z:	0.057	yaw:	-5.098	yaw rate:	0.350	Roll:	0.554	Pitch:	0.579	Yaw:	-10.313	Thrust:	0.000
Time:	2.626	Roll Set Point:	-0.034	Pitch Set Point:	-0.033	Yaw Set Point:	0.089	X_WP:	0.000	Y_WP:	0.000	Y_WP:	0.000	X:	0.018	Y:	0.016	Z:	0.057	yaw:	-5.098	yaw rate:	-0.041	Roll:	0.579	Pitch:	0.604	Yaw:	-11.170	Thrust:	0.000
Time:	2.649	Roll Set Point:	-0.034	Pitch Set Point:	-0.033	Yaw Set Point:	0.089	X_WP:	0.000	Y_WP:	0.000	Y_WP:	0.000	X:	0.018	Y:	0.016	Z:	0.057	yaw:	-5.090	yaw rate:	-0.814	Roll:	0.586	Pitch:	0.609	Yaw:	-11.426	Thrust:	0.000
Time:	2.669	Roll Set Point:	-0.034	Pitch Set Point:	-0.033	Yaw Set Point:	0.089	X_WP:	0.000	Y_WP:	0.000	Y_WP:	0.000	X:	0.018	Y:	0.016	Z:	0.057	yaw:	-5.093	yaw rate:	0.375	Roll:	0.576	Pitch:	0.617	Yaw:	-11.174	Thrust:	0.000
Time:	2.685	Roll Set Point:	-0.034	Pitch Set Point:	-0.033	Yaw Set Point:	0.089	X_WP:	0.000	Y_WP:	0.000	Y_WP:	0.000	X:	0.018	Y:	0.016	Z:	0.057	yaw:	-5.096	yaw rate:	0.289	Roll:	0.559	Pitch:	0.586	Yaw:	-10.561	Thrust:	0.000
Time:	2.712	Roll Set Point:	-0.034	Pitch Set Point:	-0.033	Yaw Set Point:	0.089	X_WP:	0.000	Y_WP:	0.000	Y_WP:	0.000	X:	0.018	Y:	0.016	Z:	0.057	yaw:	-5.100	yaw rate:	0.387	Roll:	0.598	Pitch:	0.636	Yaw:	-12.203	Thrust:	0.000
Time:	2.727	Roll Set Point:	-0.034	Pitch Set Point:	-0.033	Yaw Set Point:	0.089	X_WP:	0.000	Y_WP:	0.000	Y_WP:	0.000	X:	0.018	Y:	0.016	Z:	0.057	yaw:	-5.095	yaw rate:	-0.505	Roll:	0.570	Pitch:	0.590	Yaw:	-10.342	Thrust:	0.000
Time:	2.746	Roll Set Point:	-0.034	Pitch Set Point:	-0.033	Yaw Set Point:	0.089	X_WP:	0.000	Y_WP:	0.000	Y_WP:	0.000	X:	0.018	Y:	0.016	Z:	0.057	yaw:	-5.093	yaw rate:	-0.195	Roll:	0.556	Pitch:	0.604	Yaw:	-10.906	Thrust:	0.000
Time:	2.769	Roll Set Point:	-0.034	Pitch Set Point:	-0.033	Yaw Set Point:	0.089	X_WP:	0.000	Y_WP:	0.000	Y_WP:	0.000	X:	0.018	Y:	0.016	Z:	0.057	yaw:	-5.095	yaw rate:	0.191	Roll:	0.596	Pitch:	0.610	Yaw:	-11.516	Thrust:	0.000
Time:	2.787	Roll Set Point:	-0.034	Pitch Set Point:	-0.033	Yaw Set Point:	0.089	X_WP:	0.000	Y_WP:	0.000	Y_WP:	0.000	X:	0.018	Y:	0.016	Z:	0.057	yaw:	-5.101	yaw rate:	0.629	Roll:	0.576	Pitch:	0.617	Yaw:	-11.023	Thrust:	0.000
Time:	2.806	Roll Set Point:	-0.034	Pitch Set Point:	-0.033	Yaw Set Point:	0.089	X_WP:	0.000	Y_WP:	0.000	Y_WP:	0.000	X:	0.018	Y:	0.016	Z:	0.057	yaw:	-5.099	yaw rate:	-0.276	Roll:	0.579	Pitch:	0.603	Yaw:	-10.919	Thrust:	0.000
Time:	2.826	Roll Set Point:	-0.034	Pitch Set Point:	-0.033	Yaw Set Point:	0.089	X_WP:	0.000	Y_WP:	0.000	Y_WP:	0.000	X:	0.018	Y:	0.016	Z:	0.057	yaw:	-5.098	yaw rate:	-0.068	Roll:	0.570	Pitch:	0.607	Yaw:	-10.920	Thrust:	0.000
Time:	2.849	Roll Set Point:	-0.034	Pitch Set Point:	-0.033	Yaw Set Point:	0.089	X_WP:	0.000	Y_WP:	0.000	Y_WP:	0.000	X:	0.018	Y:	0.016	Z:	0.057	yaw:	-5.096	yaw rate:	-0.198	Roll:	0.613	Pitch:	0.635	Yaw:	-11.707	Thrust:	0.000
Time:	2.866	Roll Set Point:	-0.034	Pitch Set Point:	-0.033	Yaw Set Point:	0.089	X_WP:	0.000	Y_WP:	0.000	Y_WP:	0.000	X:	0.018	Y:	0.016	Z:	0.057	yaw:	-5.093	yaw rate:	-0.246	Roll:	0.558	Pitch:	0.595	Yaw:	-10.568	Thrust:	0.000
Time:	2.887	Roll Set Point:	-0.034	Pitch Set Point:	-0.033	Yaw Set Point:	0.089	X_WP:	0.000	Y_WP:	0.000	Y_WP:	0.000	X:	0.018	Y:	0.016	Z:	0.057	yaw:	-5.098	yaw rate:	0.482	Roll:	0.576	Pitch:	0.612	Yaw:	-11.302	Thrust:	0.000
Time:	2.911	Roll Set Point:	-0.034	Pitch Set Point:	-0.033	Yaw Set Point:	0.089	X_WP:	0.000	Y_WP:	0.000	Y_WP:	0.000	X:	0.018	Y:	0.016	Z:	0.057	yaw:	-5.091	yaw rate:	-0.748	Roll:	0.613	Pitch:	0.637	Yaw:	-11.682	Thrust:	0.000
Time:	2.928	Roll Set Point:	-0.034	Pitch Set Point:	-0.033	Yaw Set Point:	0.089	X_WP:	0.000	Y_WP:	0.000	Y_WP:	0.000	X:	0.018	Y:	0.016	Z:	0.057	yaw:	-5.097	yaw rate:	0.628	Roll:	0.567	Pitch:	0.606	Yaw:	-10.720	Thrust:	0.000
Time:	2.946	Roll Set Point:	-0.034	Pitch Set Point:	-0.033	Yaw Set Point:	0.089	X_WP:	0.000	Y_WP:	0.000	Y_WP:	0.000	X:	0.018	Y:	0.016	Z:	0.057	yaw:	-5.096	yaw rate:	-0.078	Roll:	0.568	Pitch:	0.612	Yaw:	-10.757	Thrust:	0.000
Time:	2.968	Roll Set Point:	-0.034	Pitch Set Point:	-0.033	Yaw Set Point:	0.089	X_WP:	0.000	Y_WP:	0.000	Y_WP:	0.000	X:	0.018	Y:	0.016	Z:	0.057	yaw:	-5.100	yaw rate:	0.347	Roll:	0.603	Pitch:	0.628	Yaw:	-11.598	Thrust:	0.000
Time:	2.987	Roll Set Point:	-0.034	Pitch Set Point:	-0.033	Yaw Set Point:	0.089	X_WP:	0.000	Y_WP:	0.000	Y_WP:	0.000	X:	0.018	Y:	0.016	Z:	0.057	yaw:	-5.096	yaw rate:	-0.370	Roll:	0.595	Pitch:	0.610	Yaw:	-10.979	Thrust:	0.000
Time:	3.007	Roll Set Point:	-0.034	Pitch Set Point:	-0.033	Yaw Set Point:	0.089	X_WP:	0.000	Y_WP:	0.000	Y_WP:	0.000	X:	0.018	Y:	0.016	Z:	0.057	yaw:	-5.101	yaw rate:	0.489	Roll:	0.582	Pitch:	0.617	Yaw:	-10.942	Thrust:	0.000
Time:	3.025	Roll Set Point:	-0.034	Pitch Set Point:	-0.033	Yaw Set Point:	0.089	X_WP:	0.000	Y_WP:	0.000	Y_WP:	0.000	X:	0.018	Y:	0.016	Z:	0.057	yaw:	-5.095	yaw rate:	-0.570	Roll:	0.580	Pitch:	0.617	Yaw:	-10.860	Thrust:	0.000
Time:	3.049	Roll Set Point:	-0.034	Pitch Set Point:	-0.033	Yaw Set Point:	0.089	X_WP:	0.000	Y_WP:	0.000	Y_WP:	0.000	X:	0.018	Y:	0.016	Z:	0.057	yaw:	-5.095	yaw rate:	-0.032	Roll:	0.608	Pitch:	0.646	Yaw:	-11.825	Thrust:	0.000
Time:	3.066	Roll Set Point:	-0.034	Pitch Set Point:	-0.033	Yaw Set Point:	0.089	X_WP:	0.000	Y_WP:	0.000	Y_WP:	0.000	X:	0.018	Y:	0.016	Z:	0.057	yaw:	-5.100	yaw rate:	0.538	Roll:	0.580	Pitch:	0.606	Yaw:	-10.693	Thrust:	0.000
Time:	3.086	Roll Set Point:	-0.034	Pitch Set Point:	-0.033	Yaw Set Point:	0.089	X_WP:	0.000	Y_WP:	0.000	Y_WP:	0.000	X:	0.018	Y:	0.016	Z:	0.057	yaw:	-5.097	yaw rate:	-0.296	Roll:	0.586	Pitch:	0.612	Yaw:	-10.801	Thrust:	0.000
Time:	3.112	Roll Set Point:	-0.034	Pitch Set Point:	-0.033	Yaw Set Point:	0.089	X_WP:	0.000	Y_WP:	0.000	Y_WP:	0.000	X:	0.018	Y:	0.016	Z:	0.057	yaw:	-5.099	yaw rate:	0.149	Roll:	0.606	Pitch:	0.646	Yaw:	-12.202	Thrust:	0.000
Time:	3.126	Roll Set Point:	-0.034	Pitch Set Point:	-0.033	Yaw Set Point:	0.089	X_WP:	0.000	Y_WP:	0.000	Y_WP:	0.000	X:	0.018	Y:	0.016	Z:	0.057	yaw:	-5.089	yaw rate:	-0.954	Roll:	0.591	Pitch:	0.615	Yaw:	-10.055	Thrust:	0.000
Time:	3.147	Roll Set Point:	-0.034	Pitch Set Point:	-0.033	Yaw Set Point:	0.089	X_WP:	0.000	Y_WP:	0.000	Y_WP:	0.000	X:	0.018	Y:	0.016	Z:	0.057	yaw:	-5.098	yaw rate:	0.896	Roll:	0.588	Pitch:	0.624	Yaw:	-11.267	Thrust:	0.000
Time:	3.167	Roll Set Point:	-0.034	Pitch Set Point:	-0.033	Yaw Set Point:	0.089	X_WP:	0.000	Y_WP:	0.000	Y_WP:	0.000	X:	0.018	Y:	0.016	Z:	0.057	yaw:	-5.093	yaw rate:	-0.500	Roll:	0.600	Pitch:	0.628	Yaw:	-11.198	Thrust:	0.000
Time:	3.187	Roll Set Point:	-0.034	Pitch Set Point:	-0.033	Yaw Set Point:	0.089	X_WP:	0.000	Y_WP:	0.000	Y_WP:	0.000	X:	0.018	Y:	0.016	Z:	0.057	yaw:	-5.103	yaw rate:	1.015	Roll:	0.599	Pitch:	0.627	Yaw:	-11.363	Thrust:	0.000
Time:	3.206	Roll Set Point:	-0.034	Pitch Set Point:	-0.033	Yaw Set Point:	0.089	X_WP:	0.000	Y_WP:	0.000	Y_WP:	0.000	X:	0.018	Y:	0.016	Z:	0.057	yaw:	-5.100	yaw rate:	-0.350	Roll:	0.591	Pitch:	0.628	Yaw:	-10.898	Thrust:	0.000
Time:	3.226	Roll Set Point:	-0.034	Pitch Set Point:	-0.033	Yaw Set Point:	0.089	X_WP:	0.000	Y_WP:	0.000	Y_WP:	0.000	X:	0.018	Y:	0.016	Z:	0.057	yaw:	-5.092	yaw rate:	-0.794	Roll:	0.591	Pitch:	0.628	Yaw:	-10.947	Thrust:	0.000
Time:	3.249	Roll Set Point:	-0.034	Pitch Set Point:	-0.033	Yaw Set Point:	0.089	X_WP:	0.000	Y_WP:	0.000	Y_WP:	0.000	X:	0.018	Y:	0.016	Z:	0.057	yaw:	-5.089	yaw rate:	-0.287	Roll:	0.613	Pitch:	0.645	Yaw:	-11.493	Thrust:	0.000
Time:	3.266	Roll Set Point:	-0.034	Pitch Set Point:	-0.033	Yaw Set Point:	0.089	X_WP:	0.000	Y_WP:	0.000	Y_WP:	0.000	X:	0.018	Y:	0.016	Z:	0.057	yaw:	-5.095	yaw rate:	0.551	Roll:	0.589	Pitch:	0.622	Yaw:	-10.779	Thrust:	0.000
Time:	3.286	Roll Set Point:	-0.034	Pitch Set Point:	-0.033	Yaw Set Point:	0.089	X_WP:	0.000	Y_WP:	0.000	Y_WP:	0.000	X:	0.018	Y:	0.016	Z:	0.057	yaw:	-5.095	yaw rate:	-0.010	Roll:	0.607	Pitch:	0.623	Yaw:	-11.073	Thrust:	0.000
Time:	3.311	Roll Set Point:	-0.034	Pitch Set Point:	-0.033	Yaw Set Point:	0.089	X_WP:	0.000	Y_WP:	0.000	Y_WP:	0.000	X:	0.018	Y:	0.016	Z:	0.057	yaw:	-5.090	yaw rate:	-0.502	Roll:	0.620	Pitch:	0.664	Yaw:	-12.008	Thrust:	0.000
Time:	3.326	Roll Set Point:	-0.034	Pitch Set Point:	-0.033	Yaw Set Point:	0.089	X_WP:	0.000	Y_WP:	0.000	Y_WP:	0.000	X:	0.018	Y:	0.016	Z:	0.057	yaw:	-5.097	yaw rate:	0.747	Roll:	0.574	Pitch:	0.605	Yaw:	-10.158	Thrust:	0.000
Time:	3.347	Roll Set Point:	-0.034	Pitch Set Point:	-0.033	Yaw Set Point:	0.089	X_WP:	0.000	Y_WP:	0.000	Y_WP:	0.000	X:	0.018	Y:	0.016	Z:	0.057	yaw:	-5.096	yaw rate:	-0.112	Roll:	0.607	Pitch:	0.647	Yaw:	-11.339	Thrust:	0.000
Time:	3.370	Roll Set Point:	-0.034	Pitch Set Point:	-0.033	Yaw Set Point:	0.089	X_WP:	0.000	Y_WP:	0.000	Y_WP:	0.000	X:	0.018	Y:	0.016	Z:	0.057	yaw:	-5.090	yaw rate:	-0.581	Roll:	0.621	Pitch:	0.637	Yaw:	-11.556	Thrust:	0.000
Time:	3.388	Roll Set Point:	-0.034	Pitch Set Point:	-0.033	Yaw Set Point:	0.089	X_WP:	0.000	Y_WP:	0.000	Y_WP:	0.000	X:	0.018	Y:	0.016	Z:	0.057	yaw:	-5.095	yaw rate:	0.511	Roll:	0.607	Pitch:	0.646	Yaw:	-10.801	Thrust:	0.000
Time:	3.406	Roll Set Point:	-0.034	Pitch Set Point:	-0.033	Yaw Set Point:	0.089	X_WP:	0.000	Y_WP:	0.000	Y_WP:	0.000	X:	0.018	Y:	0.016	Z:	0.057	yaw:	-5.099	yaw rate:	0.399	Roll:	0.573	Pitch:	0.617	Yaw:	-10.901	Thrust:	0.000
Time:	3.426	Roll Set Point:	-0.034	Pitch Set Point:	-0.033	Yaw Set Point:	0.089	X_WP:	0.000	Y_WP:	0.000	Y_WP:	0.000	X:	0.018	Y:	0.016	Z:	0.057	yaw:	-5.091	yaw rate:	-0.826	Roll:	0.615	Pitch:	0.636	Yaw:	-10.985	Thrust:	0.000
Time:	3.449	Roll Set Point:	-0.034	Pitch Set Point:	-0.033	Yaw Set Point:	0.089	X_WP:	0.000	Y_WP:	0.000	Y_WP:	0.000	X:	0.018	Y:	0.016	Z:	0.057	yaw:	-5.097	yaw rate:	0.593	Roll:	0.620	Pitch:	0.658	Yaw:	-11.755	Thrust:	0.000
Time:	3.466	Roll Set Point:	-0.034	Pitch Set Point:	-0.033	Yaw Set Point:	0.089	X_WP:	0.000	Y_WP:	0.000	Y_WP:	0.000	X:	0.018	Y:	0.016	Z:	0.057	yaw:	-5.098	yaw rate:	0.112	Roll:	0.591	Pitch:	0.624	Yaw:	-10.610	Thrust:	0.000
Time:	3.486	Roll Set Point:	-0.034	Pitch Set Point:	-0.033	Yaw Set Point:	0.089	X_WP:	0.000	Y_WP:	0.000	Y_WP:	0.000	X:	0.018	Y:	0.016	Z:	0.057	yaw:	-5.094	yaw rate:	-0.349	Roll:	0.604	Pitch:	0.639	Yaw:	-11.013	Thrust:	0.000
Time:	3.511	Roll Set Point:	-0.034	Pitch Set Point:	-0.033	Yaw Set Point:	0.089	X_WP:	0.000	Y_WP:	0.000	Y_WP:	0.000	X:	0.018	Y:	0.016	Z:	0.057	yaw:	-5.099	yaw rate:	0.475	Roll:	0.631	Pitch:	0.665	Yaw:	-12.184	Thrust:	0.000
Time:	3.526	Roll Set Point:	-0.034	Pitch Set Point:	-0.033	Yaw Set Point:	0.089	X_WP:	0.000	Y_WP:	0.000	Y_WP:	0.000	X:	0.018	Y:	0.016	Z:	0.057	yaw:	-5.096	yaw rate:	-0.351	Roll:	0.607	Pitch:	0.623	Yaw:	-9.961	Thrust:	0.000
Time:	3.545	Roll Set Point:	-0.034	Pitch Set Point:	-0.033	Yaw Set Point:	0.089	X_WP:	0.000	Y_WP:	0.000	Y_WP:	0.000	X:	0.018	Y:	0.016	Z:	0.057	yaw:	-5.098	yaw rate:	0.219	Roll:	0.580	Pitch:	0.628	Yaw:	-11.126	Thrust:	0.000
Time:	3.568	Roll Set Point:	-0.034	Pitch Set Point:	-0.033	Yaw Set Point:	0.089	X_WP:	0.000	Y_WP:	0.000	Y_WP:	0.000	X:	0.018	Y:	0.016	Z:	0.057	yaw:	-5.095	yaw rate:	-0.279	Roll:	0.635	Pitch:	0.662	Yaw:	-11.455	Thrust:	0.000
Time:	3.587	Roll Set Point:	-0.034	Pitch Set Point:	-0.033	Yaw Set Point:	0.089	X_WP:	0.000	Y_WP:	0.000	Y_WP:	0.000	X:	0.018	Y:	0.016	Z:	0.057	yaw:	-5.100	yaw rate:	0.486	Roll:	0.615	Pitch:	0.641	Yaw:	-11.194	Thrust:	0.000
Time:	3.606	Roll Set Point:	-0.034	Pitch Set Point:	-0.033	Yaw Set Point:	0.089	X_WP:	0.000	Y_WP:	0.000	Y_WP:	0.000	X:	0.018	Y:	0.016	Z:	0.057	yaw:	-5.095	yaw rate:	-0.454	Roll:	0.599	Pitch:	0.633	Yaw:	-10.663	Thrust:	0.000
Time:	3.625	Roll Set Point:	-0.034	Pitch Set Point:	-0.033	Yaw Set Point:	0.089	X_WP:	0.000	Y_WP:	0.000	Y_WP:	0.000	X:	0.018	Y:	0.016	Z:	0.057	yaw:	-5.096	yaw rate:	0.097	Roll:	0.601	Pitch:	0.654	Yaw:	-11.151	Thrust:	0.000
Time:	3.648	Roll Set Point:	-0.034	Pitch Set Point:	-0.033	Yaw Set Point:	0.089	X_WP:	0.000	Y_WP:	0.000	Y_WP:	0.000	X:	0.018	Y:	0.016	Z:	0.057	yaw:	-5.095	yaw rate:	-0.158	Roll:	0.650	Pitch:	0.655	Yaw:	-11.602	Thrust:	0.000
Time:	3.665	Roll Set Point:	-0.034	Pitch Set Point:	-0.033	Yaw Set Point:	0.089	X_WP:	0.000	Y_WP:	0.000	Y_WP:	0.000	X:	0.018	Y:	0.016	Z:	0.057	yaw:	-5.093	yaw rate:	-0.184	Roll:	0.591	Pitch:	0.642	Yaw:	-10.596	Thrust:	0.000
Time:	3.686	Roll Set Point:	-0.034	Pitch Set Point:	-0.033	Yaw Set Point:	0.089	X_WP:	0.000	Y_WP:	0.000	Y_WP:	0.000	X:	0.018	Y:	0.016	Z:	0.057	yaw:	-5.096	yaw rate:	0.335	Roll:	0.611	Pitch:	0.635	Yaw:	-11.204	Thrust:	0.000
Time:	3.712	Roll Set Point:	-0.034	Pitch Set Point:	-0.033	Yaw Set Point:	0.089	X_WP:	0.000	Y_WP:	0.000	Y_WP:	0.000	X:	0.018	Y:	0.016	Z:	0.057	yaw:	-5.094	yaw rate:	-0.268	Roll:	0.663	Pitch:	0.696	Yaw:	-12.098	Thrust:	0.000
Time:	3.725	Roll Set Point:	-0.034	Pitch Set Point:	-0.033	Yaw Set Point:	0.089	X_WP:	0.000	Y_WP:	0.000	Y_WP:	0.000	X:	0.018	Y:	0.016	Z:	0.057	yaw:	-5.093	yaw rate:	-0.033	Roll:	0.566	Pitch:	0.600	Yaw:	-9.913	Thrust:	0.000
Time:	3.746	Roll Set Point:	-0.034	Pitch Set Point:	-0.033	Yaw Set Point:	0.089	X_WP:	0.000	Y_WP:	0.000	Y_WP:	0.000	X:	0.018	Y:	0.016	Z:	0.057	yaw:	-5.090	yaw rate:	-0.293	Roll:	0.631	Pitch:	0.662	Yaw:	-11.240	Thrust:	0.000
Time:	3.769	Roll Set Point:	-0.034	Pitch Set Point:	-0.033	Yaw Set Point:	0.089	X_WP:	0.000	Y_WP:	0.000	Y_WP:	0.000	X:	0.018	Y:	0.016	Z:	0.057	yaw:	-5.099	yaw rate:	0.913	Roll:	0.621	Pitch:	0.667	Yaw:	-11.854	Thrust:	0.000
Time:	3.787	Roll Set Point:	-0.034	Pitch Set Point:	-0.033	Yaw Set Point:	0.089	X_WP:	0.000	Y_WP:	0.000	Y_WP:	0.000	X:	0.018	Y:	0.016	Z:	0.057	yaw:	-5.095	yaw rate:	-0.483	Roll:	0.627	Pitch:	0.651	Yaw:	-10.756	Thrust:	0.000
Time:	3.806	Roll Set Point:	-0.034	Pitch Set Point:	-0.033	Yaw Set Point:	0.089	X_WP:	0.000	Y_WP:	0.000	Y_WP:	0.000	X:	0.018	Y:	0.016	Z:	0.057	yaw:	-5.096	yaw rate:	0.130	Roll:	0.611	Pitch:	0.645	Yaw:	-10.888	Thrust:	0.000
Time:	3.826	Roll Set Point:	-0.034	Pitch Set Point:	-0.033	Yaw Set Point:	0.089	X_WP:	0.000	Y_WP:	0.000	Y_WP:	0.000	X:	0.018	Y:	0.016	Z:	0.057	yaw:	-5.101	yaw rate:	0.497	Roll:	0.619	Pitch:	0.655	Yaw:	-11.096	Thrust:	0.000
Time:	3.849	Roll Set Point:	-0.034	Pitch Set Point:	-0.033	Yaw Set Point:	0.089	X_WP:	0.000	Y_WP:	0.000	Y_WP:	0.000	X:	0.018	Y:	0.016	Z:	0.057	yaw:	-5.094	yaw rate:	-0.645	Roll:	0.639	Pitch:	0.678	Yaw:	-11.685	Thrust:	0.000
Time:	3.866	Roll Set Point:	-0.034	Pitch Set Point:	-0.033	Yaw Set Point:	0.089	X_WP:	0.000	Y_WP:	0.000	Y_WP:	0.000	X:	0.018	Y:	0.016	Z:	0.057	yaw:	-5.100	yaw rate:	0.603	Roll:	0.605	Pitch:	0.627	Yaw:	-10.672	Thrust:	0.000
Time:	3.886	Roll Set Point:	-0.034	Pitch Set Point:	-0.033	Yaw Set Point:	0.089	X_WP:	0.000	Y_WP:	0.000	Y_WP:	0.000	X:	0.018	Y:	0.016	Z:	0.057	yaw:	-5.099	yaw rate:	-0.131	Roll:	0.629	Pitch:	0.664	Yaw:	-11.045	Thrust:	0.000
Time:	3.907	Roll Set Point:	-0.034	Pitch Set Point:	-0.033	Yaw Set Point:	0.089	X_WP:	0.000	Y_WP:	0.000	Y_WP:	0.000	X:	0.018	Y:	0.016	Z:	0.057	yaw:	-5.088	yaw rate:	-1.140	Roll:	0.635	Pitch:	0.663	Yaw:	-11.071	Thrust:	0.000
Time:	3.925	Roll Set Point:	-0.034	Pitch Set Point:	-0.033	Yaw Set Point:	0.089	X_WP:	0.000	Y_WP:	0.000	Y_WP:	0.000	X:	0.018	Y:	0.016	Z:	0.057	yaw:	-5.091	yaw rate:	0.280	Roll:	0.606	Pitch:	0.653	Yaw:	-10.960	Thrust:	0.000
Time:	3.946	Roll Set Point:	-0.034	Pitch Set Point:	-0.033	Yaw Set Point:	0.089	X_WP:	0.000	Y_WP:	0.000	Y_WP:	0.000	X:	0.018	Y:	0.016	Z:	0.057	yaw:	-5.095	yaw rate:	0.446	Roll:	0.637	Pitch:	0.661	Yaw:	-11.288	Thrust:	0.000
Time:	3.969	Roll Set Point:	-0.034	Pitch Set Point:	-0.033	Yaw Set Point:	0.089	X_WP:	0.000	Y_WP:	0.000	Y_WP:	0.000	X:	0.018	Y:	0.016	Z:	0.057	yaw:	-5.099	yaw rate:	0.348	Roll:	0.640	Pitch:	0.679	Yaw:	-11.671	Thrust:	0.000
Time:	3.987	Roll Set Point:	-0.034	Pitch Set Point:	-0.033	Yaw Set Point:	0.089	X_WP:	0.000	Y_WP:	0.000	Y_WP:	0.000	X:	0.018	Y:	0.016	Z:	0.057	yaw:	-5.093	yaw rate:	-0.602	Roll:	0.617	Pitch:	0.639	Yaw:	-10.738	Thrust:	0.000
Time:	4.007	Roll Set Point:	-0.034	Pitch Set Point:	-0.033	Yaw Set Point:	0.089	X_WP:	0.000	Y_WP:	0.000	Y_WP:	0.000	X:	0.018	Y:	0.016	Z:	0.057	yaw:	-5.095	yaw rate:	0.239	Roll:	0.626	Pitch:	0.671	Yaw:	-11.054	Thrust:	0.000
Time:	4.026	Roll Set Point:	-0.034	Pitch Set Point:	-0.033	Yaw Set Point:	0.089	X_WP:	0.000	Y_WP:	0.000	Y_WP:	0.000	X:	0.018	Y:	0.016	Z:	0.057	yaw:	-5.099	yaw rate:	0.369	Roll:	0.616	Pitch:	0.652	Yaw:	-11.090	Thrust:	0.000
Time:	4.049	Roll Set Point:	-0.034	Pitch Set Point:	-0.033	Yaw Set Point:	0.089	X_WP:	0.000	Y_WP:	0.000	Y_WP:	0.000	X:	0.018	Y:	0.016	Z:	0.057	yaw:	-5.093	yaw rate:	-0.514	Roll:	0.654	Pitch:	0.693	Yaw:	-11.470	Thrust:	0.000
Time:	4.068	Roll Set Point:	-0.034	Pitch Set Point:	-0.033	Yaw Set Point:	0.089	X_WP:	0.000	Y_WP:	0.000	Y_WP:	0.000	X:	0.018	Y:	0.016	Z:	0.057	yaw:	-5.098	yaw rate:	0.472	Roll:	0.636	Pitch:	0.660	Yaw:	-11.120	Thrust:	0.000
Time:	4.086	Roll Set Point:	-0.034	Pitch Set Point:	-0.033	Yaw Set Point:	0.089	X_WP:	0.000	Y_WP:	0.000	Y_WP:	0.000	X:	0.018	Y:	0.016	Z:	0.057	yaw:	-5.096	yaw rate:	-0.215	Roll:	0.611	Pitch:	0.638	Yaw:	-10.505	Thrust:	0.000
Time:	4.107	Roll Set Point:	-0.034	Pitch Set Point:	-0.033	Yaw Set Point:	0.089	X_WP:	0.000	Y_WP:	0.000	Y_WP:	0.000	X:	0.018	Y:	0.016	Z:	0.057	yaw:	-5.099	yaw rate:	0.257	Roll:	0.645	Pitch:	0.685	Yaw:	-11.381	Thrust:	0.000
Time:	4.126	Roll Set Point:	-0.034	Pitch Set Point:	-0.033	Yaw Set Point:	0.089	X_WP:	0.000	Y_WP:	0.000	Y_WP:	0.000	X:	0.018	Y:	0.016	Z:	0.057	yaw:	-5.089	yaw rate:	-0.947	Roll:	0.621	Pitch:	0.653	Yaw:	-10.743	Thrust:	0.000
Time:	4.146	Roll Set Point:	-0.034	Pitch Set Point:	-0.033	Yaw Set Point:	0.089	X_WP:	0.000	Y_WP:	0.000	Y_WP:	0.000	X:	0.018	Y:	0.016	Z:	0.057	yaw:	-5.094	yaw rate:	0.453	Roll:	0.637	Pitch:	0.676	Yaw:	-11.330	Thrust:	0.000
Time:	4.168	Roll Set Point:	-0.034	Pitch Set Point:	-0.033	Yaw Set Point:	0.089	X_WP:	0.000	Y_WP:	0.000	Y_WP:	0.000	X:	0.018	Y:	0.016	Z:	0.057	yaw:	-5.101	yaw rate:	0.746	Roll:	0.643	Pitch:	0.673	Yaw:	-11.526	Thrust:	0.000
Time:	4.188	Roll Set Point:	-0.034	Pitch Set Point:	-0.033	Yaw Set Point:	0.089	X_WP:	0.000	Y_WP:	0.000	Y_WP:	0.000	X:	0.018	Y:	0.016	Z:	0.057	yaw:	-5.090	yaw rate:	-1.128	Roll:	0.649	Pitch:	0.672	Yaw:	-10.868	Thrust:	0.000
Time:	4.206	Roll Set Point:	-0.034	Pitch Set Point:	-0.033	Yaw Set Point:	0.089	X_WP:	0.000	Y_WP:	0.000	Y_WP:	0.000	X:	0.018	Y:	0.016	Z:	0.057	yaw:	-5.099	yaw rate:	0.911	Roll:	0.622	Pitch:	0.665	Yaw:	-11.061	Thrust:	0.000
Time:	4.226	Roll Set Point:	-0.034	Pitch Set Point:	-0.033	Yaw Set Point:	0.089	X_WP:	0.000	Y_WP:	0.000	Y_WP:	0.000	X:	0.018	Y:	0.016	Z:	0.057	yaw:	-5.098	yaw rate:	-0.137	Roll:	0.636	Pitch:	0.670	Yaw:	-11.135	Thrust:	0.000
Time:	4.249	Roll Set Point:	-0.034	Pitch Set Point:	-0.033	Yaw Set Point:	0.089	X_WP:	0.000	Y_WP:	0.000	Y_WP:	0.000	X:	0.018	Y:	0.016	Z:	0.057	yaw:	-5.089	yaw rate:	-0.901	Roll:	0.666	Pitch:	0.699	Yaw:	-11.572	Thrust:	0.000
Time:	4.268	Roll Set Point:	-0.034	Pitch Set Point:	-0.033	Yaw Set Point:	0.089	X_WP:	0.000	Y_WP:	0.000	Y_WP:	0.000	X:	0.018	Y:	0.016	Z:	0.057	yaw:	-5.095	yaw rate:	0.636	Roll:	0.636	Pitch:	0.670	Yaw:	-10.980	Thrust:	0.000
Time:	4.286	Roll Set Point:	-0.034	Pitch Set Point:	-0.033	Yaw Set Point:	0.089	X_WP:	0.000	Y_WP:	0.000	Y_WP:	0.000	X:	0.018	Y:	0.016	Z:	0.057	yaw:	-5.099	yaw rate:	0.401	Roll:	0.614	Pitch:	0.660	Yaw:	-10.697	Thrust:	0.000
Time:	4.306	Roll Set Point:	-0.034	Pitch Set Point:	-0.033	Yaw Set Point:	0.089	X_WP:	0.000	Y_WP:	0.000	Y_WP:	0.000	X:	0.018	Y:	0.016	Z:	0.057	yaw:	-5.097	yaw rate:	-0.241	Roll:	0.645	Pitch:	0.674	Yaw:	-11.158	Thrust:	0.000
Time:	4.326	Roll Set Point:	-0.034	Pitch Set Point:	-0.033	Yaw Set Point:	0.089	X_WP:	0.000	Y_WP:	0.000	Y_WP:	0.000	X:	0.018	Y:	0.016	Z:	0.057	yaw:	-5.093	yaw rate:	-0.369	Roll:	0.641	Pitch:	0.674	Yaw:	-11.122	Thrust:	0.000
Time:	4.347	Roll Set Point:	-0.034	Pitch Set Point:	-0.033	Yaw Set Point:	0.089	X_WP:	0.000	Y_WP:	0.000	Y_WP:	0.000	X:	0.018	Y:	0.016	Z:	0.057	yaw:	-5.095	yaw rate:	0.261	Roll:	0.651	Pitch:	0.684	Yaw:	-11.183	Thrust:	0.000
Time:	4.367	Roll Set Point:	-0.034	Pitch Set Point:	-0.033	Yaw Set Point:	0.089	X_WP:	0.000	Y_WP:	0.000	Y_WP:	0.000	X:	0.018	Y:	0.016	Z:	0.057	yaw:	-5.100	yaw rate:	0.418	Roll:	0.631	Pitch:	0.673	Yaw:	-11.117	Thrust:	0.000
Time:	4.388	Roll Set Point:	-0.034	Pitch Set Point:	-0.033	Yaw Set Point:	0.089	X_WP:	0.000	Y_WP:	0.000	Y_WP:	0.000	X:	0.018	Y:	0.016	Z:	0.057	yaw:	-5.090	yaw rate:	-0.929	Roll:	0.660	Pitch:	0.683	Yaw:	-11.205	Thrust:	0.000
Time:	4.406	Roll Set Point:	-0.034	Pitch Set Point:	-0.033	Yaw Set Point:	0.089	X_WP:	0.000	Y_WP:	0.000	Y_WP:	0.000	X:	0.018	Y:	0.016	Z:	0.057	yaw:	-5.092	yaw rate:	0.143	Roll:	0.648	Pitch:	0.682	Yaw:	-10.873	Thrust:	0.000
Time:	4.426	Roll Set Point:	-0.034	Pitch Set Point:	-0.033	Yaw Set Point:	0.089	X_WP:	0.000	Y_WP:	0.000	Y_WP:	0.000	X:	0.018	Y:	0.016	Z:	0.057	yaw:	-5.090	yaw rate:	-0.133	Roll:	0.621	Pitch:	0.668	Yaw:	-11.109	Thrust:	0.000
Time:	4.449	Roll Set Point:	-0.034	Pitch Set Point:	-0.033	Yaw Set Point:	0.089	X_WP:	0.000	Y_WP:	0.000	Y_WP:	0.000	X:	0.018	Y:	0.016	Z:	0.057	yaw:	-5.100	yaw rate:	0.934	Roll:	0.675	Pitch:	0.718	Yaw:	-11.746	Thrust:	0.000
Time:	4.466	Roll Set Point:	-0.034	Pitch Set Point:	-0.033	Yaw Set Point:	0.089	X_WP:	0.000	Y_WP:	0.000	Y_WP:	0.000	X:	0.018	Y:	0.016	Z:	0.057	yaw:	-5.096	yaw rate:	-0.412	Roll:	0.640	Pitch:	0.642	Yaw:	-10.468	Thrust:	0.000
Time:	4.486	Roll Set Point:	-0.034	Pitch Set Point:	-0.033	Yaw Set Point:	0.089	X_WP:	0.000	Y_WP:	0.000	Y_WP:	0.000	X:	0.018	Y:	0.016	Z:	0.057	yaw:	-5.094	yaw rate:	-0.200	Roll:	0.627	Pitch:	0.688	Yaw:	-11.090	Thrust:	0.000
Time:	4.511	Roll Set Point:	-0.034	Pitch Set Point:	-0.033	Yaw Set Point:	0.089	X_WP:	0.000	Y_WP:	0.000	Y_WP:	0.000	X:	0.018	Y:	0.016	Z:	0.057	yaw:	-5.095	yaw rate:	0.138	Roll:	0.694	Pitch:	0.723	Yaw:	-12.043	Thrust:	0.000
Time:	4.525	Roll Set Point:	-0.034	Pitch Set Point:	-0.033	Yaw Set Point:	0.089	X_WP:	0.000	Y_WP:	0.000	Y_WP:	0.000	X:	0.018	Y:	0.016	Z:	0.057	yaw:	-5.095	yaw rate:	0.039	Roll:	0.619	Pitch:	0.644	Yaw:	-10.130	Thrust:	0.000
Time:	4.546	Roll Set Point:	-0.034	Pitch Set Point:	-0.033	Yaw Set Point:	0.089	X_WP:	0.000	Y_WP:	0.000	Y_WP:	0.000	X:	0.018	Y:	0.016	Z:	0.057	yaw:	-5.098	yaw rate:	0.302	Roll:	0.646	Pitch:	0.683	Yaw:	-11.301	Thrust:	0.000
Time:	4.568	Roll Set Point:	-0.034	Pitch Set Point:	-0.033	Yaw Set Point:	0.089	X_WP:	0.000	Y_WP:	0.000	Y_WP:	0.000	X:	0.018	Y:	0.016	Z:	0.057	yaw:	-5.099	yaw rate:	0.036	Roll:	0.665	Pitch:	0.713	Yaw:	-11.548	Thrust:	0.000
Time:	4.587	Roll Set Point:	-0.034	Pitch Set Point:	-0.033	Yaw Set Point:	0.089	X_WP:	0.000	Y_WP:	0.000	Y_WP:	0.000	X:	0.018	Y:	0.016	Z:	0.057	yaw:	-5.091	yaw rate:	-0.741	Roll:	0.658	Pitch:	0.670	Yaw:	-10.822	Thrust:	0.000
Time:	4.606	Roll Set Point:	-0.034	Pitch Set Point:	-0.033	Yaw Set Point:	0.089	X_WP:	0.000	Y_WP:	0.000	Y_WP:	0.000	X:	0.018	Y:	0.016	Z:	0.057	yaw:	-5.094	yaw rate:	0.301	Roll:	0.635	Pitch:	0.683	Yaw:	-10.884	Thrust:	0.000
Time:	4.625	Roll Set Point:	-0.034	Pitch Set Point:	-0.033	Yaw Set Point:	0.089	X_WP:	0.000	Y_WP:	0.000	Y_WP:	0.000	X:	0.018	Y:	0.016	Z:	0.057	yaw:	-5.101	yaw rate:	0.668	Roll:	0.647	Pitch:	0.684	Yaw:	-11.038	Thrust:	0.000
Time:	4.648	Roll Set Point:	-0.034	Pitch Set Point:	-0.033	Yaw Set Point:	0.089	X_WP:	0.000	Y_WP:	0.000	Y_WP:	0.000	X:	0.018	Y:	0.016	Z:	0.057	yaw:	-5.096	yaw rate:	-0.530	Roll:	0.678	Pitch:	0.700	Yaw:	-11.469	Thrust:	0.000
Time:	4.666	Roll Set Point:	-0.034	Pitch Set Point:	-0.033	Yaw Set Point:	0.089	X_WP:	0.000	Y_WP:	0.000	Y_WP:	0.000	X:	0.018	Y:	0.016	Z:	0.057	yaw:	-5.092	yaw rate:	-0.360	Roll:	0.648	Pitch:	0.684	Yaw:	-10.811	Thrust:	0.000
Time:	4.685	Roll Set Point:	-0.034	Pitch Set Point:	-0.033	Yaw Set Point:	0.089	X_WP:	0.000	Y_WP:	0.000	Y_WP:	0.000	X:	0.018	Y:	0.016	Z:	0.057	yaw:	-5.091	yaw rate:	-0.152	Roll:	0.644	Pitch:	0.677	Yaw:	-10.857	Thrust:	0.000
Time:	4.710	Roll Set Point:	-0.034	Pitch Set Point:	-0.033	Yaw Set Point:	0.089	X_WP:	0.000	Y_WP:	0.000	Y_WP:	0.000	X:	0.018	Y:	0.016	Z:	0.057	yaw:	-5.090	yaw rate:	-0.073	Roll:	0.691	Pitch:	0.735	Yaw:	-11.978	Thrust:	0.000
Time:	4.726	Roll Set Point:	-0.034	Pitch Set Point:	-0.033	Yaw Set Point:	0.089	X_WP:	0.000	Y_WP:	0.000	Y_WP:	0.000	X:	0.018	Y:	0.016	Z:	0.057	yaw:	-5.093	yaw rate:	0.309	Roll:	0.628	Pitch:	0.657	Yaw:	-10.469	Thrust:	0.000
Time:	4.746	Roll Set Point:	-0.034	Pitch Set Point:	-0.033	Yaw Set Point:	0.089	X_WP:	0.000	Y_WP:	0.000	Y_WP:	0.000	X:	0.018	Y:	0.016	Z:	0.057	yaw:	-5.097	yaw rate:	0.376	Roll:	0.663	Pitch:	0.697	Yaw:	-11.140	Thrust:	0.000
Time:	4.767	Roll Set Point:	-0.034	Pitch Set Point:	-0.033	Yaw Set Point:	0.089	X_WP:	0.000	Y_WP:	0.000	Y_WP:	0.000	X:	0.018	Y:	0.016	Z:	0.057	yaw:	-5.091	yaw rate:	-0.613	Roll:	0.666	Pitch:	0.698	Yaw:	-11.154	Thrust:	0.000
Time:	4.797	Roll Set Point:	-0.034	Pitch Set Point:	-0.033	Yaw Set Point:	0.089	X_WP:	0.000	Y_WP:	0.000	Y_WP:	0.000	X:	0.018	Y:	0.016	Z:	0.057	yaw:	-5.090	yaw rate:	-0.109	Roll:	0.661	Pitch:	0.702	Yaw:	-13.329	Thrust:	0.000
Time:	4.808	Roll Set Point:	-0.034	Pitch Set Point:	-0.033	Yaw Set Point:	0.089	X_WP:	0.000	Y_WP:	0.000	Y_WP:	0.000	X:	0.018	Y:	0.016	Z:	0.057	yaw:	-5.094	yaw rate:	0.464	Roll:	0.681	Pitch:	0.719	Yaw:	-9.423	Thrust:	0.000
Time:	4.825	Roll Set Point:	-0.034	Pitch Set Point:	-0.033	Yaw Set Point:	0.089	X_WP:	0.000	Y_WP:	0.000	Y_WP:	0.000	X:	0.018	Y:	0.016	Z:	0.057	yaw:	-5.091	yaw rate:	-0.320	Roll:	0.637	Pitch:	0.665	Yaw:	-10.467	Thrust:	0.000
Time:	4.849	Roll Set Point:	-0.034	Pitch Set Point:	-0.033	Yaw Set Point:	0.089	X_WP:	0.000	Y_WP:	0.000	Y_WP:	0.000	X:	0.018	Y:	0.016	Z:	0.057	yaw:	-5.093	yaw rate:	0.187	Roll:	0.677	Pitch:	0.733	Yaw:	-11.847	Thrust:	0.000
Time:	4.868	Roll Set Point:	-0.034	Pitch Set Point:	-0.033	Yaw Set Point:	0.089	X_WP:	0.000	Y_WP:	0.000	Y_WP:	0.000	X:	0.018	Y:	0.016	Z:	0.057	yaw:	-5.092	yaw rate:	-0.131	Roll:	0.676	Pitch:	0.695	Yaw:	-10.982	Thrust:	0.000
Time:	4.886	Roll Set Point:	-0.034	Pitch Set Point:	-0.033	Yaw Set Point:	0.089	X_WP:	0.000	Y_WP:	0.000	Y_WP:	0.000	X:	0.018	Y:	0.016	Z:	0.057	yaw:	-5.095	yaw rate:	0.342	Roll:	0.644	Pitch:	0.661	Yaw:	-10.518	Thrust:	0.000
Time:	4.910	Roll Set Point:	-0.034	Pitch Set Point:	-0.033	Yaw Set Point:	0.089	X_WP:	0.000	Y_WP:	0.000	Y_WP:	0.000	X:	0.018	Y:	0.016	Z:	0.057	yaw:	-5.094	yaw rate:	-0.106	Roll:	0.689	Pitch:	0.751	Yaw:	-12.011	Thrust:	0.000
Time:	4.926	Roll Set Point:	-0.034	Pitch Set Point:	-0.032	Yaw Set Point:	0.087	X_WP:	0.000	Y_WP:	0.000	Y_WP:	0.000	X:	0.018	Y:	0.015	Z:	0.057	yaw:	-4.961	yaw rate:	-13.278	Roll:	0.613	Pitch:	0.578	Yaw:	-7.968	Thrust:	0.000
Time:	4.946	Roll Set Point:	-0.034	Pitch Set Point:	-0.033	Yaw Set Point:	0.089	X_WP:	0.000	Y_WP:	0.000	Y_WP:	0.000	X:	0.018	Y:	0.016	Z:	0.057	yaw:	-5.093	yaw rate:	13.170	Roll:	0.696	Pitch:	0.772	Yaw:	-12.833	Thrust:	0.000
Time:	4.969	Roll Set Point:	-0.034	Pitch Set Point:	-0.033	Yaw Set Point:	0.089	X_WP:	0.000	Y_WP:	0.000	Y_WP:	0.000	X:	0.018	Y:	0.016	Z:	0.057	yaw:	-5.087	yaw rate:	-0.571	Roll:	0.686	Pitch:	0.730	Yaw:	-11.653	Thrust:	0.000
Time:	4.987	Roll Set Point:	-0.034	Pitch Set Point:	-0.033	Yaw Set Point:	0.089	X_WP:	0.000	Y_WP:	0.000	Y_WP:	0.000	X:	0.018	Y:	0.016	Z:	0.057	yaw:	-5.092	yaw rate:	0.538	Roll:	0.665	Pitch:	0.679	Yaw:	-10.704	Thrust:	0.000
Time:	5.006	Roll Set Point:	-0.034	Pitch Set Point:	-0.033	Yaw Set Point:	0.089	X_WP:	0.000	Y_WP:	0.000	Y_WP:	1.750	X:	0.018	Y:	0.016	Z:	0.057	yaw:	-5.099	yaw rate:	0.650	Roll:	0.647	Pitch:	0.707	Yaw:	-11.122	Thrust:	100.000
Time:	5.026	Roll Set Point:	-0.034	Pitch Set Point:	-0.033	Yaw Set Point:	0.089	X_WP:	0.000	Y_WP:	0.000	Y_WP:	1.750	X:	0.018	Y:	0.016	Z:	0.057	yaw:	-5.098	yaw rate:	-0.092	Roll:	0.662	Pitch:	0.692	Yaw:	-11.129	Thrust:	96.316
Time:	5.052	Roll Set Point:	-0.034	Pitch Set Point:	-0.033	Yaw Set Point:	0.089	X_WP:	0.000	Y_WP:	0.000	Y_WP:	1.750	X:	0.018	Y:	0.016	Z:	0.057	yaw:	-5.076	yaw rate:	-2.247	Roll:	0.732	Pitch:	0.749	Yaw:	-11.972	Thrust:	100.000
Time:	5.066	Roll Set Point:	-0.034	Pitch Set Point:	-0.032	Yaw Set Point:	0.088	X_WP:	0.000	Y_WP:	0.000	Y_WP:	1.750	X:	0.018	Y:	0.016	Z:	0.057	yaw:	-5.022	yaw rate:	-5.333	Roll:	0.663	Pitch:	0.633	Yaw:	-9.001	Thrust:	100.000
Time:	5.086	Roll Set Point:	-0.034	Pitch Set Point:	-0.032	Yaw Set Point:	0.086	X_WP:	0.000	Y_WP:	0.000	Y_WP:	1.750	X:	0.018	Y:	0.015	Z:	0.057	yaw:	-4.945	yaw rate:	-7.692	Roll:	0.617	Pitch:	0.630	Yaw:	-9.811	Thrust:	100.000
Time:	5.112	Roll Set Point:	-0.034	Pitch Set Point:	-0.032	Yaw Set Point:	0.087	X_WP:	0.000	Y_WP:	0.000	Y_WP:	1.750	X:	0.018	Y:	0.015	Z:	0.057	yaw:	-4.980	yaw rate:	3.428	Roll:	0.777	Pitch:	0.729	Yaw:	-12.326	Thrust:	100.000
Time:	5.126	Roll Set Point:	-0.034	Pitch Set Point:	-0.032	Yaw Set Point:	0.087	X_WP:	0.000	Y_WP:	0.000	Y_WP:	1.750	X:	0.018	Y:	0.015	Z:	0.058	yaw:	-4.980	yaw rate:	0.073	Roll:	0.574	Pitch:	0.660	Yaw:	-9.977	Thrust:	100.000
Time:	5.148	Roll Set Point:	-0.034	Pitch Set Point:	-0.032	Yaw Set Point:	0.087	X_WP:	0.000	Y_WP:	0.000	Y_WP:	1.750	X:	0.018	Y:	0.015	Z:	0.058	yaw:	-4.959	yaw rate:	-2.162	Roll:	0.852	Pitch:	0.662	Yaw:	-10.834	Thrust:	100.000
Time:	5.170	Roll Set Point:	-0.035	Pitch Set Point:	-0.032	Yaw Set Point:	0.089	X_WP:	0.000	Y_WP:	0.000	Y_WP:	1.750	X:	0.018	Y:	0.015	Z:	0.059	yaw:	-5.095	yaw rate:	13.591	Roll:	0.914	Pitch:	0.593	Yaw:	-13.155	Thrust:	100.000
Time:	5.199	Roll Set Point:	-0.035	Pitch Set Point:	-0.031	Yaw Set Point:	0.095	X_WP:	0.000	Y_WP:	0.000	Y_WP:	1.750	X:	0.018	Y:	0.015	Z:	0.062	yaw:	-5.421	yaw rate:	32.612	Roll:	0.853	Pitch:	0.612	Yaw:	-15.989	Thrust:	100.000
Time:	5.212	Roll Set Point:	-0.036	Pitch Set Point:	-0.031	Yaw Set Point:	0.103	X_WP:	0.000	Y_WP:	0.000	Y_WP:	1.750	X:	0.019	Y:	0.014	Z:	0.066	yaw:	-5.898	yaw rate:	47.728	Roll:	0.861	Pitch:	0.523	Yaw:	-18.976	Thrust:	100.000
Time:	5.226	Roll Set Point:	-0.036	Pitch Set Point:	-0.029	Yaw Set Point:	0.110	X_WP:	0.000	Y_WP:	0.000	Y_WP:	1.750	X:	0.019	Y:	0.014	Z:	0.072	yaw:	-6.320	yaw rate:	42.168	Roll:	0.793	Pitch:	-0.144	Yaw:	-19.142	Thrust:	100.000
Time:	5.253	Roll Set Point:	-0.036	Pitch Set Point:	-0.027	Yaw Set Point:	0.118	X_WP:	0.000	Y_WP:	0.000	Y_WP:	1.750	X:	0.019	Y:	0.013	Z:	0.080	yaw:	-6.747	yaw rate:	42.681	Roll:	0.862	Pitch:	0.112	Yaw:	-18.904	Thrust:	100.000
Time:	5.271	Roll Set Point:	-0.036	Pitch Set Point:	-0.025	Yaw Set Point:	0.128	X_WP:	0.000	Y_WP:	0.000	Y_WP:	1.750	X:	0.019	Y:	0.011	Z:	0.091	yaw:	-7.323	yaw rate:	57.638	Roll:	0.856	Pitch:	-0.525	Yaw:	-22.194	Thrust:	100.000
Time:	5.287	Roll Set Point:	-0.037	Pitch Set Point:	-0.021	Yaw Set Point:	0.139	X_WP:	0.000	Y_WP:	0.000	Y_WP:	1.750	X:	0.019	Y:	0.009	Z:	0.103	yaw:	-7.986	yaw rate:	66.286	Roll:	0.933	Pitch:	-1.251	Yaw:	-25.409	Thrust:	97.996
Time:	5.313	Roll Set Point:	-0.038	Pitch Set Point:	-0.017	Yaw Set Point:	0.150	X_WP:	0.000	Y_WP:	0.000	Y_WP:	1.750	X:	0.019	Y:	0.007	Z:	0.117	yaw:	-8.614	yaw rate:	62.773	Roll:	1.160	Pitch:	-0.844	Yaw:	-23.556	Thrust:	100.000
Time:	5.327	Roll Set Point:	-0.039	Pitch Set Point:	-0.011	Yaw Set Point:	0.164	X_WP:	0.000	Y_WP:	0.000	Y_WP:	1.750	X:	0.020	Y:	0.004	Z:	0.133	yaw:	-9.418	yaw rate:	80.464	Roll:	1.555	Pitch:	-2.435	Yaw:	-30.172	Thrust:	95.631
Time:	5.347	Roll Set Point:	-0.041	Pitch Set Point:	-0.005	Yaw Set Point:	0.179	X_WP:	0.000	Y_WP:	0.000	Y_WP:	1.750	X:	0.021	Y:	0.000	Z:	0.151	yaw:	-10.266	yaw rate:	84.808	Roll:	1.905	Pitch:	-2.190	Yaw:	-29.280	Thrust:	100.000
Time:	5.372	Roll Set Point:	-0.044	Pitch Set Point:	0.003	Yaw Set Point:	0.196	X_WP:	0.000	Y_WP:	0.000	Y_WP:	1.750	X:	0.022	Y:	-0.004	Z:	0.169	yaw:	-11.214	yaw rate:	94.731	Roll:	2.288	Pitch:	-2.275	Yaw:	-30.772	Thrust:	100.000
Time:	5.392	Roll Set Point:	-0.048	Pitch Set Point:	0.013	Yaw Set Point:	0.211	X_WP:	0.000	Y_WP:	0.000	Y_WP:	1.750	X:	0.023	Y:	-0.009	Z:	0.189	yaw:	-12.069	yaw rate:	85.496	Roll:	3.145	Pitch:	-3.440	Yaw:	-32.017	Thrust:	100.000
