Time:	0.049	Roll Set Point:	0.852	Pitch Set Point:	0.907	Yaw Set Point:	-1.614	X_WP:	0.000	Y_WP:	0.000	Y_WP:	0.750	X:	0.048	Y:	-0.899	Z:	0.043	yaw:	92.494	yaw rate:	7.079	Roll:	-26.092	Pitch:	-0.248	Yaw:	129.146	Thrust:	38.895
Time:	0.067	Roll Set Point:	0.852	Pitch Set Point:	0.907	Yaw Set Point:	-1.615	X_WP:	0.000	Y_WP:	0.000	Y_WP:	0.750	X:	0.048	Y:	-0.898	Z:	0.043	yaw:	92.524	yaw rate:	-3.036	Roll:	-26.116	Pitch:	0.215	Yaw:	130.206	Thrust:	40.437
Time:	0.089	Roll Set Point:	0.852	Pitch Set Point:	0.906	Yaw Set Point:	-1.615	X_WP:	0.000	Y_WP:	0.000	Y_WP:	0.750	X:	0.048	Y:	-0.898	Z:	0.043	yaw:	92.545	yaw rate:	-2.032	Roll:	-26.190	Pitch:	0.026	Yaw:	130.890	Thrust:	42.670
Time:	0.107	Roll Set Point:	0.852	Pitch Set Point:	0.906	Yaw Set Point:	-1.615	X_WP:	0.000	Y_WP:	0.000	Y_WP:	0.750	X:	0.048	Y:	-0.899	Z:	0.043	yaw:	92.538	yaw rate:	0.651	Roll:	-26.273	Pitch:	-0.357	Yaw:	130.911	Thrust:	43.686
Time:	0.128	Roll Set Point:	0.852	Pitch Set Point:	0.907	Yaw Set Point:	-1.615	X_WP:	0.000	Y_WP:	0.000	Y_WP:	0.750	X:	0.048	Y:	-0.898	Z:	0.043	yaw:	92.518	yaw rate:	1.986	Roll:	-26.208	Pitch:	-0.460	Yaw:	130.971	Thrust:	45.779
Time:	0.147	Roll Set Point:	0.852	Pitch Set Point:	0.906	Yaw Set Point:	-1.615	X_WP:	0.000	Y_WP:	0.000	Y_WP:	0.750	X:	0.048	Y:	-0.899	Z:	0.043	yaw:	92.550	yaw rate:	-3.135	Roll:	-26.364	Pitch:	0.180	Yaw:	131.583	Thrust:	47.091
Time:	0.168	Roll Set Point:	0.852	Pitch Set Point:	0.906	Yaw Set Point:	-1.615	X_WP:	0.000	Y_WP:	0.000	Y_WP:	0.750	X:	0.048	Y:	-0.898	Z:	0.043	yaw:	92.540	yaw rate:	0.914	Roll:	-26.335	Pitch:	-0.317	Yaw:	131.153	Thrust:	49.385
Time:	0.187	Roll Set Point:	0.852	Pitch Set Point:	0.907	Yaw Set Point:	-1.615	X_WP:	0.000	Y_WP:	0.000	Y_WP:	0.750	X:	0.048	Y:	-0.898	Z:	0.043	yaw:	92.510	yaw rate:	3.067	Roll:	-26.395	Pitch:	-0.662	Yaw:	130.750	Thrust:	50.553
Time:	0.208	Roll Set Point:	0.852	Pitch Set Point:	0.907	Yaw Set Point:	-1.614	X_WP:	0.000	Y_WP:	0.000	Y_WP:	0.750	X:	0.048	Y:	-0.898	Z:	0.043	yaw:	92.502	yaw rate:	0.754	Roll:	-26.452	Pitch:	-0.384	Yaw:	131.095	Thrust:	52.857
Time:	0.228	Roll Set Point:	0.852	Pitch Set Point:	0.907	Yaw Set Point:	-1.615	X_WP:	0.000	Y_WP:	0.000	Y_WP:	0.750	X:	0.048	Y:	-0.898	Z:	0.043	yaw:	92.524	yaw rate:	-2.188	Roll:	-26.509	Pitch:	0.052	Yaw:	131.442	Thrust:	53.800
Time:	0.248	Roll Set Point:	0.852	Pitch Set Point:	0.906	Yaw Set Point:	-1.615	X_WP:	0.000	Y_WP:	0.000	Y_WP:	0.750	X:	0.048	Y:	-0.898	Z:	0.043	yaw:	92.559	yaw rate:	-3.507	Roll:	-26.537	Pitch:	0.293	Yaw:	131.728	Thrust:	55.807
Time:	0.267	Roll Set Point:	0.852	Pitch Set Point:	0.906	Yaw Set Point:	-1.616	X_WP:	0.000	Y_WP:	0.000	Y_WP:	0.750	X:	0.048	Y:	-0.898	Z:	0.043	yaw:	92.572	yaw rate:	-1.263	Roll:	-26.589	Pitch:	-0.076	Yaw:	131.350	Thrust:	57.402
Time:	0.288	Roll Set Point:	0.852	Pitch Set Point:	0.907	Yaw Set Point:	-1.615	X_WP:	0.000	Y_WP:	0.000	Y_WP:	0.750	X:	0.048	Y:	-0.899	Z:	0.043	yaw:	92.506	yaw rate:	6.597	Roll:	-26.654	Pitch:	-1.105	Yaw:	130.420	Thrust:	59.947
Time:	0.308	Roll Set Point:	0.852	Pitch Set Point:	0.907	Yaw Set Point:	-1.615	X_WP:	0.000	Y_WP:	0.000	Y_WP:	0.750	X:	0.048	Y:	-0.898	Z:	0.043	yaw:	92.515	yaw rate:	-0.891	Roll:	-26.681	Pitch:	-0.123	Yaw:	131.326	Thrust:	60.982
Time:	0.327	Roll Set Point:	0.852	Pitch Set Point:	0.907	Yaw Set Point:	-1.614	X_WP:	0.000	Y_WP:	0.000	Y_WP:	0.750	X:	0.048	Y:	-0.899	Z:	0.043	yaw:	92.474	yaw rate:	4.062	Roll:	-26.723	Pitch:	-0.827	Yaw:	130.487	Thrust:	62.269
Time:	0.348	Roll Set Point:	0.852	Pitch Set Point:	0.906	Yaw Set Point:	-1.615	X_WP:	0.000	Y_WP:	0.000	Y_WP:	0.750	X:	0.048	Y:	-0.899	Z:	0.043	yaw:	92.538	yaw rate:	-6.359	Roll:	-26.767	Pitch:	0.651	Yaw:	132.027	Thrust:	64.018
Time:	0.368	Roll Set Point:	0.852	Pitch Set Point:	0.907	Yaw Set Point:	-1.614	X_WP:	0.000	Y_WP:	0.000	Y_WP:	0.750	X:	0.048	Y:	-0.899	Z:	0.043	yaw:	92.503	yaw rate:	3.453	Roll:	-26.793	Pitch:	-0.736	Yaw:	130.672	Thrust:	65.774
Time:	0.390	Roll Set Point:	0.852	Pitch Set Point:	0.907	Yaw Set Point:	-1.614	X_WP:	0.000	Y_WP:	0.000	Y_WP:	0.750	X:	0.048	Y:	-0.899	Z:	0.043	yaw:	92.485	yaw rate:	1.769	Roll:	-26.908	Pitch:	-0.457	Yaw:	131.093	Thrust:	70.139
Time:	0.409	Roll Set Point:	0.852	Pitch Set Point:	0.907	Yaw Set Point:	-1.615	X_WP:	0.000	Y_WP:	0.000	Y_WP:	0.750	X:	0.048	Y:	-0.898	Z:	0.043	yaw:	92.523	yaw rate:	-3.709	Roll:	-26.804	Pitch:	0.244	Yaw:	131.686	Thrust:	69.058
Time:	0.429	Roll Set Point:	0.852	Pitch Set Point:	0.907	Yaw Set Point:	-1.615	X_WP:	0.000	Y_WP:	0.000	Y_WP:	0.750	X:	0.048	Y:	-0.899	Z:	0.043	yaw:	92.522	yaw rate:	0.018	Roll:	-26.863	Pitch:	-0.249	Yaw:	131.127	Thrust:	71.023
Time:	0.449	Roll Set Point:	0.852	Pitch Set Point:	0.907	Yaw Set Point:	-1.615	X_WP:	0.000	Y_WP:	0.000	Y_WP:	0.750	X:	0.048	Y:	-0.899	Z:	0.043	yaw:	92.519	yaw rate:	0.332	Roll:	-26.829	Pitch:	-0.266	Yaw:	131.123	Thrust:	72.660
Time:	0.470	Roll Set Point:	0.852	Pitch Set Point:	0.907	Yaw Set Point:	-1.615	X_WP:	0.000	Y_WP:	0.000	Y_WP:	0.750	X:	0.048	Y:	-0.899	Z:	0.043	yaw:	92.521	yaw rate:	-0.167	Roll:	-26.869	Pitch:	-0.244	Yaw:	131.419	Thrust:	77.424
Time:	0.491	Roll Set Point:	0.852	Pitch Set Point:	0.907	Yaw Set Point:	-1.615	X_WP:	0.000	Y_WP:	0.000	Y_WP:	0.750	X:	0.048	Y:	-0.898	Z:	0.043	yaw:	92.511	yaw rate:	0.947	Roll:	-26.857	Pitch:	-0.355	Yaw:	130.965	Thrust:	75.802
Time:	0.510	Roll Set Point:	0.852	Pitch Set Point:	0.907	Yaw Set Point:	-1.615	X_WP:	0.000	Y_WP:	0.000	Y_WP:	0.750	X:	0.048	Y:	-0.898	Z:	0.043	yaw:	92.517	yaw rate:	-0.534	Roll:	-26.837	Pitch:	-0.168	Yaw:	131.253	Thrust:	77.943
Time:	0.530	Roll Set Point:	0.852	Pitch Set Point:	0.907	Yaw Set Point:	-1.615	X_WP:	0.000	Y_WP:	0.000	Y_WP:	0.750	X:	0.048	Y:	-0.899	Z:	0.043	yaw:	92.507	yaw rate:	0.926	Roll:	-26.871	Pitch:	-0.430	Yaw:	131.049	Thrust:	79.828
Time:	0.550	Roll Set Point:	0.852	Pitch Set Point:	0.906	Yaw Set Point:	-1.615	X_WP:	0.000	Y_WP:	0.000	Y_WP:	0.750	X:	0.048	Y:	-0.898	Z:	0.043	yaw:	92.535	yaw rate:	-2.724	Roll:	-26.819	Pitch:	0.146	Yaw:	131.565	Thrust:	81.436
Time:	0.568	Roll Set Point:	0.852	Pitch Set Point:	0.907	Yaw Set Point:	-1.615	X_WP:	0.000	Y_WP:	0.000	Y_WP:	0.750	X:	0.048	Y:	-0.899	Z:	0.043	yaw:	92.506	yaw rate:	2.836	Roll:	-26.812	Pitch:	-0.649	Yaw:	130.619	Thrust:	78.784
Time:	0.588	Roll Set Point:	0.852	Pitch Set Point:	0.907	Yaw Set Point:	-1.614	X_WP:	0.000	Y_WP:	0.000	Y_WP:	0.750	X:	0.048	Y:	-0.899	Z:	0.043	yaw:	92.489	yaw rate:	1.768	Roll:	-26.801	Pitch:	-0.527	Yaw:	130.822	Thrust:	84.175
Time:	0.607	Roll Set Point:	0.852	Pitch Set Point:	0.907	Yaw Set Point:	-1.614	X_WP:	0.000	Y_WP:	0.000	Y_WP:	0.750	X:	0.048	Y:	-0.899	Z:	0.043	yaw:	92.500	yaw rate:	-1.186	Roll:	-26.911	Pitch:	-0.091	Yaw:	131.270	Thrust:	85.412
Time:	0.628	Roll Set Point:	0.852	Pitch Set Point:	0.907	Yaw Set Point:	-1.614	X_WP:	0.000	Y_WP:	0.000	Y_WP:	0.750	X:	0.048	Y:	-0.899	Z:	0.043	yaw:	92.480	yaw rate:	1.992	Roll:	-26.769	Pitch:	-0.529	Yaw:	130.873	Thrust:	88.227
Time:	0.648	Roll Set Point:	0.852	Pitch Set Point:	0.907	Yaw Set Point:	-1.614	X_WP:	0.000	Y_WP:	0.000	Y_WP:	0.750	X:	0.048	Y:	-0.899	Z:	0.043	yaw:	92.474	yaw rate:	0.667	Roll:	-26.841	Pitch:	-0.357	Yaw:	131.045	Thrust:	90.100
Time:	0.667	Roll Set Point:	0.852	Pitch Set Point:	0.907	Yaw Set Point:	-1.615	X_WP:	0.000	Y_WP:	0.000	Y_WP:	0.750	X:	0.048	Y:	-0.899	Z:	0.043	yaw:	92.512	yaw rate:	-3.797	Roll:	-26.939	Pitch:	0.227	Yaw:	131.647	Thrust:	90.937
Time:	0.689	Roll Set Point:	0.852	Pitch Set Point:	0.907	Yaw Set Point:	-1.615	X_WP:	0.000	Y_WP:	0.000	Y_WP:	0.750	X:	0.048	Y:	-0.899	Z:	0.043	yaw:	92.522	yaw rate:	-0.985	Roll:	-26.831	Pitch:	-0.078	Yaw:	131.481	Thrust:	96.570
Time:	0.708	Roll Set Point:	0.852	Pitch Set Point:	0.908	Yaw Set Point:	-1.613	X_WP:	0.000	Y_WP:	0.000	Y_WP:	0.750	X:	0.048	Y:	-0.899	Z:	0.043	yaw:	92.445	yaw rate:	7.643	Roll:	-26.875	Pitch:	-1.375	Yaw:	129.939	Thrust:	93.899
Time:	0.728	Roll Set Point:	0.852	Pitch Set Point:	0.907	Yaw Set Point:	-1.615	X_WP:	0.000	Y_WP:	0.000	Y_WP:	0.750	X:	0.048	Y:	-0.899	Z:	0.043	yaw:	92.506	yaw rate:	-6.071	Roll:	-26.758	Pitch:	0.618	Yaw:	131.947	Thrust:	96.020
Time:	0.747	Roll Set Point:	0.852	Pitch Set Point:	0.908	Yaw Set Point:	-1.614	X_WP:	0.000	Y_WP:	0.000	Y_WP:	0.750	X:	0.048	Y:	-0.899	Z:	0.043	yaw:	92.464	yaw rate:	4.189	Roll:	-26.839	Pitch:	-0.855	Yaw:	130.468	Thrust:	94.739
Time:	0.766	Roll Set Point:	0.852	Pitch Set Point:	0.907	Yaw Set Point:	-1.615	X_WP:	0.000	Y_WP:	0.000	Y_WP:	0.750	X:	0.048	Y:	-0.899	Z:	0.043	yaw:	92.523	yaw rate:	-5.856	Roll:	-26.844	Pitch:	0.548	Yaw:	131.910	Thrust:	99.539
Time:	0.788	Roll Set Point:	0.852	Pitch Set Point:	0.906	Yaw Set Point:	-1.615	X_WP:	0.000	Y_WP:	0.000	Y_WP:	0.750	X:	0.048	Y:	-0.899	Z:	0.043	yaw:	92.538	yaw rate:	-1.530	Roll:	-26.866	Pitch:	-0.042	Yaw:	131.504	Thrust:	100.000
Time:	0.807	Roll Set Point:	0.852	Pitch Set Point:	0.907	Yaw Set Point:	-1.615	X_WP:	0.000	Y_WP:	0.000	Y_WP:	0.750	X:	0.048	Y:	-0.899	Z:	0.043	yaw:	92.532	yaw rate:	0.548	Roll:	-26.869	Pitch:	-0.319	Yaw:	131.097	Thrust:	100.000
Time:	0.827	Roll Set Point:	0.852	Pitch Set Point:	0.907	Yaw Set Point:	-1.614	X_WP:	0.000	Y_WP:	0.000	Y_WP:	0.750	X:	0.048	Y:	-0.899	Z:	0.043	yaw:	92.480	yaw rate:	5.195	Roll:	-26.844	Pitch:	-1.016	Yaw:	130.458	Thrust:	100.000
Time:	0.848	Roll Set Point:	0.852	Pitch Set Point:	0.907	Yaw Set Point:	-1.614	X_WP:	0.000	Y_WP:	0.000	Y_WP:	0.750	X:	0.048	Y:	-0.899	Z:	0.043	yaw:	92.485	yaw rate:	-0.480	Roll:	-26.852	Pitch:	-0.231	Yaw:	131.231	Thrust:	100.000
Time:	0.867	Roll Set Point:	0.852	Pitch Set Point:	0.907	Yaw Set Point:	-1.615	X_WP:	0.000	Y_WP:	0.000	Y_WP:	0.750	X:	0.048	Y:	-0.899	Z:	0.043	yaw:	92.512	yaw rate:	-2.695	Roll:	-26.803	Pitch:	0.125	Yaw:	131.507	Thrust:	100.000
Time:	0.890	Roll Set Point:	0.852	Pitch Set Point:	0.907	Yaw Set Point:	-1.615	X_WP:	0.000	Y_WP:	0.000	Y_WP:	0.750	X:	0.048	Y:	-0.899	Z:	0.043	yaw:	92.534	yaw rate:	-2.192	Roll:	-26.913	Pitch:	0.035	Yaw:	131.708	Thrust:	100.000
Time:	0.907	Roll Set Point:	0.852	Pitch Set Point:	0.907	Yaw Set Point:	-1.615	X_WP:	0.000	Y_WP:	0.000	Y_WP:	0.750	X:	0.048	Y:	-0.899	Z:	0.043	yaw:	92.525	yaw rate:	0.879	Roll:	-26.779	Pitch:	-0.375	Yaw:	130.817	Thrust:	100.000
Time:	0.928	Roll Set Point:	0.852	Pitch Set Point:	0.907	Yaw Set Point:	-1.615	X_WP:	0.000	Y_WP:	0.000	Y_WP:	0.750	X:	0.048	Y:	-0.899	Z:	0.043	yaw:	92.520	yaw rate:	0.487	Roll:	-26.848	Pitch:	-0.305	Yaw:	131.103	Thrust:	100.000
Time:	0.947	Roll Set Point:	0.852	Pitch Set Point:	0.907	Yaw Set Point:	-1.614	X_WP:	0.000	Y_WP:	0.000	Y_WP:	0.750	X:	0.048	Y:	-0.899	Z:	0.043	yaw:	92.493	yaw rate:	2.794	Roll:	-26.825	Pitch:	-0.662	Yaw:	130.739	Thrust:	100.000
Time:	0.967	Roll Set Point:	0.852	Pitch Set Point:	0.907	Yaw Set Point:	-1.615	X_WP:	0.000	Y_WP:	0.000	Y_WP:	0.750	X:	0.048	Y:	-0.899	Z:	0.043	yaw:	92.517	yaw rate:	-2.451	Roll:	-26.880	Pitch:	0.067	Yaw:	131.518	Thrust:	100.000
Time:	0.989	Roll Set Point:	0.852	Pitch Set Point:	0.906	Yaw Set Point:	-1.615	X_WP:	0.000	Y_WP:	0.000	Y_WP:	0.750	X:	0.048	Y:	-0.899	Z:	0.043	yaw:	92.546	yaw rate:	-2.920	Roll:	-26.836	Pitch:	0.176	Yaw:	131.645	Thrust:	100.000
Time:	1.007	Roll Set Point:	0.852	Pitch Set Point:	0.907	Yaw Set Point:	-1.614	X_WP:	0.000	Y_WP:	0.000	Y_WP:	0.750	X:	0.048	Y:	-0.899	Z:	0.043	yaw:	92.502	yaw rate:	4.443	Roll:	-26.816	Pitch:	-0.850	Yaw:	130.533	Thrust:	100.000
Time:	1.028	Roll Set Point:	0.852	Pitch Set Point:	0.908	Yaw Set Point:	-1.614	X_WP:	0.000	Y_WP:	0.000	Y_WP:	0.750	X:	0.048	Y:	-0.899	Z:	0.043	yaw:	92.465	yaw rate:	3.659	Roll:	-26.869	Pitch:	-0.787	Yaw:	130.661	Thrust:	100.000
Time:	1.047	Roll Set Point:	0.852	Pitch Set Point:	0.907	Yaw Set Point:	-1.614	X_WP:	0.000	Y_WP:	0.000	Y_WP:	0.750	X:	0.048	Y:	-0.899	Z:	0.043	yaw:	92.485	yaw rate:	-1.949	Roll:	-26.812	Pitch:	-0.007	Yaw:	131.340	Thrust:	100.000
Time:	1.066	Roll Set Point:	0.852	Pitch Set Point:	0.907	Yaw Set Point:	-1.615	X_WP:	0.000	Y_WP:	0.000	Y_WP:	0.750	X:	0.048	Y:	-0.899	Z:	0.043	yaw:	92.508	yaw rate:	-2.347	Roll:	-26.833	Pitch:	0.093	Yaw:	131.398	Thrust:	100.000
Time:	1.089	Roll Set Point:	0.852	Pitch Set Point:	0.906	Yaw Set Point:	-1.615	X_WP:	0.000	Y_WP:	0.000	Y_WP:	0.750	X:	0.048	Y:	-0.899	Z:	0.043	yaw:	92.533	yaw rate:	-2.503	Roll:	-26.891	Pitch:	0.034	Yaw:	131.777	Thrust:	100.000
Time:	1.108	Roll Set Point:	0.852	Pitch Set Point:	0.907	Yaw Set Point:	-1.615	X_WP:	0.000	Y_WP:	0.000	Y_WP:	0.750	X:	0.048	Y:	-0.899	Z:	0.043	yaw:	92.519	yaw rate:	1.465	Roll:	-26.842	Pitch:	-0.496	Yaw:	130.834	Thrust:	100.000
Time:	1.128	Roll Set Point:	0.852	Pitch Set Point:	0.907	Yaw Set Point:	-1.614	X_WP:	0.000	Y_WP:	0.000	Y_WP:	0.750	X:	0.048	Y:	-0.899	Z:	0.043	yaw:	92.485	yaw rate:	3.324	Roll:	-26.829	Pitch:	-0.683	Yaw:	130.753	Thrust:	100.000
Time:	1.147	Roll Set Point:	0.852	Pitch Set Point:	0.907	Yaw Set Point:	-1.615	X_WP:	0.000	Y_WP:	0.000	Y_WP:	0.750	X:	0.048	Y:	-0.898	Z:	0.043	yaw:	92.530	yaw rate:	-4.512	Roll:	-26.784	Pitch:	0.367	Yaw:	131.675	Thrust:	100.000
Time:	1.168	Roll Set Point:	0.852	Pitch Set Point:	0.907	Yaw Set Point:	-1.614	X_WP:	0.000	Y_WP:	0.000	Y_WP:	0.750	X:	0.048	Y:	-0.899	Z:	0.043	yaw:	92.498	yaw rate:	3.227	Roll:	-26.879	Pitch:	-0.692	Yaw:	130.737	Thrust:	100.000
Time:	1.191	Roll Set Point:	0.852	Pitch Set Point:	0.907	Yaw Set Point:	-1.614	X_WP:	0.000	Y_WP:	0.000	Y_WP:	0.750	X:	0.048	Y:	-0.899	Z:	0.043	yaw:	92.504	yaw rate:	-0.555	Roll:	-27.056	Pitch:	-0.206	Yaw:	131.686	Thrust:	100.000
Time:	1.207	Roll Set Point:	0.852	Pitch Set Point:	0.907	Yaw Set Point:	-1.615	X_WP:	0.000	Y_WP:	0.000	Y_WP:	0.750	X:	0.048	Y:	-0.899	Z:	0.043	yaw:	92.522	yaw rate:	-1.795	Roll:	-26.596	Pitch:	0.050	Yaw:	131.044	Thrust:	100.000
Time:	1.227	Roll Set Point:	0.852	Pitch Set Point:	0.907	Yaw Set Point:	-1.614	X_WP:	0.000	Y_WP:	0.000	Y_WP:	0.750	X:	0.048	Y:	-0.899	Z:	0.043	yaw:	92.490	yaw rate:	3.132	Roll:	-26.828	Pitch:	-0.696	Yaw:	130.773	Thrust:	100.000
Time:	1.247	Roll Set Point:	0.852	Pitch Set Point:	0.907	Yaw Set Point:	-1.614	X_WP:	0.000	Y_WP:	0.000	Y_WP:	0.750	X:	0.048	Y:	-0.899	Z:	0.043	yaw:	92.499	yaw rate:	-0.825	Roll:	-26.892	Pitch:	-0.145	Yaw:	131.234	Thrust:	100.000
Time:	1.267	Roll Set Point:	0.852	Pitch Set Point:	0.907	Yaw Set Point:	-1.615	X_WP:	0.000	Y_WP:	0.000	Y_WP:	0.750	X:	0.048	Y:	-0.899	Z:	0.043	yaw:	92.513	yaw rate:	-1.475	Roll:	-26.818	Pitch:	-0.074	Yaw:	131.389	Thrust:	100.000
Time:	1.288	Roll Set Point:	0.852	Pitch Set Point:	0.901	Yaw Set Point:	-1.620	X_WP:	0.000	Y_WP:	0.000	Y_WP:	0.750	X:	0.047	Y:	-0.898	Z:	0.043	yaw:	92.831	yaw rate:	-31.795	Roll:	-26.730	Pitch:	4.631	Yaw:	135.740	Thrust:	100.000
Time:	1.308	Roll Set Point:	0.852	Pitch Set Point:	0.906	Yaw Set Point:	-1.615	X_WP:	0.000	Y_WP:	0.000	Y_WP:	0.750	X:	0.048	Y:	-0.899	Z:	0.043	yaw:	92.541	yaw rate:	28.999	Roll:	-26.968	Pitch:	-4.256	Yaw:	127.579	Thrust:	100.000
Time:	1.327	Roll Set Point:	0.852	Pitch Set Point:	0.907	Yaw Set Point:	-1.614	X_WP:	0.000	Y_WP:	0.000	Y_WP:	0.750	X:	0.048	Y:	-0.899	Z:	0.043	yaw:	92.496	yaw rate:	4.580	Roll:	-26.843	Pitch:	-0.927	Yaw:	130.457	Thrust:	100.000
Time:	1.348	Roll Set Point:	0.852	Pitch Set Point:	0.907	Yaw Set Point:	-1.614	X_WP:	0.000	Y_WP:	0.000	Y_WP:	0.750	X:	0.048	Y:	-0.899	Z:	0.043	yaw:	92.502	yaw rate:	-0.684	Roll:	-26.897	Pitch:	-0.167	Yaw:	131.297	Thrust:	100.000
Time:	1.367	Roll Set Point:	0.852	Pitch Set Point:	0.907	Yaw Set Point:	-1.615	X_WP:	0.000	Y_WP:	0.000	Y_WP:	0.750	X:	0.048	Y:	-0.899	Z:	0.043	yaw:	92.521	yaw rate:	-1.816	Roll:	-26.781	Pitch:	-0.001	Yaw:	131.349	Thrust:	100.000
Time:	1.389	Roll Set Point:	0.852	Pitch Set Point:	0.907	Yaw Set Point:	-1.614	X_WP:	0.000	Y_WP:	0.000	Y_WP:	0.750	X:	0.048	Y:	-0.899	Z:	0.043	yaw:	92.478	yaw rate:	4.279	Roll:	-26.928	Pitch:	-0.848	Yaw:	130.840	Thrust:	100.000
Time:	1.408	Roll Set Point:	0.852	Pitch Set Point:	0.907	Yaw Set Point:	-1.615	X_WP:	0.000	Y_WP:	0.000	Y_WP:	0.750	X:	0.048	Y:	-0.899	Z:	0.043	yaw:	92.525	yaw rate:	-4.710	Roll:	-26.797	Pitch:	0.498	Yaw:	131.692	Thrust:	100.000
Time:	1.427	Roll Set Point:	0.852	Pitch Set Point:	0.908	Yaw Set Point:	-1.614	X_WP:	0.000	Y_WP:	0.000	Y_WP:	0.750	X:	0.048	Y:	-0.899	Z:	0.043	yaw:	92.464	yaw rate:	6.077	Roll:	-26.812	Pitch:	-1.123	Yaw:	130.289	Thrust:	100.000
Time:	1.448	Roll Set Point:	0.852	Pitch Set Point:	0.907	Yaw Set Point:	-1.615	X_WP:	0.000	Y_WP:	0.000	Y_WP:	0.750	X:	0.048	Y:	-0.899	Z:	0.043	yaw:	92.515	yaw rate:	-5.066	Roll:	-26.857	Pitch:	0.445	Yaw:	131.843	Thrust:	100.000
Time:	1.467	Roll Set Point:	0.852	Pitch Set Point:	0.907	Yaw Set Point:	-1.615	X_WP:	0.000	Y_WP:	0.000	Y_WP:	0.750	X:	0.048	Y:	-0.899	Z:	0.043	yaw:	92.513	yaw rate:	0.184	Roll:	-26.768	Pitch:	-0.302	Yaw:	131.061	Thrust:	100.000
Time:	1.489	Roll Set Point:	0.852	Pitch Set Point:	0.902	Yaw Set Point:	-1.620	X_WP:	0.000	Y_WP:	0.000	Y_WP:	0.750	X:	0.047	Y:	-0.898	Z:	0.043	yaw:	92.804	yaw rate:	-29.087	Roll:	-26.790	Pitch:	3.570	Yaw:	135.204	Thrust:	100.000
Time:	1.507	Roll Set Point:	0.852	Pitch Set Point:	0.907	Yaw Set Point:	-1.614	X_WP:	0.000	Y_WP:	0.000	Y_WP:	0.750	X:	0.048	Y:	-0.899	Z:	0.043	yaw:	92.502	yaw rate:	30.186	Roll:	-26.962	Pitch:	-4.855	Yaw:	126.604	Thrust:	100.000
Time:	1.528	Roll Set Point:	0.852	Pitch Set Point:	0.907	Yaw Set Point:	-1.615	X_WP:	0.000	Y_WP:	0.000	Y_WP:	0.750	X:	0.048	Y:	-0.899	Z:	0.043	yaw:	92.505	yaw rate:	-0.280	Roll:	-26.816	Pitch:	-0.240	Yaw:	131.155	Thrust:	100.000
Time:	1.547	Roll Set Point:	0.852	Pitch Set Point:	0.907	Yaw Set Point:	-1.615	X_WP:	0.000	Y_WP:	0.000	Y_WP:	0.750	X:	0.048	Y:	-0.899	Z:	0.043	yaw:	92.515	yaw rate:	-1.054	Roll:	-26.847	Pitch:	-0.117	Yaw:	131.287	Thrust:	100.000
Time:	1.569	Roll Set Point:	0.852	Pitch Set Point:	0.907	Yaw Set Point:	-1.615	X_WP:	0.000	Y_WP:	0.000	Y_WP:	0.750	X:	0.048	Y:	-0.899	Z:	0.043	yaw:	92.513	yaw rate:	0.201	Roll:	-26.887	Pitch:	-0.298	Yaw:	131.340	Thrust:	100.000
Time:	1.587	Roll Set Point:	0.852	Pitch Set Point:	0.907	Yaw Set Point:	-1.615	X_WP:	0.000	Y_WP:	0.000	Y_WP:	0.750	X:	0.048	Y:	-0.899	Z:	0.043	yaw:	92.519	yaw rate:	-0.554	Roll:	-26.819	Pitch:	-0.188	Yaw:	131.074	Thrust:	100.000
Time:	1.610	Roll Set Point:	0.852	Pitch Set Point:	0.901	Yaw Set Point:	-1.621	X_WP:	0.000	Y_WP:	0.000	Y_WP:	0.750	X:	0.047	Y:	-0.898	Z:	0.043	yaw:	92.852	yaw rate:	-33.339	Roll:	-26.751	Pitch:	4.226	Yaw:	135.799	Thrust:	100.000
Time:	1.627	Roll Set Point:	0.852	Pitch Set Point:	0.907	Yaw Set Point:	-1.615	X_WP:	0.000	Y_WP:	0.000	Y_WP:	0.750	X:	0.048	Y:	-0.899	Z:	0.043	yaw:	92.511	yaw rate:	34.086	Roll:	-26.941	Pitch:	-5.823	Yaw:	125.893	Thrust:	100.000
Time:	1.647	Roll Set Point:	0.852	Pitch Set Point:	0.907	Yaw Set Point:	-1.615	X_WP:	0.000	Y_WP:	0.000	Y_WP:	0.750	X:	0.048	Y:	-0.899	Z:	0.043	yaw:	92.514	yaw rate:	-0.300	Roll:	-26.834	Pitch:	-0.235	Yaw:	131.252	Thrust:	100.000
Time:	1.667	Roll Set Point:	0.852	Pitch Set Point:	0.907	Yaw Set Point:	-1.615	X_WP:	0.000	Y_WP:	0.000	Y_WP:	0.750	X:	0.048	Y:	-0.899	Z:	0.043	yaw:	92.505	yaw rate:	0.884	Roll:	-26.828	Pitch:	-0.377	Yaw:	131.055	Thrust:	100.000
Time:	1.687	Roll Set Point:	0.852	Pitch Set Point:	0.907	Yaw Set Point:	-1.614	X_WP:	0.000	Y_WP:	0.000	Y_WP:	0.750	X:	0.048	Y:	-0.899	Z:	0.043	yaw:	92.473	yaw rate:	3.252	Roll:	-26.866	Pitch:	-0.736	Yaw:	130.728	Thrust:	100.000
Time:	1.707	Roll Set Point:	0.852	Pitch Set Point:	0.906	Yaw Set Point:	-1.615	X_WP:	0.000	Y_WP:	0.000	Y_WP:	0.750	X:	0.048	Y:	-0.899	Z:	0.043	yaw:	92.537	yaw rate:	-6.410	Roll:	-26.852	Pitch:	0.630	Yaw:	132.036	Thrust:	100.000
Time:	1.729	Roll Set Point:	0.852	Pitch Set Point:	0.907	Yaw Set Point:	-1.614	X_WP:	0.000	Y_WP:	0.000	Y_WP:	0.750	X:	0.048	Y:	-0.899	Z:	0.043	yaw:	92.502	yaw rate:	3.496	Roll:	-26.892	Pitch:	-0.715	Yaw:	130.852	Thrust:	100.000
Time:	1.749	Roll Set Point:	0.852	Pitch Set Point:	0.907	Yaw Set Point:	-1.614	X_WP:	0.000	Y_WP:	0.000	Y_WP:	0.750	X:	0.048	Y:	-0.899	Z:	0.043	yaw:	92.503	yaw rate:	-0.058	Roll:	-26.838	Pitch:	-0.296	Yaw:	131.132	Thrust:	100.000
Time:	1.766	Roll Set Point:	0.852	Pitch Set Point:	0.906	Yaw Set Point:	-1.615	X_WP:	0.000	Y_WP:	0.000	Y_WP:	0.750	X:	0.048	Y:	-0.899	Z:	0.043	yaw:	92.541	yaw rate:	-3.865	Roll:	-26.786	Pitch:	0.313	Yaw:	131.584	Thrust:	100.000
Time:	1.793	Roll Set Point:	0.852	Pitch Set Point:	0.907	Yaw Set Point:	-1.614	X_WP:	0.000	Y_WP:	0.000	Y_WP:	0.750	X:	0.048	Y:	-0.899	Z:	0.043	yaw:	92.503	yaw rate:	3.856	Roll:	-27.047	Pitch:	-0.690	Yaw:	131.401	Thrust:	100.000
Time:	1.807	Roll Set Point:	0.852	Pitch Set Point:	0.907	Yaw Set Point:	-1.614	X_WP:	0.000	Y_WP:	0.000	Y_WP:	0.750	X:	0.048	Y:	-0.899	Z:	0.043	yaw:	92.500	yaw rate:	0.264	Roll:	-26.660	Pitch:	-0.308	Yaw:	130.584	Thrust:	100.000
Time:	1.828	Roll Set Point:	0.852	Pitch Set Point:	0.906	Yaw Set Point:	-1.615	X_WP:	0.000	Y_WP:	0.000	Y_WP:	0.750	X:	0.048	Y:	-0.899	Z:	0.043	yaw:	92.550	yaw rate:	-4.961	Roll:	-26.835	Pitch:	0.401	Yaw:	131.911	Thrust:	100.000
Time:	1.848	Roll Set Point:	0.852	Pitch Set Point:	0.907	Yaw Set Point:	-1.615	X_WP:	0.000	Y_WP:	0.000	Y_WP:	0.750	X:	0.048	Y:	-0.899	Z:	0.043	yaw:	92.529	yaw rate:	2.027	Roll:	-26.838	Pitch:	-0.562	Yaw:	130.890	Thrust:	100.000
Time:	1.866	Roll Set Point:	0.852	Pitch Set Point:	0.906	Yaw Set Point:	-1.615	X_WP:	0.000	Y_WP:	0.000	Y_WP:	0.750	X:	0.048	Y:	-0.899	Z:	0.043	yaw:	92.539	yaw rate:	-0.957	Roll:	-26.835	Pitch:	-0.091	Yaw:	131.216	Thrust:	100.000
Time:	1.888	Roll Set Point:	0.852	Pitch Set Point:	0.906	Yaw Set Point:	-1.615	X_WP:	0.000	Y_WP:	0.000	Y_WP:	0.750	X:	0.048	Y:	-0.899	Z:	0.043	yaw:	92.544	yaw rate:	-0.534	Roll:	-26.886	Pitch:	-0.192	Yaw:	131.431	Thrust:	100.000
Time:	1.908	Roll Set Point:	0.852	Pitch Set Point:	0.906	Yaw Set Point:	-1.615	X_WP:	0.000	Y_WP:	0.000	Y_WP:	0.750	X:	0.048	Y:	-0.898	Z:	0.043	yaw:	92.533	yaw rate:	1.136	Roll:	-26.792	Pitch:	-0.467	Yaw:	130.994	Thrust:	100.000
Time:	1.928	Roll Set Point:	0.852	Pitch Set Point:	0.906	Yaw Set Point:	-1.615	X_WP:	0.000	Y_WP:	0.000	Y_WP:	0.750	X:	0.048	Y:	-0.898	Z:	0.043	yaw:	92.539	yaw rate:	-0.630	Roll:	-26.846	Pitch:	-0.169	Yaw:	131.344	Thrust:	100.000
Time:	1.947	Roll Set Point:	0.852	Pitch Set Point:	0.907	Yaw Set Point:	-1.614	X_WP:	0.000	Y_WP:	0.000	Y_WP:	0.750	X:	0.048	Y:	-0.899	Z:	0.043	yaw:	92.490	yaw rate:	4.910	Roll:	-26.898	Pitch:	-0.989	Yaw:	130.351	Thrust:	100.000
Time:	1.967	Roll Set Point:	0.852	Pitch Set Point:	0.907	Yaw Set Point:	-1.615	X_WP:	0.000	Y_WP:	0.000	Y_WP:	0.750	X:	0.048	Y:	-0.899	Z:	0.043	yaw:	92.523	yaw rate:	-3.265	Roll:	-26.847	Pitch:	0.162	Yaw:	131.615	Thrust:	100.000
Time:	1.989	Roll Set Point:	0.852	Pitch Set Point:	0.907	Yaw Set Point:	-1.615	X_WP:	0.000	Y_WP:	0.000	Y_WP:	0.750	X:	0.048	Y:	-0.899	Z:	0.043	yaw:	92.532	yaw rate:	-0.884	Roll:	-26.830	Pitch:	-0.160	Yaw:	131.479	Thrust:	100.000
Time:	2.007	Roll Set Point:	0.852	Pitch Set Point:	0.907	Yaw Set Point:	-1.615	X_WP:	0.000	Y_WP:	0.000	Y_WP:	0.750	X:	0.048	Y:	-0.899	Z:	0.043	yaw:	92.517	yaw rate:	1.442	Roll:	-26.855	Pitch:	-0.494	Yaw:	130.826	Thrust:	100.000
Time:	2.027	Roll Set Point:	0.852	Pitch Set Point:	0.906	Yaw Set Point:	-1.615	X_WP:	0.000	Y_WP:	0.000	Y_WP:	0.750	X:	0.048	Y:	-0.899	Z:	0.043	yaw:	92.551	yaw rate:	-3.356	Roll:	-26.805	Pitch:	0.170	Yaw:	131.666	Thrust:	100.000
Time:	2.046	Roll Set Point:	0.852	Pitch Set Point:	0.907	Yaw Set Point:	-1.615	X_WP:	0.000	Y_WP:	0.000	Y_WP:	0.750	X:	0.048	Y:	-0.899	Z:	0.043	yaw:	92.513	yaw rate:	3.761	Roll:	-26.848	Pitch:	-0.813	Yaw:	130.566	Thrust:	100.000
Time:	2.067	Roll Set Point:	0.852	Pitch Set Point:	0.907	Yaw Set Point:	-1.615	X_WP:	0.000	Y_WP:	0.000	Y_WP:	0.750	X:	0.048	Y:	-0.898	Z:	0.043	yaw:	92.516	yaw rate:	-0.269	Roll:	-26.771	Pitch:	-0.208	Yaw:	131.177	Thrust:	100.000
Time:	2.086	Roll Set Point:	0.852	Pitch Set Point:	0.906	Yaw Set Point:	-1.615	X_WP:	0.000	Y_WP:	0.000	Y_WP:	0.750	X:	0.048	Y:	-0.899	Z:	0.043	yaw:	92.549	yaw rate:	-3.339	Roll:	-26.908	Pitch:	0.157	Yaw:	131.714	Thrust:	100.000
Time:	2.107	Roll Set Point:	0.852	Pitch Set Point:	0.907	Yaw Set Point:	-1.615	X_WP:	0.000	Y_WP:	0.000	Y_WP:	0.750	X:	0.048	Y:	-0.898	Z:	0.043	yaw:	92.518	yaw rate:	3.107	Roll:	-26.807	Pitch:	-0.683	Yaw:	130.843	Thrust:	100.000
Time:	2.128	Roll Set Point:	0.852	Pitch Set Point:	0.906	Yaw Set Point:	-1.615	X_WP:	0.000	Y_WP:	0.000	Y_WP:	0.750	X:	0.048	Y:	-0.898	Z:	0.043	yaw:	92.528	yaw rate:	-0.971	Roll:	-26.852	Pitch:	-0.121	Yaw:	131.366	Thrust:	100.000
Time:	2.147	Roll Set Point:	0.852	Pitch Set Point:	0.907	Yaw Set Point:	-1.615	X_WP:	0.000	Y_WP:	0.000	Y_WP:	0.750	X:	0.048	Y:	-0.898	Z:	0.043	yaw:	92.517	yaw rate:	1.097	Roll:	-26.819	Pitch:	-0.454	Yaw:	130.960	Thrust:	100.000
Time:	2.166	Roll Set Point:	0.852	Pitch Set Point:	0.907	Yaw Set Point:	-1.614	X_WP:	0.000	Y_WP:	0.000	Y_WP:	0.750	X:	0.048	Y:	-0.899	Z:	0.043	yaw:	92.500	yaw rate:	1.653	Roll:	-26.872	Pitch:	-0.507	Yaw:	130.886	Thrust:	100.000
Time:	2.188	Roll Set Point:	0.852	Pitch Set Point:	0.905	Yaw Set Point:	-1.616	X_WP:	0.000	Y_WP:	0.000	Y_WP:	0.750	X:	0.048	Y:	-0.898	Z:	0.043	yaw:	92.587	yaw rate:	-8.632	Roll:	-26.794	Pitch:	0.831	Yaw:	132.509	Thrust:	100.000
Time:	2.207	Roll Set Point:	0.852	Pitch Set Point:	0.908	Yaw Set Point:	-1.614	X_WP:	0.000	Y_WP:	0.000	Y_WP:	0.750	X:	0.048	Y:	-0.899	Z:	0.043	yaw:	92.468	yaw rate:	11.890	Roll:	-26.907	Pitch:	-2.114	Yaw:	129.210	Thrust:	100.000
Time:	2.227	Roll Set Point:	0.852	Pitch Set Point:	0.907	Yaw Set Point:	-1.614	X_WP:	0.000	Y_WP:	0.000	Y_WP:	0.750	X:	0.048	Y:	-0.899	Z:	0.043	yaw:	92.499	yaw rate:	-3.147	Roll:	-26.857	Pitch:	0.136	Yaw:	131.599	Thrust:	100.000
Time:	2.247	Roll Set Point:	0.852	Pitch Set Point:	0.906	Yaw Set Point:	-1.615	X_WP:	0.000	Y_WP:	0.000	Y_WP:	0.750	X:	0.048	Y:	-0.899	Z:	0.043	yaw:	92.554	yaw rate:	-5.487	Roll:	-26.834	Pitch:	0.485	Yaw:	131.964	Thrust:	100.000
Time:	2.267	Roll Set Point:	0.852	Pitch Set Point:	0.907	Yaw Set Point:	-1.615	X_WP:	0.000	Y_WP:	0.000	Y_WP:	0.750	X:	0.048	Y:	-0.898	Z:	0.043	yaw:	92.508	yaw rate:	4.590	Roll:	-26.771	Pitch:	-0.926	Yaw:	130.383	Thrust:	100.000
Time:	2.288	Roll Set Point:	0.852	Pitch Set Point:	0.907	Yaw Set Point:	-1.614	X_WP:	0.000	Y_WP:	0.000	Y_WP:	0.750	X:	0.048	Y:	-0.899	Z:	0.043	yaw:	92.488	yaw rate:	2.068	Roll:	-26.956	Pitch:	-0.591	Yaw:	131.150	Thrust:	100.000
Time:	2.308	Roll Set Point:	0.852	Pitch Set Point:	0.907	Yaw Set Point:	-1.615	X_WP:	0.000	Y_WP:	0.000	Y_WP:	0.750	X:	0.048	Y:	-0.899	Z:	0.043	yaw:	92.525	yaw rate:	-3.764	Roll:	-26.834	Pitch:	0.252	Yaw:	131.596	Thrust:	100.000
Time:	2.328	Roll Set Point:	0.852	Pitch Set Point:	0.906	Yaw Set Point:	-1.615	X_WP:	0.000	Y_WP:	0.000	Y_WP:	0.750	X:	0.048	Y:	-0.899	Z:	0.043	yaw:	92.531	yaw rate:	-0.577	Roll:	-26.805	Pitch:	-0.190	Yaw:	131.328	Thrust:	100.000
Time:	2.347	Roll Set Point:	0.852	Pitch Set Point:	0.906	Yaw Set Point:	-1.615	X_WP:	0.000	Y_WP:	0.000	Y_WP:	0.750	X:	0.048	Y:	-0.899	Z:	0.043	yaw:	92.540	yaw rate:	-0.897	Roll:	-26.829	Pitch:	-0.143	Yaw:	131.205	Thrust:	100.000
Time:	2.367	Roll Set Point:	0.852	Pitch Set Point:	0.907	Yaw Set Point:	-1.615	X_WP:	0.000	Y_WP:	0.000	Y_WP:	0.750	X:	0.048	Y:	-0.898	Z:	0.043	yaw:	92.528	yaw rate:	1.245	Roll:	-26.808	Pitch:	-0.461	Yaw:	131.109	Thrust:	100.000
Time:	2.387	Roll Set Point:	0.852	Pitch Set Point:	0.906	Yaw Set Point:	-1.616	X_WP:	0.000	Y_WP:	0.000	Y_WP:	0.750	X:	0.048	Y:	-0.899	Z:	0.043	yaw:	92.562	yaw rate:	-3.483	Roll:	-26.930	Pitch:	0.191	Yaw:	131.691	Thrust:	100.000
Time:	2.408	Roll Set Point:	0.852	Pitch Set Point:	0.907	Yaw Set Point:	-1.614	X_WP:	0.000	Y_WP:	0.000	Y_WP:	0.750	X:	0.048	Y:	-0.899	Z:	0.043	yaw:	92.487	yaw rate:	7.550	Roll:	-26.862	Pitch:	-1.294	Yaw:	130.238	Thrust:	100.000
Time:	2.428	Roll Set Point:	0.852	Pitch Set Point:	0.908	Yaw Set Point:	-1.614	X_WP:	0.000	Y_WP:	0.000	Y_WP:	0.750	X:	0.048	Y:	-0.899	Z:	0.043	yaw:	92.452	yaw rate:	3.515	Roll:	-26.793	Pitch:	-0.807	Yaw:	130.599	Thrust:	100.000
Time:	2.447	Roll Set Point:	0.852	Pitch Set Point:	0.907	Yaw Set Point:	-1.615	X_WP:	0.000	Y_WP:	0.000	Y_WP:	0.750	X:	0.048	Y:	-0.899	Z:	0.043	yaw:	92.504	yaw rate:	-5.252	Roll:	-26.823	Pitch:	0.395	Yaw:	131.821	Thrust:	100.000
Time:	2.467	Roll Set Point:	0.852	Pitch Set Point:	0.907	Yaw Set Point:	-1.614	X_WP:	0.000	Y_WP:	0.000	Y_WP:	0.750	X:	0.048	Y:	-0.899	Z:	0.043	yaw:	92.493	yaw rate:	1.112	Roll:	-26.849	Pitch:	-0.432	Yaw:	130.885	Thrust:	100.000
Time:	2.488	Roll Set Point:	0.852	Pitch Set Point:	0.906	Yaw Set Point:	-1.615	X_WP:	0.000	Y_WP:	0.000	Y_WP:	0.750	X:	0.048	Y:	-0.899	Z:	0.043	yaw:	92.534	yaw rate:	-4.121	Roll:	-26.850	Pitch:	0.255	Yaw:	131.865	Thrust:	100.000
Time:	2.507	Roll Set Point:	0.852	Pitch Set Point:	0.907	Yaw Set Point:	-1.615	X_WP:	0.000	Y_WP:	0.000	Y_WP:	0.750	X:	0.048	Y:	-0.899	Z:	0.043	yaw:	92.505	yaw rate:	2.957	Roll:	-26.840	Pitch:	-0.690	Yaw:	130.682	Thrust:	100.000
Time:	2.528	Roll Set Point:	0.852	Pitch Set Point:	0.907	Yaw Set Point:	-1.615	X_WP:	0.000	Y_WP:	0.000	Y_WP:	0.750	X:	0.048	Y:	-0.899	Z:	0.043	yaw:	92.518	yaw rate:	-1.307	Roll:	-26.891	Pitch:	-0.120	Yaw:	131.409	Thrust:	100.000
Time:	2.548	Roll Set Point:	0.852	Pitch Set Point:	0.907	Yaw Set Point:	-1.614	X_WP:	0.000	Y_WP:	0.000	Y_WP:	0.750	X:	0.048	Y:	-0.899	Z:	0.043	yaw:	92.483	yaw rate:	3.526	Roll:	-26.839	Pitch:	-0.833	Yaw:	130.610	Thrust:	100.000
Time:	2.567	Roll Set Point:	0.852	Pitch Set Point:	0.907	Yaw Set Point:	-1.615	X_WP:	0.000	Y_WP:	0.000	Y_WP:	0.750	X:	0.048	Y:	-0.898	Z:	0.043	yaw:	92.514	yaw rate:	-3.100	Roll:	-26.763	Pitch:	0.187	Yaw:	131.544	Thrust:	100.000
Time:	2.588	Roll Set Point:	0.852	Pitch Set Point:	0.907	Yaw Set Point:	-1.614	X_WP:	0.000	Y_WP:	0.000	Y_WP:	0.750	X:	0.048	Y:	-0.899	Z:	0.043	yaw:	92.496	yaw rate:	1.715	Roll:	-26.884	Pitch:	-0.528	Yaw:	131.015	Thrust:	100.000
Time:	2.607	Roll Set Point:	0.852	Pitch Set Point:	0.907	Yaw Set Point:	-1.615	X_WP:	0.000	Y_WP:	0.000	Y_WP:	0.750	X:	0.048	Y:	-0.899	Z:	0.043	yaw:	92.525	yaw rate:	-2.837	Roll:	-26.853	Pitch:	0.062	Yaw:	131.547	Thrust:	100.000
Time:	2.627	Roll Set Point:	0.852	Pitch Set Point:	0.908	Yaw Set Point:	-1.614	X_WP:	0.000	Y_WP:	0.000	Y_WP:	0.750	X:	0.048	Y:	-0.899	Z:	0.043	yaw:	92.461	yaw rate:	6.415	Roll:	-26.852	Pitch:	-1.215	Yaw:	130.223	Thrust:	100.000
Time:	2.647	Roll Set Point:	0.852	Pitch Set Point:	0.907	Yaw Set Point:	-1.615	X_WP:	0.000	Y_WP:	0.000	Y_WP:	0.750	X:	0.048	Y:	-0.899	Z:	0.043	yaw:	92.507	yaw rate:	-4.607	Roll:	-26.836	Pitch:	0.370	Yaw:	131.751	Thrust:	100.000
Time:	2.666	Roll Set Point:	0.852	Pitch Set Point:	0.907	Yaw Set Point:	-1.615	X_WP:	0.000	Y_WP:	0.000	Y_WP:	0.750	X:	0.048	Y:	-0.899	Z:	0.043	yaw:	92.509	yaw rate:	-0.192	Roll:	-26.795	Pitch:	-0.276	Yaw:	131.117	Thrust:	100.000
Time:	2.687	Roll Set Point:	0.852	Pitch Set Point:	0.906	Yaw Set Point:	-1.615	X_WP:	0.000	Y_WP:	0.000	Y_WP:	0.750	X:	0.048	Y:	-0.899	Z:	0.043	yaw:	92.531	yaw rate:	-2.192	Roll:	-26.842	Pitch:	0.013	Yaw:	131.601	Thrust:	100.000
Time:	2.708	Roll Set Point:	0.852	Pitch Set Point:	0.908	Yaw Set Point:	-1.614	X_WP:	0.000	Y_WP:	0.000	Y_WP:	0.750	X:	0.048	Y:	-0.899	Z:	0.043	yaw:	92.456	yaw rate:	7.480	Roll:	-26.901	Pitch:	-1.356	Yaw:	130.120	Thrust:	100.000
Time:	2.728	Roll Set Point:	0.852	Pitch Set Point:	0.907	Yaw Set Point:	-1.615	X_WP:	0.000	Y_WP:	0.000	Y_WP:	0.750	X:	0.048	Y:	-0.899	Z:	0.043	yaw:	92.516	yaw rate:	-6.012	Roll:	-26.872	Pitch:	0.497	Yaw:	131.967	Thrust:	100.000
Time:	2.747	Roll Set Point:	0.852	Pitch Set Point:	0.906	Yaw Set Point:	-1.615	X_WP:	0.000	Y_WP:	0.000	Y_WP:	0.750	X:	0.048	Y:	-0.899	Z:	0.043	yaw:	92.537	yaw rate:	-2.157	Roll:	-26.756	Pitch:	0.039	Yaw:	131.403	Thrust:	100.000
Time:	2.767	Roll Set Point:	0.852	Pitch Set Point:	0.907	Yaw Set Point:	-1.615	X_WP:	0.000	Y_WP:	0.000	Y_WP:	0.750	X:	0.048	Y:	-0.899	Z:	0.043	yaw:	92.510	yaw rate:	2.704	Roll:	-26.874	Pitch:	-0.631	Yaw:	130.855	Thrust:	100.000
Time:	2.788	Roll Set Point:	0.852	Pitch Set Point:	0.906	Yaw Set Point:	-1.615	X_WP:	0.000	Y_WP:	0.000	Y_WP:	0.750	X:	0.048	Y:	-0.899	Z:	0.043	yaw:	92.557	yaw rate:	-4.637	Roll:	-26.843	Pitch:	0.312	Yaw:	131.889	Thrust:	100.000
Time:	2.809	Roll Set Point:	0.852	Pitch Set Point:	0.907	Yaw Set Point:	-1.615	X_WP:	0.000	Y_WP:	0.000	Y_WP:	0.750	X:	0.048	Y:	-0.899	Z:	0.043	yaw:	92.522	yaw rate:	3.467	Roll:	-26.887	Pitch:	-0.737	Yaw:	130.866	Thrust:	100.000
Time:	2.827	Roll Set Point:	0.852	Pitch Set Point:	0.906	Yaw Set Point:	-1.615	X_WP:	0.000	Y_WP:	0.000	Y_WP:	0.750	X:	0.048	Y:	-0.899	Z:	0.043	yaw:	92.543	yaw rate:	-2.067	Roll:	-26.817	Pitch:	0.024	Yaw:	131.378	Thrust:	100.000
Time:	2.847	Roll Set Point:	0.852	Pitch Set Point:	0.906	Yaw Set Point:	-1.615	X_WP:	0.000	Y_WP:	0.000	Y_WP:	0.750	X:	0.048	Y:	-0.899	Z:	0.043	yaw:	92.545	yaw rate:	-0.193	Roll:	-26.853	Pitch:	-0.272	Yaw:	131.226	Thrust:	100.000
Time:	2.866	Roll Set Point:	0.852	Pitch Set Point:	0.906	Yaw Set Point:	-1.615	X_WP:	0.000	Y_WP:	0.000	Y_WP:	0.750	X:	0.048	Y:	-0.899	Z:	0.043	yaw:	92.553	yaw rate:	-0.876	Roll:	-26.798	Pitch:	-0.122	Yaw:	131.260	Thrust:	100.000
Time:	2.887	Roll Set Point:	0.852	Pitch Set Point:	0.906	Yaw Set Point:	-1.615	X_WP:	0.000	Y_WP:	0.000	Y_WP:	0.750	X:	0.048	Y:	-0.898	Z:	0.043	yaw:	92.540	yaw rate:	1.320	Roll:	-26.846	Pitch:	-0.463	Yaw:	131.108	Thrust:	100.000
Time:	2.907	Roll Set Point:	0.852	Pitch Set Point:	0.907	Yaw Set Point:	-1.615	X_WP:	0.000	Y_WP:	0.000	Y_WP:	0.750	X:	0.048	Y:	-0.899	Z:	0.043	yaw:	92.515	yaw rate:	2.484	Roll:	-26.829	Pitch:	-0.627	Yaw:	130.837	Thrust:	100.000
Time:	2.928	Roll Set Point:	0.852	Pitch Set Point:	0.907	Yaw Set Point:	-1.615	X_WP:	0.000	Y_WP:	0.000	Y_WP:	0.750	X:	0.048	Y:	-0.899	Z:	0.043	yaw:	92.520	yaw rate:	-0.487	Roll:	-26.899	Pitch:	-0.274	Yaw:	131.308	Thrust:	100.000
Time:	2.947	Roll Set Point:	0.852	Pitch Set Point:	0.907	Yaw Set Point:	-1.615	X_WP:	0.000	Y_WP:	0.000	Y_WP:	0.750	X:	0.048	Y:	-0.899	Z:	0.043	yaw:	92.523	yaw rate:	-0.279	Roll:	-26.786	Pitch:	-0.225	Yaw:	131.132	Thrust:	100.000
Time:	2.967	Roll Set Point:	0.852	Pitch Set Point:	0.907	Yaw Set Point:	-1.615	X_WP:	0.000	Y_WP:	0.000	Y_WP:	0.750	X:	0.048	Y:	-0.899	Z:	0.043	yaw:	92.504	yaw rate:	1.900	Roll:	-26.856	Pitch:	-0.586	Yaw:	130.950	Thrust:	100.000
Time:	2.988	Roll Set Point:	0.852	Pitch Set Point:	0.907	Yaw Set Point:	-1.615	X_WP:	0.000	Y_WP:	0.000	Y_WP:	0.750	X:	0.048	Y:	-0.899	Z:	0.043	yaw:	92.520	yaw rate:	-1.583	Roll:	-26.878	Pitch:	-0.084	Yaw:	131.403	Thrust:	100.000
Time:	3.008	Roll Set Point:	0.852	Pitch Set Point:	0.906	Yaw Set Point:	-1.615	X_WP:	0.000	Y_WP:	0.000	Y_WP:	0.750	X:	0.048	Y:	-0.899	Z:	0.043	yaw:	92.543	yaw rate:	-2.325	Roll:	-26.864	Pitch:	0.019	Yaw:	131.557	Thrust:	100.000
Time:	3.027	Roll Set Point:	0.852	Pitch Set Point:	0.906	Yaw Set Point:	-1.615	X_WP:	0.000	Y_WP:	0.000	Y_WP:	0.750	X:	0.048	Y:	-0.898	Z:	0.043	yaw:	92.546	yaw rate:	-0.252	Roll:	-26.758	Pitch:	-0.235	Yaw:	131.208	Thrust:	100.000
Time:	3.047	Roll Set Point:	0.852	Pitch Set Point:	0.907	Yaw Set Point:	-1.614	X_WP:	0.000	Y_WP:	0.000	Y_WP:	0.750	X:	0.048	Y:	-0.899	Z:	0.043	yaw:	92.493	yaw rate:	5.256	Roll:	-26.946	Pitch:	-1.038	Yaw:	130.444	Thrust:	100.000
Time:	3.067	Roll Set Point:	0.852	Pitch Set Point:	0.907	Yaw Set Point:	-1.615	X_WP:	0.000	Y_WP:	0.000	Y_WP:	0.750	X:	0.048	Y:	-0.899	Z:	0.043	yaw:	92.509	yaw rate:	-1.554	Roll:	-26.726	Pitch:	-0.090	Yaw:	131.330	Thrust:	100.000
Time:	3.088	Roll Set Point:	0.852	Pitch Set Point:	0.907	Yaw Set Point:	-1.615	X_WP:	0.000	Y_WP:	0.000	Y_WP:	0.750	X:	0.048	Y:	-0.899	Z:	0.043	yaw:	92.524	yaw rate:	-1.494	Roll:	-26.914	Pitch:	-0.115	Yaw:	131.534	Thrust:	100.000
Time:	3.108	Roll Set Point:	0.852	Pitch Set Point:	0.907	Yaw Set Point:	-1.615	X_WP:	0.000	Y_WP:	0.000	Y_WP:	0.750	X:	0.048	Y:	-0.899	Z:	0.043	yaw:	92.515	yaw rate:	0.873	Roll:	-26.848	Pitch:	-0.401	Yaw:	131.014	Thrust:	100.000
Time:	3.127	Roll Set Point:	0.852	Pitch Set Point:	0.906	Yaw Set Point:	-1.615	X_WP:	0.000	Y_WP:	0.000	Y_WP:	0.750	X:	0.048	Y:	-0.899	Z:	0.043	yaw:	92.534	yaw rate:	-1.940	Roll:	-26.802	Pitch:	-0.023	Yaw:	131.423	Thrust:	100.000
Time:	3.147	Roll Set Point:	0.852	Pitch Set Point:	0.907	Yaw Set Point:	-1.615	X_WP:	0.000	Y_WP:	0.000	Y_WP:	0.750	X:	0.048	Y:	-0.899	Z:	0.043	yaw:	92.511	yaw rate:	2.365	Roll:	-26.836	Pitch:	-0.637	Yaw:	130.771	Thrust:	100.000
Time:	3.166	Roll Set Point:	0.852	Pitch Set Point:	0.907	Yaw Set Point:	-1.614	X_WP:	0.000	Y_WP:	0.000	Y_WP:	0.750	X:	0.048	Y:	-0.899	Z:	0.043	yaw:	92.504	yaw rate:	0.689	Roll:	-26.861	Pitch:	-0.409	Yaw:	131.046	Thrust:	100.000
Time:	3.189	Roll Set Point:	0.852	Pitch Set Point:	0.907	Yaw Set Point:	-1.615	X_WP:	0.000	Y_WP:	0.000	Y_WP:	0.750	X:	0.048	Y:	-0.899	Z:	0.043	yaw:	92.509	yaw rate:	-0.519	Roll:	-26.944	Pitch:	-0.284	Yaw:	131.514	Thrust:	100.000
Time:	3.208	Roll Set Point:	0.852	Pitch Set Point:	0.907	Yaw Set Point:	-1.614	X_WP:	0.000	Y_WP:	0.000	Y_WP:	0.750	X:	0.048	Y:	-0.899	Z:	0.043	yaw:	92.479	yaw rate:	3.010	Roll:	-26.819	Pitch:	-0.717	Yaw:	130.554	Thrust:	100.000
Time:	3.227	Roll Set Point:	0.852	Pitch Set Point:	0.907	Yaw Set Point:	-1.615	X_WP:	0.000	Y_WP:	0.000	Y_WP:	0.750	X:	0.048	Y:	-0.899	Z:	0.043	yaw:	92.508	yaw rate:	-2.949	Roll:	-26.758	Pitch:	0.146	Yaw:	131.468	Thrust:	100.000
Time:	3.247	Roll Set Point:	0.852	Pitch Set Point:	0.907	Yaw Set Point:	-1.615	X_WP:	0.000	Y_WP:	0.000	Y_WP:	0.750	X:	0.048	Y:	-0.899	Z:	0.043	yaw:	92.513	yaw rate:	-0.504	Roll:	-26.867	Pitch:	-0.253	Yaw:	131.260	Thrust:	100.000
Time:	3.267	Roll Set Point:	0.852	Pitch Set Point:	0.906	Yaw Set Point:	-1.615	X_WP:	0.000	Y_WP:	0.000	Y_WP:	0.750	X:	0.048	Y:	-0.899	Z:	0.043	yaw:	92.558	yaw rate:	-4.429	Roll:	-26.830	Pitch:	0.320	Yaw:	131.784	Thrust:	100.000
Time:	3.288	Roll Set Point:	0.852	Pitch Set Point:	0.907	Yaw Set Point:	-1.614	X_WP:	0.000	Y_WP:	0.000	Y_WP:	0.750	X:	0.048	Y:	-0.899	Z:	0.043	yaw:	92.503	yaw rate:	5.450	Roll:	-26.881	Pitch:	-1.072	Yaw:	130.574	Thrust:	100.000
Time:	3.307	Roll Set Point:	0.852	Pitch Set Point:	0.907	Yaw Set Point:	-1.614	X_WP:	0.000	Y_WP:	0.000	Y_WP:	0.750	X:	0.048	Y:	-0.899	Z:	0.043	yaw:	92.498	yaw rate:	0.483	Roll:	-26.841	Pitch:	-0.364	Yaw:	131.018	Thrust:	100.000
Time:	3.327	Roll Set Point:	0.852	Pitch Set Point:	0.907	Yaw Set Point:	-1.614	X_WP:	0.000	Y_WP:	0.000	Y_WP:	0.750	X:	0.048	Y:	-0.899	Z:	0.043	yaw:	92.486	yaw rate:	1.269	Roll:	-26.833	Pitch:	-0.492	Yaw:	130.977	Thrust:	100.000
Time:	3.348	Roll Set Point:	0.852	Pitch Set Point:	0.906	Yaw Set Point:	-1.615	X_WP:	0.000	Y_WP:	0.000	Y_WP:	0.750	X:	0.048	Y:	-0.899	Z:	0.043	yaw:	92.537	yaw rate:	-5.180	Roll:	-26.816	Pitch:	0.408	Yaw:	131.893	Thrust:	100.000
Time:	3.367	Roll Set Point:	0.852	Pitch Set Point:	0.907	Yaw Set Point:	-1.615	X_WP:	0.000	Y_WP:	0.000	Y_WP:	0.750	X:	0.048	Y:	-0.899	Z:	0.043	yaw:	92.508	yaw rate:	2.923	Roll:	-26.844	Pitch:	-0.722	Yaw:	130.791	Thrust:	100.000
Time:	3.388	Roll Set Point:	0.852	Pitch Set Point:	0.906	Yaw Set Point:	-1.615	X_WP:	0.000	Y_WP:	0.000	Y_WP:	0.750	X:	0.048	Y:	-0.899	Z:	0.043	yaw:	92.540	yaw rate:	-3.149	Roll:	-26.834	Pitch:	0.131	Yaw:	131.650	Thrust:	100.000
Time:	3.407	Roll Set Point:	0.852	Pitch Set Point:	0.907	Yaw Set Point:	-1.615	X_WP:	0.000	Y_WP:	0.000	Y_WP:	0.750	X:	0.048	Y:	-0.899	Z:	0.043	yaw:	92.521	yaw rate:	1.823	Roll:	-26.862	Pitch:	-0.545	Yaw:	130.916	Thrust:	100.000
Time:	3.427	Roll Set Point:	0.852	Pitch Set Point:	0.907	Yaw Set Point:	-1.615	X_WP:	0.000	Y_WP:	0.000	Y_WP:	0.750	X:	0.048	Y:	-0.899	Z:	0.043	yaw:	92.510	yaw rate:	1.099	Roll:	-26.853	Pitch:	-0.465	Yaw:	130.994	Thrust:	100.000
Time:	3.447	Roll Set Point:	0.852	Pitch Set Point:	0.907	Yaw Set Point:	-1.614	X_WP:	0.000	Y_WP:	0.000	Y_WP:	0.750	X:	0.048	Y:	-0.899	Z:	0.043	yaw:	92.490	yaw rate:	2.038	Roll:	-26.838	Pitch:	-0.574	Yaw:	130.873	Thrust:	100.000
Time:	3.467	Roll Set Point:	0.852	Pitch Set Point:	0.907	Yaw Set Point:	-1.615	X_WP:	0.000	Y_WP:	0.000	Y_WP:	0.750	X:	0.048	Y:	-0.899	Z:	0.043	yaw:	92.527	yaw rate:	-3.712	Roll:	-26.775	Pitch:	0.208	Yaw:	131.647	Thrust:	100.000
Time:	3.488	Roll Set Point:	0.852	Pitch Set Point:	0.907	Yaw Set Point:	-1.614	X_WP:	0.000	Y_WP:	0.000	Y_WP:	0.750	X:	0.048	Y:	-0.899	Z:	0.043	yaw:	92.499	yaw rate:	2.776	Roll:	-26.957	Pitch:	-0.698	Yaw:	130.995	Thrust:	100.000
Time:	3.508	Roll Set Point:	0.852	Pitch Set Point:	0.907	Yaw Set Point:	-1.615	X_WP:	0.000	Y_WP:	0.000	Y_WP:	0.750	X:	0.048	Y:	-0.899	Z:	0.043	yaw:	92.524	yaw rate:	-2.507	Roll:	-26.803	Pitch:	0.075	Yaw:	131.452	Thrust:	100.000
Time:	3.527	Roll Set Point:	0.852	Pitch Set Point:	0.906	Yaw Set Point:	-1.615	X_WP:	0.000	Y_WP:	0.000	Y_WP:	0.750	X:	0.048	Y:	-0.899	Z:	0.043	yaw:	92.540	yaw rate:	-1.508	Roll:	-26.828	Pitch:	-0.080	Yaw:	131.376	Thrust:	100.000
Time:	3.546	Roll Set Point:	0.852	Pitch Set Point:	0.906	Yaw Set Point:	-1.615	X_WP:	0.000	Y_WP:	0.000	Y_WP:	0.750	X:	0.048	Y:	-0.899	Z:	0.043	yaw:	92.552	yaw rate:	-1.206	Roll:	-26.820	Pitch:	-0.123	Yaw:	131.292	Thrust:	100.000
Time:	3.567	Roll Set Point:	0.852	Pitch Set Point:	0.907	Yaw Set Point:	-1.615	X_WP:	0.000	Y_WP:	0.000	Y_WP:	0.750	X:	0.048	Y:	-0.899	Z:	0.043	yaw:	92.510	yaw rate:	4.135	Roll:	-26.883	Pitch:	-0.867	Yaw:	130.780	Thrust:	100.000
Time:	3.587	Roll Set Point:	0.852	Pitch Set Point:	0.907	Yaw Set Point:	-1.615	X_WP:	0.000	Y_WP:	0.000	Y_WP:	0.750	X:	0.048	Y:	-0.899	Z:	0.043	yaw:	92.529	yaw rate:	-1.903	Roll:	-26.836	Pitch:	-0.078	Yaw:	131.454	Thrust:	100.000
Time:	3.608	Roll Set Point:	0.852	Pitch Set Point:	0.907	Yaw Set Point:	-1.615	X_WP:	0.000	Y_WP:	0.000	Y_WP:	0.750	X:	0.048	Y:	-0.899	Z:	0.043	yaw:	92.520	yaw rate:	0.951	Roll:	-26.876	Pitch:	-0.432	Yaw:	131.062	Thrust:	100.000
Time:	3.627	Roll Set Point:	0.852	Pitch Set Point:	0.907	Yaw Set Point:	-1.615	X_WP:	0.000	Y_WP:	0.000	Y_WP:	0.750	X:	0.048	Y:	-0.899	Z:	0.043	yaw:	92.508	yaw rate:	1.131	Roll:	-26.842	Pitch:	-0.472	Yaw:	131.000	Thrust:	100.000
Time:	3.647	Roll Set Point:	0.852	Pitch Set Point:	0.907	Yaw Set Point:	-1.614	X_WP:	0.000	Y_WP:	0.000	Y_WP:	0.750	X:	0.048	Y:	-0.899	Z:	0.043	yaw:	92.502	yaw rate:	0.659	Roll:	-26.804	Pitch:	-0.387	Yaw:	131.074	Thrust:	100.000
Time:	3.666	Roll Set Point:	0.852	Pitch Set Point:	0.907	Yaw Set Point:	-1.614	X_WP:	0.000	Y_WP:	0.000	Y_WP:	0.750	X:	0.048	Y:	-0.899	Z:	0.043	yaw:	92.499	yaw rate:	0.289	Roll:	-26.846	Pitch:	-0.375	Yaw:	131.023	Thrust:	100.000
Time:	3.689	Roll Set Point:	0.852	Pitch Set Point:	0.907	Yaw Set Point:	-1.614	X_WP:	0.000	Y_WP:	0.000	Y_WP:	0.750	X:	0.048	Y:	-0.899	Z:	0.043	yaw:	92.487	yaw rate:	1.193	Roll:	-26.907	Pitch:	-0.466	Yaw:	131.210	Thrust:	100.000
Time:	3.707	Roll Set Point:	0.852	Pitch Set Point:	0.907	Yaw Set Point:	-1.614	X_WP:	0.000	Y_WP:	0.000	Y_WP:	0.750	X:	0.048	Y:	-0.899	Z:	0.043	yaw:	92.498	yaw rate:	-1.057	Roll:	-26.840	Pitch:	-0.167	Yaw:	131.117	Thrust:	100.000
Time:	3.727	Roll Set Point:	0.852	Pitch Set Point:	0.907	Yaw Set Point:	-1.615	X_WP:	0.000	Y_WP:	0.000	Y_WP:	0.750	X:	0.048	Y:	-0.899	Z:	0.043	yaw:	92.505	yaw rate:	-0.770	Roll:	-26.764	Pitch:	-0.198	Yaw:	131.282	Thrust:	100.000
Time:	3.747	Roll Set Point:	0.852	Pitch Set Point:	0.907	Yaw Set Point:	-1.615	X_WP:	0.000	Y_WP:	0.000	Y_WP:	0.750	X:	0.048	Y:	-0.899	Z:	0.043	yaw:	92.527	yaw rate:	-2.134	Roll:	-26.881	Pitch:	-0.027	Yaw:	131.469	Thrust:	100.000
Time:	3.767	Roll Set Point:	0.852	Pitch Set Point:	0.907	Yaw Set Point:	-1.614	X_WP:	0.000	Y_WP:	0.000	Y_WP:	0.750	X:	0.048	Y:	-0.899	Z:	0.043	yaw:	92.476	yaw rate:	5.103	Roll:	-26.795	Pitch:	-1.022	Yaw:	130.472	Thrust:	100.000
Time:	3.786	Roll Set Point:	0.852	Pitch Set Point:	0.906	Yaw Set Point:	-1.615	X_WP:	0.000	Y_WP:	0.000	Y_WP:	0.750	X:	0.048	Y:	-0.899	Z:	0.043	yaw:	92.546	yaw rate:	-7.024	Roll:	-26.861	Pitch:	0.698	Yaw:	132.104	Thrust:	100.000
Time:	3.811	Roll Set Point:	0.852	Pitch Set Point:	0.907	Yaw Set Point:	-1.615	X_WP:	0.000	Y_WP:	0.000	Y_WP:	0.750	X:	0.048	Y:	-0.899	Z:	0.043	yaw:	92.529	yaw rate:	1.704	Roll:	-27.001	Pitch:	-0.517	Yaw:	131.473	Thrust:	100.000
Time:	3.828	Roll Set Point:	0.852	Pitch Set Point:	0.906	Yaw Set Point:	-1.615	X_WP:	0.000	Y_WP:	0.000	Y_WP:	0.750	X:	0.048	Y:	-0.899	Z:	0.043	yaw:	92.549	yaw rate:	-2.022	Roll:	-26.744	Pitch:	0.010	Yaw:	131.238	Thrust:	100.000
Time:	3.848	Roll Set Point:	0.852	Pitch Set Point:	0.907	Yaw Set Point:	-1.615	X_WP:	0.000	Y_WP:	0.000	Y_WP:	0.750	X:	0.048	Y:	-0.899	Z:	0.043	yaw:	92.521	yaw rate:	2.814	Roll:	-26.787	Pitch:	-0.711	Yaw:	130.720	Thrust:	100.000
Time:	3.867	Roll Set Point:	0.852	Pitch Set Point:	0.907	Yaw Set Point:	-1.614	X_WP:	0.000	Y_WP:	0.000	Y_WP:	0.750	X:	0.048	Y:	-0.899	Z:	0.043	yaw:	92.486	yaw rate:	3.446	Roll:	-26.815	Pitch:	-0.795	Yaw:	130.626	Thrust:	100.000
Time:	3.889	Roll Set Point:	0.852	Pitch Set Point:	0.906	Yaw Set Point:	-1.616	X_WP:	0.000	Y_WP:	0.000	Y_WP:	0.750	X:	0.048	Y:	-0.899	Z:	0.043	yaw:	92.581	yaw rate:	-9.443	Roll:	-26.972	Pitch:	0.882	Yaw:	132.575	Thrust:	100.000
Time:	3.907	Roll Set Point:	0.852	Pitch Set Point:	0.907	Yaw Set Point:	-1.615	X_WP:	0.000	Y_WP:	0.000	Y_WP:	0.750	X:	0.048	Y:	-0.899	Z:	0.043	yaw:	92.518	yaw rate:	6.298	Roll:	-26.761	Pitch:	-1.203	Yaw:	130.198	Thrust:	100.000
Time:	3.928	Roll Set Point:	0.852	Pitch Set Point:	0.907	Yaw Set Point:	-1.614	X_WP:	0.000	Y_WP:	0.000	Y_WP:	0.750	X:	0.048	Y:	-0.899	Z:	0.043	yaw:	92.479	yaw rate:	3.923	Roll:	-26.888	Pitch:	-0.857	Yaw:	130.672	Thrust:	100.000
Time:	3.947	Roll Set Point:	0.852	Pitch Set Point:	0.907	Yaw Set Point:	-1.615	X_WP:	0.000	Y_WP:	0.000	Y_WP:	0.750	X:	0.048	Y:	-0.899	Z:	0.043	yaw:	92.516	yaw rate:	-3.716	Roll:	-26.785	Pitch:	0.199	Yaw:	131.616	Thrust:	100.000
Time:	3.969	Roll Set Point:	0.852	Pitch Set Point:	0.906	Yaw Set Point:	-1.615	X_WP:	0.000	Y_WP:	0.000	Y_WP:	0.750	X:	0.048	Y:	-0.899	Z:	0.043	yaw:	92.558	yaw rate:	-4.222	Roll:	-26.849	Pitch:	0.222	Yaw:	131.887	Thrust:	100.000
Time:	3.990	Roll Set Point:	0.852	Pitch Set Point:	0.907	Yaw Set Point:	-1.615	X_WP:	0.000	Y_WP:	0.000	Y_WP:	0.750	X:	0.048	Y:	-0.899	Z:	0.043	yaw:	92.505	yaw rate:	5.302	Roll:	-26.898	Pitch:	-0.989	Yaw:	130.699	Thrust:	100.000
Time:	4.008	Roll Set Point:	0.852	Pitch Set Point:	0.906	Yaw Set Point:	-1.615	X_WP:	0.000	Y_WP:	0.000	Y_WP:	0.750	X:	0.048	Y:	-0.899	Z:	0.043	yaw:	92.532	yaw rate:	-2.719	Roll:	-26.820	Pitch:	0.070	Yaw:	131.405	Thrust:	100.000
Time:	4.029	Roll Set Point:	0.852	Pitch Set Point:	0.907	Yaw Set Point:	-1.615	X_WP:	0.000	Y_WP:	0.000	Y_WP:	0.750	X:	0.048	Y:	-0.899	Z:	0.043	yaw:	92.513	yaw rate:	1.886	Roll:	-26.849	Pitch:	-0.549	Yaw:	130.953	Thrust:	100.000
Time:	4.048	Roll Set Point:	0.852	Pitch Set Point:	0.907	Yaw Set Point:	-1.614	X_WP:	0.000	Y_WP:	0.000	Y_WP:	0.750	X:	0.048	Y:	-0.899	Z:	0.043	yaw:	92.497	yaw rate:	1.649	Roll:	-26.821	Pitch:	-0.573	Yaw:	130.842	Thrust:	100.000
Time:	4.067	Roll Set Point:	0.852	Pitch Set Point:	0.907	Yaw Set Point:	-1.615	X_WP:	0.000	Y_WP:	0.000	Y_WP:	0.750	X:	0.048	Y:	-0.899	Z:	0.043	yaw:	92.506	yaw rate:	-0.948	Roll:	-26.798	Pitch:	-0.188	Yaw:	131.148	Thrust:	100.000
Time:	4.089	Roll Set Point:	0.852	Pitch Set Point:	0.907	Yaw Set Point:	-1.614	X_WP:	0.000	Y_WP:	0.000	Y_WP:	0.750	X:	0.048	Y:	-0.899	Z:	0.043	yaw:	92.493	yaw rate:	1.297	Roll:	-26.934	Pitch:	-0.499	Yaw:	131.309	Thrust:	100.000
Time:	4.107	Roll Set Point:	0.852	Pitch Set Point:	0.907	Yaw Set Point:	-1.614	X_WP:	0.000	Y_WP:	0.000	Y_WP:	0.750	X:	0.048	Y:	-0.899	Z:	0.043	yaw:	92.503	yaw rate:	-0.952	Roll:	-26.784	Pitch:	-0.175	Yaw:	131.056	Thrust:	100.000
Time:	4.128	Roll Set Point:	0.852	Pitch Set Point:	0.907	Yaw Set Point:	-1.614	X_WP:	0.000	Y_WP:	0.000	Y_WP:	0.750	X:	0.048	Y:	-0.899	Z:	0.043	yaw:	92.501	yaw rate:	0.205	Roll:	-26.858	Pitch:	-0.362	Yaw:	131.172	Thrust:	100.000
Time:	4.148	Roll Set Point:	0.852	Pitch Set Point:	0.907	Yaw Set Point:	-1.614	X_WP:	0.000	Y_WP:	0.000	Y_WP:	0.750	X:	0.048	Y:	-0.899	Z:	0.043	yaw:	92.488	yaw rate:	1.252	Roll:	-26.814	Pitch:	-0.488	Yaw:	130.983	Thrust:	100.000
Time:	4.168	Roll Set Point:	0.852	Pitch Set Point:	0.907	Yaw Set Point:	-1.615	X_WP:	0.000	Y_WP:	0.000	Y_WP:	0.750	X:	0.048	Y:	-0.899	Z:	0.043	yaw:	92.505	yaw rate:	-1.642	Roll:	-26.851	Pitch:	-0.126	Yaw:	131.437	Thrust:	100.000
Time:	4.190	Roll Set Point:	0.852	Pitch Set Point:	0.907	Yaw Set Point:	-1.615	X_WP:	0.000	Y_WP:	0.000	Y_WP:	0.750	X:	0.048	Y:	-0.899	Z:	0.043	yaw:	92.527	yaw rate:	-2.174	Roll:	-26.930	Pitch:	-0.044	Yaw:	131.590	Thrust:	100.000
Time:	4.209	Roll Set Point:	0.852	Pitch Set Point:	0.907	Yaw Set Point:	-1.615	X_WP:	0.000	Y_WP:	0.000	Y_WP:	0.750	X:	0.048	Y:	-0.899	Z:	0.043	yaw:	92.515	yaw rate:	1.144	Roll:	-26.791	Pitch:	-0.507	Yaw:	130.883	Thrust:	100.000
Time:	4.229	Roll Set Point:	0.852	Pitch Set Point:	0.907	Yaw Set Point:	-1.614	X_WP:	0.000	Y_WP:	0.000	Y_WP:	0.750	X:	0.048	Y:	-0.899	Z:	0.043	yaw:	92.503	yaw rate:	1.182	Roll:	-26.840	Pitch:	-0.455	Yaw:	131.064	Thrust:	100.000
Time:	4.248	Roll Set Point:	0.852	Pitch Set Point:	0.907	Yaw Set Point:	-1.615	X_WP:	0.000	Y_WP:	0.000	Y_WP:	0.750	X:	0.048	Y:	-0.899	Z:	0.043	yaw:	92.525	yaw rate:	-2.220	Roll:	-26.830	Pitch:	-0.031	Yaw:	131.404	Thrust:	100.000
Time:	4.267	Roll Set Point:	0.852	Pitch Set Point:	0.907	Yaw Set Point:	-1.615	X_WP:	0.000	Y_WP:	0.000	Y_WP:	0.750	X:	0.048	Y:	-0.899	Z:	0.043	yaw:	92.517	yaw rate:	0.834	Roll:	-26.795	Pitch:	-0.450	Yaw:	130.977	Thrust:	100.000
Time:	4.287	Roll Set Point:	0.852	Pitch Set Point:	0.906	Yaw Set Point:	-1.615	X_WP:	0.000	Y_WP:	0.000	Y_WP:	0.750	X:	0.048	Y:	-0.899	Z:	0.043	yaw:	92.541	yaw rate:	-2.397	Roll:	-26.837	Pitch:	0.005	Yaw:	131.551	Thrust:	100.000
Time:	4.308	Roll Set Point:	0.852	Pitch Set Point:	0.907	Yaw Set Point:	-1.614	X_WP:	0.000	Y_WP:	0.000	Y_WP:	0.750	X:	0.048	Y:	-0.899	Z:	0.043	yaw:	92.473	yaw rate:	6.807	Roll:	-26.914	Pitch:	-1.283	Yaw:	130.257	Thrust:	100.000
Time:	4.327	Roll Set Point:	0.852	Pitch Set Point:	0.907	Yaw Set Point:	-1.614	X_WP:	0.000	Y_WP:	0.000	Y_WP:	0.750	X:	0.048	Y:	-0.899	Z:	0.043	yaw:	92.488	yaw rate:	-1.524	Roll:	-26.849	Pitch:	-0.090	Yaw:	131.331	Thrust:	100.000
Time:	4.347	Roll Set Point:	0.852	Pitch Set Point:	0.907	Yaw Set Point:	-1.615	X_WP:	0.000	Y_WP:	0.000	Y_WP:	0.750	X:	0.048	Y:	-0.899	Z:	0.043	yaw:	92.513	yaw rate:	-2.446	Roll:	-26.828	Pitch:	0.001	Yaw:	131.435	Thrust:	100.000
Time:	4.368	Roll Set Point:	0.852	Pitch Set Point:	0.906	Yaw Set Point:	-1.615	X_WP:	0.000	Y_WP:	0.000	Y_WP:	0.750	X:	0.048	Y:	-0.899	Z:	0.043	yaw:	92.543	yaw rate:	-2.988	Roll:	-26.794	Pitch:	0.081	Yaw:	131.620	Thrust:	100.000
Time:	4.390	Roll Set Point:	0.852	Pitch Set Point:	0.906	Yaw Set Point:	-1.615	X_WP:	0.000	Y_WP:	0.000	Y_WP:	0.750	X:	0.048	Y:	-0.899	Z:	0.043	yaw:	92.554	yaw rate:	-1.092	Roll:	-26.951	Pitch:	-0.197	Yaw:	131.575	Thrust:	100.000
Time:	4.409	Roll Set Point:	0.852	Pitch Set Point:	0.906	Yaw Set Point:	-1.615	X_WP:	0.000	Y_WP:	0.000	Y_WP:	0.750	X:	0.048	Y:	-0.899	Z:	0.043	yaw:	92.537	yaw rate:	1.679	Roll:	-26.784	Pitch:	-0.533	Yaw:	130.946	Thrust:	100.000
Time:	4.428	Roll Set Point:	0.852	Pitch Set Point:	0.908	Yaw Set Point:	-1.613	X_WP:	0.000	Y_WP:	0.000	Y_WP:	0.750	X:	0.048	Y:	-0.899	Z:	0.043	yaw:	92.439	yaw rate:	9.821	Roll:	-26.812	Pitch:	-1.741	Yaw:	129.670	Thrust:	100.000
Time:	4.448	Roll Set Point:	0.852	Pitch Set Point:	0.907	Yaw Set Point:	-1.615	X_WP:	0.000	Y_WP:	0.000	Y_WP:	0.750	X:	0.048	Y:	-0.899	Z:	0.043	yaw:	92.528	yaw rate:	-8.946	Roll:	-26.872	Pitch:	0.892	Yaw:	132.364	Thrust:	100.000
Time:	4.469	Roll Set Point:	0.852	Pitch Set Point:	0.907	Yaw Set Point:	-1.615	X_WP:	0.000	Y_WP:	0.000	Y_WP:	0.750	X:	0.048	Y:	-0.899	Z:	0.043	yaw:	92.516	yaw rate:	1.206	Roll:	-26.826	Pitch:	-0.518	Yaw:	131.030	Thrust:	100.000
Time:	4.490	Roll Set Point:	0.852	Pitch Set Point:	0.907	Yaw Set Point:	-1.614	X_WP:	0.000	Y_WP:	0.000	Y_WP:	0.750	X:	0.048	Y:	-0.899	Z:	0.043	yaw:	92.497	yaw rate:	1.919	Roll:	-26.933	Pitch:	-0.566	Yaw:	131.073	Thrust:	100.000
Time:	4.509	Roll Set Point:	0.852	Pitch Set Point:	0.907	Yaw Set Point:	-1.615	X_WP:	0.000	Y_WP:	0.000	Y_WP:	0.750	X:	0.048	Y:	-0.899	Z:	0.043	yaw:	92.517	yaw rate:	-2.069	Roll:	-26.726	Pitch:	-0.009	Yaw:	131.322	Thrust:	100.000
Time:	4.530	Roll Set Point:	0.852	Pitch Set Point:	0.907	Yaw Set Point:	-1.615	X_WP:	0.000	Y_WP:	0.000	Y_WP:	0.750	X:	0.048	Y:	-0.898	Z:	0.043	yaw:	92.521	yaw rate:	-0.340	Roll:	-26.882	Pitch:	-0.274	Yaw:	131.312	Thrust:	100.000
Time:	4.548	Roll Set Point:	0.852	Pitch Set Point:	0.906	Yaw Set Point:	-1.615	X_WP:	0.000	Y_WP:	0.000	Y_WP:	0.750	X:	0.048	Y:	-0.899	Z:	0.043	yaw:	92.532	yaw rate:	-1.097	Roll:	-26.846	Pitch:	-0.187	Yaw:	131.237	Thrust:	100.000
Time:	4.568	Roll Set Point:	0.852	Pitch Set Point:	0.907	Yaw Set Point:	-1.615	X_WP:	0.000	Y_WP:	0.000	Y_WP:	0.750	X:	0.048	Y:	-0.899	Z:	0.043	yaw:	92.530	yaw rate:	0.152	Roll:	-26.847	Pitch:	-0.333	Yaw:	131.132	Thrust:	100.000
Time:	4.590	Roll Set Point:	0.852	Pitch Set Point:	0.906	Yaw Set Point:	-1.615	X_WP:	0.000	Y_WP:	0.000	Y_WP:	0.750	X:	0.048	Y:	-0.899	Z:	0.043	yaw:	92.552	yaw rate:	-2.154	Roll:	-26.858	Pitch:	-0.074	Yaw:	131.715	Thrust:	100.000
Time:	4.616	Roll Set Point:	0.852	Pitch Set Point:	0.907	Yaw Set Point:	-1.615	X_WP:	0.000	Y_WP:	0.000	Y_WP:	0.750	X:	0.048	Y:	-0.899	Z:	0.043	yaw:	92.509	yaw rate:	4.271	Roll:	-27.102	Pitch:	-0.790	Yaw:	131.376	Thrust:	100.000
Time:	4.629	Roll Set Point:	0.852	Pitch Set Point:	0.907	Yaw Set Point:	-1.614	X_WP:	0.000	Y_WP:	0.000	Y_WP:	0.750	X:	0.048	Y:	-0.899	Z:	0.043	yaw:	92.490	yaw rate:	1.878	Roll:	-26.575	Pitch:	-0.711	Yaw:	130.003	Thrust:	100.000
Time:	4.649	Roll Set Point:	0.852	Pitch Set Point:	0.907	Yaw Set Point:	-1.615	X_WP:	0.000	Y_WP:	0.000	Y_WP:	0.750	X:	0.048	Y:	-0.899	Z:	0.043	yaw:	92.511	yaw rate:	-2.026	Roll:	-26.875	Pitch:	-0.081	Yaw:	131.493	Thrust:	100.000
Time:	4.669	Roll Set Point:	0.852	Pitch Set Point:	0.907	Yaw Set Point:	-1.615	X_WP:	0.000	Y_WP:	0.000	Y_WP:	0.750	X:	0.048	Y:	-0.899	Z:	0.043	yaw:	92.526	yaw rate:	-1.537	Roll:	-26.866	Pitch:	-0.116	Yaw:	131.325	Thrust:	100.000
Time:	4.690	Roll Set Point:	0.852	Pitch Set Point:	0.906	Yaw Set Point:	-1.615	X_WP:	0.000	Y_WP:	0.000	Y_WP:	0.750	X:	0.048	Y:	-0.898	Z:	0.043	yaw:	92.527	yaw rate:	-0.139	Roll:	-26.790	Pitch:	-0.268	Yaw:	131.291	Thrust:	100.000
Time:	4.708	Roll Set Point:	0.852	Pitch Set Point:	0.908	Yaw Set Point:	-1.614	X_WP:	0.000	Y_WP:	0.000	Y_WP:	0.750	X:	0.048	Y:	-0.899	Z:	0.043	yaw:	92.464	yaw rate:	6.305	Roll:	-26.872	Pitch:	-1.326	Yaw:	130.078	Thrust:	100.000
Time:	4.728	Roll Set Point:	0.852	Pitch Set Point:	0.907	Yaw Set Point:	-1.615	X_WP:	0.000	Y_WP:	0.000	Y_WP:	0.750	X:	0.048	Y:	-0.899	Z:	0.043	yaw:	92.509	yaw rate:	-4.440	Roll:	-26.818	Pitch:	0.350	Yaw:	131.720	Thrust:	100.000
Time:	4.747	Roll Set Point:	0.852	Pitch Set Point:	0.907	Yaw Set Point:	-1.615	X_WP:	0.000	Y_WP:	0.000	Y_WP:	0.750	X:	0.048	Y:	-0.899	Z:	0.043	yaw:	92.520	yaw rate:	-1.150	Roll:	-26.804	Pitch:	-0.214	Yaw:	131.289	Thrust:	100.000
Time:	4.772	Roll Set Point:	0.852	Pitch Set Point:	0.907	Yaw Set Point:	-1.615	X_WP:	0.000	Y_WP:	0.000	Y_WP:	0.750	X:	0.048	Y:	-0.899	Z:	0.043	yaw:	92.512	yaw rate:	0.804	Roll:	-26.894	Pitch:	-0.434	Yaw:	131.546	Thrust:	100.000
Time:	4.787	Roll Set Point:	0.852	Pitch Set Point:	0.907	Yaw Set Point:	-1.615	X_WP:	0.000	Y_WP:	0.000	Y_WP:	0.750	X:	0.048	Y:	-0.899	Z:	0.043	yaw:	92.515	yaw rate:	-0.321	Roll:	-26.813	Pitch:	-0.295	Yaw:	130.797	Thrust:	100.000
Time:	4.807	Roll Set Point:	0.852	Pitch Set Point:	0.906	Yaw Set Point:	-1.615	X_WP:	0.000	Y_WP:	0.000	Y_WP:	0.750	X:	0.048	Y:	-0.899	Z:	0.043	yaw:	92.547	yaw rate:	-3.126	Roll:	-26.826	Pitch:	0.131	Yaw:	131.573	Thrust:	100.000
Time:	4.829	Roll Set Point:	0.852	Pitch Set Point:	0.906	Yaw Set Point:	-1.615	X_WP:	0.000	Y_WP:	0.000	Y_WP:	0.750	X:	0.048	Y:	-0.899	Z:	0.043	yaw:	92.541	yaw rate:	0.591	Roll:	-26.860	Pitch:	-0.381	Yaw:	131.316	Thrust:	100.000
Time:	4.849	Roll Set Point:	0.852	Pitch Set Point:	0.907	Yaw Set Point:	-1.615	X_WP:	0.000	Y_WP:	0.000	Y_WP:	0.750	X:	0.048	Y:	-0.899	Z:	0.043	yaw:	92.517	yaw rate:	2.409	Roll:	-26.874	Pitch:	-0.682	Yaw:	130.933	Thrust:	100.000
Time:	4.870	Roll Set Point:	0.852	Pitch Set Point:	0.906	Yaw Set Point:	-1.615	X_WP:	0.000	Y_WP:	0.000	Y_WP:	0.750	X:	0.048	Y:	-0.899	Z:	0.043	yaw:	92.541	yaw rate:	-2.473	Roll:	-26.898	Pitch:	0.003	Yaw:	131.573	Thrust:	100.000
Time:	4.889	Roll Set Point:	0.852	Pitch Set Point:	0.906	Yaw Set Point:	-1.615	X_WP:	0.000	Y_WP:	0.000	Y_WP:	0.750	X:	0.048	Y:	-0.898	Z:	0.043	yaw:	92.553	yaw rate:	-1.203	Roll:	-26.759	Pitch:	-0.127	Yaw:	131.362	Thrust:	100.000
Time:	4.907	Roll Set Point:	0.852	Pitch Set Point:	0.907	Yaw Set Point:	-1.614	X_WP:	0.000	Y_WP:	0.000	Y_WP:	0.750	X:	0.048	Y:	-0.899	Z:	0.043	yaw:	92.472	yaw rate:	8.185	Roll:	-26.822	Pitch:	-1.569	Yaw:	129.669	Thrust:	100.000
Time:	4.929	Roll Set Point:	0.852	Pitch Set Point:	0.907	Yaw Set Point:	-1.615	X_WP:	0.000	Y_WP:	0.000	Y_WP:	0.750	X:	0.048	Y:	-0.899	Z:	0.043	yaw:	92.528	yaw rate:	-5.617	Roll:	-26.899	Pitch:	0.366	Yaw:	132.014	Thrust:	100.000
Time:	4.948	Roll Set Point:	0.852	Pitch Set Point:	0.907	Yaw Set Point:	-1.615	X_WP:	0.000	Y_WP:	0.000	Y_WP:	0.750	X:	0.048	Y:	-0.899	Z:	0.043	yaw:	92.509	yaw rate:	1.839	Roll:	-26.806	Pitch:	-0.602	Yaw:	130.857	Thrust:	100.000
Time:	4.968	Roll Set Point:	0.852	Pitch Set Point:	0.907	Yaw Set Point:	-1.615	X_WP:	0.000	Y_WP:	0.000	Y_WP:	0.750	X:	0.048	Y:	-0.899	Z:	0.043	yaw:	92.520	yaw rate:	-1.042	Roll:	-26.865	Pitch:	-0.193	Yaw:	131.294	Thrust:	100.000
Time:	4.987	Roll Set Point:	0.852	Pitch Set Point:	0.907	Yaw Set Point:	-1.614	X_WP:	0.000	Y_WP:	0.000	Y_WP:	0.750	X:	0.048	Y:	-0.899	Z:	0.043	yaw:	92.498	yaw rate:	2.128	Roll:	-26.801	Pitch:	-0.628	Yaw:	130.864	Thrust:	100.000
Time:	5.008	Roll Set Point:	0.852	Pitch Set Point:	0.906	Yaw Set Point:	-1.615	X_WP:	0.000	Y_WP:	0.000	Y_WP:	0.750	X:	0.048	Y:	-0.899	Z:	0.043	yaw:	92.560	yaw rate:	-6.161	Roll:	-26.851	Pitch:	0.516	Yaw:	132.079	Thrust:	100.000
Time:	5.027	Roll Set Point:	0.852	Pitch Set Point:	0.907	Yaw Set Point:	-1.614	X_WP:	0.000	Y_WP:	0.000	Y_WP:	0.750	X:	0.048	Y:	-0.899	Z:	0.043	yaw:	92.499	yaw rate:	6.074	Roll:	-26.857	Pitch:	-1.177	Yaw:	130.278	Thrust:	100.000
Time:	5.049	Roll Set Point:	0.852	Pitch Set Point:	0.907	Yaw Set Point:	-1.615	X_WP:	0.000	Y_WP:	0.000	Y_WP:	0.750	X:	0.048	Y:	-0.899	Z:	0.043	yaw:	92.521	yaw rate:	-2.199	Roll:	-26.836	Pitch:	-0.039	Yaw:	131.538	Thrust:	100.000
Time:	5.069	Roll Set Point:	0.852	Pitch Set Point:	0.907	Yaw Set Point:	-1.614	X_WP:	0.000	Y_WP:	0.000	Y_WP:	0.750	X:	0.048	Y:	-0.899	Z:	0.043	yaw:	92.476	yaw rate:	4.581	Roll:	-26.798	Pitch:	-1.010	Yaw:	130.513	Thrust:	100.000
Time:	5.090	Roll Set Point:	0.852	Pitch Set Point:	0.907	Yaw Set Point:	-1.615	X_WP:	0.000	Y_WP:	0.000	Y_WP:	0.750	X:	0.048	Y:	-0.899	Z:	0.043	yaw:	92.520	yaw rate:	-4.454	Roll:	-26.941	Pitch:	0.253	Yaw:	131.819	Thrust:	100.000
Time:	5.109	Roll Set Point:	0.852	Pitch Set Point:	0.907	Yaw Set Point:	-1.615	X_WP:	0.000	Y_WP:	0.000	Y_WP:	0.750	X:	0.048	Y:	-0.899	Z:	0.043	yaw:	92.529	yaw rate:	-0.845	Roll:	-26.827	Pitch:	-0.239	Yaw:	131.265	Thrust:	100.000
Time:	5.128	Roll Set Point:	0.852	Pitch Set Point:	0.906	Yaw Set Point:	-1.615	X_WP:	0.000	Y_WP:	0.000	Y_WP:	0.750	X:	0.048	Y:	-0.899	Z:	0.043	yaw:	92.541	yaw rate:	-1.236	Roll:	-26.800	Pitch:	-0.155	Yaw:	131.368	Thrust:	100.000
Time:	5.149	Roll Set Point:	0.852	Pitch Set Point:	0.906	Yaw Set Point:	-1.615	X_WP:	0.000	Y_WP:	0.000	Y_WP:	0.750	X:	0.048	Y:	-0.898	Z:	0.043	yaw:	92.536	yaw rate:	0.474	Roll:	-26.812	Pitch:	-0.373	Yaw:	131.124	Thrust:	100.000
Time:	5.168	Roll Set Point:	0.852	Pitch Set Point:	0.906	Yaw Set Point:	-1.615	X_WP:	0.000	Y_WP:	0.000	Y_WP:	0.750	X:	0.048	Y:	-0.899	Z:	0.043	yaw:	92.536	yaw rate:	-0.015	Roll:	-26.851	Pitch:	-0.351	Yaw:	131.170	Thrust:	100.000
Time:	5.191	Roll Set Point:	0.852	Pitch Set Point:	0.901	Yaw Set Point:	-1.620	X_WP:	0.000	Y_WP:	0.000	Y_WP:	0.750	X:	0.047	Y:	-0.898	Z:	0.043	yaw:	92.847	yaw rate:	-31.102	Roll:	-26.788	Pitch:	3.929	Yaw:	135.491	Thrust:	100.000
Time:	5.208	Roll Set Point:	0.852	Pitch Set Point:	0.907	Yaw Set Point:	-1.614	X_WP:	0.000	Y_WP:	0.000	Y_WP:	0.750	X:	0.048	Y:	-0.899	Z:	0.043	yaw:	92.499	yaw rate:	34.838	Roll:	-26.957	Pitch:	-5.651	Yaw:	125.606	Thrust:	100.000
Time:	5.228	Roll Set Point:	0.852	Pitch Set Point:	0.907	Yaw Set Point:	-1.615	X_WP:	0.000	Y_WP:	0.000	Y_WP:	0.750	X:	0.048	Y:	-0.899	Z:	0.043	yaw:	92.516	yaw rate:	-1.700	Roll:	-26.785	Pitch:	-0.130	Yaw:	131.383	Thrust:	100.000
Time:	5.249	Roll Set Point:	0.852	Pitch Set Point:	0.901	Yaw Set Point:	-1.621	X_WP:	0.000	Y_WP:	0.000	Y_WP:	0.750	X:	0.047	Y:	-0.898	Z:	0.043	yaw:	92.851	yaw rate:	-33.472	Roll:	-26.782	Pitch:	4.448	Yaw:	135.881	Thrust:	100.000
Time:	5.269	Roll Set Point:	0.852	Pitch Set Point:	0.907	Yaw Set Point:	-1.615	X_WP:	0.000	Y_WP:	0.000	Y_WP:	0.750	X:	0.048	Y:	-0.899	Z:	0.043	yaw:	92.527	yaw rate:	32.361	Roll:	-26.979	Pitch:	-5.185	Yaw:	126.711	Thrust:	100.000
