Time:	0.048	Roll Set Point:	-0.256	Pitch Set Point:	-2.541	Yaw Set Point:	-1.894	X_WP:	2.916	Y_WP:	0.706	Y_WP:	1.000	X:	0.311	Y:	-0.224	Z:	0.042	yaw:	108.490	yaw rate:	-3.367	Roll:	-1.609	Pitch:	30.000	Yaw:	151.481	Thrust:	52.675
Time:	0.064	Roll Set Point:	-0.255	Pitch Set Point:	-2.541	Yaw Set Point:	-1.893	X_WP:	2.916	Y_WP:	0.706	Y_WP:	1.000	X:	0.311	Y:	-0.224	Z:	0.042	yaw:	108.478	yaw rate:	1.192	Roll:	-2.165	Pitch:	30.000	Yaw:	151.927	Thrust:	54.645
Time:	0.085	Roll Set Point:	-0.256	Pitch Set Point:	-2.541	Yaw Set Point:	-1.894	X_WP:	2.916	Y_WP:	0.706	Y_WP:	1.000	X:	0.311	Y:	-0.224	Z:	0.042	yaw:	108.491	yaw rate:	-1.325	Roll:	-1.093	Pitch:	30.000	Yaw:	153.192	Thrust:	57.414
Time:	0.105	Roll Set Point:	-0.251	Pitch Set Point:	-2.541	Yaw Set Point:	-1.892	X_WP:	2.916	Y_WP:	0.706	Y_WP:	1.000	X:	0.311	Y:	-0.224	Z:	0.042	yaw:	108.403	yaw rate:	8.834	Roll:	-5.524	Pitch:	30.000	Yaw:	152.325	Thrust:	59.552
Time:	0.125	Roll Set Point:	-0.255	Pitch Set Point:	-2.541	Yaw Set Point:	-1.893	X_WP:	2.916	Y_WP:	0.706	Y_WP:	1.000	X:	0.311	Y:	-0.224	Z:	0.042	yaw:	108.479	yaw rate:	-7.629	Roll:	1.732	Pitch:	30.000	Yaw:	154.421	Thrust:	61.717
Time:	0.147	Roll Set Point:	-0.255	Pitch Set Point:	-2.541	Yaw Set Point:	-1.893	X_WP:	2.916	Y_WP:	0.706	Y_WP:	1.000	X:	0.311	Y:	-0.224	Z:	0.042	yaw:	108.470	yaw rate:	0.884	Roll:	-1.985	Pitch:	30.000	Yaw:	153.584	Thrust:	65.516
Time:	0.165	Roll Set Point:	-0.254	Pitch Set Point:	-2.541	Yaw Set Point:	-1.893	X_WP:	2.916	Y_WP:	0.706	Y_WP:	1.000	X:	0.311	Y:	-0.224	Z:	0.042	yaw:	108.458	yaw rate:	1.271	Roll:	-2.192	Pitch:	30.000	Yaw:	153.030	Thrust:	65.068
Time:	0.185	Roll Set Point:	-0.253	Pitch Set Point:	-2.541	Yaw Set Point:	-1.893	X_WP:	2.916	Y_WP:	0.706	Y_WP:	1.000	X:	0.311	Y:	-0.224	Z:	0.042	yaw:	108.440	yaw rate:	1.758	Roll:	-2.553	Pitch:	30.000	Yaw:	153.196	Thrust:	68.733
Time:	0.205	Roll Set Point:	-0.255	Pitch Set Point:	-2.541	Yaw Set Point:	-1.893	X_WP:	2.916	Y_WP:	0.706	Y_WP:	1.000	X:	0.311	Y:	-0.224	Z:	0.042	yaw:	108.486	yaw rate:	-4.619	Roll:	0.107	Pitch:	30.000	Yaw:	154.091	Thrust:	71.282
Time:	0.225	Roll Set Point:	-0.256	Pitch Set Point:	-2.541	Yaw Set Point:	-1.893	X_WP:	2.916	Y_WP:	0.706	Y_WP:	1.000	X:	0.311	Y:	-0.224	Z:	0.042	yaw:	108.487	yaw rate:	-0.112	Roll:	-1.366	Pitch:	30.000	Yaw:	153.448	Thrust:	72.879
Time:	0.248	Roll Set Point:	-0.256	Pitch Set Point:	-2.541	Yaw Set Point:	-1.893	X_WP:	2.916	Y_WP:	0.705	Y_WP:	1.000	X:	0.311	Y:	-0.224	Z:	0.042	yaw:	108.488	yaw rate:	-0.101	Roll:	-1.418	Pitch:	30.000	Yaw:	153.861	Thrust:	79.389
Time:	0.265	Roll Set Point:	-0.256	Pitch Set Point:	-2.541	Yaw Set Point:	-1.893	X_WP:	2.916	Y_WP:	0.706	Y_WP:	1.000	X:	0.311	Y:	-0.224	Z:	0.042	yaw:	108.485	yaw rate:	0.345	Roll:	-2.041	Pitch:	30.000	Yaw:	153.125	Thrust:	74.806
Time:	0.285	Roll Set Point:	-0.255	Pitch Set Point:	-2.541	Yaw Set Point:	-1.893	X_WP:	2.916	Y_WP:	0.706	Y_WP:	1.000	X:	0.311	Y:	-0.224	Z:	0.042	yaw:	108.476	yaw rate:	0.908	Roll:	-2.228	Pitch:	30.000	Yaw:	153.294	Thrust:	79.685
Time:	0.305	Roll Set Point:	-0.254	Pitch Set Point:	-2.541	Yaw Set Point:	-1.893	X_WP:	2.916	Y_WP:	0.706	Y_WP:	1.000	X:	0.311	Y:	-0.224	Z:	0.042	yaw:	108.453	yaw rate:	2.268	Roll:	-2.392	Pitch:	30.000	Yaw:	153.095	Thrust:	82.049
Time:	0.325	Roll Set Point:	-0.255	Pitch Set Point:	-2.541	Yaw Set Point:	-1.893	X_WP:	2.916	Y_WP:	0.706	Y_WP:	1.000	X:	0.311	Y:	-0.224	Z:	0.042	yaw:	108.473	yaw rate:	-1.967	Roll:	-0.893	Pitch:	30.000	Yaw:	153.728	Thrust:	85.076
Time:	0.347	Roll Set Point:	-0.255	Pitch Set Point:	-2.541	Yaw Set Point:	-1.893	X_WP:	2.916	Y_WP:	0.706	Y_WP:	1.000	X:	0.311	Y:	-0.224	Z:	0.042	yaw:	108.487	yaw rate:	-1.387	Roll:	-1.365	Pitch:	30.000	Yaw:	153.807	Thrust:	89.106
Time:	0.365	Roll Set Point:	-0.255	Pitch Set Point:	-2.541	Yaw Set Point:	-1.893	X_WP:	2.916	Y_WP:	0.706	Y_WP:	1.000	X:	0.311	Y:	-0.224	Z:	0.042	yaw:	108.475	yaw rate:	1.142	Roll:	-1.874	Pitch:	30.000	Yaw:	153.175	Thrust:	88.047
Time:	0.384	Roll Set Point:	-0.255	Pitch Set Point:	-2.541	Yaw Set Point:	-1.893	X_WP:	2.916	Y_WP:	0.705	Y_WP:	1.000	X:	0.311	Y:	-0.224	Z:	0.042	yaw:	108.465	yaw rate:	1.047	Roll:	-2.055	Pitch:	30.000	Yaw:	153.245	Thrust:	90.637
Time:	0.405	Roll Set Point:	-0.255	Pitch Set Point:	-2.541	Yaw Set Point:	-1.893	X_WP:	2.916	Y_WP:	0.706	Y_WP:	1.000	X:	0.311	Y:	-0.224	Z:	0.042	yaw:	108.473	yaw rate:	-0.830	Roll:	-1.440	Pitch:	30.000	Yaw:	153.644	Thrust:	94.695
Time:	0.425	Roll Set Point:	-0.255	Pitch Set Point:	-2.541	Yaw Set Point:	-1.893	X_WP:	2.916	Y_WP:	0.706	Y_WP:	1.000	X:	0.311	Y:	-0.224	Z:	0.042	yaw:	108.472	yaw rate:	0.104	Roll:	-2.014	Pitch:	30.000	Yaw:	153.386	Thrust:	96.182
Time:	0.446	Roll Set Point:	-0.256	Pitch Set Point:	-2.541	Yaw Set Point:	-1.893	X_WP:	2.916	Y_WP:	0.705	Y_WP:	1.000	X:	0.311	Y:	-0.224	Z:	0.042	yaw:	108.483	yaw rate:	-1.117	Roll:	-0.900	Pitch:	30.000	Yaw:	153.720	Thrust:	100.000
Time:	0.465	Roll Set Point:	-0.255	Pitch Set Point:	-2.541	Yaw Set Point:	-1.893	X_WP:	2.916	Y_WP:	0.706	Y_WP:	1.000	X:	0.311	Y:	-0.224	Z:	0.042	yaw:	108.468	yaw rate:	1.519	Roll:	-2.420	Pitch:	30.000	Yaw:	153.150	Thrust:	99.828
Time:	0.484	Roll Set Point:	-0.255	Pitch Set Point:	-2.541	Yaw Set Point:	-1.893	X_WP:	2.916	Y_WP:	0.706	Y_WP:	1.000	X:	0.311	Y:	-0.224	Z:	0.042	yaw:	108.467	yaw rate:	0.077	Roll:	-1.761	Pitch:	30.000	Yaw:	153.360	Thrust:	100.000
Time:	0.505	Roll Set Point:	-0.256	Pitch Set Point:	-2.541	Yaw Set Point:	-1.894	X_WP:	2.916	Y_WP:	0.706	Y_WP:	1.000	X:	0.311	Y:	-0.224	Z:	0.042	yaw:	108.505	yaw rate:	-3.736	Roll:	-0.354	Pitch:	30.000	Yaw:	154.065	Thrust:	100.000
Time:	0.525	Roll Set Point:	-0.253	Pitch Set Point:	-2.541	Yaw Set Point:	-1.893	X_WP:	2.916	Y_WP:	0.706	Y_WP:	1.000	X:	0.311	Y:	-0.224	Z:	0.042	yaw:	108.436	yaw rate:	6.904	Roll:	-4.497	Pitch:	30.000	Yaw:	152.487	Thrust:	100.000
Time:	0.549	Roll Set Point:	-0.256	Pitch Set Point:	-2.541	Yaw Set Point:	-1.893	X_WP:	2.916	Y_WP:	0.706	Y_WP:	1.000	X:	0.311	Y:	-0.224	Z:	0.042	yaw:	108.481	yaw rate:	-4.568	Roll:	0.026	Pitch:	30.000	Yaw:	154.335	Thrust:	100.000
Time:	0.565	Roll Set Point:	-0.255	Pitch Set Point:	-2.541	Yaw Set Point:	-1.893	X_WP:	2.916	Y_WP:	0.706	Y_WP:	1.000	X:	0.311	Y:	-0.224	Z:	0.042	yaw:	108.479	yaw rate:	0.215	Roll:	-1.864	Pitch:	30.000	Yaw:	153.063	Thrust:	100.000
Time:	0.585	Roll Set Point:	-0.256	Pitch Set Point:	-2.541	Yaw Set Point:	-1.893	X_WP:	2.916	Y_WP:	0.705	Y_WP:	1.000	X:	0.311	Y:	-0.224	Z:	0.042	yaw:	108.484	yaw rate:	-0.431	Roll:	-1.369	Pitch:	30.000	Yaw:	153.476	Thrust:	100.000
Time:	0.605	Roll Set Point:	-0.255	Pitch Set Point:	-2.541	Yaw Set Point:	-1.893	X_WP:	2.916	Y_WP:	0.706	Y_WP:	1.000	X:	0.311	Y:	-0.224	Z:	0.042	yaw:	108.478	yaw rate:	0.601	Roll:	-2.102	Pitch:	30.000	Yaw:	153.408	Thrust:	100.000
Time:	0.624	Roll Set Point:	-0.255	Pitch Set Point:	-2.541	Yaw Set Point:	-1.893	X_WP:	2.916	Y_WP:	0.706	Y_WP:	1.000	X:	0.311	Y:	-0.224	Z:	0.042	yaw:	108.467	yaw rate:	1.013	Roll:	-2.121	Pitch:	30.000	Yaw:	153.283	Thrust:	100.000
Time:	0.647	Roll Set Point:	-0.252	Pitch Set Point:	-2.541	Yaw Set Point:	-1.892	X_WP:	2.916	Y_WP:	0.706	Y_WP:	1.000	X:	0.311	Y:	-0.224	Z:	0.042	yaw:	108.423	yaw rate:	4.436	Roll:	-3.610	Pitch:	30.000	Yaw:	153.027	Thrust:	100.000
Time:	0.666	Roll Set Point:	-0.256	Pitch Set Point:	-2.541	Yaw Set Point:	-1.894	X_WP:	2.916	Y_WP:	0.706	Y_WP:	1.000	X:	0.311	Y:	-0.224	Z:	0.042	yaw:	108.492	yaw rate:	-6.891	Roll:	1.121	Pitch:	30.000	Yaw:	154.344	Thrust:	100.000
Time:	0.687	Roll Set Point:	-0.255	Pitch Set Point:	-2.541	Yaw Set Point:	-1.893	X_WP:	2.916	Y_WP:	0.706	Y_WP:	1.000	X:	0.311	Y:	-0.224	Z:	0.042	yaw:	108.476	yaw rate:	1.611	Roll:	-2.431	Pitch:	30.000	Yaw:	153.418	Thrust:	100.000
Time:	0.705	Roll Set Point:	-0.255	Pitch Set Point:	-2.541	Yaw Set Point:	-1.893	X_WP:	2.916	Y_WP:	0.706	Y_WP:	1.000	X:	0.311	Y:	-0.224	Z:	0.042	yaw:	108.477	yaw rate:	-0.080	Roll:	-1.578	Pitch:	30.000	Yaw:	153.261	Thrust:	100.000
Time:	0.725	Roll Set Point:	-0.256	Pitch Set Point:	-2.541	Yaw Set Point:	-1.893	X_WP:	2.916	Y_WP:	0.706	Y_WP:	1.000	X:	0.311	Y:	-0.224	Z:	0.042	yaw:	108.489	yaw rate:	-1.203	Roll:	-1.241	Pitch:	30.000	Yaw:	153.665	Thrust:	100.000
Time:	0.747	Roll Set Point:	-0.256	Pitch Set Point:	-2.541	Yaw Set Point:	-1.894	X_WP:	2.916	Y_WP:	0.706	Y_WP:	1.000	X:	0.311	Y:	-0.224	Z:	0.042	yaw:	108.496	yaw rate:	-0.693	Roll:	-1.426	Pitch:	30.000	Yaw:	153.732	Thrust:	100.000
Time:	0.765	Roll Set Point:	-0.255	Pitch Set Point:	-2.541	Yaw Set Point:	-1.893	X_WP:	2.916	Y_WP:	0.706	Y_WP:	1.000	X:	0.311	Y:	-0.224	Z:	0.042	yaw:	108.472	yaw rate:	2.407	Roll:	-3.035	Pitch:	30.000	Yaw:	152.963	Thrust:	100.000
Time:	0.784	Roll Set Point:	-0.256	Pitch Set Point:	-2.541	Yaw Set Point:	-1.893	X_WP:	2.916	Y_WP:	0.706	Y_WP:	1.000	X:	0.311	Y:	-0.224	Z:	0.042	yaw:	108.482	yaw rate:	-1.095	Roll:	-1.035	Pitch:	30.000	Yaw:	153.532	Thrust:	100.000
Time:	0.805	Roll Set Point:	-0.255	Pitch Set Point:	-2.541	Yaw Set Point:	-1.893	X_WP:	2.916	Y_WP:	0.706	Y_WP:	1.000	X:	0.311	Y:	-0.224	Z:	0.042	yaw:	108.468	yaw rate:	1.463	Roll:	-2.290	Pitch:	30.000	Yaw:	153.340	Thrust:	100.000
Time:	0.825	Roll Set Point:	-0.255	Pitch Set Point:	-2.541	Yaw Set Point:	-1.893	X_WP:	2.916	Y_WP:	0.706	Y_WP:	1.000	X:	0.311	Y:	-0.224	Z:	0.042	yaw:	108.478	yaw rate:	-1.056	Roll:	-1.335	Pitch:	30.000	Yaw:	153.564	Thrust:	100.000
Time:	0.847	Roll Set Point:	-0.255	Pitch Set Point:	-2.541	Yaw Set Point:	-1.893	X_WP:	2.916	Y_WP:	0.706	Y_WP:	1.000	X:	0.311	Y:	-0.224	Z:	0.042	yaw:	108.475	yaw rate:	0.374	Roll:	-1.952	Pitch:	30.000	Yaw:	153.647	Thrust:	100.000
Time:	0.865	Roll Set Point:	-0.256	Pitch Set Point:	-2.541	Yaw Set Point:	-1.894	X_WP:	2.916	Y_WP:	0.706	Y_WP:	1.000	X:	0.311	Y:	-0.224	Z:	0.042	yaw:	108.490	yaw rate:	-1.515	Roll:	-1.226	Pitch:	30.000	Yaw:	153.462	Thrust:	100.000
Time:	0.885	Roll Set Point:	-0.255	Pitch Set Point:	-2.541	Yaw Set Point:	-1.893	X_WP:	2.916	Y_WP:	0.706	Y_WP:	1.000	X:	0.311	Y:	-0.224	Z:	0.042	yaw:	108.478	yaw rate:	1.162	Roll:	-1.980	Pitch:	30.000	Yaw:	153.332	Thrust:	100.000
Time:	0.905	Roll Set Point:	-0.254	Pitch Set Point:	-2.541	Yaw Set Point:	-1.893	X_WP:	2.916	Y_WP:	0.706	Y_WP:	1.000	X:	0.311	Y:	-0.224	Z:	0.042	yaw:	108.460	yaw rate:	1.831	Roll:	-2.507	Pitch:	30.000	Yaw:	153.279	Thrust:	100.000
Time:	0.925	Roll Set Point:	-0.255	Pitch Set Point:	-2.541	Yaw Set Point:	-1.893	X_WP:	2.916	Y_WP:	0.706	Y_WP:	1.000	X:	0.311	Y:	-0.224	Z:	0.042	yaw:	108.461	yaw rate:	-0.148	Roll:	-1.756	Pitch:	30.000	Yaw:	153.413	Thrust:	100.000
Time:	0.947	Roll Set Point:	-0.255	Pitch Set Point:	-2.541	Yaw Set Point:	-1.893	X_WP:	2.916	Y_WP:	0.706	Y_WP:	1.000	X:	0.311	Y:	-0.224	Z:	0.042	yaw:	108.476	yaw rate:	-1.509	Roll:	-1.376	Pitch:	30.000	Yaw:	153.792	Thrust:	100.000
Time:	0.965	Roll Set Point:	-0.256	Pitch Set Point:	-2.541	Yaw Set Point:	-1.893	X_WP:	2.916	Y_WP:	0.706	Y_WP:	1.000	X:	0.311	Y:	-0.224	Z:	0.042	yaw:	108.482	yaw rate:	-0.580	Roll:	-1.277	Pitch:	30.000	Yaw:	153.401	Thrust:	100.000
Time:	0.985	Roll Set Point:	-0.256	Pitch Set Point:	-2.541	Yaw Set Point:	-1.893	X_WP:	2.916	Y_WP:	0.705	Y_WP:	1.000	X:	0.311	Y:	-0.224	Z:	0.042	yaw:	108.484	yaw rate:	-0.220	Roll:	-1.595	Pitch:	30.000	Yaw:	153.533	Thrust:	100.000
Time:	1.005	Roll Set Point:	-0.255	Pitch Set Point:	-2.541	Yaw Set Point:	-1.893	X_WP:	2.916	Y_WP:	0.706	Y_WP:	1.000	X:	0.311	Y:	-0.224	Z:	0.042	yaw:	108.476	yaw rate:	0.852	Roll:	-2.235	Pitch:	30.000	Yaw:	153.324	Thrust:	100.000
Time:	1.024	Roll Set Point:	-0.255	Pitch Set Point:	-2.541	Yaw Set Point:	-1.893	X_WP:	2.916	Y_WP:	0.705	Y_WP:	1.000	X:	0.311	Y:	-0.224	Z:	0.042	yaw:	108.473	yaw rate:	0.271	Roll:	-1.672	Pitch:	30.000	Yaw:	153.377	Thrust:	100.000
Time:	1.047	Roll Set Point:	-0.256	Pitch Set Point:	-2.541	Yaw Set Point:	-1.894	X_WP:	2.916	Y_WP:	0.705	Y_WP:	1.000	X:	0.311	Y:	-0.224	Z:	0.042	yaw:	108.490	yaw rate:	-1.678	Roll:	-1.157	Pitch:	30.000	Yaw:	153.917	Thrust:	100.000
Time:	1.065	Roll Set Point:	-0.254	Pitch Set Point:	-2.541	Yaw Set Point:	-1.893	X_WP:	2.916	Y_WP:	0.706	Y_WP:	1.000	X:	0.311	Y:	-0.224	Z:	0.042	yaw:	108.467	yaw rate:	2.336	Roll:	-3.182	Pitch:	30.000	Yaw:	152.876	Thrust:	100.000
Time:	1.086	Roll Set Point:	-0.255	Pitch Set Point:	-2.541	Yaw Set Point:	-1.893	X_WP:	2.916	Y_WP:	0.706	Y_WP:	1.000	X:	0.311	Y:	-0.224	Z:	0.042	yaw:	108.485	yaw rate:	-1.835	Roll:	-0.919	Pitch:	30.000	Yaw:	153.717	Thrust:	100.000
Time:	1.105	Roll Set Point:	-0.255	Pitch Set Point:	-2.541	Yaw Set Point:	-1.893	X_WP:	2.916	Y_WP:	0.705	Y_WP:	1.000	X:	0.311	Y:	-0.224	Z:	0.042	yaw:	108.478	yaw rate:	0.673	Roll:	-1.791	Pitch:	30.000	Yaw:	153.357	Thrust:	100.000
Time:	1.125	Roll Set Point:	-0.255	Pitch Set Point:	-2.541	Yaw Set Point:	-1.893	X_WP:	2.916	Y_WP:	0.706	Y_WP:	1.000	X:	0.311	Y:	-0.224	Z:	0.042	yaw:	108.471	yaw rate:	0.682	Roll:	-2.072	Pitch:	30.000	Yaw:	153.444	Thrust:	100.000
Time:	1.146	Roll Set Point:	-0.253	Pitch Set Point:	-2.541	Yaw Set Point:	-1.892	X_WP:	2.916	Y_WP:	0.706	Y_WP:	1.000	X:	0.311	Y:	-0.224	Z:	0.042	yaw:	108.424	yaw rate:	4.704	Roll:	-3.922	Pitch:	30.000	Yaw:	152.913	Thrust:	100.000
Time:	1.165	Roll Set Point:	-0.255	Pitch Set Point:	-2.541	Yaw Set Point:	-1.893	X_WP:	2.916	Y_WP:	0.706	Y_WP:	1.000	X:	0.311	Y:	-0.224	Z:	0.042	yaw:	108.477	yaw rate:	-5.236	Roll:	0.393	Pitch:	30.000	Yaw:	154.050	Thrust:	100.000
Time:	1.184	Roll Set Point:	-0.256	Pitch Set Point:	-2.541	Yaw Set Point:	-1.893	X_WP:	2.916	Y_WP:	0.705	Y_WP:	1.000	X:	0.311	Y:	-0.224	Z:	0.042	yaw:	108.484	yaw rate:	-0.764	Roll:	-1.234	Pitch:	30.000	Yaw:	153.520	Thrust:	100.000
Time:	1.205	Roll Set Point:	-0.256	Pitch Set Point:	-2.541	Yaw Set Point:	-1.893	X_WP:	2.916	Y_WP:	0.705	Y_WP:	1.000	X:	0.311	Y:	-0.224	Z:	0.042	yaw:	108.480	yaw rate:	0.443	Roll:	-1.923	Pitch:	30.000	Yaw:	153.456	Thrust:	100.000
Time:	1.226	Roll Set Point:	-0.254	Pitch Set Point:	-2.541	Yaw Set Point:	-1.893	X_WP:	2.916	Y_WP:	0.706	Y_WP:	1.000	X:	0.311	Y:	-0.224	Z:	0.042	yaw:	108.457	yaw rate:	2.328	Roll:	-2.849	Pitch:	30.000	Yaw:	153.235	Thrust:	100.000
Time:	1.246	Roll Set Point:	-0.255	Pitch Set Point:	-2.541	Yaw Set Point:	-1.893	X_WP:	2.916	Y_WP:	0.705	Y_WP:	1.000	X:	0.311	Y:	-0.224	Z:	0.042	yaw:	108.469	yaw rate:	-1.268	Roll:	-1.216	Pitch:	30.000	Yaw:	153.655	Thrust:	100.000
Time:	1.265	Roll Set Point:	-0.255	Pitch Set Point:	-2.541	Yaw Set Point:	-1.893	X_WP:	2.916	Y_WP:	0.706	Y_WP:	1.000	X:	0.311	Y:	-0.224	Z:	0.042	yaw:	108.482	yaw rate:	-1.296	Roll:	-1.528	Pitch:	30.000	Yaw:	153.471	Thrust:	100.000
Time:	1.285	Roll Set Point:	-0.256	Pitch Set Point:	-2.541	Yaw Set Point:	-1.894	X_WP:	2.916	Y_WP:	0.706	Y_WP:	1.000	X:	0.311	Y:	-0.224	Z:	0.042	yaw:	108.492	yaw rate:	-0.955	Roll:	-1.226	Pitch:	30.000	Yaw:	153.607	Thrust:	100.000
Time:	1.305	Roll Set Point:	-0.255	Pitch Set Point:	-2.541	Yaw Set Point:	-1.893	X_WP:	2.916	Y_WP:	0.706	Y_WP:	1.000	X:	0.311	Y:	-0.224	Z:	0.042	yaw:	108.476	yaw rate:	1.611	Roll:	-2.529	Pitch:	30.000	Yaw:	153.343	Thrust:	100.000
Time:	1.325	Roll Set Point:	-0.255	Pitch Set Point:	-2.541	Yaw Set Point:	-1.893	X_WP:	2.916	Y_WP:	0.706	Y_WP:	1.000	X:	0.311	Y:	-0.224	Z:	0.042	yaw:	108.475	yaw rate:	0.094	Roll:	-1.714	Pitch:	30.000	Yaw:	153.463	Thrust:	100.000
Time:	1.347	Roll Set Point:	-0.255	Pitch Set Point:	-2.541	Yaw Set Point:	-1.893	X_WP:	2.916	Y_WP:	0.706	Y_WP:	1.000	X:	0.311	Y:	-0.224	Z:	0.042	yaw:	108.479	yaw rate:	-0.455	Roll:	-1.862	Pitch:	30.000	Yaw:	153.712	Thrust:	100.000
Time:	1.365	Roll Set Point:	-0.255	Pitch Set Point:	-2.541	Yaw Set Point:	-1.893	X_WP:	2.916	Y_WP:	0.706	Y_WP:	1.000	X:	0.311	Y:	-0.224	Z:	0.042	yaw:	108.474	yaw rate:	0.589	Roll:	-1.863	Pitch:	30.000	Yaw:	153.145	Thrust:	100.000
Time:	1.385	Roll Set Point:	-0.255	Pitch Set Point:	-2.541	Yaw Set Point:	-1.893	X_WP:	2.916	Y_WP:	0.705	Y_WP:	1.000	X:	0.311	Y:	-0.224	Z:	0.042	yaw:	108.473	yaw rate:	0.041	Roll:	-1.712	Pitch:	30.000	Yaw:	153.455	Thrust:	100.000
Time:	1.405	Roll Set Point:	-0.255	Pitch Set Point:	-2.541	Yaw Set Point:	-1.893	X_WP:	2.916	Y_WP:	0.706	Y_WP:	1.000	X:	0.311	Y:	-0.224	Z:	0.042	yaw:	108.462	yaw rate:	1.068	Roll:	-2.385	Pitch:	30.000	Yaw:	153.299	Thrust:	100.000
Time:	1.425	Roll Set Point:	-0.255	Pitch Set Point:	-2.541	Yaw Set Point:	-1.893	X_WP:	2.916	Y_WP:	0.706	Y_WP:	1.000	X:	0.311	Y:	-0.224	Z:	0.042	yaw:	108.481	yaw rate:	-1.824	Roll:	-1.328	Pitch:	30.000	Yaw:	153.716	Thrust:	100.000
Time:	1.446	Roll Set Point:	-0.256	Pitch Set Point:	-2.541	Yaw Set Point:	-1.893	X_WP:	2.916	Y_WP:	0.706	Y_WP:	1.000	X:	0.311	Y:	-0.224	Z:	0.042	yaw:	108.486	yaw rate:	-0.507	Roll:	-1.423	Pitch:	30.000	Yaw:	153.613	Thrust:	100.000
Time:	1.465	Roll Set Point:	-0.255	Pitch Set Point:	-2.541	Yaw Set Point:	-1.893	X_WP:	2.916	Y_WP:	0.705	Y_WP:	1.000	X:	0.311	Y:	-0.224	Z:	0.042	yaw:	108.476	yaw rate:	0.937	Roll:	-2.071	Pitch:	30.000	Yaw:	153.303	Thrust:	100.000
Time:	1.484	Roll Set Point:	-0.255	Pitch Set Point:	-2.541	Yaw Set Point:	-1.893	X_WP:	2.916	Y_WP:	0.706	Y_WP:	1.000	X:	0.311	Y:	-0.224	Z:	0.042	yaw:	108.470	yaw rate:	0.661	Roll:	-2.248	Pitch:	30.000	Yaw:	153.268	Thrust:	100.000
Time:	1.505	Roll Set Point:	-0.255	Pitch Set Point:	-2.541	Yaw Set Point:	-1.893	X_WP:	2.916	Y_WP:	0.705	Y_WP:	1.000	X:	0.311	Y:	-0.224	Z:	0.042	yaw:	108.476	yaw rate:	-0.613	Roll:	-1.466	Pitch:	30.000	Yaw:	153.565	Thrust:	100.000
Time:	1.525	Roll Set Point:	-0.255	Pitch Set Point:	-2.541	Yaw Set Point:	-1.893	X_WP:	2.916	Y_WP:	0.706	Y_WP:	1.000	X:	0.311	Y:	-0.224	Z:	0.042	yaw:	108.464	yaw rate:	1.150	Roll:	-2.343	Pitch:	30.000	Yaw:	153.371	Thrust:	100.000
Time:	1.546	Roll Set Point:	-0.256	Pitch Set Point:	-2.541	Yaw Set Point:	-1.894	X_WP:	2.916	Y_WP:	0.706	Y_WP:	1.000	X:	0.311	Y:	-0.224	Z:	0.042	yaw:	108.497	yaw rate:	-3.264	Roll:	-0.709	Pitch:	30.000	Yaw:	153.940	Thrust:	100.000
Time:	1.565	Roll Set Point:	-0.254	Pitch Set Point:	-2.541	Yaw Set Point:	-1.893	X_WP:	2.916	Y_WP:	0.706	Y_WP:	1.000	X:	0.311	Y:	-0.224	Z:	0.042	yaw:	108.457	yaw rate:	3.959	Roll:	-3.254	Pitch:	30.000	Yaw:	152.795	Thrust:	100.000
Time:	1.584	Roll Set Point:	-0.255	Pitch Set Point:	-2.541	Yaw Set Point:	-1.893	X_WP:	2.916	Y_WP:	0.706	Y_WP:	1.000	X:	0.311	Y:	-0.224	Z:	0.042	yaw:	108.480	yaw rate:	-2.295	Roll:	-0.911	Pitch:	30.000	Yaw:	153.725	Thrust:	100.000
Time:	1.605	Roll Set Point:	-0.256	Pitch Set Point:	-2.541	Yaw Set Point:	-1.894	X_WP:	2.916	Y_WP:	0.706	Y_WP:	1.000	X:	0.311	Y:	-0.224	Z:	0.042	yaw:	108.495	yaw rate:	-1.465	Roll:	-1.528	Pitch:	30.000	Yaw:	153.758	Thrust:	100.000
Time:	1.625	Roll Set Point:	-0.255	Pitch Set Point:	-2.541	Yaw Set Point:	-1.893	X_WP:	2.916	Y_WP:	0.705	Y_WP:	1.000	X:	0.311	Y:	-0.224	Z:	0.042	yaw:	108.478	yaw rate:	1.662	Roll:	-2.140	Pitch:	30.000	Yaw:	153.290	Thrust:	100.000
Time:	1.646	Roll Set Point:	-0.256	Pitch Set Point:	-2.541	Yaw Set Point:	-1.894	X_WP:	2.916	Y_WP:	0.706	Y_WP:	1.000	X:	0.311	Y:	-0.224	Z:	0.042	yaw:	108.497	yaw rate:	-1.812	Roll:	-1.208	Pitch:	30.000	Yaw:	153.767	Thrust:	100.000
Time:	1.665	Roll Set Point:	-0.255	Pitch Set Point:	-2.541	Yaw Set Point:	-1.893	X_WP:	2.916	Y_WP:	0.706	Y_WP:	1.000	X:	0.311	Y:	-0.224	Z:	0.042	yaw:	108.482	yaw rate:	1.471	Roll:	-2.724	Pitch:	30.000	Yaw:	153.175	Thrust:	100.000
Time:	1.685	Roll Set Point:	-0.255	Pitch Set Point:	-2.541	Yaw Set Point:	-1.893	X_WP:	2.916	Y_WP:	0.705	Y_WP:	1.000	X:	0.311	Y:	-0.224	Z:	0.042	yaw:	108.475	yaw rate:	0.700	Roll:	-1.829	Pitch:	30.000	Yaw:	153.342	Thrust:	100.000
Time:	1.705	Roll Set Point:	-0.255	Pitch Set Point:	-2.541	Yaw Set Point:	-1.893	X_WP:	2.916	Y_WP:	0.706	Y_WP:	1.000	X:	0.311	Y:	-0.224	Z:	0.042	yaw:	108.471	yaw rate:	0.376	Roll:	-2.126	Pitch:	30.000	Yaw:	153.429	Thrust:	100.000
Time:	1.725	Roll Set Point:	-0.256	Pitch Set Point:	-2.541	Yaw Set Point:	-1.893	X_WP:	2.916	Y_WP:	0.706	Y_WP:	1.000	X:	0.311	Y:	-0.224	Z:	0.042	yaw:	108.486	yaw rate:	-1.492	Roll:	-1.276	Pitch:	30.000	Yaw:	153.715	Thrust:	100.000
Time:	1.746	Roll Set Point:	-0.256	Pitch Set Point:	-2.541	Yaw Set Point:	-1.893	X_WP:	2.916	Y_WP:	0.705	Y_WP:	1.000	X:	0.311	Y:	-0.224	Z:	0.042	yaw:	108.488	yaw rate:	-0.228	Roll:	-1.643	Pitch:	30.000	Yaw:	153.507	Thrust:	100.000
Time:	1.765	Roll Set Point:	-0.256	Pitch Set Point:	-2.541	Yaw Set Point:	-1.893	X_WP:	2.916	Y_WP:	0.706	Y_WP:	1.000	X:	0.311	Y:	-0.224	Z:	0.042	yaw:	108.484	yaw rate:	0.412	Roll:	-2.085	Pitch:	30.000	Yaw:	153.399	Thrust:	100.000
Time:	1.785	Roll Set Point:	-0.256	Pitch Set Point:	-2.541	Yaw Set Point:	-1.894	X_WP:	2.916	Y_WP:	0.705	Y_WP:	1.000	X:	0.311	Y:	-0.224	Z:	0.042	yaw:	108.494	yaw rate:	-0.993	Roll:	-1.385	Pitch:	30.000	Yaw:	153.602	Thrust:	100.000
Time:	1.804	Roll Set Point:	-0.255	Pitch Set Point:	-2.541	Yaw Set Point:	-1.893	X_WP:	2.916	Y_WP:	0.706	Y_WP:	1.000	X:	0.311	Y:	-0.224	Z:	0.042	yaw:	108.464	yaw rate:	3.055	Roll:	-3.151	Pitch:	30.000	Yaw:	152.961	Thrust:	100.000
Time:	1.825	Roll Set Point:	-0.255	Pitch Set Point:	-2.541	Yaw Set Point:	-1.893	X_WP:	2.916	Y_WP:	0.706	Y_WP:	1.000	X:	0.311	Y:	-0.224	Z:	0.042	yaw:	108.478	yaw rate:	-1.432	Roll:	-1.336	Pitch:	30.000	Yaw:	153.689	Thrust:	100.000
Time:	1.846	Roll Set Point:	-0.255	Pitch Set Point:	-2.541	Yaw Set Point:	-1.893	X_WP:	2.916	Y_WP:	0.706	Y_WP:	1.000	X:	0.311	Y:	-0.224	Z:	0.042	yaw:	108.479	yaw rate:	-0.149	Roll:	-1.827	Pitch:	30.000	Yaw:	153.577	Thrust:	100.000
Time:	1.864	Roll Set Point:	-0.255	Pitch Set Point:	-2.541	Yaw Set Point:	-1.893	X_WP:	2.916	Y_WP:	0.706	Y_WP:	1.000	X:	0.311	Y:	-0.224	Z:	0.042	yaw:	108.477	yaw rate:	0.224	Roll:	-1.957	Pitch:	30.000	Yaw:	153.313	Thrust:	100.000
Time:	1.885	Roll Set Point:	-0.255	Pitch Set Point:	-2.541	Yaw Set Point:	-1.893	X_WP:	2.916	Y_WP:	0.705	Y_WP:	1.000	X:	0.311	Y:	-0.224	Z:	0.042	yaw:	108.464	yaw rate:	1.262	Roll:	-2.320	Pitch:	30.000	Yaw:	153.320	Thrust:	100.000
Time:	1.905	Roll Set Point:	-0.256	Pitch Set Point:	-2.541	Yaw Set Point:	-1.894	X_WP:	2.916	Y_WP:	0.706	Y_WP:	1.000	X:	0.311	Y:	-0.224	Z:	0.042	yaw:	108.491	yaw rate:	-2.625	Roll:	-0.813	Pitch:	30.000	Yaw:	153.801	Thrust:	100.000
Time:	1.925	Roll Set Point:	-0.255	Pitch Set Point:	-2.541	Yaw Set Point:	-1.893	X_WP:	2.916	Y_WP:	0.705	Y_WP:	1.000	X:	0.311	Y:	-0.224	Z:	0.042	yaw:	108.470	yaw rate:	2.058	Roll:	-2.648	Pitch:	30.000	Yaw:	153.270	Thrust:	100.000
Time:	1.947	Roll Set Point:	-0.255	Pitch Set Point:	-2.541	Yaw Set Point:	-1.893	X_WP:	2.916	Y_WP:	0.705	Y_WP:	1.000	X:	0.311	Y:	-0.224	Z:	0.042	yaw:	108.476	yaw rate:	-0.591	Roll:	-1.705	Pitch:	30.000	Yaw:	153.576	Thrust:	100.000
Time:	1.964	Roll Set Point:	-0.255	Pitch Set Point:	-2.541	Yaw Set Point:	-1.893	X_WP:	2.916	Y_WP:	0.706	Y_WP:	1.000	X:	0.311	Y:	-0.224	Z:	0.042	yaw:	108.470	yaw rate:	0.623	Roll:	-2.165	Pitch:	30.000	Yaw:	153.232	Thrust:	100.000
Time:	1.984	Roll Set Point:	-0.255	Pitch Set Point:	-2.541	Yaw Set Point:	-1.893	X_WP:	2.916	Y_WP:	0.705	Y_WP:	1.000	X:	0.311	Y:	-0.224	Z:	0.042	yaw:	108.475	yaw rate:	-0.540	Roll:	-1.598	Pitch:	30.000	Yaw:	153.509	Thrust:	100.000
Time:	2.004	Roll Set Point:	-0.256	Pitch Set Point:	-2.541	Yaw Set Point:	-1.893	X_WP:	2.916	Y_WP:	0.705	Y_WP:	1.000	X:	0.311	Y:	-0.224	Z:	0.042	yaw:	108.481	yaw rate:	-0.540	Roll:	-1.748	Pitch:	30.000	Yaw:	153.553	Thrust:	100.000
Time:	2.024	Roll Set Point:	-0.255	Pitch Set Point:	-2.541	Yaw Set Point:	-1.893	X_WP:	2.916	Y_WP:	0.705	Y_WP:	1.000	X:	0.311	Y:	-0.224	Z:	0.042	yaw:	108.473	yaw rate:	0.717	Roll:	-2.194	Pitch:	30.000	Yaw:	153.376	Thrust:	100.000
Time:	2.046	Roll Set Point:	-0.255	Pitch Set Point:	-2.541	Yaw Set Point:	-1.893	X_WP:	2.916	Y_WP:	0.706	Y_WP:	1.000	X:	0.311	Y:	-0.224	Z:	0.042	yaw:	108.479	yaw rate:	-0.533	Roll:	-1.720	Pitch:	30.000	Yaw:	153.624	Thrust:	100.000
Time:	2.064	Roll Set Point:	-0.256	Pitch Set Point:	-2.541	Yaw Set Point:	-1.894	X_WP:	2.916	Y_WP:	0.705	Y_WP:	1.000	X:	0.311	Y:	-0.224	Z:	0.042	yaw:	108.498	yaw rate:	-1.964	Roll:	-1.019	Pitch:	30.000	Yaw:	153.630	Thrust:	100.000
Time:	2.083	Roll Set Point:	-0.256	Pitch Set Point:	-2.541	Yaw Set Point:	-1.893	X_WP:	2.916	Y_WP:	0.706	Y_WP:	1.000	X:	0.311	Y:	-0.224	Z:	0.042	yaw:	108.488	yaw rate:	1.045	Roll:	-2.380	Pitch:	30.000	Yaw:	153.272	Thrust:	100.000
Time:	2.105	Roll Set Point:	-0.255	Pitch Set Point:	-2.541	Yaw Set Point:	-1.893	X_WP:	2.916	Y_WP:	0.705	Y_WP:	1.000	X:	0.311	Y:	-0.224	Z:	0.042	yaw:	108.476	yaw rate:	1.171	Roll:	-2.365	Pitch:	30.000	Yaw:	153.455	Thrust:	100.000
Time:	2.125	Roll Set Point:	-0.256	Pitch Set Point:	-2.541	Yaw Set Point:	-1.894	X_WP:	2.916	Y_WP:	0.705	Y_WP:	1.000	X:	0.311	Y:	-0.224	Z:	0.042	yaw:	108.496	yaw rate:	-1.951	Roll:	-1.086	Pitch:	30.000	Yaw:	153.785	Thrust:	100.000
Time:	2.146	Roll Set Point:	-0.255	Pitch Set Point:	-2.541	Yaw Set Point:	-1.893	X_WP:	2.916	Y_WP:	0.706	Y_WP:	1.000	X:	0.311	Y:	-0.224	Z:	0.042	yaw:	108.481	yaw rate:	1.471	Roll:	-2.847	Pitch:	30.000	Yaw:	153.302	Thrust:	100.000
Time:	2.165	Roll Set Point:	-0.256	Pitch Set Point:	-2.541	Yaw Set Point:	-1.893	X_WP:	2.916	Y_WP:	0.706	Y_WP:	1.000	X:	0.311	Y:	-0.224	Z:	0.042	yaw:	108.486	yaw rate:	-0.467	Roll:	-1.497	Pitch:	30.000	Yaw:	153.477	Thrust:	100.000
Time:	2.184	Roll Set Point:	-0.255	Pitch Set Point:	-2.541	Yaw Set Point:	-1.893	X_WP:	2.916	Y_WP:	0.705	Y_WP:	1.000	X:	0.311	Y:	-0.224	Z:	0.042	yaw:	108.467	yaw rate:	1.915	Roll:	-2.692	Pitch:	30.000	Yaw:	153.111	Thrust:	100.000
Time:	2.205	Roll Set Point:	-0.256	Pitch Set Point:	-2.541	Yaw Set Point:	-1.893	X_WP:	2.916	Y_WP:	0.705	Y_WP:	1.000	X:	0.311	Y:	-0.224	Z:	0.042	yaw:	108.480	yaw rate:	-1.368	Roll:	-1.343	Pitch:	30.000	Yaw:	153.681	Thrust:	100.000
Time:	2.225	Roll Set Point:	-0.256	Pitch Set Point:	-2.541	Yaw Set Point:	-1.894	X_WP:	2.916	Y_WP:	0.705	Y_WP:	1.000	X:	0.311	Y:	-0.224	Z:	0.042	yaw:	108.500	yaw rate:	-2.012	Roll:	-1.128	Pitch:	30.000	Yaw:	153.776	Thrust:	100.000
Time:	2.246	Roll Set Point:	-0.256	Pitch Set Point:	-2.541	Yaw Set Point:	-1.894	X_WP:	2.916	Y_WP:	0.705	Y_WP:	1.000	X:	0.311	Y:	-0.224	Z:	0.042	yaw:	108.494	yaw rate:	0.618	Roll:	-2.167	Pitch:	30.000	Yaw:	153.523	Thrust:	100.000
Time:	2.268	Roll Set Point:	-0.256	Pitch Set Point:	-2.541	Yaw Set Point:	-1.893	X_WP:	2.916	Y_WP:	0.706	Y_WP:	1.000	X:	0.311	Y:	-0.224	Z:	0.042	yaw:	108.489	yaw rate:	0.495	Roll:	-2.402	Pitch:	30.000	Yaw:	153.691	Thrust:	100.000
Time:	2.285	Roll Set Point:	-0.255	Pitch Set Point:	-2.541	Yaw Set Point:	-1.893	X_WP:	2.916	Y_WP:	0.706	Y_WP:	1.000	X:	0.311	Y:	-0.224	Z:	0.042	yaw:	108.484	yaw rate:	0.533	Roll:	-2.097	Pitch:	30.000	Yaw:	152.996	Thrust:	100.000
Time:	2.304	Roll Set Point:	-0.254	Pitch Set Point:	-2.541	Yaw Set Point:	-1.893	X_WP:	2.916	Y_WP:	0.706	Y_WP:	1.000	X:	0.311	Y:	-0.224	Z:	0.042	yaw:	108.457	yaw rate:	2.707	Roll:	-2.884	Pitch:	30.000	Yaw:	153.048	Thrust:	100.000
Time:	2.325	Roll Set Point:	-0.255	Pitch Set Point:	-2.541	Yaw Set Point:	-1.893	X_WP:	2.916	Y_WP:	0.706	Y_WP:	1.000	X:	0.311	Y:	-0.224	Z:	0.042	yaw:	108.472	yaw rate:	-1.525	Roll:	-1.408	Pitch:	30.000	Yaw:	153.759	Thrust:	100.000
Time:	2.347	Roll Set Point:	-0.256	Pitch Set Point:	-2.541	Yaw Set Point:	-1.894	X_WP:	2.916	Y_WP:	0.705	Y_WP:	1.000	X:	0.311	Y:	-0.224	Z:	0.042	yaw:	108.495	yaw rate:	-2.285	Roll:	-0.934	Pitch:	30.000	Yaw:	153.858	Thrust:	100.000
Time:	2.365	Roll Set Point:	-0.256	Pitch Set Point:	-2.541	Yaw Set Point:	-1.893	X_WP:	2.916	Y_WP:	0.705	Y_WP:	1.000	X:	0.311	Y:	-0.224	Z:	0.042	yaw:	108.482	yaw rate:	1.337	Roll:	-2.473	Pitch:	30.000	Yaw:	153.170	Thrust:	100.000
Time:	2.385	Roll Set Point:	-0.255	Pitch Set Point:	-2.541	Yaw Set Point:	-1.893	X_WP:	2.916	Y_WP:	0.706	Y_WP:	1.000	X:	0.311	Y:	-0.224	Z:	0.042	yaw:	108.477	yaw rate:	0.439	Roll:	-2.269	Pitch:	30.000	Yaw:	153.317	Thrust:	100.000
Time:	2.405	Roll Set Point:	-0.255	Pitch Set Point:	-2.541	Yaw Set Point:	-1.893	X_WP:	2.916	Y_WP:	0.706	Y_WP:	1.000	X:	0.311	Y:	-0.224	Z:	0.042	yaw:	108.471	yaw rate:	0.590	Roll:	-2.174	Pitch:	30.000	Yaw:	153.434	Thrust:	100.000
Time:	2.425	Roll Set Point:	-0.255	Pitch Set Point:	-2.541	Yaw Set Point:	-1.893	X_WP:	2.916	Y_WP:	0.705	Y_WP:	1.000	X:	0.311	Y:	-0.224	Z:	0.042	yaw:	108.461	yaw rate:	1.074	Roll:	-2.353	Pitch:	30.000	Yaw:	153.349	Thrust:	100.000
Time:	2.447	Roll Set Point:	-0.255	Pitch Set Point:	-2.541	Yaw Set Point:	-1.893	X_WP:	2.916	Y_WP:	0.706	Y_WP:	1.000	X:	0.311	Y:	-0.224	Z:	0.042	yaw:	108.461	yaw rate:	-0.084	Roll:	-2.000	Pitch:	30.000	Yaw:	153.597	Thrust:	100.000
Time:	2.465	Roll Set Point:	-0.255	Pitch Set Point:	-2.541	Yaw Set Point:	-1.893	X_WP:	2.916	Y_WP:	0.706	Y_WP:	1.000	X:	0.311	Y:	-0.224	Z:	0.042	yaw:	108.475	yaw rate:	-1.345	Roll:	-1.756	Pitch:	30.000	Yaw:	153.477	Thrust:	100.000
Time:	2.484	Roll Set Point:	-0.255	Pitch Set Point:	-2.541	Yaw Set Point:	-1.893	X_WP:	2.916	Y_WP:	0.705	Y_WP:	1.000	X:	0.311	Y:	-0.224	Z:	0.042	yaw:	108.463	yaw rate:	1.147	Roll:	-2.065	Pitch:	30.000	Yaw:	153.230	Thrust:	100.000
Time:	2.504	Roll Set Point:	-0.255	Pitch Set Point:	-2.541	Yaw Set Point:	-1.893	X_WP:	2.916	Y_WP:	0.706	Y_WP:	1.000	X:	0.311	Y:	-0.224	Z:	0.042	yaw:	108.466	yaw rate:	-0.295	Roll:	-1.977	Pitch:	30.000	Yaw:	153.499	Thrust:	100.000
Time:	2.525	Roll Set Point:	-0.255	Pitch Set Point:	-2.541	Yaw Set Point:	-1.893	X_WP:	2.916	Y_WP:	0.706	Y_WP:	1.000	X:	0.311	Y:	-0.224	Z:	0.042	yaw:	108.469	yaw rate:	-0.312	Roll:	-1.836	Pitch:	30.000	Yaw:	153.519	Thrust:	100.000
Time:	2.546	Roll Set Point:	-0.255	Pitch Set Point:	-2.541	Yaw Set Point:	-1.893	X_WP:	2.916	Y_WP:	0.706	Y_WP:	1.000	X:	0.311	Y:	-0.224	Z:	0.042	yaw:	108.484	yaw rate:	-1.412	Roll:	-1.501	Pitch:	30.000	Yaw:	153.683	Thrust:	100.000
Time:	2.565	Roll Set Point:	-0.256	Pitch Set Point:	-2.541	Yaw Set Point:	-1.893	X_WP:	2.916	Y_WP:	0.706	Y_WP:	1.000	X:	0.311	Y:	-0.224	Z:	0.042	yaw:	108.483	yaw rate:	0.080	Roll:	-1.876	Pitch:	30.000	Yaw:	153.445	Thrust:	100.000
Time:	2.585	Roll Set Point:	-0.255	Pitch Set Point:	-2.541	Yaw Set Point:	-1.893	X_WP:	2.916	Y_WP:	0.706	Y_WP:	1.000	X:	0.311	Y:	-0.224	Z:	0.042	yaw:	108.478	yaw rate:	0.440	Roll:	-2.208	Pitch:	30.000	Yaw:	153.374	Thrust:	100.000
Time:	2.605	Roll Set Point:	-0.255	Pitch Set Point:	-2.541	Yaw Set Point:	-1.893	X_WP:	2.916	Y_WP:	0.706	Y_WP:	1.000	X:	0.311	Y:	-0.224	Z:	0.042	yaw:	108.479	yaw rate:	-0.051	Roll:	-2.206	Pitch:	30.000	Yaw:	153.498	Thrust:	100.000
Time:	2.624	Roll Set Point:	-0.255	Pitch Set Point:	-2.541	Yaw Set Point:	-1.893	X_WP:	2.916	Y_WP:	0.706	Y_WP:	1.000	X:	0.311	Y:	-0.224	Z:	0.042	yaw:	108.471	yaw rate:	0.756	Roll:	-1.997	Pitch:	30.000	Yaw:	153.319	Thrust:	100.000
Time:	2.646	Roll Set Point:	-0.255	Pitch Set Point:	-2.541	Yaw Set Point:	-1.893	X_WP:	2.916	Y_WP:	0.706	Y_WP:	1.000	X:	0.311	Y:	-0.224	Z:	0.042	yaw:	108.473	yaw rate:	-0.201	Roll:	-1.955	Pitch:	30.000	Yaw:	153.553	Thrust:	100.000
Time:	2.665	Roll Set Point:	-0.255	Pitch Set Point:	-2.541	Yaw Set Point:	-1.893	X_WP:	2.916	Y_WP:	0.706	Y_WP:	1.000	X:	0.311	Y:	-0.224	Z:	0.042	yaw:	108.480	yaw rate:	-0.681	Roll:	-2.010	Pitch:	30.000	Yaw:	153.584	Thrust:	100.000
Time:	2.685	Roll Set Point:	-0.254	Pitch Set Point:	-2.541	Yaw Set Point:	-1.893	X_WP:	2.916	Y_WP:	0.706	Y_WP:	1.000	X:	0.311	Y:	-0.224	Z:	0.042	yaw:	108.459	yaw rate:	2.077	Roll:	-2.561	Pitch:	30.000	Yaw:	153.119	Thrust:	100.000
Time:	2.704	Roll Set Point:	-0.256	Pitch Set Point:	-2.541	Yaw Set Point:	-1.893	X_WP:	2.916	Y_WP:	0.705	Y_WP:	1.000	X:	0.311	Y:	-0.224	Z:	0.042	yaw:	108.482	yaw rate:	-2.299	Roll:	-0.965	Pitch:	30.000	Yaw:	153.702	Thrust:	100.000
Time:	2.725	Roll Set Point:	-0.255	Pitch Set Point:	-2.541	Yaw Set Point:	-1.893	X_WP:	2.916	Y_WP:	0.706	Y_WP:	1.000	X:	0.311	Y:	-0.224	Z:	0.042	yaw:	108.471	yaw rate:	1.179	Roll:	-2.653	Pitch:	30.000	Yaw:	153.423	Thrust:	100.000
Time:	2.747	Roll Set Point:	-0.256	Pitch Set Point:	-2.541	Yaw Set Point:	-1.893	X_WP:	2.916	Y_WP:	0.705	Y_WP:	1.000	X:	0.311	Y:	-0.224	Z:	0.042	yaw:	108.484	yaw rate:	-1.352	Roll:	-1.283	Pitch:	30.000	Yaw:	153.812	Thrust:	100.000
Time:	2.765	Roll Set Point:	-0.255	Pitch Set Point:	-2.541	Yaw Set Point:	-1.893	X_WP:	2.916	Y_WP:	0.705	Y_WP:	1.000	X:	0.311	Y:	-0.224	Z:	0.042	yaw:	108.468	yaw rate:	1.637	Roll:	-2.781	Pitch:	30.000	Yaw:	152.965	Thrust:	100.000
Time:	2.784	Roll Set Point:	-0.255	Pitch Set Point:	-2.541	Yaw Set Point:	-1.893	X_WP:	2.916	Y_WP:	0.706	Y_WP:	1.000	X:	0.311	Y:	-0.224	Z:	0.042	yaw:	108.481	yaw rate:	-1.376	Roll:	-1.726	Pitch:	30.000	Yaw:	153.619	Thrust:	100.000
Time:	2.805	Roll Set Point:	-0.256	Pitch Set Point:	-2.541	Yaw Set Point:	-1.894	X_WP:	2.916	Y_WP:	0.706	Y_WP:	1.000	X:	0.311	Y:	-0.224	Z:	0.042	yaw:	108.506	yaw rate:	-2.467	Roll:	-1.040	Pitch:	30.000	Yaw:	153.870	Thrust:	100.000
Time:	2.825	Roll Set Point:	-0.255	Pitch Set Point:	-2.541	Yaw Set Point:	-1.893	X_WP:	2.916	Y_WP:	0.706	Y_WP:	1.000	X:	0.311	Y:	-0.224	Z:	0.042	yaw:	108.480	yaw rate:	2.576	Roll:	-3.054	Pitch:	30.000	Yaw:	153.173	Thrust:	100.000
Time:	2.847	Roll Set Point:	-0.256	Pitch Set Point:	-2.541	Yaw Set Point:	-1.893	X_WP:	2.916	Y_WP:	0.705	Y_WP:	1.000	X:	0.311	Y:	-0.224	Z:	0.042	yaw:	108.482	yaw rate:	-0.116	Roll:	-1.726	Pitch:	30.000	Yaw:	153.574	Thrust:	100.000
Time:	2.865	Roll Set Point:	-0.256	Pitch Set Point:	-2.541	Yaw Set Point:	-1.894	X_WP:	2.916	Y_WP:	0.706	Y_WP:	1.000	X:	0.311	Y:	-0.224	Z:	0.042	yaw:	108.495	yaw rate:	-1.301	Roll:	-1.663	Pitch:	30.000	Yaw:	153.503	Thrust:	100.000
Time:	2.884	Roll Set Point:	-0.254	Pitch Set Point:	-2.541	Yaw Set Point:	-1.893	X_WP:	2.916	Y_WP:	0.706	Y_WP:	1.000	X:	0.311	Y:	-0.224	Z:	0.042	yaw:	108.455	yaw rate:	3.929	Roll:	-3.727	Pitch:	30.000	Yaw:	152.866	Thrust:	100.000
Time:	2.905	Roll Set Point:	-0.256	Pitch Set Point:	-2.541	Yaw Set Point:	-1.894	X_WP:	2.916	Y_WP:	0.705	Y_WP:	1.000	X:	0.311	Y:	-0.224	Z:	0.042	yaw:	108.491	yaw rate:	-3.573	Roll:	-0.274	Pitch:	30.000	Yaw:	153.995	Thrust:	100.000
Time:	2.925	Roll Set Point:	-0.255	Pitch Set Point:	-2.541	Yaw Set Point:	-1.893	X_WP:	2.916	Y_WP:	0.705	Y_WP:	1.000	X:	0.311	Y:	-0.224	Z:	0.042	yaw:	108.477	yaw rate:	1.367	Roll:	-2.582	Pitch:	30.000	Yaw:	153.336	Thrust:	100.000
Time:	2.945	Roll Set Point:	-0.256	Pitch Set Point:	-2.541	Yaw Set Point:	-1.894	X_WP:	2.916	Y_WP:	0.706	Y_WP:	1.000	X:	0.311	Y:	-0.224	Z:	0.042	yaw:	108.504	yaw rate:	-2.680	Roll:	-1.163	Pitch:	30.000	Yaw:	153.834	Thrust:	100.000
Time:	2.964	Roll Set Point:	-0.256	Pitch Set Point:	-2.541	Yaw Set Point:	-1.894	X_WP:	2.916	Y_WP:	0.705	Y_WP:	1.000	X:	0.311	Y:	-0.224	Z:	0.042	yaw:	108.495	yaw rate:	0.954	Roll:	-2.178	Pitch:	30.000	Yaw:	153.277	Thrust:	100.000
Time:	2.984	Roll Set Point:	-0.254	Pitch Set Point:	-2.541	Yaw Set Point:	-1.893	X_WP:	2.916	Y_WP:	0.705	Y_WP:	1.000	X:	0.311	Y:	-0.224	Z:	0.042	yaw:	108.449	yaw rate:	4.511	Roll:	-3.944	Pitch:	30.000	Yaw:	152.833	Thrust:	100.000
Time:	3.005	Roll Set Point:	-0.255	Pitch Set Point:	-2.541	Yaw Set Point:	-1.893	X_WP:	2.916	Y_WP:	0.706	Y_WP:	1.000	X:	0.311	Y:	-0.224	Z:	0.042	yaw:	108.476	yaw rate:	-2.610	Roll:	-1.064	Pitch:	30.000	Yaw:	153.844	Thrust:	100.000
Time:	3.025	Roll Set Point:	-0.255	Pitch Set Point:	-2.541	Yaw Set Point:	-1.893	X_WP:	2.916	Y_WP:	0.705	Y_WP:	1.000	X:	0.311	Y:	-0.224	Z:	0.042	yaw:	108.477	yaw rate:	-0.136	Roll:	-1.907	Pitch:	30.000	Yaw:	153.458	Thrust:	100.000
Time:	3.046	Roll Set Point:	-0.255	Pitch Set Point:	-2.541	Yaw Set Point:	-1.893	X_WP:	2.916	Y_WP:	0.705	Y_WP:	1.000	X:	0.311	Y:	-0.224	Z:	0.042	yaw:	108.469	yaw rate:	0.775	Roll:	-2.375	Pitch:	30.000	Yaw:	153.380	Thrust:	100.000
Time:	3.065	Roll Set Point:	-0.255	Pitch Set Point:	-2.541	Yaw Set Point:	-1.893	X_WP:	2.916	Y_WP:	0.705	Y_WP:	1.000	X:	0.311	Y:	-0.224	Z:	0.042	yaw:	108.471	yaw rate:	-0.223	Roll:	-1.986	Pitch:	30.000	Yaw:	153.503	Thrust:	100.000
Time:	3.085	Roll Set Point:	-0.252	Pitch Set Point:	-2.541	Yaw Set Point:	-1.892	X_WP:	2.916	Y_WP:	0.706	Y_WP:	1.000	X:	0.311	Y:	-0.224	Z:	0.042	yaw:	108.408	yaw rate:	6.343	Roll:	-4.930	Pitch:	30.000	Yaw:	152.544	Thrust:	100.000
Time:	3.123	Roll Set Point:	-0.256	Pitch Set Point:	-2.541	Yaw Set Point:	-1.893	X_WP:	2.916	Y_WP:	0.706	Y_WP:	1.000	X:	0.311	Y:	-0.224	Z:	0.042	yaw:	108.484	yaw rate:	-7.568	Roll:	-0.679	Pitch:	30.000	Yaw:	155.709	Thrust:	100.000
Time:	3.135	Roll Set Point:	-0.256	Pitch Set Point:	-2.541	Yaw Set Point:	-1.893	X_WP:	2.916	Y_WP:	0.705	Y_WP:	1.000	X:	0.311	Y:	-0.224	Z:	0.042	yaw:	108.485	yaw rate:	-0.145	Roll:	-1.663	Pitch:	30.000	Yaw:	152.796	Thrust:	100.000
Time:	3.155	Roll Set Point:	-0.254	Pitch Set Point:	-2.541	Yaw Set Point:	-1.893	X_WP:	2.916	Y_WP:	0.706	Y_WP:	1.000	X:	0.311	Y:	-0.224	Z:	0.042	yaw:	108.465	yaw rate:	2.042	Roll:	-3.243	Pitch:	30.000	Yaw:	153.130	Thrust:	100.000
Time:	3.174	Roll Set Point:	-0.256	Pitch Set Point:	-2.541	Yaw Set Point:	-1.893	X_WP:	2.916	Y_WP:	0.705	Y_WP:	1.000	X:	0.311	Y:	-0.224	Z:	0.042	yaw:	108.487	yaw rate:	-2.197	Roll:	-0.900	Pitch:	30.000	Yaw:	153.732	Thrust:	100.000
Time:	3.195	Roll Set Point:	-0.257	Pitch Set Point:	-2.541	Yaw Set Point:	-1.894	X_WP:	2.916	Y_WP:	0.706	Y_WP:	1.000	X:	0.311	Y:	-0.224	Z:	0.042	yaw:	108.514	yaw rate:	-2.770	Roll:	-1.138	Pitch:	30.000	Yaw:	153.923	Thrust:	100.000
Time:	3.215	Roll Set Point:	-0.255	Pitch Set Point:	-2.541	Yaw Set Point:	-1.893	X_WP:	2.916	Y_WP:	0.705	Y_WP:	1.000	X:	0.311	Y:	-0.224	Z:	0.042	yaw:	108.470	yaw rate:	4.469	Roll:	-3.577	Pitch:	30.000	Yaw:	152.870	Thrust:	100.000
Time:	3.235	Roll Set Point:	-0.256	Pitch Set Point:	-2.541	Yaw Set Point:	-1.893	X_WP:	2.916	Y_WP:	0.705	Y_WP:	1.000	X:	0.311	Y:	-0.224	Z:	0.042	yaw:	108.487	yaw rate:	-1.720	Roll:	-1.414	Pitch:	30.000	Yaw:	153.696	Thrust:	100.000
Time:	3.255	Roll Set Point:	-0.255	Pitch Set Point:	-2.541	Yaw Set Point:	-1.893	X_WP:	2.916	Y_WP:	0.705	Y_WP:	1.000	X:	0.311	Y:	-0.224	Z:	0.042	yaw:	108.468	yaw rate:	1.861	Roll:	-2.838	Pitch:	30.000	Yaw:	153.234	Thrust:	100.000
Time:	3.274	Roll Set Point:	-0.256	Pitch Set Point:	-2.541	Yaw Set Point:	-1.893	X_WP:	2.916	Y_WP:	0.705	Y_WP:	1.000	X:	0.311	Y:	-0.224	Z:	0.042	yaw:	108.483	yaw rate:	-1.521	Roll:	-1.382	Pitch:	30.000	Yaw:	153.614	Thrust:	100.000
Time:	3.295	Roll Set Point:	-0.255	Pitch Set Point:	-2.541	Yaw Set Point:	-1.893	X_WP:	2.916	Y_WP:	0.705	Y_WP:	1.000	X:	0.311	Y:	-0.224	Z:	0.042	yaw:	108.479	yaw rate:	0.413	Roll:	-2.285	Pitch:	30.000	Yaw:	153.470	Thrust:	100.000
Time:	3.315	Roll Set Point:	-0.255	Pitch Set Point:	-2.541	Yaw Set Point:	-1.893	X_WP:	2.916	Y_WP:	0.705	Y_WP:	1.000	X:	0.311	Y:	-0.224	Z:	0.042	yaw:	108.463	yaw rate:	1.647	Roll:	-2.821	Pitch:	30.000	Yaw:	153.225	Thrust:	100.000
Time:	3.335	Roll Set Point:	-0.255	Pitch Set Point:	-2.541	Yaw Set Point:	-1.893	X_WP:	2.916	Y_WP:	0.705	Y_WP:	1.000	X:	0.311	Y:	-0.224	Z:	0.042	yaw:	108.472	yaw rate:	-0.889	Roll:	-1.611	Pitch:	30.000	Yaw:	153.589	Thrust:	100.000
Time:	3.355	Roll Set Point:	-0.255	Pitch Set Point:	-2.541	Yaw Set Point:	-1.893	X_WP:	2.916	Y_WP:	0.705	Y_WP:	1.000	X:	0.311	Y:	-0.224	Z:	0.042	yaw:	108.477	yaw rate:	-0.567	Roll:	-1.875	Pitch:	30.000	Yaw:	153.556	Thrust:	100.000
Time:	3.375	Roll Set Point:	-0.255	Pitch Set Point:	-2.541	Yaw Set Point:	-1.893	X_WP:	2.916	Y_WP:	0.705	Y_WP:	1.000	X:	0.311	Y:	-0.224	Z:	0.042	yaw:	108.478	yaw rate:	-0.072	Roll:	-2.108	Pitch:	30.000	Yaw:	153.426	Thrust:	100.000
Time:	3.395	Roll Set Point:	-0.255	Pitch Set Point:	-2.541	Yaw Set Point:	-1.893	X_WP:	2.916	Y_WP:	0.705	Y_WP:	1.000	X:	0.311	Y:	-0.224	Z:	0.042	yaw:	108.474	yaw rate:	0.419	Roll:	-2.261	Pitch:	30.000	Yaw:	153.397	Thrust:	100.000
Time:	3.414	Roll Set Point:	-0.255	Pitch Set Point:	-2.541	Yaw Set Point:	-1.893	X_WP:	2.916	Y_WP:	0.705	Y_WP:	1.000	X:	0.311	Y:	-0.224	Z:	0.042	yaw:	108.474	yaw rate:	0.015	Roll:	-2.059	Pitch:	30.000	Yaw:	153.423	Thrust:	100.000
Time:	3.435	Roll Set Point:	-0.255	Pitch Set Point:	-2.541	Yaw Set Point:	-1.893	X_WP:	2.916	Y_WP:	0.705	Y_WP:	1.000	X:	0.311	Y:	-0.224	Z:	0.042	yaw:	108.471	yaw rate:	0.325	Roll:	-2.316	Pitch:	30.000	Yaw:	153.483	Thrust:	100.000
Time:	3.455	Roll Set Point:	-0.253	Pitch Set Point:	-2.541	Yaw Set Point:	-1.893	X_WP:	2.916	Y_WP:	0.706	Y_WP:	1.000	X:	0.311	Y:	-0.224	Z:	0.042	yaw:	108.433	yaw rate:	3.742	Roll:	-3.796	Pitch:	30.000	Yaw:	152.884	Thrust:	100.000
Time:	3.475	Roll Set Point:	-0.256	Pitch Set Point:	-2.541	Yaw Set Point:	-1.893	X_WP:	2.916	Y_WP:	0.705	Y_WP:	1.000	X:	0.311	Y:	-0.224	Z:	0.042	yaw:	108.484	yaw rate:	-5.047	Roll:	0.016	Pitch:	30.000	Yaw:	154.121	Thrust:	100.000
Time:	3.495	Roll Set Point:	-0.255	Pitch Set Point:	-2.541	Yaw Set Point:	-1.893	X_WP:	2.916	Y_WP:	0.706	Y_WP:	1.000	X:	0.311	Y:	-0.224	Z:	0.042	yaw:	108.465	yaw rate:	1.902	Roll:	-2.953	Pitch:	30.000	Yaw:	153.202	Thrust:	100.000
Time:	3.516	Roll Set Point:	-0.255	Pitch Set Point:	-2.541	Yaw Set Point:	-1.893	X_WP:	2.916	Y_WP:	0.706	Y_WP:	1.000	X:	0.311	Y:	-0.224	Z:	0.042	yaw:	108.479	yaw rate:	-1.423	Roll:	-1.819	Pitch:	30.000	Yaw:	153.744	Thrust:	100.000
Time:	3.536	Roll Set Point:	-0.255	Pitch Set Point:	-2.541	Yaw Set Point:	-1.893	X_WP:	2.916	Y_WP:	0.705	Y_WP:	1.000	X:	0.311	Y:	-0.224	Z:	0.042	yaw:	108.467	yaw rate:	1.185	Roll:	-2.317	Pitch:	30.000	Yaw:	153.300	Thrust:	100.000
Time:	3.556	Roll Set Point:	-0.255	Pitch Set Point:	-2.541	Yaw Set Point:	-1.893	X_WP:	2.916	Y_WP:	0.706	Y_WP:	1.000	X:	0.311	Y:	-0.224	Z:	0.042	yaw:	108.475	yaw rate:	-0.835	Roll:	-1.984	Pitch:	30.000	Yaw:	153.577	Thrust:	100.000
Time:	3.576	Roll Set Point:	-0.255	Pitch Set Point:	-2.541	Yaw Set Point:	-1.893	X_WP:	2.916	Y_WP:	0.705	Y_WP:	1.000	X:	0.311	Y:	-0.224	Z:	0.042	yaw:	108.463	yaw rate:	1.271	Roll:	-2.499	Pitch:	30.000	Yaw:	153.323	Thrust:	100.000
Time:	3.596	Roll Set Point:	-0.256	Pitch Set Point:	-2.541	Yaw Set Point:	-1.894	X_WP:	2.916	Y_WP:	0.705	Y_WP:	1.000	X:	0.311	Y:	-0.224	Z:	0.042	yaw:	108.496	yaw rate:	-3.306	Roll:	-0.641	Pitch:	30.000	Yaw:	153.893	Thrust:	100.000
Time:	3.617	Roll Set Point:	-0.256	Pitch Set Point:	-2.541	Yaw Set Point:	-1.894	X_WP:	2.916	Y_WP:	0.705	Y_WP:	1.000	X:	0.311	Y:	-0.224	Z:	0.042	yaw:	108.491	yaw rate:	0.477	Roll:	-2.350	Pitch:	30.000	Yaw:	153.396	Thrust:	100.000
Time:	3.636	Roll Set Point:	-0.255	Pitch Set Point:	-2.541	Yaw Set Point:	-1.893	X_WP:	2.916	Y_WP:	0.706	Y_WP:	1.000	X:	0.311	Y:	-0.224	Z:	0.042	yaw:	108.478	yaw rate:	1.245	Roll:	-2.702	Pitch:	30.000	Yaw:	153.347	Thrust:	100.000
Time:	3.656	Roll Set Point:	-0.256	Pitch Set Point:	-2.541	Yaw Set Point:	-1.893	X_WP:	2.916	Y_WP:	0.705	Y_WP:	1.000	X:	0.311	Y:	-0.224	Z:	0.042	yaw:	108.481	yaw rate:	-0.294	Roll:	-1.954	Pitch:	30.000	Yaw:	153.474	Thrust:	100.000
Time:	3.675	Roll Set Point:	-0.255	Pitch Set Point:	-2.541	Yaw Set Point:	-1.893	X_WP:	2.916	Y_WP:	0.706	Y_WP:	1.000	X:	0.311	Y:	-0.224	Z:	0.042	yaw:	108.468	yaw rate:	1.379	Roll:	-2.752	Pitch:	30.000	Yaw:	153.229	Thrust:	100.000
Time:	3.697	Roll Set Point:	-0.255	Pitch Set Point:	-2.541	Yaw Set Point:	-1.893	X_WP:	2.916	Y_WP:	0.705	Y_WP:	1.000	X:	0.311	Y:	-0.224	Z:	0.042	yaw:	108.475	yaw rate:	-0.700	Roll:	-1.813	Pitch:	30.000	Yaw:	153.610	Thrust:	100.000
Time:	3.717	Roll Set Point:	-0.256	Pitch Set Point:	-2.541	Yaw Set Point:	-1.893	X_WP:	2.916	Y_WP:	0.706	Y_WP:	1.000	X:	0.311	Y:	-0.224	Z:	0.042	yaw:	108.483	yaw rate:	-0.803	Roll:	-1.941	Pitch:	30.000	Yaw:	153.565	Thrust:	100.000
Time:	3.736	Roll Set Point:	-0.255	Pitch Set Point:	-2.541	Yaw Set Point:	-1.893	X_WP:	2.916	Y_WP:	0.706	Y_WP:	1.000	X:	0.311	Y:	-0.224	Z:	0.042	yaw:	108.471	yaw rate:	1.175	Roll:	-2.784	Pitch:	30.000	Yaw:	153.240	Thrust:	100.000
Time:	3.755	Roll Set Point:	-0.252	Pitch Set Point:	-2.541	Yaw Set Point:	-1.892	X_WP:	2.916	Y_WP:	0.706	Y_WP:	1.000	X:	0.311	Y:	-0.224	Z:	0.042	yaw:	108.416	yaw rate:	5.452	Roll:	-4.497	Pitch:	30.000	Yaw:	152.581	Thrust:	100.000
Time:	3.775	Roll Set Point:	-0.254	Pitch Set Point:	-2.541	Yaw Set Point:	-1.893	X_WP:	2.916	Y_WP:	0.706	Y_WP:	1.000	X:	0.311	Y:	-0.224	Z:	0.042	yaw:	108.454	yaw rate:	-3.716	Roll:	-0.501	Pitch:	30.000	Yaw:	153.915	Thrust:	100.000
Time:	3.795	Roll Set Point:	-0.254	Pitch Set Point:	-2.541	Yaw Set Point:	-1.893	X_WP:	2.916	Y_WP:	0.705	Y_WP:	1.000	X:	0.311	Y:	-0.224	Z:	0.042	yaw:	108.459	yaw rate:	-0.564	Roll:	-1.929	Pitch:	30.000	Yaw:	153.571	Thrust:	100.000
Time:	3.817	Roll Set Point:	-0.256	Pitch Set Point:	-2.541	Yaw Set Point:	-1.894	X_WP:	2.916	Y_WP:	0.706	Y_WP:	1.000	X:	0.311	Y:	-0.224	Z:	0.042	yaw:	108.500	yaw rate:	-4.046	Roll:	-0.646	Pitch:	30.000	Yaw:	154.160	Thrust:	100.000
Time:	3.836	Roll Set Point:	-0.256	Pitch Set Point:	-2.541	Yaw Set Point:	-1.894	X_WP:	2.916	Y_WP:	0.706	Y_WP:	1.000	X:	0.311	Y:	-0.224	Z:	0.042	yaw:	108.501	yaw rate:	-0.180	Roll:	-2.183	Pitch:	30.000	Yaw:	153.359	Thrust:	100.000
Time:	3.856	Roll Set Point:	-0.256	Pitch Set Point:	-2.541	Yaw Set Point:	-1.894	X_WP:	2.916	Y_WP:	0.705	Y_WP:	1.000	X:	0.311	Y:	-0.224	Z:	0.042	yaw:	108.490	yaw rate:	1.169	Roll:	-2.388	Pitch:	30.000	Yaw:	153.346	Thrust:	100.000
Time:	3.876	Roll Set Point:	-0.255	Pitch Set Point:	-2.541	Yaw Set Point:	-1.893	X_WP:	2.916	Y_WP:	0.705	Y_WP:	1.000	X:	0.311	Y:	-0.224	Z:	0.042	yaw:	108.460	yaw rate:	2.999	Roll:	-3.357	Pitch:	30.000	Yaw:	153.090	Thrust:	100.000
Time:	3.896	Roll Set Point:	-0.255	Pitch Set Point:	-2.541	Yaw Set Point:	-1.893	X_WP:	2.916	Y_WP:	0.706	Y_WP:	1.000	X:	0.311	Y:	-0.224	Z:	0.042	yaw:	108.475	yaw rate:	-1.475	Roll:	-1.950	Pitch:	30.000	Yaw:	153.618	Thrust:	100.000
Time:	3.917	Roll Set Point:	-0.255	Pitch Set Point:	-2.541	Yaw Set Point:	-1.893	X_WP:	2.916	Y_WP:	0.705	Y_WP:	1.000	X:	0.311	Y:	-0.224	Z:	0.042	yaw:	108.464	yaw rate:	1.071	Roll:	-2.264	Pitch:	30.000	Yaw:	153.415	Thrust:	100.000
Time:	3.936	Roll Set Point:	-0.255	Pitch Set Point:	-2.541	Yaw Set Point:	-1.893	X_WP:	2.916	Y_WP:	0.705	Y_WP:	1.000	X:	0.311	Y:	-0.224	Z:	0.042	yaw:	108.469	yaw rate:	-0.508	Roll:	-1.921	Pitch:	30.000	Yaw:	153.434	Thrust:	100.000
Time:	3.956	Roll Set Point:	-0.256	Pitch Set Point:	-2.541	Yaw Set Point:	-1.893	X_WP:	2.916	Y_WP:	0.705	Y_WP:	1.000	X:	0.311	Y:	-0.224	Z:	0.042	yaw:	108.482	yaw rate:	-1.276	Roll:	-1.754	Pitch:	30.000	Yaw:	153.611	Thrust:	100.000
Time:	3.975	Roll Set Point:	-0.256	Pitch Set Point:	-2.541	Yaw Set Point:	-1.894	X_WP:	2.916	Y_WP:	0.706	Y_WP:	1.000	X:	0.311	Y:	-0.224	Z:	0.042	yaw:	108.492	yaw rate:	-1.041	Roll:	-1.981	Pitch:	30.000	Yaw:	153.601	Thrust:	100.000
Time:	3.996	Roll Set Point:	-0.256	Pitch Set Point:	-2.541	Yaw Set Point:	-1.893	X_WP:	2.916	Y_WP:	0.705	Y_WP:	1.000	X:	0.311	Y:	-0.224	Z:	0.042	yaw:	108.487	yaw rate:	0.553	Roll:	-2.053	Pitch:	30.000	Yaw:	153.468	Thrust:	100.000
Time:	4.017	Roll Set Point:	-0.255	Pitch Set Point:	-2.541	Yaw Set Point:	-1.893	X_WP:	2.916	Y_WP:	0.705	Y_WP:	1.000	X:	0.311	Y:	-0.224	Z:	0.042	yaw:	108.464	yaw rate:	2.233	Roll:	-3.168	Pitch:	30.000	Yaw:	153.114	Thrust:	100.000
Time:	4.036	Roll Set Point:	-0.255	Pitch Set Point:	-2.541	Yaw Set Point:	-1.893	X_WP:	2.916	Y_WP:	0.706	Y_WP:	1.000	X:	0.311	Y:	-0.224	Z:	0.042	yaw:	108.471	yaw rate:	-0.687	Roll:	-2.020	Pitch:	30.000	Yaw:	153.522	Thrust:	100.000
Time:	4.056	Roll Set Point:	-0.256	Pitch Set Point:	-2.541	Yaw Set Point:	-1.894	X_WP:	2.916	Y_WP:	0.705	Y_WP:	1.000	X:	0.311	Y:	-0.224	Z:	0.042	yaw:	108.494	yaw rate:	-2.247	Roll:	-1.205	Pitch:	30.000	Yaw:	153.809	Thrust:	100.000
Time:	4.076	Roll Set Point:	-0.255	Pitch Set Point:	-2.541	Yaw Set Point:	-1.893	X_WP:	2.916	Y_WP:	0.705	Y_WP:	1.000	X:	0.311	Y:	-0.224	Z:	0.042	yaw:	108.460	yaw rate:	3.331	Roll:	-3.580	Pitch:	30.000	Yaw:	152.970	Thrust:	100.000
Time:	4.097	Roll Set Point:	-0.255	Pitch Set Point:	-2.541	Yaw Set Point:	-1.893	X_WP:	2.916	Y_WP:	0.705	Y_WP:	1.000	X:	0.311	Y:	-0.224	Z:	0.042	yaw:	108.475	yaw rate:	-1.426	Roll:	-1.646	Pitch:	30.000	Yaw:	153.702	Thrust:	100.000
Time:	4.118	Roll Set Point:	-0.256	Pitch Set Point:	-2.541	Yaw Set Point:	-1.894	X_WP:	2.916	Y_WP:	0.706	Y_WP:	1.000	X:	0.311	Y:	-0.224	Z:	0.042	yaw:	108.493	yaw rate:	-1.814	Roll:	-1.850	Pitch:	30.000	Yaw:	153.877	Thrust:	100.000
Time:	4.136	Roll Set Point:	-0.254	Pitch Set Point:	-2.541	Yaw Set Point:	-1.893	X_WP:	2.916	Y_WP:	0.705	Y_WP:	1.000	X:	0.311	Y:	-0.224	Z:	0.042	yaw:	108.453	yaw rate:	3.915	Roll:	-3.598	Pitch:	30.000	Yaw:	152.635	Thrust:	100.000
Time:	4.156	Roll Set Point:	-0.256	Pitch Set Point:	-2.541	Yaw Set Point:	-1.893	X_WP:	2.916	Y_WP:	0.706	Y_WP:	1.000	X:	0.311	Y:	-0.224	Z:	0.042	yaw:	108.484	yaw rate:	-3.011	Roll:	-0.958	Pitch:	30.000	Yaw:	153.866	Thrust:	100.000
Time:	4.176	Roll Set Point:	-0.255	Pitch Set Point:	-2.541	Yaw Set Point:	-1.893	X_WP:	2.916	Y_WP:	0.706	Y_WP:	1.000	X:	0.311	Y:	-0.224	Z:	0.042	yaw:	108.480	yaw rate:	0.356	Roll:	-2.610	Pitch:	30.000	Yaw:	153.356	Thrust:	100.000
Time:	4.196	Roll Set Point:	-0.254	Pitch Set Point:	-2.541	Yaw Set Point:	-1.893	X_WP:	2.916	Y_WP:	0.706	Y_WP:	1.000	X:	0.311	Y:	-0.224	Z:	0.042	yaw:	108.464	yaw rate:	1.570	Roll:	-2.940	Pitch:	30.000	Yaw:	153.314	Thrust:	100.000
Time:	4.217	Roll Set Point:	-0.256	Pitch Set Point:	-2.541	Yaw Set Point:	-1.893	X_WP:	2.916	Y_WP:	0.705	Y_WP:	1.000	X:	0.311	Y:	-0.224	Z:	0.042	yaw:	108.481	yaw rate:	-1.640	Roll:	-1.155	Pitch:	30.000	Yaw:	153.755	Thrust:	100.000
Time:	4.236	Roll Set Point:	-0.256	Pitch Set Point:	-2.541	Yaw Set Point:	-1.894	X_WP:	2.916	Y_WP:	0.705	Y_WP:	1.000	X:	0.311	Y:	-0.224	Z:	0.042	yaw:	108.500	yaw rate:	-1.886	Roll:	-1.379	Pitch:	30.000	Yaw:	153.629	Thrust:	100.000
Time:	4.256	Roll Set Point:	-0.255	Pitch Set Point:	-2.541	Yaw Set Point:	-1.893	X_WP:	2.916	Y_WP:	0.706	Y_WP:	1.000	X:	0.311	Y:	-0.224	Z:	0.042	yaw:	108.484	yaw rate:	1.603	Roll:	-3.157	Pitch:	30.000	Yaw:	153.298	Thrust:	100.000
Time:	4.276	Roll Set Point:	-0.255	Pitch Set Point:	-2.541	Yaw Set Point:	-1.893	X_WP:	2.916	Y_WP:	0.706	Y_WP:	1.000	X:	0.311	Y:	-0.224	Z:	0.042	yaw:	108.471	yaw rate:	1.217	Roll:	-2.510	Pitch:	30.000	Yaw:	153.378	Thrust:	100.000
Time:	4.296	Roll Set Point:	-0.255	Pitch Set Point:	-2.541	Yaw Set Point:	-1.893	X_WP:	2.916	Y_WP:	0.706	Y_WP:	1.000	X:	0.311	Y:	-0.224	Z:	0.042	yaw:	108.477	yaw rate:	-0.605	Roll:	-1.993	Pitch:	30.000	Yaw:	153.460	Thrust:	100.000
Time:	4.317	Roll Set Point:	-0.254	Pitch Set Point:	-2.541	Yaw Set Point:	-1.893	X_WP:	2.916	Y_WP:	0.706	Y_WP:	1.000	X:	0.311	Y:	-0.224	Z:	0.042	yaw:	108.460	yaw rate:	1.737	Roll:	-2.957	Pitch:	30.000	Yaw:	153.371	Thrust:	100.000
Time:	4.336	Roll Set Point:	-0.254	Pitch Set Point:	-2.541	Yaw Set Point:	-1.893	X_WP:	2.916	Y_WP:	0.706	Y_WP:	1.000	X:	0.311	Y:	-0.224	Z:	0.042	yaw:	108.454	yaw rate:	0.615	Roll:	-2.442	Pitch:	30.000	Yaw:	153.266	Thrust:	100.000
Time:	4.356	Roll Set Point:	-0.255	Pitch Set Point:	-2.541	Yaw Set Point:	-1.893	X_WP:	2.916	Y_WP:	0.705	Y_WP:	1.000	X:	0.311	Y:	-0.224	Z:	0.042	yaw:	108.475	yaw rate:	-2.105	Roll:	-1.374	Pitch:	30.000	Yaw:	153.721	Thrust:	100.000
Time:	4.376	Roll Set Point:	-0.256	Pitch Set Point:	-2.541	Yaw Set Point:	-1.894	X_WP:	2.916	Y_WP:	0.705	Y_WP:	1.000	X:	0.311	Y:	-0.224	Z:	0.042	yaw:	108.491	yaw rate:	-1.640	Roll:	-1.484	Pitch:	30.000	Yaw:	153.693	Thrust:	100.000
Time:	4.396	Roll Set Point:	-0.255	Pitch Set Point:	-2.541	Yaw Set Point:	-1.893	X_WP:	2.916	Y_WP:	0.706	Y_WP:	1.000	X:	0.311	Y:	-0.224	Z:	0.042	yaw:	108.482	yaw rate:	0.929	Roll:	-2.901	Pitch:	30.000	Yaw:	153.365	Thrust:	100.000
Time:	4.416	Roll Set Point:	-0.255	Pitch Set Point:	-2.541	Yaw Set Point:	-1.893	X_WP:	2.916	Y_WP:	0.706	Y_WP:	1.000	X:	0.311	Y:	-0.224	Z:	0.042	yaw:	108.481	yaw rate:	0.124	Roll:	-2.092	Pitch:	30.000	Yaw:	153.348	Thrust:	100.000
Time:	4.436	Roll Set Point:	-0.256	Pitch Set Point:	-2.541	Yaw Set Point:	-1.894	X_WP:	2.916	Y_WP:	0.706	Y_WP:	1.000	X:	0.311	Y:	-0.224	Z:	0.042	yaw:	108.490	yaw rate:	-0.875	Roll:	-1.876	Pitch:	30.000	Yaw:	153.677	Thrust:	100.000
Time:	4.456	Roll Set Point:	-0.255	Pitch Set Point:	-2.541	Yaw Set Point:	-1.893	X_WP:	2.916	Y_WP:	0.706	Y_WP:	1.000	X:	0.311	Y:	-0.224	Z:	0.042	yaw:	108.472	yaw rate:	1.774	Roll:	-2.983	Pitch:	30.000	Yaw:	153.238	Thrust:	100.000
Time:	4.476	Roll Set Point:	-0.256	Pitch Set Point:	-2.541	Yaw Set Point:	-1.893	X_WP:	2.916	Y_WP:	0.706	Y_WP:	1.000	X:	0.311	Y:	-0.224	Z:	0.042	yaw:	108.487	yaw rate:	-1.473	Roll:	-1.802	Pitch:	30.000	Yaw:	153.569	Thrust:	100.000
Time:	4.496	Roll Set Point:	-0.256	Pitch Set Point:	-2.541	Yaw Set Point:	-1.893	X_WP:	2.916	Y_WP:	0.705	Y_WP:	1.000	X:	0.311	Y:	-0.224	Z:	0.042	yaw:	108.487	yaw rate:	-0.083	Roll:	-1.973	Pitch:	30.000	Yaw:	153.554	Thrust:	100.000
Time:	4.516	Roll Set Point:	-0.255	Pitch Set Point:	-2.541	Yaw Set Point:	-1.893	X_WP:	2.916	Y_WP:	0.706	Y_WP:	1.000	X:	0.311	Y:	-0.224	Z:	0.042	yaw:	108.463	yaw rate:	2.492	Roll:	-3.357	Pitch:	30.000	Yaw:	153.094	Thrust:	100.000
Time:	4.536	Roll Set Point:	-0.256	Pitch Set Point:	-2.541	Yaw Set Point:	-1.894	X_WP:	2.916	Y_WP:	0.705	Y_WP:	1.000	X:	0.311	Y:	-0.224	Z:	0.042	yaw:	108.491	yaw rate:	-2.863	Roll:	-0.971	Pitch:	30.000	Yaw:	153.862	Thrust:	100.000
Time:	4.556	Roll Set Point:	-0.255	Pitch Set Point:	-2.541	Yaw Set Point:	-1.893	X_WP:	2.916	Y_WP:	0.706	Y_WP:	1.000	X:	0.311	Y:	-0.224	Z:	0.042	yaw:	108.486	yaw rate:	0.523	Roll:	-2.886	Pitch:	30.000	Yaw:	153.469	Thrust:	100.000
Time:	4.576	Roll Set Point:	-0.256	Pitch Set Point:	-2.541	Yaw Set Point:	-1.894	X_WP:	2.916	Y_WP:	0.706	Y_WP:	1.000	X:	0.311	Y:	-0.224	Z:	0.042	yaw:	108.498	yaw rate:	-1.207	Roll:	-1.396	Pitch:	30.000	Yaw:	153.663	Thrust:	100.000
Time:	4.595	Roll Set Point:	-0.255	Pitch Set Point:	-2.541	Yaw Set Point:	-1.893	X_WP:	2.916	Y_WP:	0.705	Y_WP:	1.000	X:	0.311	Y:	-0.224	Z:	0.042	yaw:	108.472	yaw rate:	2.586	Roll:	-3.265	Pitch:	30.000	Yaw:	153.026	Thrust:	100.000
Time:	4.616	Roll Set Point:	-0.256	Pitch Set Point:	-2.541	Yaw Set Point:	-1.894	X_WP:	2.916	Y_WP:	0.706	Y_WP:	1.000	X:	0.311	Y:	-0.224	Z:	0.042	yaw:	108.503	yaw rate:	-3.113	Roll:	-1.105	Pitch:	30.000	Yaw:	153.962	Thrust:	100.000
Time:	4.636	Roll Set Point:	-0.256	Pitch Set Point:	-2.541	Yaw Set Point:	-1.893	X_WP:	2.916	Y_WP:	0.706	Y_WP:	1.000	X:	0.311	Y:	-0.224	Z:	0.042	yaw:	108.489	yaw rate:	1.446	Roll:	-3.085	Pitch:	30.000	Yaw:	153.249	Thrust:	100.000
Time:	4.656	Roll Set Point:	-0.255	Pitch Set Point:	-2.541	Yaw Set Point:	-1.893	X_WP:	2.916	Y_WP:	0.705	Y_WP:	1.000	X:	0.311	Y:	-0.224	Z:	0.042	yaw:	108.466	yaw rate:	2.299	Roll:	-2.833	Pitch:	30.000	Yaw:	153.133	Thrust:	100.000
Time:	4.675	Roll Set Point:	-0.256	Pitch Set Point:	-2.541	Yaw Set Point:	-1.894	X_WP:	2.916	Y_WP:	0.706	Y_WP:	1.000	X:	0.311	Y:	-0.224	Z:	0.042	yaw:	108.490	yaw rate:	-2.390	Roll:	-1.302	Pitch:	30.000	Yaw:	153.765	Thrust:	100.000
Time:	4.696	Roll Set Point:	-0.256	Pitch Set Point:	-2.541	Yaw Set Point:	-1.893	X_WP:	2.916	Y_WP:	0.706	Y_WP:	1.000	X:	0.311	Y:	-0.224	Z:	0.042	yaw:	108.484	yaw rate:	0.597	Roll:	-2.628	Pitch:	30.000	Yaw:	153.411	Thrust:	100.000
Time:	4.717	Roll Set Point:	-0.252	Pitch Set Point:	-2.541	Yaw Set Point:	-1.892	X_WP:	2.916	Y_WP:	0.706	Y_WP:	1.000	X:	0.311	Y:	-0.224	Z:	0.042	yaw:	108.411	yaw rate:	7.294	Roll:	-5.361	Pitch:	30.000	Yaw:	152.462	Thrust:	100.000
Time:	4.736	Roll Set Point:	-0.256	Pitch Set Point:	-2.541	Yaw Set Point:	-1.894	X_WP:	2.916	Y_WP:	0.706	Y_WP:	1.000	X:	0.311	Y:	-0.224	Z:	0.042	yaw:	108.491	yaw rate:	-7.984	Roll:	1.106	Pitch:	30.000	Yaw:	154.530	Thrust:	100.000
Time:	4.756	Roll Set Point:	-0.255	Pitch Set Point:	-2.541	Yaw Set Point:	-1.893	X_WP:	2.916	Y_WP:	0.706	Y_WP:	1.000	X:	0.311	Y:	-0.224	Z:	0.042	yaw:	108.477	yaw rate:	1.404	Roll:	-3.170	Pitch:	30.000	Yaw:	153.190	Thrust:	100.000
Time:	4.785	Roll Set Point:	-0.255	Pitch Set Point:	-2.541	Yaw Set Point:	-1.893	X_WP:	2.916	Y_WP:	0.706	Y_WP:	1.000	X:	0.311	Y:	-0.224	Z:	0.042	yaw:	108.474	yaw rate:	0.271	Roll:	-2.398	Pitch:	30.000	Yaw:	154.385	Thrust:	100.000
Time:	4.798	Roll Set Point:	-0.252	Pitch Set Point:	-2.541	Yaw Set Point:	-1.892	X_WP:	2.916	Y_WP:	0.706	Y_WP:	1.000	X:	0.311	Y:	-0.224	Z:	0.042	yaw:	108.412	yaw rate:	6.146	Roll:	-4.583	Pitch:	30.000	Yaw:	151.525	Thrust:	100.000
Time:	4.816	Roll Set Point:	-0.255	Pitch Set Point:	-2.541	Yaw Set Point:	-1.893	X_WP:	2.916	Y_WP:	0.706	Y_WP:	1.000	X:	0.311	Y:	-0.224	Z:	0.042	yaw:	108.469	yaw rate:	-5.649	Roll:	0.540	Pitch:	30.000	Yaw:	154.054	Thrust:	100.000
Time:	4.837	Roll Set Point:	-0.254	Pitch Set Point:	-2.541	Yaw Set Point:	-1.893	X_WP:	2.916	Y_WP:	0.706	Y_WP:	1.000	X:	0.311	Y:	-0.224	Z:	0.042	yaw:	108.460	yaw rate:	0.938	Roll:	-2.971	Pitch:	30.000	Yaw:	153.407	Thrust:	100.000
Time:	4.856	Roll Set Point:	-0.256	Pitch Set Point:	-2.541	Yaw Set Point:	-1.894	X_WP:	2.916	Y_WP:	0.705	Y_WP:	1.000	X:	0.311	Y:	-0.224	Z:	0.042	yaw:	108.498	yaw rate:	-3.818	Roll:	-0.299	Pitch:	30.000	Yaw:	153.907	Thrust:	100.000
Time:	4.876	Roll Set Point:	-0.255	Pitch Set Point:	-2.541	Yaw Set Point:	-1.893	X_WP:	2.916	Y_WP:	0.706	Y_WP:	1.000	X:	0.311	Y:	-0.224	Z:	0.042	yaw:	108.477	yaw rate:	2.111	Roll:	-3.535	Pitch:	30.000	Yaw:	153.129	Thrust:	100.000
Time:	4.896	Roll Set Point:	-0.255	Pitch Set Point:	-2.541	Yaw Set Point:	-1.893	X_WP:	2.916	Y_WP:	0.706	Y_WP:	1.000	X:	0.311	Y:	-0.224	Z:	0.042	yaw:	108.473	yaw rate:	0.409	Roll:	-2.225	Pitch:	30.000	Yaw:	153.471	Thrust:	100.000
Time:	4.916	Roll Set Point:	-0.256	Pitch Set Point:	-2.541	Yaw Set Point:	-1.894	X_WP:	2.916	Y_WP:	0.706	Y_WP:	1.000	X:	0.311	Y:	-0.224	Z:	0.042	yaw:	108.495	yaw rate:	-2.221	Roll:	-1.452	Pitch:	30.000	Yaw:	153.780	Thrust:	100.000
Time:	4.936	Roll Set Point:	-0.255	Pitch Set Point:	-2.541	Yaw Set Point:	-1.893	X_WP:	2.916	Y_WP:	0.706	Y_WP:	1.000	X:	0.311	Y:	-0.224	Z:	0.042	yaw:	108.477	yaw rate:	1.739	Roll:	-3.200	Pitch:	30.000	Yaw:	153.242	Thrust:	100.000
Time:	4.956	Roll Set Point:	-0.254	Pitch Set Point:	-2.541	Yaw Set Point:	-1.893	X_WP:	2.916	Y_WP:	0.706	Y_WP:	1.000	X:	0.311	Y:	-0.224	Z:	0.042	yaw:	108.458	yaw rate:	1.907	Roll:	-2.918	Pitch:	30.000	Yaw:	153.178	Thrust:	100.000
Time:	4.976	Roll Set Point:	-0.255	Pitch Set Point:	-2.541	Yaw Set Point:	-1.893	X_WP:	2.916	Y_WP:	0.706	Y_WP:	1.000	X:	0.311	Y:	-0.224	Z:	0.042	yaw:	108.463	yaw rate:	-0.514	Roll:	-2.100	Pitch:	30.000	Yaw:	153.555	Thrust:	100.000
Time:	4.996	Roll Set Point:	-0.255	Pitch Set Point:	-2.541	Yaw Set Point:	-1.893	X_WP:	2.916	Y_WP:	0.706	Y_WP:	1.000	X:	0.311	Y:	-0.224	Z:	0.042	yaw:	108.464	yaw rate:	-0.074	Roll:	-2.340	Pitch:	30.000	Yaw:	153.424	Thrust:	100.000
Time:	5.016	Roll Set Point:	-0.254	Pitch Set Point:	-2.541	Yaw Set Point:	-1.893	X_WP:	2.916	Y_WP:	0.706	Y_WP:	1.000	X:	0.311	Y:	-0.224	Z:	0.042	yaw:	108.465	yaw rate:	-0.062	Roll:	-2.608	Pitch:	30.000	Yaw:	153.465	Thrust:	100.000
Time:	5.036	Roll Set Point:	-0.254	Pitch Set Point:	-2.541	Yaw Set Point:	-1.893	X_WP:	2.916	Y_WP:	0.706	Y_WP:	1.000	X:	0.311	Y:	-0.224	Z:	0.042	yaw:	108.460	yaw rate:	0.511	Roll:	-2.277	Pitch:	30.000	Yaw:	153.376	Thrust:	100.000
Time:	5.057	Roll Set Point:	-0.255	Pitch Set Point:	-2.541	Yaw Set Point:	-1.893	X_WP:	2.916	Y_WP:	0.706	Y_WP:	1.000	X:	0.311	Y:	-0.224	Z:	0.042	yaw:	108.480	yaw rate:	-2.025	Roll:	-1.453	Pitch:	30.000	Yaw:	153.782	Thrust:	100.000
Time:	5.079	Roll Set Point:	-0.256	Pitch Set Point:	-2.541	Yaw Set Point:	-1.893	X_WP:	2.916	Y_WP:	0.706	Y_WP:	1.000	X:	0.311	Y:	-0.224	Z:	0.042	yaw:	108.488	yaw rate:	-0.788	Roll:	-1.986	Pitch:	30.000	Yaw:	153.678	Thrust:	100.000
Time:	5.097	Roll Set Point:	-0.256	Pitch Set Point:	-2.541	Yaw Set Point:	-1.894	X_WP:	2.916	Y_WP:	0.706	Y_WP:	1.000	X:	0.311	Y:	-0.224	Z:	0.042	yaw:	108.490	yaw rate:	-0.193	Roll:	-2.583	Pitch:	30.000	Yaw:	153.414	Thrust:	100.000
Time:	5.118	Roll Set Point:	-0.256	Pitch Set Point:	-2.541	Yaw Set Point:	-1.893	X_WP:	2.916	Y_WP:	0.705	Y_WP:	1.000	X:	0.311	Y:	-0.224	Z:	0.042	yaw:	108.483	yaw rate:	0.663	Roll:	-2.271	Pitch:	30.000	Yaw:	153.462	Thrust:	100.000
Time:	5.138	Roll Set Point:	-0.256	Pitch Set Point:	-2.541	Yaw Set Point:	-1.893	X_WP:	2.916	Y_WP:	0.706	Y_WP:	1.000	X:	0.311	Y:	-0.224	Z:	0.042	yaw:	108.483	yaw rate:	0.029	Roll:	-2.428	Pitch:	30.000	Yaw:	153.442	Thrust:	100.000
Time:	5.158	Roll Set Point:	-0.255	Pitch Set Point:	-2.541	Yaw Set Point:	-1.893	X_WP:	2.916	Y_WP:	0.705	Y_WP:	1.000	X:	0.311	Y:	-0.224	Z:	0.042	yaw:	108.472	yaw rate:	1.063	Roll:	-2.609	Pitch:	30.000	Yaw:	153.381	Thrust:	100.000
Time:	5.178	Roll Set Point:	-0.256	Pitch Set Point:	-2.541	Yaw Set Point:	-1.893	X_WP:	2.916	Y_WP:	0.706	Y_WP:	1.000	X:	0.311	Y:	-0.224	Z:	0.042	yaw:	108.485	yaw rate:	-1.295	Roll:	-1.937	Pitch:	30.000	Yaw:	153.593	Thrust:	100.000
Time:	5.198	Roll Set Point:	-0.254	Pitch Set Point:	-2.541	Yaw Set Point:	-1.893	X_WP:	2.916	Y_WP:	0.706	Y_WP:	1.000	X:	0.311	Y:	-0.224	Z:	0.042	yaw:	108.452	yaw rate:	3.327	Roll:	-3.680	Pitch:	30.000	Yaw:	153.011	Thrust:	100.000
Time:	5.218	Roll Set Point:	-0.255	Pitch Set Point:	-2.541	Yaw Set Point:	-1.893	X_WP:	2.916	Y_WP:	0.705	Y_WP:	1.000	X:	0.311	Y:	-0.224	Z:	0.042	yaw:	108.464	yaw rate:	-1.216	Roll:	-1.784	Pitch:	30.000	Yaw:	153.562	Thrust:	100.000
Time:	5.237	Roll Set Point:	-0.255	Pitch Set Point:	-2.541	Yaw Set Point:	-1.893	X_WP:	2.916	Y_WP:	0.706	Y_WP:	1.000	X:	0.311	Y:	-0.224	Z:	0.042	yaw:	108.472	yaw rate:	-0.811	Roll:	-2.059	Pitch:	30.000	Yaw:	153.531	Thrust:	100.000
