Time:	0.032	Roll Set Point:	-0.076	Pitch Set Point:	-0.048	Yaw Set Point:	1.671	X_WP:	0.000	Y_WP:	0.000	Y_WP:	0.500	X:	0.065	Y:	-0.018	Z:	0.053	yaw:	-95.768	yaw rate:	0.751	Roll:	0.332	Pitch:	1.917	Yaw:	-133.717	Thrust:	24.575
Time:	0.057	Roll Set Point:	-0.076	Pitch Set Point:	-0.048	Yaw Set Point:	1.672	X_WP:	0.000	Y_WP:	0.000	Y_WP:	0.500	X:	0.065	Y:	-0.018	Z:	0.053	yaw:	-95.779	yaw rate:	1.159	Roll:	0.316	Pitch:	1.917	Yaw:	-134.679	Thrust:	25.842
Time:	0.074	Roll Set Point:	-0.076	Pitch Set Point:	-0.048	Yaw Set Point:	1.671	X_WP:	0.000	Y_WP:	0.000	Y_WP:	0.500	X:	0.065	Y:	-0.018	Z:	0.053	yaw:	-95.756	yaw rate:	-2.313	Roll:	0.395	Pitch:	1.941	Yaw:	-134.481	Thrust:	26.585
Time:	0.096	Roll Set Point:	-0.076	Pitch Set Point:	-0.048	Yaw Set Point:	1.681	X_WP:	0.000	Y_WP:	0.000	Y_WP:	0.500	X:	0.065	Y:	-0.018	Z:	0.053	yaw:	-96.318	yaw rate:	56.212	Roll:	-0.169	Pitch:	2.163	Yaw:	-143.414	Thrust:	27.636
Time:	0.111	Roll Set Point:	-0.076	Pitch Set Point:	-0.048	Yaw Set Point:	1.676	X_WP:	0.000	Y_WP:	0.000	Y_WP:	0.500	X:	0.065	Y:	-0.018	Z:	0.053	yaw:	-96.024	yaw rate:	-29.447	Roll:	0.734	Pitch:	1.816	Yaw:	-131.024	Thrust:	27.495
Time:	0.144	Roll Set Point:	-0.075	Pitch Set Point:	-0.048	Yaw Set Point:	1.685	X_WP:	0.000	Y_WP:	0.000	Y_WP:	0.500	X:	0.065	Y:	-0.018	Z:	0.053	yaw:	-96.516	yaw rate:	49.200	Roll:	-0.028	Pitch:	2.033	Yaw:	-144.222	Thrust:	33.566
Time:	0.156	Roll Set Point:	-0.076	Pitch Set Point:	-0.048	Yaw Set Point:	1.673	X_WP:	0.000	Y_WP:	0.000	Y_WP:	0.500	X:	0.065	Y:	-0.018	Z:	0.053	yaw:	-95.857	yaw rate:	-65.860	Roll:	1.359	Pitch:	1.542	Yaw:	-121.946	Thrust:	29.032
Time:	0.173	Roll Set Point:	-0.077	Pitch Set Point:	-0.048	Yaw Set Point:	1.663	X_WP:	0.000	Y_WP:	0.000	Y_WP:	0.500	X:	0.065	Y:	-0.018	Z:	0.053	yaw:	-95.276	yaw rate:	-58.068	Roll:	0.961	Pitch:	1.980	Yaw:	-127.149	Thrust:	30.654
Time:	0.196	Roll Set Point:	-0.076	Pitch Set Point:	-0.048	Yaw Set Point:	1.677	X_WP:	0.000	Y_WP:	0.000	Y_WP:	0.500	X:	0.065	Y:	-0.018	Z:	0.053	yaw:	-96.069	yaw rate:	79.252	Roll:	-0.338	Pitch:	1.992	Yaw:	-147.730	Thrust:	34.554
Time:	0.211	Roll Set Point:	-0.076	Pitch Set Point:	-0.048	Yaw Set Point:	1.671	X_WP:	0.000	Y_WP:	0.000	Y_WP:	0.500	X:	0.065	Y:	-0.018	Z:	0.053	yaw:	-95.747	yaw rate:	-32.198	Roll:	0.738	Pitch:	1.741	Yaw:	-131.235	Thrust:	32.589
Time:	0.234	Roll Set Point:	-0.077	Pitch Set Point:	-0.048	Yaw Set Point:	1.667	X_WP:	0.000	Y_WP:	0.000	Y_WP:	0.500	X:	0.065	Y:	-0.018	Z:	0.053	yaw:	-95.540	yaw rate:	-20.660	Roll:	0.565	Pitch:	2.152	Yaw:	-135.363	Thrust:	35.526
Time:	0.255	Roll Set Point:	-0.077	Pitch Set Point:	-0.048	Yaw Set Point:	1.663	X_WP:	0.000	Y_WP:	0.000	Y_WP:	0.500	X:	0.065	Y:	-0.018	Z:	0.053	yaw:	-95.288	yaw rate:	-25.193	Roll:	0.501	Pitch:	1.818	Yaw:	-134.152	Thrust:	37.127
Time:	0.273	Roll Set Point:	-0.075	Pitch Set Point:	-0.049	Yaw Set Point:	1.694	X_WP:	0.000	Y_WP:	0.000	Y_WP:	0.500	X:	0.065	Y:	-0.018	Z:	0.053	yaw:	-97.034	yaw rate:	174.533	Roll:	-1.568	Pitch:	2.403	Yaw:	-163.560	Thrust:	37.743
Time:	0.298	Roll Set Point:	-0.074	Pitch Set Point:	-0.049	Yaw Set Point:	1.699	X_WP:	0.000	Y_WP:	0.000	Y_WP:	0.500	X:	0.065	Y:	-0.018	Z:	0.053	yaw:	-97.350	yaw rate:	31.624	Roll:	-0.153	Pitch:	1.980	Yaw:	-144.187	Thrust:	40.974
Time:	0.313	Roll Set Point:	-0.075	Pitch Set Point:	-0.049	Yaw Set Point:	1.676	X_WP:	0.000	Y_WP:	0.000	Y_WP:	0.500	X:	0.064	Y:	-0.017	Z:	0.053	yaw:	-96.046	yaw rate:	-130.414	Roll:	1.664	Pitch:	1.095	Yaw:	-114.547	Thrust:	36.908
Time:	0.334	Roll Set Point:	-0.075	Pitch Set Point:	-0.048	Yaw Set Point:	1.664	X_WP:	0.000	Y_WP:	0.000	Y_WP:	0.500	X:	0.064	Y:	-0.017	Z:	0.053	yaw:	-95.317	yaw rate:	-72.925	Roll:	0.893	Pitch:	1.588	Yaw:	-128.546	Thrust:	41.335
Time:	0.351	Roll Set Point:	-0.075	Pitch Set Point:	-0.048	Yaw Set Point:	1.646	X_WP:	0.000	Y_WP:	0.000	Y_WP:	0.500	X:	0.063	Y:	-0.017	Z:	0.053	yaw:	-94.331	yaw rate:	-98.602	Roll:	1.124	Pitch:	1.035	Yaw:	-119.990	Thrust:	38.811
Time:	0.373	Roll Set Point:	-0.075	Pitch Set Point:	-0.047	Yaw Set Point:	1.632	X_WP:	0.000	Y_WP:	0.000	Y_WP:	0.500	X:	0.062	Y:	-0.016	Z:	0.053	yaw:	-93.532	yaw rate:	-79.872	Roll:	0.720	Pitch:	0.862	Yaw:	-125.152	Thrust:	45.231
Time:	0.397	Roll Set Point:	-0.077	Pitch Set Point:	-0.047	Yaw Set Point:	1.589	X_WP:	0.000	Y_WP:	0.000	Y_WP:	0.500	X:	0.062	Y:	-0.016	Z:	0.053	yaw:	-91.065	yaw rate:	-246.704	Roll:	2.051	Pitch:	1.472	Yaw:	-105.026	Thrust:	47.759
Time:	0.411	Roll Set Point:	-0.077	Pitch Set Point:	-0.046	Yaw Set Point:	1.561	X_WP:	0.000	Y_WP:	0.000	Y_WP:	0.500	X:	0.061	Y:	-0.015	Z:	0.053	yaw:	-89.412	yaw rate:	-165.257	Roll:	2.140	Pitch:	0.116	Yaw:	-97.564	Thrust:	38.242
Time:	0.434	Roll Set Point:	-0.077	Pitch Set Point:	-0.046	Yaw Set Point:	1.538	X_WP:	0.000	Y_WP:	0.000	Y_WP:	0.500	X:	0.061	Y:	-0.014	Z:	0.053	yaw:	-88.145	yaw rate:	-126.728	Roll:	0.619	Pitch:	1.072	Yaw:	-112.802	Thrust:	49.391
Time:	0.452	Roll Set Point:	-0.076	Pitch Set Point:	-0.047	Yaw Set Point:	1.540	X_WP:	0.000	Y_WP:	0.000	Y_WP:	0.500	X:	0.061	Y:	-0.014	Z:	0.053	yaw:	-88.241	yaw rate:	9.646	Roll:	-0.213	Pitch:	1.778	Yaw:	-128.230	Thrust:	44.940
Time:	0.473	Roll Set Point:	-0.077	Pitch Set Point:	-0.046	Yaw Set Point:	1.509	X_WP:	0.000	Y_WP:	0.000	Y_WP:	0.500	X:	0.060	Y:	-0.013	Z:	0.053	yaw:	-86.444	yaw rate:	-179.718	Roll:	1.710	Pitch:	0.687	Yaw:	-102.243	Thrust:	48.137
Time:	0.494	Roll Set Point:	-0.081	Pitch Set Point:	-0.043	Yaw Set Point:	1.416	X_WP:	0.000	Y_WP:	0.000	Y_WP:	0.500	X:	0.058	Y:	-0.013	Z:	0.054	yaw:	-81.136	yaw rate:	-530.821	Roll:	4.589	Pitch:	-0.683	Yaw:	-53.211	Thrust:	49.525
Time:	0.512	Roll Set Point:	-0.083	Pitch Set Point:	-0.041	Yaw Set Point:	1.351	X_WP:	0.000	Y_WP:	0.000	Y_WP:	0.500	X:	0.058	Y:	-0.013	Z:	0.054	yaw:	-77.421	yaw rate:	-371.550	Roll:	3.736	Pitch:	-0.219	Yaw:	-57.526	Thrust:	47.824
Time:	0.533	Roll Set Point:	-0.085	Pitch Set Point:	-0.040	Yaw Set Point:	1.302	X_WP:	0.000	Y_WP:	0.000	Y_WP:	0.500	X:	0.058	Y:	-0.012	Z:	0.053	yaw:	-74.617	yaw rate:	-280.356	Roll:	2.521	Pitch:	0.442	Yaw:	-73.557	Thrust:	52.855
Time:	0.564	Roll Set Point:	-0.088	Pitch Set Point:	-0.038	Yaw Set Point:	1.234	X_WP:	0.000	Y_WP:	0.000	Y_WP:	0.500	X:	0.057	Y:	-0.012	Z:	0.053	yaw:	-70.713	yaw rate:	-390.361	Roll:	2.746	Pitch:	0.336	Yaw:	-70.125	Thrust:	66.769
Time:	0.576	Roll Set Point:	-0.088	Pitch Set Point:	-0.039	Yaw Set Point:	1.237	X_WP:	0.000	Y_WP:	0.000	Y_WP:	0.500	X:	0.058	Y:	-0.012	Z:	0.052	yaw:	-70.863	yaw rate:	15.007	Roll:	0.261	Pitch:	2.408	Yaw:	-104.586	Thrust:	46.492
Time:	0.597	Roll Set Point:	-0.088	Pitch Set Point:	-0.039	Yaw Set Point:	1.198	X_WP:	0.000	Y_WP:	0.000	Y_WP:	0.500	X:	0.057	Y:	-0.011	Z:	0.052	yaw:	-68.618	yaw rate:	-224.556	Roll:	1.687	Pitch:	0.293	Yaw:	-72.358	Thrust:	54.980
Time:	0.612	Roll Set Point:	-0.089	Pitch Set Point:	-0.037	Yaw Set Point:	1.157	X_WP:	0.000	Y_WP:	0.000	Y_WP:	0.500	X:	0.057	Y:	-0.011	Z:	0.053	yaw:	-66.289	yaw rate:	-232.923	Roll:	2.870	Pitch:	-0.335	Yaw:	-55.511	Thrust:	46.815
Time:	0.635	Roll Set Point:	-0.090	Pitch Set Point:	-0.036	Yaw Set Point:	1.103	X_WP:	0.000	Y_WP:	0.000	Y_WP:	0.500	X:	0.056	Y:	-0.010	Z:	0.054	yaw:	-63.192	yaw rate:	-309.616	Roll:	2.132	Pitch:	0.040	Yaw:	-57.747	Thrust:	60.468
Time:	0.651	Roll Set Point:	-0.092	Pitch Set Point:	-0.034	Yaw Set Point:	1.029	X_WP:	0.000	Y_WP:	0.000	Y_WP:	0.500	X:	0.056	Y:	-0.009	Z:	0.054	yaw:	-58.976	yaw rate:	-421.634	Roll:	3.792	Pitch:	-1.687	Yaw:	-18.002	Thrust:	51.084
Time:	0.673	Roll Set Point:	-0.094	Pitch Set Point:	-0.032	Yaw Set Point:	0.956	X_WP:	0.000	Y_WP:	0.000	Y_WP:	0.500	X:	0.055	Y:	-0.009	Z:	0.055	yaw:	-54.782	yaw rate:	-419.385	Roll:	2.789	Pitch:	-0.998	Yaw:	-31.167	Thrust:	60.500
Time:	0.696	Roll Set Point:	-0.095	Pitch Set Point:	-0.030	Yaw Set Point:	0.896	X_WP:	0.000	Y_WP:	0.000	Y_WP:	0.500	X:	0.054	Y:	-0.008	Z:	0.055	yaw:	-51.335	yaw rate:	-344.744	Roll:	2.270	Pitch:	-0.709	Yaw:	-37.102	Thrust:	64.450
Time:	0.712	Roll Set Point:	-0.096	Pitch Set Point:	-0.027	Yaw Set Point:	0.816	X_WP:	0.000	Y_WP:	0.000	Y_WP:	0.500	X:	0.054	Y:	-0.007	Z:	0.056	yaw:	-46.781	yaw rate:	-455.387	Roll:	3.485	Pitch:	-2.291	Yaw:	7.723	Thrust:	49.672
Time:	0.734	Roll Set Point:	-0.096	Pitch Set Point:	-0.026	Yaw Set Point:	0.766	X_WP:	0.000	Y_WP:	0.000	Y_WP:	0.500	X:	0.053	Y:	-0.006	Z:	0.057	yaw:	-43.886	yaw rate:	-289.481	Roll:	1.696	Pitch:	-0.566	Yaw:	-30.454	Thrust:	65.406
Time:	0.752	Roll Set Point:	-0.096	Pitch Set Point:	-0.025	Yaw Set Point:	0.712	X_WP:	0.000	Y_WP:	0.000	Y_WP:	0.500	X:	0.052	Y:	-0.005	Z:	0.058	yaw:	-40.782	yaw rate:	-310.391	Roll:	1.670	Pitch:	-1.137	Yaw:	-17.259	Thrust:	57.633
Time:	0.771	Roll Set Point:	-0.092	Pitch Set Point:	-0.026	Yaw Set Point:	0.693	X_WP:	0.000	Y_WP:	0.000	Y_WP:	0.500	X:	0.051	Y:	-0.003	Z:	0.058	yaw:	-39.707	yaw rate:	-107.522	Roll:	-0.428	Pitch:	0.717	Yaw:	-44.500	Thrust:	61.721
Time:	0.797	Roll Set Point:	-0.089	Pitch Set Point:	-0.026	Yaw Set Point:	0.624	X_WP:	0.000	Y_WP:	0.000	Y_WP:	0.500	X:	0.049	Y:	-0.001	Z:	0.060	yaw:	-35.771	yaw rate:	-393.644	Roll:	0.637	Pitch:	-0.722	Yaw:	-14.777	Thrust:	72.264
Time:	0.812	Roll Set Point:	-0.086	Pitch Set Point:	-0.026	Yaw Set Point:	0.613	X_WP:	0.000	Y_WP:	0.000	Y_WP:	0.500	X:	0.047	Y:	-0.001	Z:	0.062	yaw:	-35.135	yaw rate:	-63.545	Roll:	-0.472	Pitch:	0.105	Yaw:	-40.778	Thrust:	49.332
Time:	0.835	Roll Set Point:	-0.081	Pitch Set Point:	-0.027	Yaw Set Point:	0.573	X_WP:	0.000	Y_WP:	0.000	Y_WP:	0.500	X:	0.044	Y:	0.001	Z:	0.064	yaw:	-32.810	yaw rate:	-232.506	Roll:	-0.725	Pitch:	-0.265	Yaw:	-23.779	Thrust:	67.133
Time:	0.851	Roll Set Point:	-0.077	Pitch Set Point:	-0.027	Yaw Set Point:	0.533	X_WP:	0.000	Y_WP:	0.000	Y_WP:	0.500	X:	0.042	Y:	0.003	Z:	0.068	yaw:	-30.540	yaw rate:	-226.988	Roll:	-0.561	Pitch:	-0.343	Yaw:	-10.127	Thrust:	52.330
Time:	0.874	Roll Set Point:	-0.071	Pitch Set Point:	-0.029	Yaw Set Point:	0.506	X_WP:	0.000	Y_WP:	0.000	Y_WP:	0.500	X:	0.039	Y:	0.005	Z:	0.071	yaw:	-28.980	yaw rate:	-156.019	Roll:	-1.596	Pitch:	0.434	Yaw:	-26.868	Thrust:	66.075
Time:	0.895	Roll Set Point:	-0.067	Pitch Set Point:	-0.030	Yaw Set Point:	0.449	X_WP:	0.000	Y_WP:	0.000	Y_WP:	0.500	X:	0.037	Y:	0.007	Z:	0.075	yaw:	-25.740	yaw rate:	-323.959	Roll:	-0.332	Pitch:	-0.053	Yaw:	-1.354	Thrust:	66.198
Time:	0.912	Roll Set Point:	-0.061	Pitch Set Point:	-0.031	Yaw Set Point:	0.432	X_WP:	0.000	Y_WP:	0.000	Y_WP:	0.500	X:	0.034	Y:	0.009	Z:	0.080	yaw:	-24.732	yaw rate:	-100.836	Roll:	-2.156	Pitch:	0.414	Yaw:	-21.315	Thrust:	47.291
Time:	0.933	Roll Set Point:	-0.054	Pitch Set Point:	-0.033	Yaw Set Point:	0.404	X_WP:	0.000	Y_WP:	0.000	Y_WP:	0.500	X:	0.031	Y:	0.011	Z:	0.085	yaw:	-23.127	yaw rate:	-160.531	Roll:	-1.930	Pitch:	0.677	Yaw:	-16.591	Thrust:	63.150
Time:	0.957	Roll Set Point:	-0.047	Pitch Set Point:	-0.035	Yaw Set Point:	0.382	X_WP:	0.000	Y_WP:	0.000	Y_WP:	0.500	X:	0.027	Y:	0.013	Z:	0.090	yaw:	-21.906	yaw rate:	-122.064	Roll:	-1.906	Pitch:	0.836	Yaw:	-22.201	Thrust:	71.418
Time:	0.972	Roll Set Point:	-0.040	Pitch Set Point:	-0.038	Yaw Set Point:	0.359	X_WP:	0.000	Y_WP:	0.000	Y_WP:	0.500	X:	0.023	Y:	0.015	Z:	0.096	yaw:	-20.556	yaw rate:	-135.056	Roll:	-3.295	Pitch:	1.188	Yaw:	-9.060	Thrust:	43.886
Time:	0.999	Roll Set Point:	-0.032	Pitch Set Point:	-0.040	Yaw Set Point:	0.349	X_WP:	0.000	Y_WP:	0.000	Y_WP:	0.500	X:	0.020	Y:	0.017	Z:	0.102	yaw:	-19.968	yaw rate:	-58.742	Roll:	-2.286	Pitch:	1.126	Yaw:	-27.340	Thrust:	77.803
Time:	1.011	Roll Set Point:	-0.025	Pitch Set Point:	-0.043	Yaw Set Point:	0.328	X_WP:	0.000	Y_WP:	0.000	Y_WP:	0.500	X:	0.016	Y:	0.019	Z:	0.109	yaw:	-18.796	yaw rate:	-117.236	Roll:	-4.391	Pitch:	1.273	Yaw:	-4.572	Thrust:	33.297
Time:	1.038	Roll Set Point:	-0.017	Pitch Set Point:	-0.045	Yaw Set Point:	0.318	X_WP:	0.000	Y_WP:	0.000	Y_WP:	0.500	X:	0.012	Y:	0.021	Z:	0.115	yaw:	-18.195	yaw rate:	-60.028	Roll:	-2.183	Pitch:	1.110	Yaw:	-24.817	Thrust:	79.765
Time:	1.051	Roll Set Point:	-0.009	Pitch Set Point:	-0.048	Yaw Set Point:	0.302	X_WP:	0.000	Y_WP:	0.000	Y_WP:	0.500	X:	0.008	Y:	0.023	Z:	0.122	yaw:	-17.314	yaw rate:	-88.138	Roll:	-5.296	Pitch:	2.014	Yaw:	-9.078	Thrust:	31.800
Time:	1.072	Roll Set Point:	-0.002	Pitch Set Point:	-0.050	Yaw Set Point:	0.294	X_WP:	0.000	Y_WP:	0.000	Y_WP:	0.500	X:	0.005	Y:	0.025	Z:	0.130	yaw:	-16.864	yaw rate:	-45.024	Roll:	-3.054	Pitch:	1.056	Yaw:	-21.930	Thrust:	60.778
Time:	1.095	Roll Set Point:	0.006	Pitch Set Point:	-0.052	Yaw Set Point:	0.285	X_WP:	0.000	Y_WP:	0.000	Y_WP:	0.500	X:	0.001	Y:	0.027	Z:	0.137	yaw:	-16.304	yaw rate:	-55.990	Roll:	-3.145	Pitch:	1.430	Yaw:	-21.060	Thrust:	70.410
Time:	1.111	Roll Set Point:	0.014	Pitch Set Point:	-0.055	Yaw Set Point:	0.267	X_WP:	0.000	Y_WP:	0.000	Y_WP:	0.500	X:	-0.003	Y:	0.028	Z:	0.143	yaw:	-15.301	yaw rate:	-100.308	Roll:	-4.342	Pitch:	1.689	Yaw:	-8.068	Thrust:	45.595
Time:	1.134	Roll Set Point:	0.021	Pitch Set Point:	-0.057	Yaw Set Point:	0.260	X_WP:	0.000	Y_WP:	0.000	Y_WP:	0.500	X:	-0.007	Y:	0.030	Z:	0.151	yaw:	-14.890	yaw rate:	-41.088	Roll:	-3.183	Pitch:	1.543	Yaw:	-20.510	Thrust:	67.761
Time:	1.152	Roll Set Point:	0.030	Pitch Set Point:	-0.062	Yaw Set Point:	0.233	X_WP:	0.000	Y_WP:	0.000	Y_WP:	0.500	X:	-0.011	Y:	0.033	Z:	0.159	yaw:	-13.355	yaw rate:	-153.460	Roll:	-4.187	Pitch:	2.679	Yaw:	-0.010	Thrust:	52.614
Time:	1.173	Roll Set Point:	0.036	Pitch Set Point:	-0.062	Yaw Set Point:	0.234	X_WP:	0.000	Y_WP:	0.000	Y_WP:	0.500	X:	-0.015	Y:	0.033	Z:	0.167	yaw:	-13.411	yaw rate:	5.586	Roll:	-3.321	Pitch:	0.874	Yaw:	-23.804	Thrust:	67.372
Time:	1.198	Roll Set Point:	0.044	Pitch Set Point:	-0.065	Yaw Set Point:	0.226	X_WP:	0.000	Y_WP:	0.000	Y_WP:	0.500	X:	-0.018	Y:	0.035	Z:	0.174	yaw:	-12.931	yaw rate:	-48.074	Roll:	-3.335	Pitch:	1.606	Yaw:	-17.689	Thrust:	75.790
Time:	1.212	Roll Set Point:	0.051	Pitch Set Point:	-0.066	Yaw Set Point:	0.232	X_WP:	0.000	Y_WP:	0.000	Y_WP:	0.500	X:	-0.022	Y:	0.036	Z:	0.183	yaw:	-13.314	yaw rate:	38.381	Roll:	-5.096	Pitch:	1.349	Yaw:	-28.489	Thrust:	34.094
Time:	1.239	Roll Set Point:	0.057	Pitch Set Point:	-0.069	Yaw Set Point:	0.203	X_WP:	0.000	Y_WP:	0.000	Y_WP:	0.500	X:	-0.025	Y:	0.037	Z:	0.190	yaw:	-11.618	yaw rate:	-169.638	Roll:	-2.501	Pitch:	1.887	Yaw:	-5.482	Thrust:	88.107
Time:	1.251	Roll Set Point:	0.063	Pitch Set Point:	-0.070	Yaw Set Point:	0.205	X_WP:	0.000	Y_WP:	0.000	Y_WP:	0.500	X:	-0.028	Y:	0.038	Z:	0.199	yaw:	-11.756	yaw rate:	13.772	Roll:	-5.343	Pitch:	1.155	Yaw:	-21.817	Thrust:	22.052
Time:	1.273	Roll Set Point:	0.069	Pitch Set Point:	-0.071	Yaw Set Point:	0.198	X_WP:	0.000	Y_WP:	0.000	Y_WP:	0.500	X:	-0.031	Y:	0.039	Z:	0.207	yaw:	-11.318	yaw rate:	-43.801	Roll:	-3.408	Pitch:	1.423	Yaw:	-14.797	Thrust:	66.342
Time:	1.295	Roll Set Point:	0.074	Pitch Set Point:	-0.072	Yaw Set Point:	0.188	X_WP:	0.000	Y_WP:	0.000	Y_WP:	0.500	X:	-0.034	Y:	0.039	Z:	0.216	yaw:	-10.762	yaw rate:	-55.547	Roll:	-3.030	Pitch:	1.491	Yaw:	-12.891	Thrust:	66.781
Time:	1.311	Roll Set Point:	0.079	Pitch Set Point:	-0.075	Yaw Set Point:	0.157	X_WP:	0.000	Y_WP:	0.000	Y_WP:	0.500	X:	-0.036	Y:	0.040	Z:	0.224	yaw:	-8.974	yaw rate:	-178.797	Roll:	-2.865	Pitch:	2.931	Yaw:	12.759	Thrust:	45.979
Time:	1.334	Roll Set Point:	0.085	Pitch Set Point:	-0.073	Yaw Set Point:	0.176	X_WP:	0.000	Y_WP:	0.000	Y_WP:	0.500	X:	-0.039	Y:	0.040	Z:	0.232	yaw:	-10.095	yaw rate:	112.103	Roll:	-3.851	Pitch:	-0.039	Yaw:	-31.740	Thrust:	70.693
Time:	1.352	Roll Set Point:	0.089	Pitch Set Point:	-0.074	Yaw Set Point:	0.165	X_WP:	0.000	Y_WP:	0.000	Y_WP:	0.500	X:	-0.042	Y:	0.041	Z:	0.240	yaw:	-9.467	yaw rate:	-62.844	Roll:	-3.381	Pitch:	1.502	Yaw:	-7.152	Thrust:	50.080
Time:	1.374	Roll Set Point:	0.092	Pitch Set Point:	-0.075	Yaw Set Point:	0.135	X_WP:	0.000	Y_WP:	0.000	Y_WP:	0.500	X:	-0.044	Y:	0.041	Z:	0.248	yaw:	-7.731	yaw rate:	-173.568	Roll:	-2.170	Pitch:	2.206	Yaw:	3.756	Thrust:	77.538
Time:	1.393	Roll Set Point:	0.096	Pitch Set Point:	-0.074	Yaw Set Point:	0.136	X_WP:	0.000	Y_WP:	0.000	Y_WP:	0.500	X:	-0.046	Y:	0.040	Z:	0.255	yaw:	-7.814	yaw rate:	8.268	Roll:	-3.297	Pitch:	0.255	Yaw:	-15.677	Thrust:	54.232
Time:	1.411	Roll Set Point:	0.100	Pitch Set Point:	-0.074	Yaw Set Point:	0.132	X_WP:	0.000	Y_WP:	0.000	Y_WP:	0.500	X:	-0.047	Y:	0.040	Z:	0.262	yaw:	-7.574	yaw rate:	-24.018	Roll:	-2.849	Pitch:	0.885	Yaw:	-11.079	Thrust:	59.432
Time:	1.434	Roll Set Point:	0.103	Pitch Set Point:	-0.074	Yaw Set Point:	0.115	X_WP:	0.000	Y_WP:	0.000	Y_WP:	0.500	X:	-0.050	Y:	0.040	Z:	0.270	yaw:	-6.593	yaw rate:	-98.037	Roll:	-2.721	Pitch:	1.531	Yaw:	-2.719	Thrust:	73.467
Time:	1.452	Roll Set Point:	0.106	Pitch Set Point:	-0.071	Yaw Set Point:	0.126	X_WP:	0.000	Y_WP:	0.000	Y_WP:	0.500	X:	-0.051	Y:	0.039	Z:	0.278	yaw:	-7.194	yaw rate:	60.025	Roll:	-2.982	Pitch:	-0.494	Yaw:	-22.670	Thrust:	52.879
Time:	1.473	Roll Set Point:	0.108	Pitch Set Point:	-0.069	Yaw Set Point:	0.123	X_WP:	0.000	Y_WP:	0.000	Y_WP:	0.500	X:	-0.052	Y:	0.038	Z:	0.286	yaw:	-7.056	yaw rate:	-13.735	Roll:	-2.486	Pitch:	0.330	Yaw:	-12.648	Thrust:	71.095
Time:	1.495	Roll Set Point:	0.111	Pitch Set Point:	-0.068	Yaw Set Point:	0.115	X_WP:	0.000	Y_WP:	0.000	Y_WP:	0.500	X:	-0.053	Y:	0.037	Z:	0.295	yaw:	-6.591	yaw rate:	-46.476	Roll:	-2.373	Pitch:	0.763	Yaw:	-7.759	Thrust:	66.463
Time:	1.511	Roll Set Point:	0.113	Pitch Set Point:	-0.066	Yaw Set Point:	0.109	X_WP:	0.000	Y_WP:	0.000	Y_WP:	0.500	X:	-0.054	Y:	0.036	Z:	0.304	yaw:	-6.222	yaw rate:	-36.912	Roll:	-2.505	Pitch:	0.078	Yaw:	-5.943	Thrust:	42.042
Time:	1.534	Roll Set Point:	0.114	Pitch Set Point:	-0.060	Yaw Set Point:	0.131	X_WP:	0.000	Y_WP:	0.000	Y_WP:	0.500	X:	-0.055	Y:	0.034	Z:	0.315	yaw:	-7.514	yaw rate:	129.205	Roll:	-2.374	Pitch:	-1.775	Yaw:	-29.901	Thrust:	69.457
Time:	1.551	Roll Set Point:	0.115	Pitch Set Point:	-0.059	Yaw Set Point:	0.105	X_WP:	0.000	Y_WP:	0.000	Y_WP:	0.500	X:	-0.056	Y:	0.033	Z:	0.324	yaw:	-6.028	yaw rate:	-148.664	Roll:	-1.747	Pitch:	1.061	Yaw:	10.473	Thrust:	46.716
Time:	1.573	Roll Set Point:	0.116	Pitch Set Point:	-0.058	Yaw Set Point:	0.100	X_WP:	0.000	Y_WP:	0.000	Y_WP:	0.500	X:	-0.056	Y:	0.032	Z:	0.335	yaw:	-5.709	yaw rate:	-31.851	Roll:	-1.961	Pitch:	0.428	Yaw:	-8.609	Thrust:	66.333
Time:	1.600	Roll Set Point:	0.117	Pitch Set Point:	-0.054	Yaw Set Point:	0.096	X_WP:	0.000	Y_WP:	0.000	Y_WP:	0.500	X:	-0.057	Y:	0.030	Z:	0.345	yaw:	-5.518	yaw rate:	-19.163	Roll:	-1.977	Pitch:	-0.181	Yaw:	-11.114	Thrust:	80.691
Time:	1.612	Roll Set Point:	0.117	Pitch Set Point:	-0.051	Yaw Set Point:	0.094	X_WP:	0.000	Y_WP:	0.000	Y_WP:	0.500	X:	-0.057	Y:	0.028	Z:	0.357	yaw:	-5.360	yaw rate:	-15.739	Roll:	-1.667	Pitch:	-1.407	Yaw:	-6.392	Thrust:	15.070
Time:	1.636	Roll Set Point:	0.116	Pitch Set Point:	-0.047	Yaw Set Point:	0.098	X_WP:	0.000	Y_WP:	0.000	Y_WP:	0.500	X:	-0.057	Y:	0.026	Z:	0.368	yaw:	-5.638	yaw rate:	27.811	Roll:	-1.528	Pitch:	-0.847	Yaw:	-15.713	Thrust:	71.006
Time:	1.651	Roll Set Point:	0.116	Pitch Set Point:	-0.044	Yaw Set Point:	0.078	X_WP:	0.000	Y_WP:	0.000	Y_WP:	0.500	X:	-0.057	Y:	0.024	Z:	0.379	yaw:	-4.480	yaw rate:	-115.813	Roll:	-1.344	Pitch:	-0.037	Yaw:	10.138	Thrust:	34.191
Time:	1.673	Roll Set Point:	0.115	Pitch Set Point:	-0.040	Yaw Set Point:	0.074	X_WP:	0.000	Y_WP:	0.000	Y_WP:	0.500	X:	-0.057	Y:	0.022	Z:	0.390	yaw:	-4.216	yaw rate:	-26.388	Roll:	-1.223	Pitch:	-0.713	Yaw:	-7.174	Thrust:	64.678
Time:	1.696	Roll Set Point:	0.115	Pitch Set Point:	-0.036	Yaw Set Point:	0.073	X_WP:	0.000	Y_WP:	0.000	Y_WP:	0.500	X:	-0.057	Y:	0.020	Z:	0.401	yaw:	-4.205	yaw rate:	-1.116	Roll:	-1.381	Pitch:	-0.841	Yaw:	-10.258	Thrust:	63.160
Time:	1.712	Roll Set Point:	0.115	Pitch Set Point:	-0.032	Yaw Set Point:	0.078	X_WP:	0.000	Y_WP:	0.000	Y_WP:	0.500	X:	-0.057	Y:	0.018	Z:	0.410	yaw:	-4.492	yaw rate:	28.724	Roll:	-1.877	Pitch:	-1.965	Yaw:	-14.176	Thrust:	31.290
Time:	1.733	Roll Set Point:	0.114	Pitch Set Point:	-0.028	Yaw Set Point:	0.076	X_WP:	0.000	Y_WP:	0.000	Y_WP:	0.500	X:	-0.057	Y:	0.016	Z:	0.419	yaw:	-4.332	yaw rate:	-15.996	Roll:	-1.244	Pitch:	-1.007	Yaw:	-8.341	Thrust:	68.532
Time:	1.753	Roll Set Point:	0.112	Pitch Set Point:	-0.024	Yaw Set Point:	0.067	X_WP:	0.000	Y_WP:	0.000	Y_WP:	0.500	X:	-0.056	Y:	0.014	Z:	0.428	yaw:	-3.843	yaw rate:	-48.947	Roll:	-0.664	Pitch:	-0.820	Yaw:	-2.994	Thrust:	58.030
Time:	1.773	Roll Set Point:	0.112	Pitch Set Point:	-0.020	Yaw Set Point:	0.072	X_WP:	0.000	Y_WP:	0.000	Y_WP:	0.500	X:	-0.056	Y:	0.012	Z:	0.436	yaw:	-4.146	yaw rate:	30.296	Roll:	-1.477	Pitch:	-1.645	Yaw:	-13.755	Thrust:	55.910
Time:	1.798	Roll Set Point:	0.110	Pitch Set Point:	-0.016	Yaw Set Point:	0.067	X_WP:	0.000	Y_WP:	0.000	Y_WP:	0.500	X:	-0.055	Y:	0.010	Z:	0.444	yaw:	-3.812	yaw rate:	-33.404	Roll:	-1.024	Pitch:	-0.701	Yaw:	-6.913	Thrust:	85.577
Time:	1.812	Roll Set Point:	0.109	Pitch Set Point:	-0.012	Yaw Set Point:	0.068	X_WP:	0.000	Y_WP:	0.000	Y_WP:	0.500	X:	-0.055	Y:	0.008	Z:	0.450	yaw:	-3.917	yaw rate:	10.529	Roll:	-1.094	Pitch:	-2.527	Yaw:	-10.216	Thrust:	32.705
Time:	1.834	Roll Set Point:	0.108	Pitch Set Point:	-0.008	Yaw Set Point:	0.063	X_WP:	0.000	Y_WP:	0.000	Y_WP:	0.500	X:	-0.054	Y:	0.006	Z:	0.457	yaw:	-3.621	yaw rate:	-29.610	Roll:	-0.780	Pitch:	-1.125	Yaw:	-6.155	Thrust:	70.059
Time:	1.856	Roll Set Point:	0.106	Pitch Set Point:	-0.004	Yaw Set Point:	0.061	X_WP:	0.000	Y_WP:	0.000	Y_WP:	0.500	X:	-0.053	Y:	0.004	Z:	0.463	yaw:	-3.490	yaw rate:	-13.141	Roll:	-0.836	Pitch:	-1.066	Yaw:	-7.735	Thrust:	73.424
Time:	1.872	Roll Set Point:	0.105	Pitch Set Point:	-0.000	Yaw Set Point:	0.064	X_WP:	0.000	Y_WP:	0.000	Y_WP:	0.500	X:	-0.052	Y:	0.002	Z:	0.470	yaw:	-3.645	yaw rate:	15.515	Roll:	-0.951	Pitch:	-2.091	Yaw:	-10.811	Thrust:	41.861
Time:	1.894	Roll Set Point:	0.102	Pitch Set Point:	0.003	Yaw Set Point:	0.055	X_WP:	0.000	Y_WP:	0.000	Y_WP:	0.500	X:	-0.051	Y:	-0.000	Z:	0.476	yaw:	-3.153	yaw rate:	-49.133	Roll:	-0.447	Pitch:	-0.947	Yaw:	-2.994	Thrust:	70.973
Time:	1.911	Roll Set Point:	0.101	Pitch Set Point:	0.007	Yaw Set Point:	0.058	X_WP:	0.000	Y_WP:	0.000	Y_WP:	0.500	X:	-0.051	Y:	-0.002	Z:	0.482	yaw:	-3.302	yaw rate:	14.818	Roll:	-0.822	Pitch:	-1.899	Yaw:	-10.296	Thrust:	49.683
Time:	1.933	Roll Set Point:	0.099	Pitch Set Point:	0.010	Yaw Set Point:	0.052	X_WP:	0.000	Y_WP:	0.000	Y_WP:	0.500	X:	-0.050	Y:	-0.004	Z:	0.488	yaw:	-2.952	yaw rate:	-34.968	Roll:	-0.656	Pitch:	-0.966	Yaw:	-4.153	Thrust:	67.906
Time:	1.955	Roll Set Point:	0.097	Pitch Set Point:	0.013	Yaw Set Point:	0.054	X_WP:	0.000	Y_WP:	0.000	Y_WP:	0.500	X:	-0.049	Y:	-0.005	Z:	0.494	yaw:	-3.083	yaw rate:	13.088	Roll:	-0.521	Pitch:	-1.497	Yaw:	-10.208	Thrust:	67.679
Time:	1.972	Roll Set Point:	0.095	Pitch Set Point:	0.016	Yaw Set Point:	0.054	X_WP:	0.000	Y_WP:	0.000	Y_WP:	0.500	X:	-0.047	Y:	-0.007	Z:	0.501	yaw:	-3.079	yaw rate:	-0.396	Roll:	-0.402	Pitch:	-1.510	Yaw:	-7.837	Thrust:	48.552
Time:	1.996	Roll Set Point:	0.092	Pitch Set Point:	0.019	Yaw Set Point:	0.044	X_WP:	0.000	Y_WP:	0.000	Y_WP:	0.500	X:	-0.046	Y:	-0.008	Z:	0.508	yaw:	-2.521	yaw rate:	-55.768	Roll:	-0.391	Pitch:	-0.794	Yaw:	-2.019	Thrust:	76.535
Time:	2.013	Roll Set Point:	0.090	Pitch Set Point:	0.022	Yaw Set Point:	0.048	X_WP:	0.000	Y_WP:	0.000	Y_WP:	0.500	X:	-0.045	Y:	-0.010	Z:	0.514	yaw:	-2.767	yaw rate:	24.626	Roll:	-0.372	Pitch:	-1.974	Yaw:	-11.098	Thrust:	40.082
Time:	2.035	Roll Set Point:	0.087	Pitch Set Point:	0.024	Yaw Set Point:	0.045	X_WP:	0.000	Y_WP:	0.000	Y_WP:	0.500	X:	-0.044	Y:	-0.011	Z:	0.521	yaw:	-2.577	yaw rate:	-19.090	Roll:	-0.342	Pitch:	-1.056	Yaw:	-6.049	Thrust:	70.977
Time:	2.062	Roll Set Point:	0.085	Pitch Set Point:	0.027	Yaw Set Point:	0.044	X_WP:	0.000	Y_WP:	0.000	Y_WP:	0.500	X:	-0.043	Y:	-0.012	Z:	0.529	yaw:	-2.541	yaw rate:	-3.586	Roll:	-0.622	Pitch:	-0.846	Yaw:	-8.514	Thrust:	83.360
Time:	2.073	Roll Set Point:	0.083	Pitch Set Point:	0.028	Yaw Set Point:	0.044	X_WP:	0.000	Y_WP:	0.000	Y_WP:	0.500	X:	-0.042	Y:	-0.013	Z:	0.536	yaw:	-2.510	yaw rate:	-3.027	Roll:	0.490	Pitch:	-1.642	Yaw:	-5.120	Thrust:	14.551
Time:	2.097	Roll Set Point:	0.080	Pitch Set Point:	0.032	Yaw Set Point:	0.051	X_WP:	0.000	Y_WP:	0.000	Y_WP:	0.500	X:	-0.040	Y:	-0.015	Z:	0.544	yaw:	-2.912	yaw rate:	40.193	Roll:	-0.088	Pitch:	-1.569	Yaw:	-13.252	Thrust:	70.684
Time:	2.112	Roll Set Point:	0.078	Pitch Set Point:	0.033	Yaw Set Point:	0.039	X_WP:	0.000	Y_WP:	0.000	Y_WP:	0.500	X:	-0.040	Y:	-0.016	Z:	0.552	yaw:	-2.258	yaw rate:	-65.432	Roll:	-0.421	Pitch:	-0.613	Yaw:	4.729	Thrust:	34.143
Time:	2.133	Roll Set Point:	0.076	Pitch Set Point:	0.034	Yaw Set Point:	0.041	X_WP:	0.000	Y_WP:	0.000	Y_WP:	0.500	X:	-0.038	Y:	-0.016	Z:	0.560	yaw:	-2.338	yaw rate:	8.026	Roll:	-0.131	Pitch:	-0.932	Yaw:	-8.447	Thrust:	56.767
Time:	2.152	Roll Set Point:	0.074	Pitch Set Point:	0.036	Yaw Set Point:	0.040	X_WP:	0.000	Y_WP:	0.000	Y_WP:	0.500	X:	-0.037	Y:	-0.017	Z:	0.569	yaw:	-2.264	yaw rate:	-7.441	Roll:	-0.108	Pitch:	-1.257	Yaw:	-5.950	Thrust:	45.932
Time:	2.172	Roll Set Point:	0.071	Pitch Set Point:	0.037	Yaw Set Point:	0.038	X_WP:	0.000	Y_WP:	0.000	Y_WP:	0.500	X:	-0.036	Y:	-0.018	Z:	0.578	yaw:	-2.197	yaw rate:	-6.718	Roll:	0.029	Pitch:	-0.692	Yaw:	-6.203	Thrust:	51.258
Time:	2.195	Roll Set Point:	0.069	Pitch Set Point:	0.038	Yaw Set Point:	0.029	X_WP:	0.000	Y_WP:	0.000	Y_WP:	0.500	X:	-0.035	Y:	-0.019	Z:	0.586	yaw:	-1.635	yaw rate:	-56.166	Roll:	-0.250	Pitch:	-0.650	Yaw:	-0.235	Thrust:	61.785
Time:	2.212	Roll Set Point:	0.066	Pitch Set Point:	0.039	Yaw Set Point:	0.034	X_WP:	0.000	Y_WP:	0.000	Y_WP:	0.500	X:	-0.033	Y:	-0.019	Z:	0.594	yaw:	-1.926	yaw rate:	29.146	Roll:	0.306	Pitch:	-1.099	Yaw:	-10.553	Thrust:	37.692
Time:	2.236	Roll Set Point:	0.064	Pitch Set Point:	0.040	Yaw Set Point:	0.027	X_WP:	0.000	Y_WP:	0.000	Y_WP:	0.500	X:	-0.032	Y:	-0.020	Z:	0.602	yaw:	-1.549	yaw rate:	-37.740	Roll:	-0.223	Pitch:	-0.574	Yaw:	-2.878	Thrust:	66.453
Time:	2.252	Roll Set Point:	0.062	Pitch Set Point:	0.041	Yaw Set Point:	0.027	X_WP:	0.000	Y_WP:	0.000	Y_WP:	0.500	X:	-0.031	Y:	-0.020	Z:	0.609	yaw:	-1.562	yaw rate:	1.280	Roll:	0.244	Pitch:	-1.003	Yaw:	-5.600	Thrust:	34.204
Time:	2.277	Roll Set Point:	0.059	Pitch Set Point:	0.042	Yaw Set Point:	0.031	X_WP:	0.000	Y_WP:	0.000	Y_WP:	0.500	X:	-0.030	Y:	-0.021	Z:	0.617	yaw:	-1.763	yaw rate:	20.146	Roll:	-0.038	Pitch:	-0.863	Yaw:	-9.414	Thrust:	65.252
Time:	2.299	Roll Set Point:	0.057	Pitch Set Point:	0.042	Yaw Set Point:	0.021	X_WP:	0.000	Y_WP:	0.000	Y_WP:	0.500	X:	-0.029	Y:	-0.021	Z:	0.623	yaw:	-1.183	yaw rate:	-57.986	Roll:	-0.178	Pitch:	-0.339	Yaw:	0.539	Thrust:	60.954
Time:	2.312	Roll Set Point:	0.055	Pitch Set Point:	0.043	Yaw Set Point:	0.023	X_WP:	0.000	Y_WP:	0.000	Y_WP:	0.500	X:	-0.028	Y:	-0.021	Z:	0.629	yaw:	-1.299	yaw rate:	11.573	Roll:	0.535	Pitch:	-0.945	Yaw:	-6.753	Thrust:	22.221
Time:	2.349	Roll Set Point:	0.053	Pitch Set Point:	0.043	Yaw Set Point:	0.017	X_WP:	0.000	Y_WP:	0.000	Y_WP:	0.500	X:	-0.027	Y:	-0.021	Z:	0.635	yaw:	-0.960	yaw rate:	-33.959	Roll:	-0.399	Pitch:	-0.434	Yaw:	-5.556	Thrust:	100.000
Time:	2.366	Roll Set Point:	0.051	Pitch Set Point:	0.044	Yaw Set Point:	0.016	X_WP:	0.000	Y_WP:	0.000	Y_WP:	0.500	X:	-0.026	Y:	-0.022	Z:	0.640	yaw:	-0.942	yaw rate:	-1.764	Roll:	-0.033	Pitch:	-0.607	Yaw:	-4.994	Thrust:	51.081
Time:	2.378	Roll Set Point:	0.049	Pitch Set Point:	0.044	Yaw Set Point:	0.016	X_WP:	0.000	Y_WP:	0.000	Y_WP:	0.500	X:	-0.025	Y:	-0.022	Z:	0.644	yaw:	-0.939	yaw rate:	-0.308	Roll:	0.744	Pitch:	-0.446	Yaw:	-3.650	Thrust:	18.094
Time:	2.395	Roll Set Point:	0.047	Pitch Set Point:	0.044	Yaw Set Point:	0.013	X_WP:	0.000	Y_WP:	0.000	Y_WP:	0.500	X:	-0.024	Y:	-0.022	Z:	0.647	yaw:	-0.750	yaw rate:	-18.865	Roll:	0.260	Pitch:	-0.570	Yaw:	-1.585	Thrust:	44.420
Time:	2.413	Roll Set Point:	0.045	Pitch Set Point:	0.044	Yaw Set Point:	0.013	X_WP:	0.000	Y_WP:	0.000	Y_WP:	0.500	X:	-0.023	Y:	-0.022	Z:	0.650	yaw:	-0.719	yaw rate:	-3.150	Roll:	0.168	Pitch:	-0.622	Yaw:	-4.124	Thrust:	48.189
Time:	2.435	Roll Set Point:	0.043	Pitch Set Point:	0.044	Yaw Set Point:	0.017	X_WP:	0.000	Y_WP:	0.000	Y_WP:	0.500	X:	-0.022	Y:	-0.022	Z:	0.653	yaw:	-0.948	yaw rate:	22.971	Roll:	0.030	Pitch:	-0.487	Yaw:	-8.504	Thrust:	65.129
Time:	2.451	Roll Set Point:	0.042	Pitch Set Point:	0.043	Yaw Set Point:	0.006	X_WP:	0.000	Y_WP:	0.000	Y_WP:	0.500	X:	-0.021	Y:	-0.021	Z:	0.655	yaw:	-0.357	yaw rate:	-59.129	Roll:	-0.106	Pitch:	0.049	Yaw:	5.936	Thrust:	41.724
Time:	2.474	Roll Set Point:	0.039	Pitch Set Point:	0.044	Yaw Set Point:	0.012	X_WP:	0.000	Y_WP:	0.000	Y_WP:	0.500	X:	-0.020	Y:	-0.022	Z:	0.657	yaw:	-0.675	yaw rate:	31.767	Roll:	0.352	Pitch:	-0.763	Yaw:	-9.141	Thrust:	66.240
Time:	2.497	Roll Set Point:	0.037	Pitch Set Point:	0.043	Yaw Set Point:	0.008	X_WP:	0.000	Y_WP:	0.000	Y_WP:	0.500	X:	-0.019	Y:	-0.022	Z:	0.658	yaw:	-0.453	yaw rate:	-22.190	Roll:	-0.070	Pitch:	-0.273	Yaw:	-2.825	Thrust:	68.414
Time:	2.512	Roll Set Point:	0.036	Pitch Set Point:	0.043	Yaw Set Point:	0.007	X_WP:	0.000	Y_WP:	0.000	Y_WP:	0.500	X:	-0.018	Y:	-0.022	Z:	0.658	yaw:	-0.403	yaw rate:	-4.945	Roll:	0.500	Pitch:	-0.437	Yaw:	-2.582	Thrust:	41.901
Time:	2.533	Roll Set Point:	0.034	Pitch Set Point:	0.043	Yaw Set Point:	0.004	X_WP:	0.000	Y_WP:	0.000	Y_WP:	0.500	X:	-0.017	Y:	-0.021	Z:	0.658	yaw:	-0.256	yaw rate:	-14.707	Roll:	0.132	Pitch:	-0.254	Yaw:	-2.752	Thrust:	64.070
Time:	2.553	Roll Set Point:	0.032	Pitch Set Point:	0.043	Yaw Set Point:	0.009	X_WP:	0.000	Y_WP:	0.000	Y_WP:	0.500	X:	-0.016	Y:	-0.021	Z:	0.657	yaw:	-0.530	yaw rate:	27.399	Roll:	0.216	Pitch:	-0.469	Yaw:	-8.329	Thrust:	61.071
Time:	2.572	Roll Set Point:	0.030	Pitch Set Point:	0.042	Yaw Set Point:	0.004	X_WP:	0.000	Y_WP:	0.000	Y_WP:	0.500	X:	-0.015	Y:	-0.021	Z:	0.656	yaw:	-0.213	yaw rate:	-31.736	Roll:	0.137	Pitch:	-0.020	Yaw:	0.077	Thrust:	58.106
Time:	2.596	Roll Set Point:	0.029	Pitch Set Point:	0.041	Yaw Set Point:	0.008	X_WP:	0.000	Y_WP:	0.000	Y_WP:	0.500	X:	-0.014	Y:	-0.021	Z:	0.655	yaw:	-0.465	yaw rate:	25.197	Roll:	0.146	Pitch:	-0.356	Yaw:	-8.162	Thrust:	75.328
Time:	2.612	Roll Set Point:	0.027	Pitch Set Point:	0.041	Yaw Set Point:	0.009	X_WP:	0.000	Y_WP:	0.000	Y_WP:	0.500	X:	-0.014	Y:	-0.020	Z:	0.653	yaw:	-0.495	yaw rate:	3.040	Roll:	0.477	Pitch:	-0.090	Yaw:	-4.153	Thrust:	46.264
Time:	2.634	Roll Set Point:	0.025	Pitch Set Point:	0.040	Yaw Set Point:	0.006	X_WP:	0.000	Y_WP:	0.000	Y_WP:	0.500	X:	-0.013	Y:	-0.020	Z:	0.651	yaw:	-0.339	yaw rate:	-15.628	Roll:	0.105	Pitch:	-0.188	Yaw:	-3.462	Thrust:	74.006
Time:	2.660	Roll Set Point:	0.024	Pitch Set Point:	0.039	Yaw Set Point:	0.001	X_WP:	0.000	Y_WP:	0.000	Y_WP:	0.500	X:	-0.012	Y:	-0.020	Z:	0.649	yaw:	-0.068	yaw rate:	-27.160	Roll:	0.039	Pitch:	-0.052	Yaw:	-2.345	Thrust:	78.996
Time:	2.673	Roll Set Point:	0.022	Pitch Set Point:	0.039	Yaw Set Point:	0.001	X_WP:	0.000	Y_WP:	0.000	Y_WP:	0.500	X:	-0.011	Y:	-0.019	Z:	0.647	yaw:	-0.035	yaw rate:	-3.240	Roll:	0.488	Pitch:	-0.230	Yaw:	-2.006	Thrust:	40.055
Time:	2.696	Roll Set Point:	0.021	Pitch Set Point:	0.038	Yaw Set Point:	0.001	X_WP:	0.000	Y_WP:	0.000	Y_WP:	0.500	X:	-0.010	Y:	-0.019	Z:	0.646	yaw:	-0.063	yaw rate:	2.815	Roll:	0.144	Pitch:	-0.213	Yaw:	-5.150	Thrust:	72.861
Time:	2.712	Roll Set Point:	0.020	Pitch Set Point:	0.037	Yaw Set Point:	0.006	X_WP:	0.000	Y_WP:	0.000	Y_WP:	0.500	X:	-0.010	Y:	-0.019	Z:	0.644	yaw:	-0.336	yaw rate:	27.310	Roll:	0.361	Pitch:	0.068	Yaw:	-8.202	Thrust:	47.343
Time:	2.735	Roll Set Point:	0.018	Pitch Set Point:	0.037	Yaw Set Point:	-0.000	X_WP:	0.000	Y_WP:	0.000	Y_WP:	0.500	X:	-0.009	Y:	-0.018	Z:	0.643	yaw:	0.011	yaw rate:	-34.723	Roll:	0.118	Pitch:	-0.186	Yaw:	-0.670	Thrust:	67.640
Time:	2.755	Roll Set Point:	0.017	Pitch Set Point:	0.036	Yaw Set Point:	-0.003	X_WP:	0.000	Y_WP:	0.000	Y_WP:	0.500	X:	-0.008	Y:	-0.018	Z:	0.642	yaw:	0.198	yaw rate:	-18.757	Roll:	0.114	Pitch:	-0.017	Yaw:	-1.455	Thrust:	58.534
Time:	2.774	Roll Set Point:	0.015	Pitch Set Point:	0.036	Yaw Set Point:	0.002	X_WP:	0.000	Y_WP:	0.000	Y_WP:	0.500	X:	-0.008	Y:	-0.018	Z:	0.642	yaw:	-0.130	yaw rate:	32.852	Roll:	0.433	Pitch:	-0.206	Yaw:	-8.505	Thrust:	56.961
Time:	2.797	Roll Set Point:	0.015	Pitch Set Point:	0.034	Yaw Set Point:	-0.001	X_WP:	0.000	Y_WP:	0.000	Y_WP:	0.500	X:	-0.007	Y:	-0.017	Z:	0.641	yaw:	0.044	yaw rate:	-17.450	Roll:	-0.173	Pitch:	0.160	Yaw:	-2.426	Thrust:	65.495
Time:	2.812	Roll Set Point:	0.014	Pitch Set Point:	0.034	Yaw Set Point:	-0.002	X_WP:	0.000	Y_WP:	0.000	Y_WP:	0.500	X:	-0.007	Y:	-0.017	Z:	0.641	yaw:	0.137	yaw rate:	-9.230	Roll:	0.285	Pitch:	0.049	Yaw:	-1.116	Thrust:	40.517
Time:	2.834	Roll Set Point:	0.013	Pitch Set Point:	0.033	Yaw Set Point:	-0.002	X_WP:	0.000	Y_WP:	0.000	Y_WP:	0.500	X:	-0.006	Y:	-0.016	Z:	0.641	yaw:	0.142	yaw rate:	-0.539	Roll:	0.034	Pitch:	-0.060	Yaw:	-4.100	Thrust:	61.715
Time:	2.860	Roll Set Point:	0.012	Pitch Set Point:	0.032	Yaw Set Point:	-0.005	X_WP:	0.000	Y_WP:	0.000	Y_WP:	0.500	X:	-0.006	Y:	-0.016	Z:	0.640	yaw:	0.287	yaw rate:	-14.469	Roll:	-0.076	Pitch:	0.093	Yaw:	-3.384	Thrust:	74.571
Time:	2.872	Roll Set Point:	0.011	Pitch Set Point:	0.031	Yaw Set Point:	-0.007	X_WP:	0.000	Y_WP:	0.000	Y_WP:	0.500	X:	-0.006	Y:	-0.016	Z:	0.640	yaw:	0.397	yaw rate:	-11.050	Roll:	0.332	Pitch:	-0.048	Yaw:	0.288	Thrust:	33.027
Time:	2.897	Roll Set Point:	0.011	Pitch Set Point:	0.029	Yaw Set Point:	0.019	X_WP:	0.000	Y_WP:	0.000	Y_WP:	0.500	X:	-0.006	Y:	-0.015	Z:	0.640	yaw:	-1.075	yaw rate:	147.249	Roll:	-0.169	Pitch:	0.262	Yaw:	-21.882	Thrust:	70.623
Time:	2.912	Roll Set Point:	0.011	Pitch Set Point:	0.028	Yaw Set Point:	0.017	X_WP:	0.000	Y_WP:	0.000	Y_WP:	0.500	X:	-0.006	Y:	-0.014	Z:	0.640	yaw:	-0.991	yaw rate:	-8.420	Roll:	-0.029	Pitch:	0.340	Yaw:	-2.778	Thrust:	37.974
Time:	2.933	Roll Set Point:	0.010	Pitch Set Point:	0.028	Yaw Set Point:	-0.005	X_WP:	0.000	Y_WP:	0.000	Y_WP:	0.500	X:	-0.005	Y:	-0.014	Z:	0.640	yaw:	0.285	yaw rate:	-127.632	Roll:	0.055	Pitch:	-0.104	Yaw:	12.515	Thrust:	55.127
Time:	2.954	Roll Set Point:	0.010	Pitch Set Point:	0.027	Yaw Set Point:	-0.005	X_WP:	0.000	Y_WP:	0.000	Y_WP:	0.500	X:	-0.005	Y:	-0.014	Z:	0.640	yaw:	0.272	yaw rate:	1.289	Roll:	-0.110	Pitch:	0.123	Yaw:	-4.136	Thrust:	57.290
Time:	2.973	Roll Set Point:	0.009	Pitch Set Point:	0.026	Yaw Set Point:	-0.013	X_WP:	0.000	Y_WP:	0.000	Y_WP:	0.500	X:	-0.005	Y:	-0.013	Z:	0.640	yaw:	0.758	yaw rate:	-48.599	Roll:	-0.153	Pitch:	0.083	Yaw:	3.933	Thrust:	51.738
Time:	2.997	Roll Set Point:	0.009	Pitch Set Point:	0.025	Yaw Set Point:	-0.002	X_WP:	0.000	Y_WP:	0.000	Y_WP:	0.500	X:	-0.005	Y:	-0.013	Z:	0.640	yaw:	0.113	yaw rate:	64.580	Roll:	-0.211	Pitch:	0.203	Yaw:	-11.743	Thrust:	63.308
Time:	3.012	Roll Set Point:	0.009	Pitch Set Point:	0.025	Yaw Set Point:	-0.019	X_WP:	0.000	Y_WP:	0.000	Y_WP:	0.500	X:	-0.004	Y:	-0.012	Z:	0.639	yaw:	1.091	yaw rate:	-97.831	Roll:	-0.111	Pitch:	0.156	Yaw:	17.084	Thrust:	35.615
Time:	3.033	Roll Set Point:	0.009	Pitch Set Point:	0.024	Yaw Set Point:	0.010	X_WP:	0.000	Y_WP:	0.000	Y_WP:	0.500	X:	-0.004	Y:	-0.012	Z:	0.638	yaw:	-0.595	yaw rate:	168.553	Roll:	-0.026	Pitch:	0.095	Yaw:	-24.878	Thrust:	61.480
Time:	3.052	Roll Set Point:	0.010	Pitch Set Point:	0.022	Yaw Set Point:	0.006	X_WP:	0.000	Y_WP:	0.000	Y_WP:	0.500	X:	-0.005	Y:	-0.011	Z:	0.637	yaw:	-0.334	yaw rate:	-26.104	Roll:	-0.646	Pitch:	0.463	Yaw:	-0.561	Thrust:	50.781
Time:	3.074	Roll Set Point:	0.010	Pitch Set Point:	0.021	Yaw Set Point:	0.007	X_WP:	0.000	Y_WP:	0.000	Y_WP:	0.500	X:	-0.005	Y:	-0.011	Z:	0.636	yaw:	-0.414	yaw rate:	8.078	Roll:	-0.293	Pitch:	0.236	Yaw:	-5.938	Thrust:	61.164
Time:	3.096	Roll Set Point:	0.009	Pitch Set Point:	0.021	Yaw Set Point:	-0.023	X_WP:	0.000	Y_WP:	0.000	Y_WP:	0.500	X:	-0.004	Y:	-0.011	Z:	0.634	yaw:	1.324	yaw rate:	-173.803	Roll:	-0.182	Pitch:	-0.094	Yaw:	18.046	Thrust:	60.077
Time:	3.112	Roll Set Point:	0.009	Pitch Set Point:	0.020	Yaw Set Point:	-0.011	X_WP:	0.000	Y_WP:	0.000	Y_WP:	0.500	X:	-0.005	Y:	-0.010	Z:	0.631	yaw:	0.654	yaw rate:	66.961	Roll:	-0.184	Pitch:	0.242	Yaw:	-13.461	Thrust:	46.126
Time:	3.135	Roll Set Point:	0.009	Pitch Set Point:	0.019	Yaw Set Point:	-0.024	X_WP:	0.000	Y_WP:	0.000	Y_WP:	0.500	X:	-0.005	Y:	-0.010	Z:	0.629	yaw:	1.366	yaw rate:	-71.230	Roll:	-0.371	Pitch:	0.152	Yaw:	5.134	Thrust:	66.611
Time:	3.154	Roll Set Point:	0.010	Pitch Set Point:	0.018	Yaw Set Point:	0.004	X_WP:	0.000	Y_WP:	0.000	Y_WP:	0.500	X:	-0.005	Y:	-0.009	Z:	0.626	yaw:	-0.216	yaw rate:	158.262	Roll:	-0.241	Pitch:	0.352	Yaw:	-26.295	Thrust:	52.371
Time:	3.175	Roll Set Point:	0.011	Pitch Set Point:	0.017	Yaw Set Point:	0.001	X_WP:	0.000	Y_WP:	0.000	Y_WP:	0.500	X:	-0.005	Y:	-0.008	Z:	0.623	yaw:	-0.048	yaw rate:	-16.849	Roll:	-0.734	Pitch:	0.442	Yaw:	-1.999	Thrust:	60.077
Time:	3.197	Roll Set Point:	0.010	Pitch Set Point:	0.016	Yaw Set Point:	-0.051	X_WP:	0.000	Y_WP:	0.000	Y_WP:	0.500	X:	-0.005	Y:	-0.008	Z:	0.620	yaw:	2.921	yaw rate:	-296.861	Roll:	-0.222	Pitch:	0.315	Yaw:	35.686	Thrust:	61.975
Time:	3.211	Roll Set Point:	0.011	Pitch Set Point:	0.015	Yaw Set Point:	-0.044	X_WP:	0.000	Y_WP:	0.000	Y_WP:	0.500	X:	-0.005	Y:	-0.008	Z:	0.616	yaw:	2.534	yaw rate:	38.710	Roll:	-0.451	Pitch:	0.400	Yaw:	-6.170	Thrust:	46.607
Time:	3.234	Roll Set Point:	0.011	Pitch Set Point:	0.014	Yaw Set Point:	-0.047	X_WP:	0.000	Y_WP:	0.000	Y_WP:	0.500	X:	-0.005	Y:	-0.007	Z:	0.612	yaw:	2.695	yaw rate:	-16.084	Roll:	-0.471	Pitch:	0.355	Yaw:	1.192	Thrust:	65.523
Time:	3.258	Roll Set Point:	0.012	Pitch Set Point:	0.014	Yaw Set Point:	-0.055	X_WP:	0.000	Y_WP:	0.000	Y_WP:	0.500	X:	-0.006	Y:	-0.007	Z:	0.608	yaw:	3.143	yaw rate:	-44.854	Roll:	-0.428	Pitch:	0.135	Yaw:	4.809	Thrust:	67.056
Time:	3.273	Roll Set Point:	0.012	Pitch Set Point:	0.013	Yaw Set Point:	-0.047	X_WP:	0.000	Y_WP:	0.000	Y_WP:	0.500	X:	-0.006	Y:	-0.006	Z:	0.604	yaw:	2.665	yaw rate:	47.838	Roll:	-0.517	Pitch:	0.438	Yaw:	-7.551	Thrust:	50.696
Time:	3.296	Roll Set Point:	0.013	Pitch Set Point:	0.012	Yaw Set Point:	-0.047	X_WP:	0.000	Y_WP:	0.000	Y_WP:	0.500	X:	-0.006	Y:	-0.006	Z:	0.599	yaw:	2.669	yaw rate:	-0.381	Roll:	-0.500	Pitch:	0.276	Yaw:	-0.838	Thrust:	70.446
Time:	3.312	Roll Set Point:	0.013	Pitch Set Point:	0.011	Yaw Set Point:	-0.053	X_WP:	0.000	Y_WP:	0.000	Y_WP:	0.500	X:	-0.006	Y:	-0.006	Z:	0.594	yaw:	3.039	yaw rate:	-37.001	Roll:	-0.532	Pitch:	0.309	Yaw:	7.172	Thrust:	53.083
Time:	3.334	Roll Set Point:	0.014	Pitch Set Point:	0.010	Yaw Set Point:	-0.032	X_WP:	0.000	Y_WP:	0.000	Y_WP:	0.500	X:	-0.007	Y:	-0.005	Z:	0.588	yaw:	1.861	yaw rate:	117.750	Roll:	-0.756	Pitch:	0.401	Yaw:	-15.841	Thrust:	66.224
Time:	3.356	Roll Set Point:	0.015	Pitch Set Point:	0.009	Yaw Set Point:	-0.029	X_WP:	0.000	Y_WP:	0.000	Y_WP:	0.500	X:	-0.007	Y:	-0.005	Z:	0.583	yaw:	1.641	yaw rate:	21.991	Roll:	-0.527	Pitch:	0.261	Yaw:	-4.533	Thrust:	66.869
Time:	3.374	Roll Set Point:	0.014	Pitch Set Point:	0.009	Yaw Set Point:	-0.059	X_WP:	0.000	Y_WP:	0.000	Y_WP:	0.500	X:	-0.007	Y:	-0.005	Z:	0.578	yaw:	3.409	yaw rate:	-176.757	Roll:	-0.120	Pitch:	0.035	Yaw:	26.962	Thrust:	58.077
Time:	3.397	Roll Set Point:	0.015	Pitch Set Point:	0.008	Yaw Set Point:	-0.065	X_WP:	0.000	Y_WP:	0.000	Y_WP:	0.500	X:	-0.007	Y:	-0.004	Z:	0.573	yaw:	3.718	yaw rate:	-30.890	Roll:	-0.637	Pitch:	0.410	Yaw:	4.324	Thrust:	69.790
Time:	3.412	Roll Set Point:	0.016	Pitch Set Point:	0.008	Yaw Set Point:	-0.065	X_WP:	0.000	Y_WP:	0.000	Y_WP:	0.500	X:	-0.008	Y:	-0.004	Z:	0.567	yaw:	3.733	yaw rate:	-1.485	Roll:	-0.617	Pitch:	0.408	Yaw:	2.631	Thrust:	52.718
Time:	3.433	Roll Set Point:	0.016	Pitch Set Point:	0.007	Yaw Set Point:	-0.054	X_WP:	0.000	Y_WP:	0.000	Y_WP:	0.500	X:	-0.008	Y:	-0.004	Z:	0.563	yaw:	3.073	yaw rate:	65.926	Roll:	-0.604	Pitch:	0.250	Yaw:	-7.782	Thrust:	64.799
Time:	3.451	Roll Set Point:	0.017	Pitch Set Point:	0.006	Yaw Set Point:	-0.053	X_WP:	0.000	Y_WP:	0.000	Y_WP:	0.500	X:	-0.008	Y:	-0.003	Z:	0.558	yaw:	3.047	yaw rate:	2.674	Roll:	-0.656	Pitch:	0.473	Yaw:	0.587	Thrust:	55.936
Time:	3.473	Roll Set Point:	0.017	Pitch Set Point:	0.006	Yaw Set Point:	-0.052	X_WP:	0.000	Y_WP:	0.000	Y_WP:	0.500	X:	-0.009	Y:	-0.003	Z:	0.554	yaw:	2.977	yaw rate:	6.955	Roll:	-0.529	Pitch:	0.168	Yaw:	-0.745	Thrust:	65.471
Time:	3.496	Roll Set Point:	0.018	Pitch Set Point:	0.005	Yaw Set Point:	-0.048	X_WP:	0.000	Y_WP:	0.000	Y_WP:	0.500	X:	-0.009	Y:	-0.003	Z:	0.550	yaw:	2.724	yaw rate:	25.308	Roll:	-0.630	Pitch:	0.320	Yaw:	-3.324	Thrust:	67.265
Time:	3.512	Roll Set Point:	0.019	Pitch Set Point:	0.005	Yaw Set Point:	-0.047	X_WP:	0.000	Y_WP:	0.000	Y_WP:	0.500	X:	-0.009	Y:	-0.002	Z:	0.546	yaw:	2.702	yaw rate:	2.183	Roll:	-0.626	Pitch:	0.261	Yaw:	0.572	Thrust:	50.945
Time:	3.533	Roll Set Point:	0.019	Pitch Set Point:	0.005	Yaw Set Point:	-0.059	X_WP:	0.000	Y_WP:	0.000	Y_WP:	0.500	X:	-0.009	Y:	-0.003	Z:	0.543	yaw:	3.367	yaw rate:	-66.484	Roll:	-0.427	Pitch:	0.070	Yaw:	9.127	Thrust:	60.809
Time:	3.555	Roll Set Point:	0.019	Pitch Set Point:	0.004	Yaw Set Point:	-0.060	X_WP:	0.000	Y_WP:	0.000	Y_WP:	0.500	X:	-0.010	Y:	-0.002	Z:	0.540	yaw:	3.461	yaw rate:	-9.410	Roll:	-0.626	Pitch:	0.333	Yaw:	1.966	Thrust:	63.071
Time:	3.575	Roll Set Point:	0.020	Pitch Set Point:	0.004	Yaw Set Point:	-0.063	X_WP:	0.000	Y_WP:	0.000	Y_WP:	0.500	X:	-0.010	Y:	-0.002	Z:	0.537	yaw:	3.609	yaw rate:	-14.769	Roll:	-0.587	Pitch:	0.262	Yaw:	3.374	Thrust:	59.338
Time:	3.593	Roll Set Point:	0.020	Pitch Set Point:	0.003	Yaw Set Point:	-0.065	X_WP:	0.000	Y_WP:	0.000	Y_WP:	0.500	X:	-0.010	Y:	-0.002	Z:	0.534	yaw:	3.719	yaw rate:	-11.019	Roll:	-0.556	Pitch:	0.208	Yaw:	3.728	Thrust:	51.961
Time:	3.613	Roll Set Point:	0.020	Pitch Set Point:	0.003	Yaw Set Point:	-0.061	X_WP:	0.000	Y_WP:	0.000	Y_WP:	0.500	X:	-0.010	Y:	-0.002	Z:	0.532	yaw:	3.520	yaw rate:	19.891	Roll:	-0.551	Pitch:	0.138	Yaw:	-1.252	Thrust:	56.636
Time:	3.633	Roll Set Point:	0.021	Pitch Set Point:	0.003	Yaw Set Point:	-0.060	X_WP:	0.000	Y_WP:	0.000	Y_WP:	0.500	X:	-0.010	Y:	-0.002	Z:	0.529	yaw:	3.430	yaw rate:	9.029	Roll:	-0.585	Pitch:	0.141	Yaw:	0.148	Thrust:	57.253
Time:	3.656	Roll Set Point:	0.022	Pitch Set Point:	0.002	Yaw Set Point:	-0.032	X_WP:	0.000	Y_WP:	0.000	Y_WP:	0.500	X:	-0.011	Y:	-0.001	Z:	0.527	yaw:	1.818	yaw rate:	161.170	Roll:	-0.899	Pitch:	0.300	Yaw:	-19.619	Thrust:	65.217
Time:	3.675	Roll Set Point:	0.022	Pitch Set Point:	0.002	Yaw Set Point:	-0.053	X_WP:	0.000	Y_WP:	0.000	Y_WP:	0.500	X:	-0.011	Y:	-0.001	Z:	0.525	yaw:	3.043	yaw rate:	-122.531	Roll:	-0.305	Pitch:	0.167	Yaw:	17.809	Thrust:	54.313
Time:	3.692	Roll Set Point:	0.022	Pitch Set Point:	0.002	Yaw Set Point:	-0.060	X_WP:	0.000	Y_WP:	0.000	Y_WP:	0.500	X:	-0.011	Y:	-0.001	Z:	0.522	yaw:	3.446	yaw rate:	-40.289	Roll:	-0.468	Pitch:	0.133	Yaw:	8.218	Thrust:	51.511
Time:	3.713	Roll Set Point:	0.022	Pitch Set Point:	0.002	Yaw Set Point:	-0.048	X_WP:	0.000	Y_WP:	0.000	Y_WP:	0.500	X:	-0.011	Y:	-0.001	Z:	0.520	yaw:	2.743	yaw rate:	70.278	Roll:	-0.686	Pitch:	0.311	Yaw:	-8.524	Thrust:	59.925
Time:	3.742	Roll Set Point:	0.023	Pitch Set Point:	0.002	Yaw Set Point:	-0.053	X_WP:	0.000	Y_WP:	0.000	Y_WP:	0.500	X:	-0.011	Y:	-0.001	Z:	0.517	yaw:	3.018	yaw rate:	-27.451	Roll:	-0.537	Pitch:	0.167	Yaw:	2.115	Thrust:	76.661
Time:	3.764	Roll Set Point:	0.023	Pitch Set Point:	0.002	Yaw Set Point:	-0.056	X_WP:	0.000	Y_WP:	0.000	Y_WP:	0.500	X:	-0.011	Y:	-0.001	Z:	0.514	yaw:	3.229	yaw rate:	-21.144	Roll:	-0.479	Pitch:	0.129	Yaw:	2.861	Thrust:	66.038
Time:	3.777	Roll Set Point:	0.023	Pitch Set Point:	0.001	Yaw Set Point:	-0.048	X_WP:	0.000	Y_WP:	0.000	Y_WP:	0.500	X:	-0.012	Y:	-0.001	Z:	0.511	yaw:	2.726	yaw rate:	50.322	Roll:	-0.704	Pitch:	0.180	Yaw:	-8.493	Thrust:	44.263
Time:	3.799	Roll Set Point:	0.023	Pitch Set Point:	0.001	Yaw Set Point:	-0.057	X_WP:	0.000	Y_WP:	0.000	Y_WP:	0.500	X:	-0.012	Y:	-0.001	Z:	0.508	yaw:	3.290	yaw rate:	-56.357	Roll:	-0.467	Pitch:	0.224	Yaw:	8.066	Thrust:	62.043
Time:	3.813	Roll Set Point:	0.023	Pitch Set Point:	0.002	Yaw Set Point:	-0.062	X_WP:	0.000	Y_WP:	0.000	Y_WP:	0.500	X:	-0.011	Y:	-0.001	Z:	0.505	yaw:	3.579	yaw rate:	-28.883	Roll:	-0.066	Pitch:	-0.164	Yaw:	7.752	Thrust:	48.302
Time:	3.834	Roll Set Point:	0.024	Pitch Set Point:	0.001	Yaw Set Point:	-0.046	X_WP:	0.000	Y_WP:	0.000	Y_WP:	0.500	X:	-0.012	Y:	-0.001	Z:	0.502	yaw:	2.650	yaw rate:	92.822	Roll:	-0.995	Pitch:	0.440	Yaw:	-11.312	Thrust:	61.086
Time:	3.856	Roll Set Point:	0.023	Pitch Set Point:	0.001	Yaw Set Point:	-0.061	X_WP:	0.000	Y_WP:	0.000	Y_WP:	0.500	X:	-0.012	Y:	-0.001	Z:	0.499	yaw:	3.492	yaw rate:	-84.131	Roll:	-0.337	Pitch:	0.072	Yaw:	11.578	Thrust:	64.093
Time:	3.873	Roll Set Point:	0.024	Pitch Set Point:	0.001	Yaw Set Point:	-0.061	X_WP:	0.000	Y_WP:	0.000	Y_WP:	0.500	X:	-0.012	Y:	-0.001	Z:	0.496	yaw:	3.503	yaw rate:	-1.116	Roll:	-0.477	Pitch:	0.154	Yaw:	2.203	Thrust:	55.456
Time:	3.897	Roll Set Point:	0.024	Pitch Set Point:	0.001	Yaw Set Point:	-0.058	X_WP:	0.000	Y_WP:	0.000	Y_WP:	0.500	X:	-0.012	Y:	-0.001	Z:	0.492	yaw:	3.297	yaw rate:	20.600	Roll:	-0.549	Pitch:	0.211	Yaw:	-1.460	Thrust:	69.256
Time:	3.912	Roll Set Point:	0.024	Pitch Set Point:	0.001	Yaw Set Point:	-0.050	X_WP:	0.000	Y_WP:	0.000	Y_WP:	0.500	X:	-0.012	Y:	-0.001	Z:	0.488	yaw:	2.872	yaw rate:	42.517	Roll:	-0.577	Pitch:	0.057	Yaw:	-5.556	Thrust:	54.533
Time:	3.936	Roll Set Point:	0.023	Pitch Set Point:	0.001	Yaw Set Point:	-0.067	X_WP:	0.000	Y_WP:	0.000	Y_WP:	0.500	X:	-0.012	Y:	-0.001	Z:	0.483	yaw:	3.814	yaw rate:	-94.197	Roll:	-0.134	Pitch:	0.079	Yaw:	11.440	Thrust:	73.659
Time:	3.953	Roll Set Point:	0.024	Pitch Set Point:	0.000	Yaw Set Point:	-0.051	X_WP:	0.000	Y_WP:	0.000	Y_WP:	0.500	X:	-0.012	Y:	-0.000	Z:	0.478	yaw:	2.918	yaw rate:	89.580	Roll:	-0.954	Pitch:	0.365	Yaw:	-13.070	Thrust:	56.934
Time:	3.975	Roll Set Point:	0.024	Pitch Set Point:	0.000	Yaw Set Point:	-0.058	X_WP:	0.000	Y_WP:	0.000	Y_WP:	0.500	X:	-0.012	Y:	-0.001	Z:	0.474	yaw:	3.318	yaw rate:	-40.018	Roll:	-0.302	Pitch:	0.112	Yaw:	5.913	Thrust:	69.737
Time:	4.002	Roll Set Point:	0.024	Pitch Set Point:	0.000	Yaw Set Point:	-0.053	X_WP:	0.000	Y_WP:	0.000	Y_WP:	0.500	X:	-0.012	Y:	-0.000	Z:	0.469	yaw:	3.010	yaw rate:	30.784	Roll:	-0.590	Pitch:	0.198	Yaw:	-2.976	Thrust:	80.746
Time:	4.013	Roll Set Point:	0.023	Pitch Set Point:	0.000	Yaw Set Point:	-0.066	X_WP:	0.000	Y_WP:	0.000	Y_WP:	0.500	X:	-0.012	Y:	-0.001	Z:	0.464	yaw:	3.754	yaw rate:	-74.393	Roll:	0.018	Pitch:	0.049	Yaw:	20.326	Thrust:	52.722
Time:	4.034	Roll Set Point:	0.023	Pitch Set Point:	0.000	Yaw Set Point:	-0.057	X_WP:	0.000	Y_WP:	0.000	Y_WP:	0.500	X:	-0.012	Y:	-0.000	Z:	0.459	yaw:	3.259	yaw rate:	49.526	Roll:	-0.463	Pitch:	0.153	Yaw:	-4.838	Thrust:	69.408
Time:	4.051	Roll Set Point:	0.023	Pitch Set Point:	0.000	Yaw Set Point:	-0.058	X_WP:	0.000	Y_WP:	0.000	Y_WP:	0.500	X:	-0.012	Y:	-0.000	Z:	0.453	yaw:	3.298	yaw rate:	-3.916	Roll:	-0.338	Pitch:	0.043	Yaw:	2.516	Thrust:	62.807
Time:	4.075	Roll Set Point:	0.023	Pitch Set Point:	0.000	Yaw Set Point:	-0.060	X_WP:	0.000	Y_WP:	0.000	Y_WP:	0.500	X:	-0.011	Y:	-0.000	Z:	0.448	yaw:	3.466	yaw rate:	-16.808	Roll:	-0.359	Pitch:	0.214	Yaw:	3.258	Thrust:	74.340
Time:	4.093	Roll Set Point:	0.023	Pitch Set Point:	0.000	Yaw Set Point:	-0.041	X_WP:	0.000	Y_WP:	0.000	Y_WP:	0.500	X:	-0.011	Y:	-0.000	Z:	0.443	yaw:	2.350	yaw rate:	111.634	Roll:	-0.494	Pitch:	-0.196	Yaw:	-15.606	Thrust:	63.499
Time:	4.113	Roll Set Point:	0.022	Pitch Set Point:	0.001	Yaw Set Point:	-0.071	X_WP:	0.000	Y_WP:	0.000	Y_WP:	0.500	X:	-0.011	Y:	-0.001	Z:	0.439	yaw:	4.041	yaw rate:	-169.141	Roll:	0.033	Pitch:	0.106	Yaw:	24.114	Thrust:	69.248
Time:	4.132	Roll Set Point:	0.022	Pitch Set Point:	0.001	Yaw Set Point:	-0.057	X_WP:	0.000	Y_WP:	0.000	Y_WP:	0.500	X:	-0.011	Y:	-0.001	Z:	0.435	yaw:	3.266	yaw rate:	77.518	Roll:	-0.401	Pitch:	-0.029	Yaw:	-8.899	Thrust:	64.509
Time:	4.157	Roll Set Point:	0.021	Pitch Set Point:	0.001	Yaw Set Point:	-0.070	X_WP:	0.000	Y_WP:	0.000	Y_WP:	0.500	X:	-0.010	Y:	-0.001	Z:	0.431	yaw:	4.001	yaw rate:	-73.526	Roll:	-0.153	Pitch:	0.016	Yaw:	9.807	Thrust:	77.369
Time:	4.173	Roll Set Point:	0.021	Pitch Set Point:	0.001	Yaw Set Point:	-0.053	X_WP:	0.000	Y_WP:	0.000	Y_WP:	0.500	X:	-0.010	Y:	-0.001	Z:	0.428	yaw:	3.032	yaw rate:	96.964	Roll:	-0.313	Pitch:	-0.045	Yaw:	-13.919	Thrust:	55.719
Time:	4.197	Roll Set Point:	0.020	Pitch Set Point:	0.002	Yaw Set Point:	-0.057	X_WP:	0.000	Y_WP:	0.000	Y_WP:	0.500	X:	-0.010	Y:	-0.001	Z:	0.426	yaw:	3.240	yaw rate:	-20.810	Roll:	-0.289	Pitch:	-0.027	Yaw:	3.314	Thrust:	74.075
Time:	4.213	Roll Set Point:	0.019	Pitch Set Point:	0.002	Yaw Set Point:	-0.059	X_WP:	0.000	Y_WP:	0.000	Y_WP:	0.500	X:	-0.010	Y:	-0.002	Z:	0.424	yaw:	3.375	yaw rate:	-13.520	Roll:	0.045	Pitch:	-0.257	Yaw:	4.715	Thrust:	52.464
Time:	4.236	Roll Set Point:	0.019	Pitch Set Point:	0.003	Yaw Set Point:	-0.049	X_WP:	0.000	Y_WP:	0.000	Y_WP:	0.500	X:	-0.009	Y:	-0.002	Z:	0.423	yaw:	2.799	yaw rate:	57.618	Roll:	-0.308	Pitch:	-0.004	Yaw:	-5.829	Thrust:	69.704
Time:	4.251	Roll Set Point:	0.018	Pitch Set Point:	0.003	Yaw Set Point:	-0.056	X_WP:	0.000	Y_WP:	0.000	Y_WP:	0.500	X:	-0.009	Y:	-0.002	Z:	0.422	yaw:	3.202	yaw rate:	-40.358	Roll:	-0.044	Pitch:	-0.270	Yaw:	9.371	Thrust:	48.730
Time:	4.272	Roll Set Point:	0.018	Pitch Set Point:	0.004	Yaw Set Point:	-0.051	X_WP:	0.000	Y_WP:	0.000	Y_WP:	0.500	X:	-0.009	Y:	-0.002	Z:	0.422	yaw:	2.906	yaw rate:	29.667	Roll:	-0.146	Pitch:	-0.186	Yaw:	-2.609	Thrust:	60.295
Time:	4.294	Roll Set Point:	0.017	Pitch Set Point:	0.004	Yaw Set Point:	-0.048	X_WP:	0.000	Y_WP:	0.000	Y_WP:	0.500	X:	-0.009	Y:	-0.002	Z:	0.422	yaw:	2.759	yaw rate:	14.673	Roll:	-0.224	Pitch:	-0.014	Yaw:	-0.952	Thrust:	65.079
Time:	4.313	Roll Set Point:	0.017	Pitch Set Point:	0.005	Yaw Set Point:	-0.048	X_WP:	0.000	Y_WP:	0.000	Y_WP:	0.500	X:	-0.008	Y:	-0.003	Z:	0.423	yaw:	2.740	yaw rate:	1.929	Roll:	-0.159	Pitch:	-0.226	Yaw:	0.944	Thrust:	56.080
Time:	4.334	Roll Set Point:	0.016	Pitch Set Point:	0.005	Yaw Set Point:	-0.049	X_WP:	0.000	Y_WP:	0.000	Y_WP:	0.500	X:	-0.008	Y:	-0.003	Z:	0.423	yaw:	2.817	yaw rate:	-7.768	Roll:	-0.100	Pitch:	-0.236	Yaw:	2.064	Thrust:	61.282
Time:	4.351	Roll Set Point:	0.016	Pitch Set Point:	0.006	Yaw Set Point:	-0.050	X_WP:	0.000	Y_WP:	0.000	Y_WP:	0.500	X:	-0.008	Y:	-0.003	Z:	0.423	yaw:	2.851	yaw rate:	-3.390	Roll:	-0.101	Pitch:	-0.263	Yaw:	2.103	Thrust:	52.239
Time:	4.374	Roll Set Point:	0.015	Pitch Set Point:	0.007	Yaw Set Point:	-0.053	X_WP:	0.000	Y_WP:	0.000	Y_WP:	0.500	X:	-0.007	Y:	-0.003	Z:	0.424	yaw:	3.043	yaw rate:	-19.186	Roll:	-0.195	Pitch:	-0.205	Yaw:	3.315	Thrust:	68.299
Time:	4.398	Roll Set Point:	0.015	Pitch Set Point:	0.007	Yaw Set Point:	-0.057	X_WP:	0.000	Y_WP:	0.000	Y_WP:	0.500	X:	-0.007	Y:	-0.004	Z:	0.424	yaw:	3.289	yaw rate:	-24.643	Roll:	-0.141	Pitch:	-0.243	Yaw:	4.263	Thrust:	64.431
Time:	4.414	Roll Set Point:	0.014	Pitch Set Point:	0.007	Yaw Set Point:	-0.042	X_WP:	0.000	Y_WP:	0.000	Y_WP:	0.500	X:	-0.007	Y:	-0.004	Z:	0.425	yaw:	2.402	yaw rate:	88.769	Roll:	-0.238	Pitch:	-0.030	Yaw:	-12.857	Thrust:	53.740
Time:	4.433	Roll Set Point:	0.014	Pitch Set Point:	0.008	Yaw Set Point:	-0.042	X_WP:	0.000	Y_WP:	0.000	Y_WP:	0.500	X:	-0.007	Y:	-0.004	Z:	0.425	yaw:	2.421	yaw rate:	-1.881	Roll:	-0.129	Pitch:	-0.306	Yaw:	1.131	Thrust:	56.788
Time:	4.453	Roll Set Point:	0.013	Pitch Set Point:	0.008	Yaw Set Point:	-0.041	X_WP:	0.000	Y_WP:	0.000	Y_WP:	0.500	X:	-0.007	Y:	-0.004	Z:	0.426	yaw:	2.375	yaw rate:	4.512	Roll:	-0.151	Pitch:	-0.248	Yaw:	0.178	Thrust:	57.512
Time:	4.472	Roll Set Point:	0.013	Pitch Set Point:	0.009	Yaw Set Point:	-0.044	X_WP:	0.000	Y_WP:	0.000	Y_WP:	0.500	X:	-0.007	Y:	-0.005	Z:	0.427	yaw:	2.495	yaw rate:	-12.002	Roll:	-0.233	Pitch:	-0.205	Yaw:	2.547	Thrust:	58.213
Time:	4.495	Roll Set Point:	0.013	Pitch Set Point:	0.009	Yaw Set Point:	-0.045	X_WP:	0.000	Y_WP:	0.000	Y_WP:	0.500	X:	-0.006	Y:	-0.005	Z:	0.427	yaw:	2.599	yaw rate:	-10.318	Roll:	-0.214	Pitch:	-0.144	Yaw:	1.964	Thrust:	66.084
Time:	4.511	Roll Set Point:	0.013	Pitch Set Point:	0.010	Yaw Set Point:	-0.048	X_WP:	0.000	Y_WP:	0.000	Y_WP:	0.500	X:	-0.006	Y:	-0.005	Z:	0.428	yaw:	2.740	yaw rate:	-14.170	Roll:	-0.181	Pitch:	-0.322	Yaw:	3.943	Thrust:	49.226
Time:	4.533	Roll Set Point:	0.012	Pitch Set Point:	0.010	Yaw Set Point:	-0.053	X_WP:	0.000	Y_WP:	0.000	Y_WP:	0.500	X:	-0.006	Y:	-0.005	Z:	0.429	yaw:	3.012	yaw rate:	-27.133	Roll:	-0.225	Pitch:	-0.138	Yaw:	4.665	Thrust:	65.352
Time:	4.557	Roll Set Point:	0.012	Pitch Set Point:	0.010	Yaw Set Point:	-0.044	X_WP:	0.000	Y_WP:	0.000	Y_WP:	0.500	X:	-0.006	Y:	-0.005	Z:	0.430	yaw:	2.533	yaw rate:	47.882	Roll:	-0.364	Pitch:	0.029	Yaw:	-4.766	Thrust:	69.975
Time:	4.574	Roll Set Point:	0.012	Pitch Set Point:	0.011	Yaw Set Point:	-0.047	X_WP:	0.000	Y_WP:	0.000	Y_WP:	0.500	X:	-0.006	Y:	-0.005	Z:	0.430	yaw:	2.706	yaw rate:	-17.289	Roll:	-0.208	Pitch:	-0.332	Yaw:	4.160	Thrust:	51.575
Time:	4.597	Roll Set Point:	0.012	Pitch Set Point:	0.011	Yaw Set Point:	-0.053	X_WP:	0.000	Y_WP:	0.000	Y_WP:	0.500	X:	-0.006	Y:	-0.006	Z:	0.431	yaw:	3.060	yaw rate:	-35.425	Roll:	-0.236	Pitch:	-0.195	Yaw:	5.449	Thrust:	71.047
Time:	4.612	Roll Set Point:	0.012	Pitch Set Point:	0.011	Yaw Set Point:	-0.052	X_WP:	0.000	Y_WP:	0.000	Y_WP:	0.500	X:	-0.006	Y:	-0.006	Z:	0.431	yaw:	2.998	yaw rate:	6.202	Roll:	-0.264	Pitch:	-0.171	Yaw:	1.250	Thrust:	45.907
Time:	4.633	Roll Set Point:	0.012	Pitch Set Point:	0.011	Yaw Set Point:	-0.043	X_WP:	0.000	Y_WP:	0.000	Y_WP:	0.500	X:	-0.006	Y:	-0.005	Z:	0.432	yaw:	2.464	yaw rate:	53.422	Roll:	-0.413	Pitch:	0.152	Yaw:	-5.774	Thrust:	62.036
Time:	4.654	Roll Set Point:	0.012	Pitch Set Point:	0.011	Yaw Set Point:	-0.042	X_WP:	0.000	Y_WP:	0.000	Y_WP:	0.500	X:	-0.006	Y:	-0.006	Z:	0.433	yaw:	2.424	yaw rate:	3.985	Roll:	-0.330	Pitch:	-0.077	Yaw:	0.310	Thrust:	63.049
Time:	4.673	Roll Set Point:	0.012	Pitch Set Point:	0.011	Yaw Set Point:	-0.048	X_WP:	0.000	Y_WP:	0.000	Y_WP:	0.500	X:	-0.006	Y:	-0.006	Z:	0.433	yaw:	2.738	yaw rate:	-31.400	Roll:	-0.308	Pitch:	-0.211	Yaw:	5.838	Thrust:	61.535
Time:	4.697	Roll Set Point:	0.012	Pitch Set Point:	0.011	Yaw Set Point:	-0.041	X_WP:	0.000	Y_WP:	0.000	Y_WP:	0.500	X:	-0.006	Y:	-0.006	Z:	0.434	yaw:	2.370	yaw rate:	36.780	Roll:	-0.373	Pitch:	0.049	Yaw:	-3.595	Thrust:	72.231
Time:	4.711	Roll Set Point:	0.012	Pitch Set Point:	0.011	Yaw Set Point:	-0.043	X_WP:	0.000	Y_WP:	0.000	Y_WP:	0.500	X:	-0.006	Y:	-0.006	Z:	0.434	yaw:	2.436	yaw rate:	-6.588	Roll:	-0.251	Pitch:	-0.258	Yaw:	2.941	Thrust:	44.353
Time:	4.733	Roll Set Point:	0.012	Pitch Set Point:	0.011	Yaw Set Point:	-0.043	X_WP:	0.000	Y_WP:	0.000	Y_WP:	0.500	X:	-0.006	Y:	-0.006	Z:	0.434	yaw:	2.486	yaw rate:	-4.965	Roll:	-0.373	Pitch:	-0.044	Yaw:	1.381	Thrust:	69.937
Time:	4.766	Roll Set Point:	0.012	Pitch Set Point:	0.011	Yaw Set Point:	-0.044	X_WP:	0.000	Y_WP:	0.000	Y_WP:	0.500	X:	-0.006	Y:	-0.006	Z:	0.435	yaw:	2.503	yaw rate:	-1.713	Roll:	-0.354	Pitch:	-0.032	Yaw:	-0.187	Thrust:	63.833
Time:	4.777	Roll Set Point:	0.012	Pitch Set Point:	0.011	Yaw Set Point:	-0.053	X_WP:	0.000	Y_WP:	0.000	Y_WP:	0.500	X:	-0.006	Y:	-0.006	Z:	0.435	yaw:	3.054	yaw rate:	-55.111	Roll:	-0.355	Pitch:	-0.025	Yaw:	15.435	Thrust:	72.954
Time:	4.794	Roll Set Point:	0.012	Pitch Set Point:	0.011	Yaw Set Point:	-0.055	X_WP:	0.000	Y_WP:	0.000	Y_WP:	0.500	X:	-0.006	Y:	-0.006	Z:	0.435	yaw:	3.129	yaw rate:	-7.537	Roll:	-0.272	Pitch:	0.001	Yaw:	3.757	Thrust:	50.050
Time:	4.814	Roll Set Point:	0.013	Pitch Set Point:	0.011	Yaw Set Point:	-0.048	X_WP:	0.000	Y_WP:	0.000	Y_WP:	0.500	X:	-0.006	Y:	-0.006	Z:	0.436	yaw:	2.735	yaw rate:	39.457	Roll:	-0.417	Pitch:	0.025	Yaw:	-3.507	Thrust:	64.612
Time:	4.832	Roll Set Point:	0.013	Pitch Set Point:	0.011	Yaw Set Point:	-0.036	X_WP:	0.000	Y_WP:	0.000	Y_WP:	0.500	X:	-0.006	Y:	-0.006	Z:	0.437	yaw:	2.042	yaw rate:	69.309	Roll:	-0.315	Pitch:	-0.037	Yaw:	-9.246	Thrust:	54.601
Time:	4.854	Roll Set Point:	0.013	Pitch Set Point:	0.011	Yaw Set Point:	-0.046	X_WP:	0.000	Y_WP:	0.000	Y_WP:	0.500	X:	-0.006	Y:	-0.006	Z:	0.439	yaw:	2.621	yaw rate:	-57.986	Roll:	-0.353	Pitch:	-0.070	Yaw:	8.344	Thrust:	63.197
Time:	4.872	Roll Set Point:	0.013	Pitch Set Point:	0.011	Yaw Set Point:	-0.034	X_WP:	0.000	Y_WP:	0.000	Y_WP:	0.500	X:	-0.006	Y:	-0.006	Z:	0.441	yaw:	1.942	yaw rate:	67.963	Roll:	-0.350	Pitch:	-0.023	Yaw:	-8.949	Thrust:	55.762
Time:	4.895	Roll Set Point:	0.013	Pitch Set Point:	0.011	Yaw Set Point:	-0.035	X_WP:	0.000	Y_WP:	0.000	Y_WP:	0.500	X:	-0.006	Y:	-0.005	Z:	0.443	yaw:	1.999	yaw rate:	-5.702	Roll:	-0.417	Pitch:	0.075	Yaw:	0.933	Thrust:	67.308
Time:	4.911	Roll Set Point:	0.013	Pitch Set Point:	0.011	Yaw Set Point:	-0.036	X_WP:	0.000	Y_WP:	0.000	Y_WP:	0.500	X:	-0.006	Y:	-0.005	Z:	0.445	yaw:	2.076	yaw rate:	-7.739	Roll:	-0.281	Pitch:	-0.029	Yaw:	2.394	Thrust:	44.767
Time:	4.932	Roll Set Point:	0.013	Pitch Set Point:	0.011	Yaw Set Point:	-0.038	X_WP:	0.000	Y_WP:	0.000	Y_WP:	0.500	X:	-0.006	Y:	-0.005	Z:	0.448	yaw:	2.185	yaw rate:	-10.881	Roll:	-0.342	Pitch:	-0.102	Yaw:	2.096	Thrust:	61.450
Time:	4.955	Roll Set Point:	0.013	Pitch Set Point:	0.011	Yaw Set Point:	-0.044	X_WP:	0.000	Y_WP:	0.000	Y_WP:	0.500	X:	-0.006	Y:	-0.006	Z:	0.450	yaw:	2.523	yaw rate:	-33.759	Roll:	-0.285	Pitch:	-0.096	Yaw:	4.843	Thrust:	68.261
Time:	4.975	Roll Set Point:	0.013	Pitch Set Point:	0.011	Yaw Set Point:	-0.034	X_WP:	0.000	Y_WP:	0.000	Y_WP:	0.500	X:	-0.006	Y:	-0.005	Z:	0.452	yaw:	1.956	yaw rate:	56.610	Roll:	-0.388	Pitch:	0.076	Yaw:	-6.820	Thrust:	58.321
Time:	4.992	Roll Set Point:	0.013	Pitch Set Point:	0.011	Yaw Set Point:	-0.050	X_WP:	0.000	Y_WP:	0.000	Y_WP:	0.500	X:	-0.006	Y:	-0.006	Z:	0.454	yaw:	2.874	yaw rate:	-91.729	Roll:	-0.275	Pitch:	-0.162	Yaw:	16.897	Thrust:	47.137
Time:	5.013	Roll Set Point:	0.013	Pitch Set Point:	0.011	Yaw Set Point:	-0.030	X_WP:	0.000	Y_WP:	0.000	Y_WP:	0.500	X:	-0.006	Y:	-0.005	Z:	0.456	yaw:	1.743	yaw rate:	113.092	Roll:	-0.348	Pitch:	0.006	Yaw:	-13.861	Thrust:	62.492
Time:	5.038	Roll Set Point:	0.013	Pitch Set Point:	0.010	Yaw Set Point:	-0.041	X_WP:	0.000	Y_WP:	0.000	Y_WP:	0.500	X:	-0.006	Y:	-0.005	Z:	0.458	yaw:	2.375	yaw rate:	-63.251	Roll:	-0.381	Pitch:	0.077	Yaw:	7.451	Thrust:	71.090
Time:	5.051	Roll Set Point:	0.013	Pitch Set Point:	0.011	Yaw Set Point:	-0.047	X_WP:	0.000	Y_WP:	0.000	Y_WP:	0.500	X:	-0.006	Y:	-0.006	Z:	0.460	yaw:	2.702	yaw rate:	-32.623	Roll:	-0.152	Pitch:	-0.246	Yaw:	8.391	Thrust:	43.601
Time:	5.074	Roll Set Point:	0.013	Pitch Set Point:	0.010	Yaw Set Point:	-0.041	X_WP:	0.000	Y_WP:	0.000	Y_WP:	0.500	X:	-0.006	Y:	-0.005	Z:	0.461	yaw:	2.323	yaw rate:	37.851	Roll:	-0.475	Pitch:	0.091	Yaw:	-3.518	Thrust:	67.038
Time:	5.099	Roll Set Point:	0.013	Pitch Set Point:	0.011	Yaw Set Point:	-0.040	X_WP:	0.000	Y_WP:	0.000	Y_WP:	0.500	X:	-0.006	Y:	-0.005	Z:	0.463	yaw:	2.309	yaw rate:	1.377	Roll:	-0.266	Pitch:	-0.115	Yaw:	0.560	Thrust:	74.724
Time:	5.112	Roll Set Point:	0.013	Pitch Set Point:	0.011	Yaw Set Point:	-0.053	X_WP:	0.000	Y_WP:	0.000	Y_WP:	0.500	X:	-0.006	Y:	-0.005	Z:	0.464	yaw:	3.049	yaw rate:	-74.001	Roll:	-0.333	Pitch:	0.034	Yaw:	17.732	Thrust:	37.737
Time:	5.141	Roll Set Point:	0.013	Pitch Set Point:	0.011	Yaw Set Point:	-0.045	X_WP:	0.000	Y_WP:	0.000	Y_WP:	0.500	X:	-0.006	Y:	-0.005	Z:	0.465	yaw:	2.574	yaw rate:	47.559	Roll:	-0.341	Pitch:	-0.025	Yaw:	-3.668	Thrust:	83.869
Time:	5.158	Roll Set Point:	0.013	Pitch Set Point:	0.010	Yaw Set Point:	-0.019	X_WP:	0.000	Y_WP:	0.000	Y_WP:	0.500	X:	-0.007	Y:	-0.005	Z:	0.467	yaw:	1.100	yaw rate:	147.326	Roll:	-0.605	Pitch:	-0.020	Yaw:	-23.370	Thrust:	46.118
Time:	5.174	Roll Set Point:	0.013	Pitch Set Point:	0.010	Yaw Set Point:	-0.041	X_WP:	0.000	Y_WP:	0.000	Y_WP:	0.500	X:	-0.006	Y:	-0.005	Z:	0.468	yaw:	2.352	yaw rate:	-125.145	Roll:	-0.146	Pitch:	-0.008	Yaw:	20.208	Thrust:	57.019
Time:	5.199	Roll Set Point:	0.013	Pitch Set Point:	0.010	Yaw Set Point:	-0.033	X_WP:	0.000	Y_WP:	0.000	Y_WP:	0.500	X:	-0.006	Y:	-0.005	Z:	0.469	yaw:	1.919	yaw rate:	43.284	Roll:	-0.448	Pitch:	0.011	Yaw:	-4.319	Thrust:	79.220
Time:	5.212	Roll Set Point:	0.013	Pitch Set Point:	0.011	Yaw Set Point:	-0.044	X_WP:	0.000	Y_WP:	0.000	Y_WP:	0.500	X:	-0.006	Y:	-0.005	Z:	0.470	yaw:	2.501	yaw rate:	-58.186	Roll:	-0.208	Pitch:	-0.241	Yaw:	14.053	Thrust:	39.704
Time:	5.235	Roll Set Point:	0.013	Pitch Set Point:	0.010	Yaw Set Point:	-0.036	X_WP:	0.000	Y_WP:	0.000	Y_WP:	0.500	X:	-0.006	Y:	-0.005	Z:	0.470	yaw:	2.090	yaw rate:	41.063	Roll:	-0.406	Pitch:	0.038	Yaw:	-4.043	Thrust:	70.736
Time:	5.260	Roll Set Point:	0.013	Pitch Set Point:	0.010	Yaw Set Point:	-0.039	X_WP:	0.000	Y_WP:	0.000	Y_WP:	0.500	X:	-0.006	Y:	-0.005	Z:	0.470	yaw:	2.254	yaw rate:	-16.350	Roll:	-0.390	Pitch:	-0.007	Yaw:	2.337	Thrust:	80.890
Time:	5.273	Roll Set Point:	0.013	Pitch Set Point:	0.010	Yaw Set Point:	-0.043	X_WP:	0.000	Y_WP:	0.000	Y_WP:	0.500	X:	-0.006	Y:	-0.005	Z:	0.470	yaw:	2.463	yaw rate:	-20.962	Roll:	-0.267	Pitch:	-0.212	Yaw:	6.401	Thrust:	40.544
Time:	5.299	Roll Set Point:	0.013	Pitch Set Point:	0.011	Yaw Set Point:	-0.043	X_WP:	0.000	Y_WP:	0.000	Y_WP:	0.500	X:	-0.006	Y:	-0.005	Z:	0.470	yaw:	2.439	yaw rate:	2.398	Roll:	-0.392	Pitch:	-0.054	Yaw:	0.731	Thrust:	81.320
