Time:	0.033	Roll Set Point:	-0.048	Pitch Set Point:	-0.019	Yaw Set Point:	0.068	X_WP:	0.000	Y_WP:	0.000	Y_WP:	0.000	X:	0.024	Y:	0.009	Z:	0.057	yaw:	-3.883	yaw rate:	-1.054	Roll:	0.682	Pitch:	0.296	Yaw:	-5.422	Thrust:	0.000
Time:	0.050	Roll Set Point:	-0.048	Pitch Set Point:	-0.019	Yaw Set Point:	0.065	X_WP:	0.000	Y_WP:	0.000	Y_WP:	0.000	X:	0.024	Y:	0.009	Z:	0.057	yaw:	-3.741	yaw rate:	-14.236	Roll:	0.626	Pitch:	0.198	Yaw:	-3.240	Thrust:	0.000
Time:	0.077	Roll Set Point:	-0.048	Pitch Set Point:	-0.019	Yaw Set Point:	0.068	X_WP:	0.000	Y_WP:	0.000	Y_WP:	0.000	X:	0.024	Y:	0.009	Z:	0.057	yaw:	-3.888	yaw rate:	14.713	Roll:	0.735	Pitch:	0.373	Yaw:	-7.001	Thrust:	0.000
Time:	0.090	Roll Set Point:	-0.048	Pitch Set Point:	-0.019	Yaw Set Point:	0.068	X_WP:	0.000	Y_WP:	0.000	Y_WP:	0.000	X:	0.024	Y:	0.009	Z:	0.057	yaw:	-3.889	yaw rate:	0.116	Roll:	0.680	Pitch:	0.302	Yaw:	-5.509	Thrust:	0.000
Time:	0.110	Roll Set Point:	-0.048	Pitch Set Point:	-0.019	Yaw Set Point:	0.065	X_WP:	0.000	Y_WP:	0.000	Y_WP:	0.000	X:	0.024	Y:	0.009	Z:	0.057	yaw:	-3.738	yaw rate:	-15.068	Roll:	0.641	Pitch:	0.193	Yaw:	-3.303	Thrust:	0.000
Time:	0.132	Roll Set Point:	-0.048	Pitch Set Point:	-0.019	Yaw Set Point:	0.066	X_WP:	0.000	Y_WP:	0.000	Y_WP:	0.000	X:	0.024	Y:	0.009	Z:	0.057	yaw:	-3.807	yaw rate:	6.848	Roll:	0.664	Pitch:	0.380	Yaw:	-6.324	Thrust:	0.000
Time:	0.151	Roll Set Point:	-0.048	Pitch Set Point:	-0.019	Yaw Set Point:	0.065	X_WP:	0.000	Y_WP:	0.000	Y_WP:	0.000	X:	0.024	Y:	0.009	Z:	0.057	yaw:	-3.749	yaw rate:	-5.751	Roll:	0.710	Pitch:	0.220	Yaw:	-4.646	Thrust:	0.000
Time:	0.170	Roll Set Point:	-0.048	Pitch Set Point:	-0.019	Yaw Set Point:	0.065	X_WP:	0.000	Y_WP:	0.000	Y_WP:	0.000	X:	0.024	Y:	0.009	Z:	0.057	yaw:	-3.741	yaw rate:	-0.859	Roll:	0.690	Pitch:	0.293	Yaw:	-5.292	Thrust:	0.000
Time:	0.190	Roll Set Point:	-0.048	Pitch Set Point:	-0.019	Yaw Set Point:	0.068	X_WP:	0.000	Y_WP:	0.000	Y_WP:	0.000	X:	0.024	Y:	0.009	Z:	0.057	yaw:	-3.888	yaw rate:	14.708	Roll:	0.741	Pitch:	0.394	Yaw:	-7.549	Thrust:	0.000
Time:	0.214	Roll Set Point:	-0.048	Pitch Set Point:	-0.019	Yaw Set Point:	0.068	X_WP:	0.000	Y_WP:	0.000	Y_WP:	0.000	X:	0.024	Y:	0.009	Z:	0.057	yaw:	-3.889	yaw rate:	0.108	Roll:	0.688	Pitch:	0.298	Yaw:	-5.724	Thrust:	0.000
Time:	0.231	Roll Set Point:	-0.048	Pitch Set Point:	-0.019	Yaw Set Point:	0.066	X_WP:	0.000	Y_WP:	0.000	Y_WP:	0.000	X:	0.024	Y:	0.009	Z:	0.057	yaw:	-3.807	yaw rate:	-8.158	Roll:	0.621	Pitch:	0.289	Yaw:	-4.157	Thrust:	0.000
Time:	0.251	Roll Set Point:	-0.048	Pitch Set Point:	-0.019	Yaw Set Point:	0.068	X_WP:	0.000	Y_WP:	0.000	Y_WP:	0.000	X:	0.024	Y:	0.009	Z:	0.057	yaw:	-3.890	yaw rate:	8.311	Roll:	0.750	Pitch:	0.306	Yaw:	-6.775	Thrust:	0.000
Time:	0.271	Roll Set Point:	-0.048	Pitch Set Point:	-0.019	Yaw Set Point:	0.069	X_WP:	0.000	Y_WP:	0.000	Y_WP:	0.000	X:	0.024	Y:	0.009	Z:	0.057	yaw:	-3.950	yaw rate:	5.957	Roll:	0.665	Pitch:	0.382	Yaw:	-6.600	Thrust:	0.000
Time:	0.291	Roll Set Point:	-0.048	Pitch Set Point:	-0.019	Yaw Set Point:	0.065	X_WP:	0.000	Y_WP:	0.000	Y_WP:	0.000	X:	0.024	Y:	0.009	Z:	0.057	yaw:	-3.742	yaw rate:	-20.781	Roll:	0.673	Pitch:	0.131	Yaw:	-2.692	Thrust:	0.000
Time:	0.311	Roll Set Point:	-0.048	Pitch Set Point:	-0.019	Yaw Set Point:	0.068	X_WP:	0.000	Y_WP:	0.000	Y_WP:	0.000	X:	0.024	Y:	0.009	Z:	0.057	yaw:	-3.888	yaw rate:	14.583	Roll:	0.761	Pitch:	0.387	Yaw:	-7.730	Thrust:	0.000
Time:	0.331	Roll Set Point:	-0.048	Pitch Set Point:	-0.019	Yaw Set Point:	0.065	X_WP:	0.000	Y_WP:	0.000	Y_WP:	0.000	X:	0.024	Y:	0.009	Z:	0.057	yaw:	-3.745	yaw rate:	-14.278	Roll:	0.647	Pitch:	0.209	Yaw:	-3.850	Thrust:	0.000
Time:	0.351	Roll Set Point:	-0.048	Pitch Set Point:	-0.019	Yaw Set Point:	0.068	X_WP:	0.000	Y_WP:	0.000	Y_WP:	0.000	X:	0.024	Y:	0.009	Z:	0.057	yaw:	-3.877	yaw rate:	13.207	Roll:	0.735	Pitch:	0.391	Yaw:	-7.598	Thrust:	0.000
Time:	0.370	Roll Set Point:	-0.048	Pitch Set Point:	-0.019	Yaw Set Point:	0.065	X_WP:	0.000	Y_WP:	0.000	Y_WP:	0.000	X:	0.024	Y:	0.009	Z:	0.057	yaw:	-3.741	yaw rate:	-13.622	Roll:	0.657	Pitch:	0.216	Yaw:	-3.828	Thrust:	0.000
Time:	0.391	Roll Set Point:	-0.048	Pitch Set Point:	-0.019	Yaw Set Point:	0.066	X_WP:	0.000	Y_WP:	0.000	Y_WP:	0.000	X:	0.024	Y:	0.009	Z:	0.057	yaw:	-3.807	yaw rate:	6.637	Roll:	0.700	Pitch:	0.378	Yaw:	-6.654	Thrust:	0.000
Time:	0.415	Roll Set Point:	-0.048	Pitch Set Point:	-0.019	Yaw Set Point:	0.065	X_WP:	0.000	Y_WP:	0.000	Y_WP:	0.000	X:	0.024	Y:	0.009	Z:	0.057	yaw:	-3.741	yaw rate:	-6.637	Roll:	0.702	Pitch:	0.239	Yaw:	-5.087	Thrust:	0.000
Time:	0.430	Roll Set Point:	-0.048	Pitch Set Point:	-0.019	Yaw Set Point:	0.065	X_WP:	0.000	Y_WP:	0.000	Y_WP:	0.000	X:	0.024	Y:	0.009	Z:	0.057	yaw:	-3.745	yaw rate:	0.440	Roll:	0.725	Pitch:	0.308	Yaw:	-5.719	Thrust:	0.000
Time:	0.450	Roll Set Point:	-0.048	Pitch Set Point:	-0.019	Yaw Set Point:	0.065	X_WP:	0.000	Y_WP:	0.000	Y_WP:	0.000	X:	0.024	Y:	0.009	Z:	0.057	yaw:	-3.752	yaw rate:	0.617	Roll:	0.706	Pitch:	0.302	Yaw:	-5.888	Thrust:	0.000
Time:	0.471	Roll Set Point:	-0.048	Pitch Set Point:	-0.019	Yaw Set Point:	0.068	X_WP:	0.000	Y_WP:	0.000	Y_WP:	0.000	X:	0.024	Y:	0.009	Z:	0.057	yaw:	-3.892	yaw rate:	13.995	Roll:	0.739	Pitch:	0.399	Yaw:	-7.810	Thrust:	0.000
Time:	0.491	Roll Set Point:	-0.048	Pitch Set Point:	-0.019	Yaw Set Point:	0.065	X_WP:	0.000	Y_WP:	0.000	Y_WP:	0.000	X:	0.024	Y:	0.009	Z:	0.057	yaw:	-3.744	yaw rate:	-14.710	Roll:	0.657	Pitch:	0.211	Yaw:	-3.881	Thrust:	0.000
Time:	0.510	Roll Set Point:	-0.048	Pitch Set Point:	-0.019	Yaw Set Point:	0.065	X_WP:	0.000	Y_WP:	0.000	Y_WP:	0.000	X:	0.024	Y:	0.009	Z:	0.057	yaw:	-3.747	yaw rate:	0.204	Roll:	0.718	Pitch:	0.305	Yaw:	-5.874	Thrust:	0.000
Time:	0.531	Roll Set Point:	-0.048	Pitch Set Point:	-0.019	Yaw Set Point:	0.068	X_WP:	0.000	Y_WP:	0.000	Y_WP:	0.000	X:	0.024	Y:	0.009	Z:	0.057	yaw:	-3.886	yaw rate:	13.994	Roll:	0.760	Pitch:	0.393	Yaw:	-7.852	Thrust:	0.000
Time:	0.551	Roll Set Point:	-0.048	Pitch Set Point:	-0.019	Yaw Set Point:	0.068	X_WP:	0.000	Y_WP:	0.000	Y_WP:	0.000	X:	0.024	Y:	0.009	Z:	0.057	yaw:	-3.880	yaw rate:	-0.600	Roll:	0.710	Pitch:	0.311	Yaw:	-6.015	Thrust:	0.000
Time:	0.570	Roll Set Point:	-0.048	Pitch Set Point:	-0.019	Yaw Set Point:	0.065	X_WP:	0.000	Y_WP:	0.000	Y_WP:	0.000	X:	0.024	Y:	0.009	Z:	0.057	yaw:	-3.743	yaw rate:	-13.707	Roll:	0.676	Pitch:	0.225	Yaw:	-4.085	Thrust:	0.000
Time:	0.591	Roll Set Point:	-0.048	Pitch Set Point:	-0.019	Yaw Set Point:	0.065	X_WP:	0.000	Y_WP:	0.000	Y_WP:	0.000	X:	0.024	Y:	0.009	Z:	0.057	yaw:	-3.740	yaw rate:	-0.352	Roll:	0.689	Pitch:	0.300	Yaw:	-5.937	Thrust:	0.000
Time:	0.612	Roll Set Point:	-0.048	Pitch Set Point:	-0.019	Yaw Set Point:	0.065	X_WP:	0.000	Y_WP:	0.000	Y_WP:	0.000	X:	0.024	Y:	0.009	Z:	0.057	yaw:	-3.749	yaw rate:	0.890	Roll:	0.731	Pitch:	0.312	Yaw:	-6.127	Thrust:	0.000
Time:	0.630	Roll Set Point:	-0.048	Pitch Set Point:	-0.019	Yaw Set Point:	0.065	X_WP:	0.000	Y_WP:	0.000	Y_WP:	0.000	X:	0.024	Y:	0.009	Z:	0.057	yaw:	-3.738	yaw rate:	-1.047	Roll:	0.715	Pitch:	0.303	Yaw:	-5.840	Thrust:	0.000
Time:	0.650	Roll Set Point:	-0.048	Pitch Set Point:	-0.019	Yaw Set Point:	0.068	X_WP:	0.000	Y_WP:	0.000	Y_WP:	0.000	X:	0.024	Y:	0.009	Z:	0.057	yaw:	-3.887	yaw rate:	14.832	Roll:	0.747	Pitch:	0.398	Yaw:	-8.192	Thrust:	0.000
Time:	0.671	Roll Set Point:	-0.048	Pitch Set Point:	-0.019	Yaw Set Point:	0.065	X_WP:	0.000	Y_WP:	0.000	Y_WP:	0.000	X:	0.024	Y:	0.009	Z:	0.057	yaw:	-3.748	yaw rate:	-13.891	Roll:	0.692	Pitch:	0.235	Yaw:	-4.305	Thrust:	0.000
Time:	0.690	Roll Set Point:	-0.048	Pitch Set Point:	-0.019	Yaw Set Point:	0.068	X_WP:	0.000	Y_WP:	0.000	Y_WP:	0.000	X:	0.024	Y:	0.009	Z:	0.057	yaw:	-3.893	yaw rate:	14.554	Roll:	0.775	Pitch:	0.394	Yaw:	-8.211	Thrust:	0.000
Time:	0.710	Roll Set Point:	-0.048	Pitch Set Point:	-0.019	Yaw Set Point:	0.065	X_WP:	0.000	Y_WP:	0.000	Y_WP:	0.000	X:	0.024	Y:	0.009	Z:	0.057	yaw:	-3.745	yaw rate:	-14.782	Roll:	0.657	Pitch:	0.227	Yaw:	-4.147	Thrust:	0.000
Time:	0.731	Roll Set Point:	-0.048	Pitch Set Point:	-0.019	Yaw Set Point:	0.065	X_WP:	0.000	Y_WP:	0.000	Y_WP:	0.000	X:	0.024	Y:	0.009	Z:	0.057	yaw:	-3.750	yaw rate:	0.468	Roll:	0.728	Pitch:	0.302	Yaw:	-6.210	Thrust:	0.000
Time:	0.751	Roll Set Point:	-0.048	Pitch Set Point:	-0.019	Yaw Set Point:	0.068	X_WP:	0.000	Y_WP:	0.000	Y_WP:	0.000	X:	0.024	Y:	0.009	Z:	0.057	yaw:	-3.887	yaw rate:	13.658	Roll:	0.767	Pitch:	0.405	Yaw:	-8.132	Thrust:	0.000
Time:	0.770	Roll Set Point:	-0.048	Pitch Set Point:	-0.019	Yaw Set Point:	0.065	X_WP:	0.000	Y_WP:	0.000	Y_WP:	0.000	X:	0.024	Y:	0.009	Z:	0.057	yaw:	-3.748	yaw rate:	-13.875	Roll:	0.682	Pitch:	0.223	Yaw:	-4.342	Thrust:	0.000
Time:	0.790	Roll Set Point:	-0.048	Pitch Set Point:	-0.019	Yaw Set Point:	0.065	X_WP:	0.000	Y_WP:	0.000	Y_WP:	0.000	X:	0.024	Y:	0.009	Z:	0.057	yaw:	-3.738	yaw rate:	-0.990	Roll:	0.723	Pitch:	0.318	Yaw:	-6.094	Thrust:	0.000
Time:	0.812	Roll Set Point:	-0.048	Pitch Set Point:	-0.019	Yaw Set Point:	0.065	X_WP:	0.000	Y_WP:	0.000	Y_WP:	0.000	X:	0.024	Y:	0.009	Z:	0.057	yaw:	-3.743	yaw rate:	0.532	Roll:	0.722	Pitch:	0.298	Yaw:	-6.387	Thrust:	0.000
Time:	0.830	Roll Set Point:	-0.048	Pitch Set Point:	-0.019	Yaw Set Point:	0.065	X_WP:	0.000	Y_WP:	0.000	Y_WP:	0.000	X:	0.024	Y:	0.009	Z:	0.057	yaw:	-3.741	yaw rate:	-0.243	Roll:	0.736	Pitch:	0.319	Yaw:	-6.180	Thrust:	0.000
Time:	0.850	Roll Set Point:	-0.048	Pitch Set Point:	-0.019	Yaw Set Point:	0.065	X_WP:	0.000	Y_WP:	0.000	Y_WP:	0.000	X:	0.024	Y:	0.009	Z:	0.057	yaw:	-3.740	yaw rate:	-0.077	Roll:	0.722	Pitch:	0.318	Yaw:	-6.329	Thrust:	0.000
Time:	0.871	Roll Set Point:	-0.048	Pitch Set Point:	-0.019	Yaw Set Point:	0.065	X_WP:	0.000	Y_WP:	0.000	Y_WP:	0.000	X:	0.024	Y:	0.009	Z:	0.057	yaw:	-3.744	yaw rate:	0.411	Roll:	0.729	Pitch:	0.317	Yaw:	-6.409	Thrust:	0.000
Time:	0.891	Roll Set Point:	-0.048	Pitch Set Point:	-0.019	Yaw Set Point:	0.069	X_WP:	0.000	Y_WP:	0.000	Y_WP:	0.000	X:	0.024	Y:	0.009	Z:	0.057	yaw:	-3.956	yaw rate:	21.216	Roll:	0.751	Pitch:	0.483	Yaw:	-9.474	Thrust:	0.000
Time:	0.911	Roll Set Point:	-0.048	Pitch Set Point:	-0.019	Yaw Set Point:	0.065	X_WP:	0.000	Y_WP:	0.000	Y_WP:	0.000	X:	0.024	Y:	0.009	Z:	0.057	yaw:	-3.740	yaw rate:	-21.612	Roll:	0.716	Pitch:	0.152	Yaw:	-3.614	Thrust:	0.000
Time:	0.931	Roll Set Point:	-0.048	Pitch Set Point:	-0.019	Yaw Set Point:	0.065	X_WP:	0.000	Y_WP:	0.000	Y_WP:	0.000	X:	0.024	Y:	0.009	Z:	0.057	yaw:	-3.738	yaw rate:	-0.220	Roll:	0.728	Pitch:	0.316	Yaw:	-6.407	Thrust:	0.000
Time:	0.951	Roll Set Point:	-0.048	Pitch Set Point:	-0.019	Yaw Set Point:	0.065	X_WP:	0.000	Y_WP:	0.000	Y_WP:	0.000	X:	0.024	Y:	0.009	Z:	0.057	yaw:	-3.742	yaw rate:	0.409	Roll:	0.740	Pitch:	0.321	Yaw:	-6.474	Thrust:	0.000
Time:	0.971	Roll Set Point:	-0.048	Pitch Set Point:	-0.019	Yaw Set Point:	0.065	X_WP:	0.000	Y_WP:	0.000	Y_WP:	0.000	X:	0.024	Y:	0.009	Z:	0.057	yaw:	-3.743	yaw rate:	0.125	Roll:	0.735	Pitch:	0.315	Yaw:	-6.506	Thrust:	0.000
Time:	0.991	Roll Set Point:	-0.048	Pitch Set Point:	-0.019	Yaw Set Point:	0.065	X_WP:	0.000	Y_WP:	0.000	Y_WP:	0.000	X:	0.024	Y:	0.009	Z:	0.057	yaw:	-3.746	yaw rate:	0.304	Roll:	0.727	Pitch:	0.320	Yaw:	-6.530	Thrust:	0.000
Time:	1.012	Roll Set Point:	-0.048	Pitch Set Point:	-0.019	Yaw Set Point:	0.068	X_WP:	0.000	Y_WP:	0.000	Y_WP:	0.000	X:	0.024	Y:	0.009	Z:	0.057	yaw:	-3.887	yaw rate:	14.058	Roll:	0.799	Pitch:	0.409	Yaw:	-8.543	Thrust:	0.000
Time:	1.031	Roll Set Point:	-0.048	Pitch Set Point:	-0.019	Yaw Set Point:	0.066	X_WP:	0.000	Y_WP:	0.000	Y_WP:	0.000	X:	0.024	Y:	0.009	Z:	0.057	yaw:	-3.803	yaw rate:	-8.385	Roll:	0.661	Pitch:	0.300	Yaw:	-5.427	Thrust:	0.000
Time:	1.051	Roll Set Point:	-0.048	Pitch Set Point:	-0.019	Yaw Set Point:	0.065	X_WP:	0.000	Y_WP:	0.000	Y_WP:	0.000	X:	0.024	Y:	0.009	Z:	0.057	yaw:	-3.746	yaw rate:	-5.674	Roll:	0.766	Pitch:	0.256	Yaw:	-5.824	Thrust:	0.000
Time:	1.075	Roll Set Point:	-0.048	Pitch Set Point:	-0.019	Yaw Set Point:	0.065	X_WP:	0.000	Y_WP:	0.000	Y_WP:	0.000	X:	0.024	Y:	0.009	Z:	0.057	yaw:	-3.740	yaw rate:	-0.635	Roll:	0.747	Pitch:	0.315	Yaw:	-6.762	Thrust:	0.000
Time:	1.090	Roll Set Point:	-0.048	Pitch Set Point:	-0.019	Yaw Set Point:	0.065	X_WP:	0.000	Y_WP:	0.000	Y_WP:	0.000	X:	0.024	Y:	0.009	Z:	0.057	yaw:	-3.749	yaw rate:	0.927	Roll:	0.733	Pitch:	0.334	Yaw:	-6.537	Thrust:	0.000
Time:	1.111	Roll Set Point:	-0.048	Pitch Set Point:	-0.019	Yaw Set Point:	0.065	X_WP:	0.000	Y_WP:	0.000	Y_WP:	0.000	X:	0.024	Y:	0.009	Z:	0.057	yaw:	-3.739	yaw rate:	-1.021	Roll:	0.748	Pitch:	0.305	Yaw:	-6.543	Thrust:	0.000
Time:	1.132	Roll Set Point:	-0.048	Pitch Set Point:	-0.019	Yaw Set Point:	0.065	X_WP:	0.000	Y_WP:	0.000	Y_WP:	0.000	X:	0.024	Y:	0.009	Z:	0.057	yaw:	-3.736	yaw rate:	-0.279	Roll:	0.738	Pitch:	0.326	Yaw:	-6.640	Thrust:	0.000
Time:	1.151	Roll Set Point:	-0.048	Pitch Set Point:	-0.019	Yaw Set Point:	0.065	X_WP:	0.000	Y_WP:	0.000	Y_WP:	0.000	X:	0.024	Y:	0.009	Z:	0.057	yaw:	-3.744	yaw rate:	0.796	Roll:	0.749	Pitch:	0.321	Yaw:	-6.786	Thrust:	0.000
Time:	1.171	Roll Set Point:	-0.048	Pitch Set Point:	-0.019	Yaw Set Point:	0.068	X_WP:	0.000	Y_WP:	0.000	Y_WP:	0.000	X:	0.024	Y:	0.009	Z:	0.057	yaw:	-3.891	yaw rate:	14.659	Roll:	0.794	Pitch:	0.421	Yaw:	-8.853	Thrust:	0.000
Time:	1.197	Roll Set Point:	-0.048	Pitch Set Point:	-0.019	Yaw Set Point:	0.065	X_WP:	0.000	Y_WP:	0.000	Y_WP:	0.000	X:	0.024	Y:	0.009	Z:	0.057	yaw:	-3.745	yaw rate:	-14.631	Roll:	0.737	Pitch:	0.254	Yaw:	-5.701	Thrust:	0.000
Time:	1.211	Roll Set Point:	-0.048	Pitch Set Point:	-0.019	Yaw Set Point:	0.065	X_WP:	0.000	Y_WP:	0.000	Y_WP:	0.000	X:	0.024	Y:	0.009	Z:	0.057	yaw:	-3.740	yaw rate:	-0.463	Roll:	0.728	Pitch:	0.323	Yaw:	-6.316	Thrust:	0.000
Time:	1.231	Roll Set Point:	-0.048	Pitch Set Point:	-0.019	Yaw Set Point:	0.066	X_WP:	0.000	Y_WP:	0.000	Y_WP:	0.000	X:	0.024	Y:	0.009	Z:	0.057	yaw:	-3.802	yaw rate:	6.251	Roll:	0.722	Pitch:	0.396	Yaw:	-7.702	Thrust:	0.000
Time:	1.251	Roll Set Point:	-0.048	Pitch Set Point:	-0.019	Yaw Set Point:	0.065	X_WP:	0.000	Y_WP:	0.000	Y_WP:	0.000	X:	0.024	Y:	0.009	Z:	0.057	yaw:	-3.745	yaw rate:	-5.746	Roll:	0.783	Pitch:	0.254	Yaw:	-6.060	Thrust:	0.000
Time:	1.271	Roll Set Point:	-0.048	Pitch Set Point:	-0.019	Yaw Set Point:	0.065	X_WP:	0.000	Y_WP:	0.000	Y_WP:	0.000	X:	0.024	Y:	0.009	Z:	0.057	yaw:	-3.745	yaw rate:	-0.004	Roll:	0.743	Pitch:	0.314	Yaw:	-6.898	Thrust:	0.000
Time:	1.291	Roll Set Point:	-0.048	Pitch Set Point:	-0.019	Yaw Set Point:	0.066	X_WP:	0.000	Y_WP:	0.000	Y_WP:	0.000	X:	0.024	Y:	0.009	Z:	0.057	yaw:	-3.809	yaw rate:	6.412	Roll:	0.744	Pitch:	0.408	Yaw:	-7.809	Thrust:	0.000
Time:	1.310	Roll Set Point:	-0.048	Pitch Set Point:	-0.019	Yaw Set Point:	0.065	X_WP:	0.000	Y_WP:	0.000	Y_WP:	0.000	X:	0.024	Y:	0.009	Z:	0.057	yaw:	-3.741	yaw rate:	-6.824	Roll:	0.765	Pitch:	0.246	Yaw:	-6.008	Thrust:	0.000
Time:	1.332	Roll Set Point:	-0.048	Pitch Set Point:	-0.019	Yaw Set Point:	0.068	X_WP:	0.000	Y_WP:	0.000	Y_WP:	0.000	X:	0.024	Y:	0.009	Z:	0.057	yaw:	-3.893	yaw rate:	15.186	Roll:	0.809	Pitch:	0.416	Yaw:	-9.140	Thrust:	0.000
Time:	1.351	Roll Set Point:	-0.048	Pitch Set Point:	-0.019	Yaw Set Point:	0.068	X_WP:	0.000	Y_WP:	0.000	Y_WP:	0.000	X:	0.024	Y:	0.009	Z:	0.057	yaw:	-3.892	yaw rate:	-0.048	Roll:	0.755	Pitch:	0.329	Yaw:	-7.187	Thrust:	0.000
Time:	1.370	Roll Set Point:	-0.048	Pitch Set Point:	-0.019	Yaw Set Point:	0.068	X_WP:	0.000	Y_WP:	0.000	Y_WP:	0.000	X:	0.024	Y:	0.009	Z:	0.057	yaw:	-3.883	yaw rate:	-0.903	Roll:	0.756	Pitch:	0.329	Yaw:	-6.999	Thrust:	0.000
Time:	1.391	Roll Set Point:	-0.048	Pitch Set Point:	-0.019	Yaw Set Point:	0.068	X_WP:	0.000	Y_WP:	0.000	Y_WP:	0.000	X:	0.024	Y:	0.009	Z:	0.057	yaw:	-3.877	yaw rate:	-0.641	Roll:	0.777	Pitch:	0.327	Yaw:	-7.237	Thrust:	0.000
Time:	1.411	Roll Set Point:	-0.048	Pitch Set Point:	-0.019	Yaw Set Point:	0.065	X_WP:	0.000	Y_WP:	0.000	Y_WP:	0.000	X:	0.024	Y:	0.009	Z:	0.057	yaw:	-3.748	yaw rate:	-12.870	Roll:	0.700	Pitch:	0.244	Yaw:	-5.372	Thrust:	0.000
Time:	1.430	Roll Set Point:	-0.048	Pitch Set Point:	-0.019	Yaw Set Point:	0.065	X_WP:	0.000	Y_WP:	0.000	Y_WP:	0.000	X:	0.024	Y:	0.009	Z:	0.057	yaw:	-3.744	yaw rate:	-0.371	Roll:	0.768	Pitch:	0.337	Yaw:	-6.935	Thrust:	0.000
Time:	1.451	Roll Set Point:	-0.048	Pitch Set Point:	-0.019	Yaw Set Point:	0.065	X_WP:	0.000	Y_WP:	0.000	Y_WP:	0.000	X:	0.024	Y:	0.009	Z:	0.057	yaw:	-3.737	yaw rate:	-0.777	Roll:	0.756	Pitch:	0.318	Yaw:	-7.057	Thrust:	0.000
Time:	1.471	Roll Set Point:	-0.048	Pitch Set Point:	-0.019	Yaw Set Point:	0.065	X_WP:	0.000	Y_WP:	0.000	Y_WP:	0.000	X:	0.024	Y:	0.009	Z:	0.057	yaw:	-3.750	yaw rate:	1.351	Roll:	0.774	Pitch:	0.334	Yaw:	-7.340	Thrust:	0.000
Time:	1.491	Roll Set Point:	-0.048	Pitch Set Point:	-0.019	Yaw Set Point:	0.065	X_WP:	0.000	Y_WP:	0.000	Y_WP:	0.000	X:	0.024	Y:	0.009	Z:	0.057	yaw:	-3.743	yaw rate:	-0.691	Roll:	0.764	Pitch:	0.337	Yaw:	-7.033	Thrust:	0.000
Time:	1.511	Roll Set Point:	-0.048	Pitch Set Point:	-0.019	Yaw Set Point:	0.065	X_WP:	0.000	Y_WP:	0.000	Y_WP:	0.000	X:	0.024	Y:	0.009	Z:	0.057	yaw:	-3.739	yaw rate:	-0.450	Roll:	0.771	Pitch:	0.318	Yaw:	-7.130	Thrust:	0.000
Time:	1.531	Roll Set Point:	-0.048	Pitch Set Point:	-0.019	Yaw Set Point:	0.065	X_WP:	0.000	Y_WP:	0.000	Y_WP:	0.000	X:	0.024	Y:	0.009	Z:	0.057	yaw:	-3.744	yaw rate:	0.571	Roll:	0.762	Pitch:	0.337	Yaw:	-7.302	Thrust:	0.000
Time:	1.551	Roll Set Point:	-0.048	Pitch Set Point:	-0.019	Yaw Set Point:	0.065	X_WP:	0.000	Y_WP:	0.000	Y_WP:	0.000	X:	0.024	Y:	0.009	Z:	0.057	yaw:	-3.744	yaw rate:	-0.094	Roll:	0.771	Pitch:	0.330	Yaw:	-7.187	Thrust:	0.000
Time:	1.570	Roll Set Point:	-0.048	Pitch Set Point:	-0.019	Yaw Set Point:	0.068	X_WP:	0.000	Y_WP:	0.000	Y_WP:	0.000	X:	0.024	Y:	0.009	Z:	0.057	yaw:	-3.887	yaw rate:	14.381	Roll:	0.827	Pitch:	0.418	Yaw:	-9.347	Thrust:	0.000
Time:	1.591	Roll Set Point:	-0.048	Pitch Set Point:	-0.019	Yaw Set Point:	0.065	X_WP:	0.000	Y_WP:	0.000	Y_WP:	0.000	X:	0.024	Y:	0.009	Z:	0.057	yaw:	-3.739	yaw rate:	-14.866	Roll:	0.712	Pitch:	0.248	Yaw:	-5.534	Thrust:	0.000
Time:	1.611	Roll Set Point:	-0.048	Pitch Set Point:	-0.019	Yaw Set Point:	0.065	X_WP:	0.000	Y_WP:	0.000	Y_WP:	0.000	X:	0.024	Y:	0.009	Z:	0.057	yaw:	-3.749	yaw rate:	1.030	Roll:	0.783	Pitch:	0.336	Yaw:	-7.425	Thrust:	0.000
Time:	1.630	Roll Set Point:	-0.048	Pitch Set Point:	-0.019	Yaw Set Point:	0.065	X_WP:	0.000	Y_WP:	0.000	Y_WP:	0.000	X:	0.024	Y:	0.009	Z:	0.057	yaw:	-3.747	yaw rate:	-0.174	Roll:	0.778	Pitch:	0.333	Yaw:	-7.253	Thrust:	0.000
Time:	1.651	Roll Set Point:	-0.048	Pitch Set Point:	-0.019	Yaw Set Point:	0.068	X_WP:	0.000	Y_WP:	0.000	Y_WP:	0.000	X:	0.024	Y:	0.009	Z:	0.057	yaw:	-3.883	yaw rate:	13.571	Roll:	0.814	Pitch:	0.426	Yaw:	-9.342	Thrust:	0.000
Time:	1.676	Roll Set Point:	-0.048	Pitch Set Point:	-0.019	Yaw Set Point:	0.065	X_WP:	0.000	Y_WP:	0.000	Y_WP:	0.000	X:	0.024	Y:	0.009	Z:	0.057	yaw:	-3.746	yaw rate:	-13.713	Roll:	0.755	Pitch:	0.269	Yaw:	-6.483	Thrust:	0.000
Time:	1.691	Roll Set Point:	-0.048	Pitch Set Point:	-0.019	Yaw Set Point:	0.066	X_WP:	0.000	Y_WP:	0.000	Y_WP:	0.000	X:	0.024	Y:	0.009	Z:	0.057	yaw:	-3.803	yaw rate:	5.757	Roll:	0.738	Pitch:	0.423	Yaw:	-7.965	Thrust:	0.000
Time:	1.711	Roll Set Point:	-0.048	Pitch Set Point:	-0.019	Yaw Set Point:	0.065	X_WP:	0.000	Y_WP:	0.000	Y_WP:	0.000	X:	0.024	Y:	0.009	Z:	0.057	yaw:	-3.737	yaw rate:	-6.618	Roll:	0.797	Pitch:	0.254	Yaw:	-6.662	Thrust:	0.000
Time:	1.733	Roll Set Point:	-0.048	Pitch Set Point:	-0.019	Yaw Set Point:	0.065	X_WP:	0.000	Y_WP:	0.000	Y_WP:	0.000	X:	0.024	Y:	0.009	Z:	0.057	yaw:	-3.742	yaw rate:	0.521	Roll:	0.792	Pitch:	0.350	Yaw:	-7.673	Thrust:	0.000
Time:	1.752	Roll Set Point:	-0.048	Pitch Set Point:	-0.019	Yaw Set Point:	0.065	X_WP:	0.000	Y_WP:	0.000	Y_WP:	0.000	X:	0.024	Y:	0.009	Z:	0.057	yaw:	-3.746	yaw rate:	0.340	Roll:	0.780	Pitch:	0.340	Yaw:	-7.559	Thrust:	0.000
Time:	1.770	Roll Set Point:	-0.048	Pitch Set Point:	-0.019	Yaw Set Point:	0.065	X_WP:	0.000	Y_WP:	0.000	Y_WP:	0.000	X:	0.024	Y:	0.009	Z:	0.057	yaw:	-3.744	yaw rate:	-0.162	Roll:	0.779	Pitch:	0.328	Yaw:	-7.320	Thrust:	0.000
Time:	1.790	Roll Set Point:	-0.048	Pitch Set Point:	-0.019	Yaw Set Point:	0.065	X_WP:	0.000	Y_WP:	0.000	Y_WP:	0.000	X:	0.024	Y:	0.009	Z:	0.057	yaw:	-3.741	yaw rate:	-0.357	Roll:	0.781	Pitch:	0.331	Yaw:	-7.502	Thrust:	0.000
Time:	1.811	Roll Set Point:	-0.048	Pitch Set Point:	-0.019	Yaw Set Point:	0.065	X_WP:	0.000	Y_WP:	0.000	Y_WP:	0.000	X:	0.024	Y:	0.009	Z:	0.057	yaw:	-3.749	yaw rate:	0.799	Roll:	0.789	Pitch:	0.346	Yaw:	-7.764	Thrust:	0.000
Time:	1.831	Roll Set Point:	-0.048	Pitch Set Point:	-0.019	Yaw Set Point:	0.065	X_WP:	0.000	Y_WP:	0.000	Y_WP:	0.000	X:	0.024	Y:	0.009	Z:	0.057	yaw:	-3.740	yaw rate:	-0.881	Roll:	0.782	Pitch:	0.340	Yaw:	-7.482	Thrust:	0.000
Time:	1.851	Roll Set Point:	-0.048	Pitch Set Point:	-0.019	Yaw Set Point:	0.065	X_WP:	0.000	Y_WP:	0.000	Y_WP:	0.000	X:	0.024	Y:	0.009	Z:	0.057	yaw:	-3.741	yaw rate:	0.118	Roll:	0.778	Pitch:	0.330	Yaw:	-7.574	Thrust:	0.000
Time:	1.873	Roll Set Point:	-0.048	Pitch Set Point:	-0.019	Yaw Set Point:	0.065	X_WP:	0.000	Y_WP:	0.000	Y_WP:	0.000	X:	0.024	Y:	0.009	Z:	0.057	yaw:	-3.746	yaw rate:	0.472	Roll:	0.811	Pitch:	0.356	Yaw:	-8.027	Thrust:	0.000
Time:	1.890	Roll Set Point:	-0.048	Pitch Set Point:	-0.019	Yaw Set Point:	0.065	X_WP:	0.000	Y_WP:	0.000	Y_WP:	0.000	X:	0.024	Y:	0.009	Z:	0.057	yaw:	-3.739	yaw rate:	-0.672	Roll:	0.769	Pitch:	0.332	Yaw:	-7.272	Thrust:	0.000
Time:	1.911	Roll Set Point:	-0.048	Pitch Set Point:	-0.019	Yaw Set Point:	0.065	X_WP:	0.000	Y_WP:	0.000	Y_WP:	0.000	X:	0.024	Y:	0.009	Z:	0.057	yaw:	-3.748	yaw rate:	0.867	Roll:	0.798	Pitch:	0.344	Yaw:	-7.919	Thrust:	0.000
Time:	1.931	Roll Set Point:	-0.048	Pitch Set Point:	-0.019	Yaw Set Point:	0.065	X_WP:	0.000	Y_WP:	0.000	Y_WP:	0.000	X:	0.024	Y:	0.009	Z:	0.057	yaw:	-3.739	yaw rate:	-0.878	Roll:	0.783	Pitch:	0.337	Yaw:	-7.566	Thrust:	0.000
Time:	1.952	Roll Set Point:	-0.048	Pitch Set Point:	-0.019	Yaw Set Point:	0.068	X_WP:	0.000	Y_WP:	0.000	Y_WP:	0.000	X:	0.024	Y:	0.009	Z:	0.057	yaw:	-3.889	yaw rate:	15.040	Roll:	0.844	Pitch:	0.431	Yaw:	-9.972	Thrust:	0.000
Time:	1.970	Roll Set Point:	-0.048	Pitch Set Point:	-0.019	Yaw Set Point:	0.065	X_WP:	0.000	Y_WP:	0.000	Y_WP:	0.000	X:	0.024	Y:	0.009	Z:	0.057	yaw:	-3.741	yaw rate:	-14.873	Roll:	0.743	Pitch:	0.242	Yaw:	-5.348	Thrust:	0.000
Time:	1.991	Roll Set Point:	-0.048	Pitch Set Point:	-0.019	Yaw Set Point:	0.065	X_WP:	0.000	Y_WP:	0.000	Y_WP:	0.000	X:	0.024	Y:	0.009	Z:	0.057	yaw:	-3.743	yaw rate:	0.211	Roll:	0.802	Pitch:	0.341	Yaw:	-7.935	Thrust:	0.000
Time:	2.012	Roll Set Point:	-0.048	Pitch Set Point:	-0.019	Yaw Set Point:	0.065	X_WP:	0.000	Y_WP:	0.000	Y_WP:	0.000	X:	0.024	Y:	0.009	Z:	0.057	yaw:	-3.743	yaw rate:	0.024	Roll:	0.784	Pitch:	0.350	Yaw:	-7.925	Thrust:	0.000
Time:	2.031	Roll Set Point:	-0.048	Pitch Set Point:	-0.019	Yaw Set Point:	0.068	X_WP:	0.000	Y_WP:	0.000	Y_WP:	0.000	X:	0.024	Y:	0.009	Z:	0.057	yaw:	-3.886	yaw rate:	14.307	Roll:	0.847	Pitch:	0.438	Yaw:	-9.901	Thrust:	0.000
Time:	2.051	Roll Set Point:	-0.048	Pitch Set Point:	-0.019	Yaw Set Point:	0.065	X_WP:	0.000	Y_WP:	0.000	Y_WP:	0.000	X:	0.024	Y:	0.009	Z:	0.057	yaw:	-3.739	yaw rate:	-14.737	Roll:	0.762	Pitch:	0.254	Yaw:	-6.132	Thrust:	0.000
Time:	2.074	Roll Set Point:	-0.048	Pitch Set Point:	-0.019	Yaw Set Point:	0.065	X_WP:	0.000	Y_WP:	0.000	Y_WP:	0.000	X:	0.024	Y:	0.009	Z:	0.057	yaw:	-3.744	yaw rate:	0.545	Roll:	0.796	Pitch:	0.349	Yaw:	-8.340	Thrust:	0.000
Time:	2.091	Roll Set Point:	-0.048	Pitch Set Point:	-0.019	Yaw Set Point:	0.065	X_WP:	0.000	Y_WP:	0.000	Y_WP:	0.000	X:	0.024	Y:	0.009	Z:	0.057	yaw:	-3.743	yaw rate:	-0.114	Roll:	0.816	Pitch:	0.348	Yaw:	-7.661	Thrust:	0.000
Time:	2.111	Roll Set Point:	-0.048	Pitch Set Point:	-0.019	Yaw Set Point:	0.065	X_WP:	0.000	Y_WP:	0.000	Y_WP:	0.000	X:	0.024	Y:	0.009	Z:	0.057	yaw:	-3.744	yaw rate:	0.090	Roll:	0.799	Pitch:	0.345	Yaw:	-7.915	Thrust:	0.000
Time:	2.132	Roll Set Point:	-0.048	Pitch Set Point:	-0.019	Yaw Set Point:	0.065	X_WP:	0.000	Y_WP:	0.000	Y_WP:	0.000	X:	0.024	Y:	0.009	Z:	0.057	yaw:	-3.747	yaw rate:	0.282	Roll:	0.798	Pitch:	0.352	Yaw:	-8.073	Thrust:	0.000
Time:	2.152	Roll Set Point:	-0.048	Pitch Set Point:	-0.019	Yaw Set Point:	0.065	X_WP:	0.000	Y_WP:	0.000	Y_WP:	0.000	X:	0.024	Y:	0.009	Z:	0.057	yaw:	-3.748	yaw rate:	0.156	Roll:	0.818	Pitch:	0.342	Yaw:	-8.213	Thrust:	0.000
Time:	2.171	Roll Set Point:	-0.048	Pitch Set Point:	-0.019	Yaw Set Point:	0.065	X_WP:	0.000	Y_WP:	0.000	Y_WP:	0.000	X:	0.024	Y:	0.009	Z:	0.057	yaw:	-3.746	yaw rate:	-0.248	Roll:	0.792	Pitch:	0.347	Yaw:	-7.691	Thrust:	0.000
Time:	2.191	Roll Set Point:	-0.048	Pitch Set Point:	-0.019	Yaw Set Point:	0.065	X_WP:	0.000	Y_WP:	0.000	Y_WP:	0.000	X:	0.024	Y:	0.009	Z:	0.057	yaw:	-3.739	yaw rate:	-0.660	Roll:	0.809	Pitch:	0.345	Yaw:	-8.148	Thrust:	0.000
Time:	2.211	Roll Set Point:	-0.048	Pitch Set Point:	-0.019	Yaw Set Point:	0.065	X_WP:	0.000	Y_WP:	0.000	Y_WP:	0.000	X:	0.024	Y:	0.009	Z:	0.057	yaw:	-3.744	yaw rate:	0.443	Roll:	0.811	Pitch:	0.357	Yaw:	-8.115	Thrust:	0.000
Time:	2.230	Roll Set Point:	-0.048	Pitch Set Point:	-0.019	Yaw Set Point:	0.065	X_WP:	0.000	Y_WP:	0.000	Y_WP:	0.000	X:	0.024	Y:	0.009	Z:	0.057	yaw:	-3.741	yaw rate:	-0.226	Roll:	0.810	Pitch:	0.341	Yaw:	-7.964	Thrust:	0.000
Time:	2.250	Roll Set Point:	-0.048	Pitch Set Point:	-0.019	Yaw Set Point:	0.065	X_WP:	0.000	Y_WP:	0.000	Y_WP:	0.000	X:	0.024	Y:	0.009	Z:	0.057	yaw:	-3.748	yaw rate:	0.656	Roll:	0.809	Pitch:	0.350	Yaw:	-8.347	Thrust:	0.000
Time:	2.272	Roll Set Point:	-0.048	Pitch Set Point:	-0.019	Yaw Set Point:	0.065	X_WP:	0.000	Y_WP:	0.000	Y_WP:	0.000	X:	0.024	Y:	0.009	Z:	0.057	yaw:	-3.743	yaw rate:	-0.503	Roll:	0.817	Pitch:	0.355	Yaw:	-8.415	Thrust:	0.000
Time:	2.290	Roll Set Point:	-0.048	Pitch Set Point:	-0.019	Yaw Set Point:	0.065	X_WP:	0.000	Y_WP:	0.000	Y_WP:	0.000	X:	0.024	Y:	0.009	Z:	0.057	yaw:	-3.741	yaw rate:	-0.218	Roll:	0.808	Pitch:	0.342	Yaw:	-7.887	Thrust:	0.000
Time:	2.310	Roll Set Point:	-0.048	Pitch Set Point:	-0.019	Yaw Set Point:	0.065	X_WP:	0.000	Y_WP:	0.000	Y_WP:	0.000	X:	0.024	Y:	0.009	Z:	0.057	yaw:	-3.744	yaw rate:	0.328	Roll:	0.819	Pitch:	0.359	Yaw:	-8.281	Thrust:	0.000
Time:	2.335	Roll Set Point:	-0.048	Pitch Set Point:	-0.019	Yaw Set Point:	0.065	X_WP:	0.000	Y_WP:	0.000	Y_WP:	0.000	X:	0.024	Y:	0.009	Z:	0.057	yaw:	-3.743	yaw rate:	-0.102	Roll:	0.830	Pitch:	0.355	Yaw:	-8.964	Thrust:	0.000
Time:	2.352	Roll Set Point:	-0.048	Pitch Set Point:	-0.019	Yaw Set Point:	0.065	X_WP:	0.000	Y_WP:	0.000	Y_WP:	0.000	X:	0.024	Y:	0.009	Z:	0.057	yaw:	-3.744	yaw rate:	0.149	Roll:	0.806	Pitch:	0.352	Yaw:	-7.787	Thrust:	0.000
Time:	2.370	Roll Set Point:	-0.048	Pitch Set Point:	-0.019	Yaw Set Point:	0.065	X_WP:	0.000	Y_WP:	0.000	Y_WP:	0.000	X:	0.024	Y:	0.009	Z:	0.057	yaw:	-3.741	yaw rate:	-0.300	Roll:	0.825	Pitch:	0.346	Yaw:	-7.991	Thrust:	0.000
Time:	2.390	Roll Set Point:	-0.048	Pitch Set Point:	-0.019	Yaw Set Point:	0.065	X_WP:	0.000	Y_WP:	0.000	Y_WP:	0.000	X:	0.024	Y:	0.009	Z:	0.057	yaw:	-3.746	yaw rate:	0.513	Roll:	0.812	Pitch:	0.356	Yaw:	-8.494	Thrust:	0.000
Time:	2.411	Roll Set Point:	-0.048	Pitch Set Point:	-0.019	Yaw Set Point:	0.067	X_WP:	0.000	Y_WP:	0.000	Y_WP:	0.000	X:	0.024	Y:	0.009	Z:	0.057	yaw:	-3.811	yaw rate:	6.491	Roll:	0.798	Pitch:	0.430	Yaw:	-9.384	Thrust:	0.000
Time:	2.430	Roll Set Point:	-0.048	Pitch Set Point:	-0.019	Yaw Set Point:	0.065	X_WP:	0.000	Y_WP:	0.000	Y_WP:	0.000	X:	0.024	Y:	0.009	Z:	0.057	yaw:	-3.738	yaw rate:	-7.298	Roll:	0.834	Pitch:	0.273	Yaw:	-7.264	Thrust:	0.000
Time:	2.450	Roll Set Point:	-0.048	Pitch Set Point:	-0.019	Yaw Set Point:	0.065	X_WP:	0.000	Y_WP:	0.000	Y_WP:	0.000	X:	0.024	Y:	0.009	Z:	0.057	yaw:	-3.736	yaw rate:	-0.241	Roll:	0.828	Pitch:	0.357	Yaw:	-8.393	Thrust:	0.000
Time:	2.471	Roll Set Point:	-0.048	Pitch Set Point:	-0.019	Yaw Set Point:	0.065	X_WP:	0.000	Y_WP:	0.000	Y_WP:	0.000	X:	0.024	Y:	0.009	Z:	0.057	yaw:	-3.747	yaw rate:	1.134	Roll:	0.819	Pitch:	0.355	Yaw:	-8.556	Thrust:	0.000
Time:	2.496	Roll Set Point:	-0.048	Pitch Set Point:	-0.019	Yaw Set Point:	0.065	X_WP:	0.000	Y_WP:	0.000	Y_WP:	0.000	X:	0.024	Y:	0.009	Z:	0.057	yaw:	-3.747	yaw rate:	-0.044	Roll:	0.872	Pitch:	0.373	Yaw:	-9.466	Thrust:	0.000
Time:	2.511	Roll Set Point:	-0.048	Pitch Set Point:	-0.019	Yaw Set Point:	0.065	X_WP:	0.000	Y_WP:	0.000	Y_WP:	0.000	X:	0.024	Y:	0.009	Z:	0.057	yaw:	-3.743	yaw rate:	-0.375	Roll:	0.784	Pitch:	0.344	Yaw:	-7.536	Thrust:	0.000
Time:	2.531	Roll Set Point:	-0.048	Pitch Set Point:	-0.019	Yaw Set Point:	0.065	X_WP:	0.000	Y_WP:	0.000	Y_WP:	0.000	X:	0.024	Y:	0.009	Z:	0.057	yaw:	-3.741	yaw rate:	-0.213	Roll:	0.819	Pitch:	0.351	Yaw:	-8.512	Thrust:	0.000
Time:	2.552	Roll Set Point:	-0.048	Pitch Set Point:	-0.019	Yaw Set Point:	0.065	X_WP:	0.000	Y_WP:	0.000	Y_WP:	0.000	X:	0.024	Y:	0.009	Z:	0.057	yaw:	-3.743	yaw rate:	0.148	Roll:	0.850	Pitch:	0.365	Yaw:	-8.747	Thrust:	0.000
Time:	2.570	Roll Set Point:	-0.048	Pitch Set Point:	-0.019	Yaw Set Point:	0.066	X_WP:	0.000	Y_WP:	0.000	Y_WP:	0.000	X:	0.024	Y:	0.009	Z:	0.057	yaw:	-3.804	yaw rate:	6.153	Roll:	0.792	Pitch:	0.430	Yaw:	-9.245	Thrust:	0.000
Time:	2.591	Roll Set Point:	-0.048	Pitch Set Point:	-0.019	Yaw Set Point:	0.065	X_WP:	0.000	Y_WP:	0.000	Y_WP:	0.000	X:	0.024	Y:	0.009	Z:	0.057	yaw:	-3.740	yaw rate:	-6.405	Roll:	0.856	Pitch:	0.292	Yaw:	-7.766	Thrust:	0.000
Time:	2.612	Roll Set Point:	-0.048	Pitch Set Point:	-0.019	Yaw Set Point:	0.065	X_WP:	0.000	Y_WP:	0.000	Y_WP:	0.000	X:	0.024	Y:	0.009	Z:	0.057	yaw:	-3.746	yaw rate:	0.590	Roll:	0.818	Pitch:	0.354	Yaw:	-8.901	Thrust:	0.000
Time:	2.630	Roll Set Point:	-0.048	Pitch Set Point:	-0.019	Yaw Set Point:	0.065	X_WP:	0.000	Y_WP:	0.000	Y_WP:	0.000	X:	0.024	Y:	0.009	Z:	0.057	yaw:	-3.742	yaw rate:	-0.402	Roll:	0.845	Pitch:	0.367	Yaw:	-8.374	Thrust:	0.000
Time:	2.650	Roll Set Point:	-0.048	Pitch Set Point:	-0.019	Yaw Set Point:	0.065	X_WP:	0.000	Y_WP:	0.000	Y_WP:	0.000	X:	0.024	Y:	0.009	Z:	0.057	yaw:	-3.749	yaw rate:	0.703	Roll:	0.836	Pitch:	0.358	Yaw:	-8.796	Thrust:	0.000
Time:	2.673	Roll Set Point:	-0.048	Pitch Set Point:	-0.019	Yaw Set Point:	0.065	X_WP:	0.000	Y_WP:	0.000	Y_WP:	0.000	X:	0.024	Y:	0.009	Z:	0.057	yaw:	-3.744	yaw rate:	-0.540	Roll:	0.826	Pitch:	0.355	Yaw:	-9.066	Thrust:	0.000
Time:	2.690	Roll Set Point:	-0.048	Pitch Set Point:	-0.019	Yaw Set Point:	0.065	X_WP:	0.000	Y_WP:	0.000	Y_WP:	0.000	X:	0.024	Y:	0.009	Z:	0.057	yaw:	-3.746	yaw rate:	0.233	Roll:	0.856	Pitch:	0.370	Yaw:	-8.371	Thrust:	0.000
Time:	2.710	Roll Set Point:	-0.048	Pitch Set Point:	-0.019	Yaw Set Point:	0.066	X_WP:	0.000	Y_WP:	0.000	Y_WP:	0.000	X:	0.024	Y:	0.009	Z:	0.057	yaw:	-3.810	yaw rate:	6.433	Roll:	0.820	Pitch:	0.437	Yaw:	-9.725	Thrust:	0.000
Time:	2.731	Roll Set Point:	-0.048	Pitch Set Point:	-0.019	Yaw Set Point:	0.068	X_WP:	0.000	Y_WP:	0.000	Y_WP:	0.000	X:	0.024	Y:	0.009	Z:	0.057	yaw:	-3.889	yaw rate:	7.842	Roll:	0.876	Pitch:	0.369	Yaw:	-9.982	Thrust:	0.000
Time:	2.752	Roll Set Point:	-0.048	Pitch Set Point:	-0.019	Yaw Set Point:	0.065	X_WP:	0.000	Y_WP:	0.000	Y_WP:	0.000	X:	0.024	Y:	0.009	Z:	0.057	yaw:	-3.742	yaw rate:	-14.614	Roll:	0.820	Pitch:	0.282	Yaw:	-7.324	Thrust:	0.000
Time:	2.770	Roll Set Point:	-0.048	Pitch Set Point:	-0.019	Yaw Set Point:	0.065	X_WP:	0.000	Y_WP:	0.000	Y_WP:	0.000	X:	0.024	Y:	0.009	Z:	0.057	yaw:	-3.742	yaw rate:	-0.015	Roll:	0.835	Pitch:	0.366	Yaw:	-8.585	Thrust:	0.000
Time:	2.791	Roll Set Point:	-0.048	Pitch Set Point:	-0.019	Yaw Set Point:	0.065	X_WP:	0.000	Y_WP:	0.000	Y_WP:	0.000	X:	0.024	Y:	0.009	Z:	0.057	yaw:	-3.750	yaw rate:	0.814	Roll:	0.846	Pitch:	0.366	Yaw:	-9.037	Thrust:	0.000
Time:	2.811	Roll Set Point:	-0.048	Pitch Set Point:	-0.019	Yaw Set Point:	0.065	X_WP:	0.000	Y_WP:	0.000	Y_WP:	0.000	X:	0.024	Y:	0.009	Z:	0.057	yaw:	-3.743	yaw rate:	-0.738	Roll:	0.837	Pitch:	0.358	Yaw:	-8.822	Thrust:	0.000
Time:	2.830	Roll Set Point:	-0.048	Pitch Set Point:	-0.019	Yaw Set Point:	0.065	X_WP:	0.000	Y_WP:	0.000	Y_WP:	0.000	X:	0.024	Y:	0.009	Z:	0.057	yaw:	-3.744	yaw rate:	0.086	Roll:	0.845	Pitch:	0.364	Yaw:	-8.807	Thrust:	0.000
Time:	2.850	Roll Set Point:	-0.048	Pitch Set Point:	-0.019	Yaw Set Point:	0.065	X_WP:	0.000	Y_WP:	0.000	Y_WP:	0.000	X:	0.024	Y:	0.009	Z:	0.057	yaw:	-3.747	yaw rate:	0.269	Roll:	0.849	Pitch:	0.361	Yaw:	-8.974	Thrust:	0.000
Time:	2.873	Roll Set Point:	-0.047	Pitch Set Point:	-0.019	Yaw Set Point:	0.066	X_WP:	0.000	Y_WP:	0.000	Y_WP:	0.000	X:	0.024	Y:	0.009	Z:	0.057	yaw:	-3.804	yaw rate:	5.786	Roll:	0.821	Pitch:	0.442	Yaw:	-10.117	Thrust:	0.000
Time:	2.890	Roll Set Point:	-0.048	Pitch Set Point:	-0.019	Yaw Set Point:	0.065	X_WP:	0.000	Y_WP:	0.000	Y_WP:	0.000	X:	0.024	Y:	0.009	Z:	0.057	yaw:	-3.739	yaw rate:	-6.507	Roll:	0.883	Pitch:	0.290	Yaw:	-7.702	Thrust:	0.000
Time:	2.911	Roll Set Point:	-0.048	Pitch Set Point:	-0.019	Yaw Set Point:	0.065	X_WP:	0.000	Y_WP:	0.000	Y_WP:	0.000	X:	0.024	Y:	0.009	Z:	0.057	yaw:	-3.744	yaw rate:	0.507	Roll:	0.847	Pitch:	0.362	Yaw:	-9.216	Thrust:	0.000
Time:	2.931	Roll Set Point:	-0.047	Pitch Set Point:	-0.019	Yaw Set Point:	0.066	X_WP:	0.000	Y_WP:	0.000	Y_WP:	0.000	X:	0.024	Y:	0.009	Z:	0.057	yaw:	-3.806	yaw rate:	6.193	Roll:	0.811	Pitch:	0.447	Yaw:	-9.969	Thrust:	0.000
Time:	2.952	Roll Set Point:	-0.048	Pitch Set Point:	-0.019	Yaw Set Point:	0.065	X_WP:	0.000	Y_WP:	0.000	Y_WP:	0.000	X:	0.024	Y:	0.009	Z:	0.057	yaw:	-3.741	yaw rate:	-6.539	Roll:	0.902	Pitch:	0.301	Yaw:	-8.352	Thrust:	0.000
Time:	2.970	Roll Set Point:	-0.048	Pitch Set Point:	-0.019	Yaw Set Point:	0.065	X_WP:	0.000	Y_WP:	0.000	Y_WP:	0.000	X:	0.024	Y:	0.009	Z:	0.057	yaw:	-3.740	yaw rate:	-0.096	Roll:	0.834	Pitch:	0.364	Yaw:	-8.813	Thrust:	0.000
Time:	2.990	Roll Set Point:	-0.048	Pitch Set Point:	-0.019	Yaw Set Point:	0.065	X_WP:	0.000	Y_WP:	0.000	Y_WP:	0.000	X:	0.024	Y:	0.009	Z:	0.057	yaw:	-3.742	yaw rate:	0.153	Roll:	0.858	Pitch:	0.372	Yaw:	-9.167	Thrust:	0.000
Time:	3.013	Roll Set Point:	-0.048	Pitch Set Point:	-0.019	Yaw Set Point:	0.068	X_WP:	0.000	Y_WP:	0.000	Y_WP:	0.000	X:	0.024	Y:	0.009	Z:	0.057	yaw:	-3.888	yaw rate:	14.649	Roll:	0.911	Pitch:	0.464	Yaw:	-11.510	Thrust:	0.000
Time:	3.030	Roll Set Point:	-0.048	Pitch Set Point:	-0.019	Yaw Set Point:	0.068	X_WP:	0.000	Y_WP:	0.000	Y_WP:	0.000	X:	0.024	Y:	0.009	Z:	0.057	yaw:	-3.884	yaw rate:	-0.437	Roll:	0.836	Pitch:	0.353	Yaw:	-8.838	Thrust:	0.000
Time:	3.050	Roll Set Point:	-0.048	Pitch Set Point:	-0.019	Yaw Set Point:	0.065	X_WP:	0.000	Y_WP:	0.000	Y_WP:	0.000	X:	0.024	Y:	0.009	Z:	0.057	yaw:	-3.739	yaw rate:	-14.489	Roll:	0.811	Pitch:	0.282	Yaw:	-7.327	Thrust:	0.000
Time:	3.071	Roll Set Point:	-0.048	Pitch Set Point:	-0.019	Yaw Set Point:	0.065	X_WP:	0.000	Y_WP:	0.000	Y_WP:	0.000	X:	0.024	Y:	0.009	Z:	0.057	yaw:	-3.748	yaw rate:	0.935	Roll:	0.866	Pitch:	0.381	Yaw:	-9.311	Thrust:	0.000
Time:	3.090	Roll Set Point:	-0.048	Pitch Set Point:	-0.019	Yaw Set Point:	0.065	X_WP:	0.000	Y_WP:	0.000	Y_WP:	0.000	X:	0.024	Y:	0.009	Z:	0.057	yaw:	-3.734	yaw rate:	-1.392	Roll:	0.861	Pitch:	0.363	Yaw:	-9.111	Thrust:	0.000
Time:	3.110	Roll Set Point:	-0.048	Pitch Set Point:	-0.019	Yaw Set Point:	0.065	X_WP:	0.000	Y_WP:	0.000	Y_WP:	0.000	X:	0.024	Y:	0.009	Z:	0.057	yaw:	-3.743	yaw rate:	0.840	Roll:	0.858	Pitch:	0.375	Yaw:	-9.356	Thrust:	0.000
Time:	3.132	Roll Set Point:	-0.048	Pitch Set Point:	-0.019	Yaw Set Point:	0.068	X_WP:	0.000	Y_WP:	0.000	Y_WP:	0.000	X:	0.024	Y:	0.009	Z:	0.057	yaw:	-3.889	yaw rate:	14.677	Roll:	0.903	Pitch:	0.462	Yaw:	-11.409	Thrust:	0.000
Time:	3.151	Roll Set Point:	-0.048	Pitch Set Point:	-0.019	Yaw Set Point:	0.065	X_WP:	0.000	Y_WP:	0.000	Y_WP:	0.000	X:	0.024	Y:	0.009	Z:	0.057	yaw:	-3.739	yaw rate:	-15.067	Roll:	0.832	Pitch:	0.280	Yaw:	-6.976	Thrust:	0.000
Time:	3.170	Roll Set Point:	-0.048	Pitch Set Point:	-0.019	Yaw Set Point:	0.065	X_WP:	0.000	Y_WP:	0.000	Y_WP:	0.000	X:	0.024	Y:	0.009	Z:	0.057	yaw:	-3.745	yaw rate:	0.618	Roll:	0.848	Pitch:	0.364	Yaw:	-9.199	Thrust:	0.000
Time:	3.191	Roll Set Point:	-0.048	Pitch Set Point:	-0.019	Yaw Set Point:	0.065	X_WP:	0.000	Y_WP:	0.000	Y_WP:	0.000	X:	0.024	Y:	0.009	Z:	0.057	yaw:	-3.748	yaw rate:	0.291	Roll:	0.873	Pitch:	0.385	Yaw:	-9.484	Thrust:	0.000
Time:	3.214	Roll Set Point:	-0.048	Pitch Set Point:	-0.019	Yaw Set Point:	0.065	X_WP:	0.000	Y_WP:	0.000	Y_WP:	0.000	X:	0.024	Y:	0.009	Z:	0.057	yaw:	-3.743	yaw rate:	-0.501	Roll:	0.900	Pitch:	0.383	Yaw:	-9.799	Thrust:	0.000
Time:	3.230	Roll Set Point:	-0.048	Pitch Set Point:	-0.019	Yaw Set Point:	0.065	X_WP:	0.000	Y_WP:	0.000	Y_WP:	0.000	X:	0.024	Y:	0.009	Z:	0.057	yaw:	-3.748	yaw rate:	0.564	Roll:	0.824	Pitch:	0.350	Yaw:	-8.570	Thrust:	0.000
Time:	3.250	Roll Set Point:	-0.048	Pitch Set Point:	-0.019	Yaw Set Point:	0.065	X_WP:	0.000	Y_WP:	0.000	Y_WP:	0.000	X:	0.024	Y:	0.009	Z:	0.057	yaw:	-3.744	yaw rate:	-0.465	Roll:	0.876	Pitch:	0.385	Yaw:	-9.267	Thrust:	0.000
Time:	3.272	Roll Set Point:	-0.048	Pitch Set Point:	-0.019	Yaw Set Point:	0.068	X_WP:	0.000	Y_WP:	0.000	Y_WP:	0.000	X:	0.024	Y:	0.009	Z:	0.057	yaw:	-3.899	yaw rate:	15.560	Roll:	0.924	Pitch:	0.469	Yaw:	-11.525	Thrust:	0.000
Time:	3.290	Roll Set Point:	-0.048	Pitch Set Point:	-0.019	Yaw Set Point:	0.065	X_WP:	0.000	Y_WP:	0.000	Y_WP:	0.000	X:	0.024	Y:	0.009	Z:	0.057	yaw:	-3.745	yaw rate:	-15.397	Roll:	0.821	Pitch:	0.278	Yaw:	-7.086	Thrust:	0.000
Time:	3.311	Roll Set Point:	-0.048	Pitch Set Point:	-0.019	Yaw Set Point:	0.065	X_WP:	0.000	Y_WP:	0.000	Y_WP:	0.000	X:	0.024	Y:	0.009	Z:	0.057	yaw:	-3.740	yaw rate:	-0.588	Roll:	0.886	Pitch:	0.370	Yaw:	-9.087	Thrust:	0.000
Time:	3.331	Roll Set Point:	-0.048	Pitch Set Point:	-0.019	Yaw Set Point:	0.065	X_WP:	0.000	Y_WP:	0.000	Y_WP:	0.000	X:	0.024	Y:	0.009	Z:	0.057	yaw:	-3.749	yaw rate:	0.896	Roll:	0.876	Pitch:	0.385	Yaw:	-9.542	Thrust:	0.000
Time:	3.350	Roll Set Point:	-0.048	Pitch Set Point:	-0.019	Yaw Set Point:	0.068	X_WP:	0.000	Y_WP:	0.000	Y_WP:	0.000	X:	0.024	Y:	0.009	Z:	0.057	yaw:	-3.887	yaw rate:	13.850	Roll:	0.907	Pitch:	0.466	Yaw:	-11.150	Thrust:	0.000
Time:	3.370	Roll Set Point:	-0.048	Pitch Set Point:	-0.019	Yaw Set Point:	0.065	X_WP:	0.000	Y_WP:	0.000	Y_WP:	0.000	X:	0.024	Y:	0.009	Z:	0.057	yaw:	-3.742	yaw rate:	-14.528	Roll:	0.831	Pitch:	0.288	Yaw:	-7.392	Thrust:	0.000
Time:	3.390	Roll Set Point:	-0.048	Pitch Set Point:	-0.019	Yaw Set Point:	0.065	X_WP:	0.000	Y_WP:	0.000	Y_WP:	0.000	X:	0.024	Y:	0.009	Z:	0.057	yaw:	-3.747	yaw rate:	0.504	Roll:	0.889	Pitch:	0.382	Yaw:	-9.241	Thrust:	0.000
Time:	3.412	Roll Set Point:	-0.048	Pitch Set Point:	-0.019	Yaw Set Point:	0.065	X_WP:	0.000	Y_WP:	0.000	Y_WP:	0.000	X:	0.024	Y:	0.009	Z:	0.057	yaw:	-3.741	yaw rate:	-0.574	Roll:	0.888	Pitch:	0.389	Yaw:	-9.470	Thrust:	0.000
Time:	3.430	Roll Set Point:	-0.048	Pitch Set Point:	-0.019	Yaw Set Point:	0.065	X_WP:	0.000	Y_WP:	0.000	Y_WP:	0.000	X:	0.024	Y:	0.009	Z:	0.057	yaw:	-3.742	yaw rate:	0.126	Roll:	0.867	Pitch:	0.359	Yaw:	-8.845	Thrust:	0.000
Time:	3.450	Roll Set Point:	-0.048	Pitch Set Point:	-0.019	Yaw Set Point:	0.065	X_WP:	0.000	Y_WP:	0.000	Y_WP:	0.000	X:	0.024	Y:	0.009	Z:	0.057	yaw:	-3.749	yaw rate:	0.693	Roll:	0.889	Pitch:	0.385	Yaw:	-9.459	Thrust:	0.000
Time:	3.473	Roll Set Point:	-0.048	Pitch Set Point:	-0.019	Yaw Set Point:	0.065	X_WP:	0.000	Y_WP:	0.000	Y_WP:	0.000	X:	0.024	Y:	0.009	Z:	0.057	yaw:	-3.751	yaw rate:	0.214	Roll:	0.895	Pitch:	0.402	Yaw:	-9.866	Thrust:	0.000
Time:	3.491	Roll Set Point:	-0.048	Pitch Set Point:	-0.019	Yaw Set Point:	0.065	X_WP:	0.000	Y_WP:	0.000	Y_WP:	0.000	X:	0.024	Y:	0.009	Z:	0.057	yaw:	-3.744	yaw rate:	-0.696	Roll:	0.876	Pitch:	0.368	Yaw:	-8.568	Thrust:	0.000
Time:	3.511	Roll Set Point:	-0.048	Pitch Set Point:	-0.019	Yaw Set Point:	0.065	X_WP:	0.000	Y_WP:	0.000	Y_WP:	0.000	X:	0.024	Y:	0.009	Z:	0.057	yaw:	-3.741	yaw rate:	-0.299	Roll:	0.888	Pitch:	0.378	Yaw:	-9.197	Thrust:	0.000
Time:	3.531	Roll Set Point:	-0.048	Pitch Set Point:	-0.019	Yaw Set Point:	0.065	X_WP:	0.000	Y_WP:	0.000	Y_WP:	0.000	X:	0.024	Y:	0.009	Z:	0.057	yaw:	-3.752	yaw rate:	1.034	Roll:	0.893	Pitch:	0.384	Yaw:	-9.408	Thrust:	0.000
Time:	3.551	Roll Set Point:	-0.048	Pitch Set Point:	-0.019	Yaw Set Point:	0.068	X_WP:	0.000	Y_WP:	0.000	Y_WP:	0.000	X:	0.024	Y:	0.009	Z:	0.057	yaw:	-3.892	yaw rate:	13.988	Roll:	0.907	Pitch:	0.468	Yaw:	-11.203	Thrust:	0.000
Time:	3.570	Roll Set Point:	-0.048	Pitch Set Point:	-0.019	Yaw Set Point:	0.065	X_WP:	0.000	Y_WP:	0.000	Y_WP:	0.000	X:	0.024	Y:	0.009	Z:	0.057	yaw:	-3.744	yaw rate:	-14.746	Roll:	0.843	Pitch:	0.292	Yaw:	-7.315	Thrust:	0.000
Time:	3.591	Roll Set Point:	-0.048	Pitch Set Point:	-0.019	Yaw Set Point:	0.065	X_WP:	0.000	Y_WP:	0.000	Y_WP:	0.000	X:	0.024	Y:	0.009	Z:	0.057	yaw:	-3.739	yaw rate:	-0.476	Roll:	0.897	Pitch:	0.377	Yaw:	-9.101	Thrust:	0.000
Time:	3.614	Roll Set Point:	-0.048	Pitch Set Point:	-0.019	Yaw Set Point:	0.066	X_WP:	0.000	Y_WP:	0.000	Y_WP:	0.000	X:	0.024	Y:	0.009	Z:	0.057	yaw:	-3.809	yaw rate:	6.959	Roll:	0.906	Pitch:	0.468	Yaw:	-10.753	Thrust:	0.000
Time:	3.630	Roll Set Point:	-0.048	Pitch Set Point:	-0.019	Yaw Set Point:	0.065	X_WP:	0.000	Y_WP:	0.000	Y_WP:	0.000	X:	0.024	Y:	0.009	Z:	0.057	yaw:	-3.737	yaw rate:	-7.168	Roll:	0.883	Pitch:	0.284	Yaw:	-7.451	Thrust:	0.000
Time:	3.651	Roll Set Point:	-0.048	Pitch Set Point:	-0.019	Yaw Set Point:	0.065	X_WP:	0.000	Y_WP:	0.000	Y_WP:	0.000	X:	0.024	Y:	0.009	Z:	0.057	yaw:	-3.744	yaw rate:	0.625	Roll:	0.890	Pitch:	0.387	Yaw:	-9.442	Thrust:	0.000
Time:	3.674	Roll Set Point:	-0.048	Pitch Set Point:	-0.019	Yaw Set Point:	0.067	X_WP:	0.000	Y_WP:	0.000	Y_WP:	0.000	X:	0.024	Y:	0.009	Z:	0.057	yaw:	-3.811	yaw rate:	6.708	Roll:	0.897	Pitch:	0.465	Yaw:	-10.497	Thrust:	0.000
Time:	3.691	Roll Set Point:	-0.048	Pitch Set Point:	-0.019	Yaw Set Point:	0.065	X_WP:	0.000	Y_WP:	0.000	Y_WP:	0.000	X:	0.024	Y:	0.009	Z:	0.057	yaw:	-3.746	yaw rate:	-6.432	Roll:	0.894	Pitch:	0.298	Yaw:	-7.767	Thrust:	0.000
Time:	3.711	Roll Set Point:	-0.048	Pitch Set Point:	-0.019	Yaw Set Point:	0.065	X_WP:	0.000	Y_WP:	0.000	Y_WP:	0.000	X:	0.024	Y:	0.009	Z:	0.057	yaw:	-3.739	yaw rate:	-0.712	Roll:	0.894	Pitch:	0.383	Yaw:	-9.242	Thrust:	0.000
Time:	3.732	Roll Set Point:	-0.048	Pitch Set Point:	-0.019	Yaw Set Point:	0.066	X_WP:	0.000	Y_WP:	0.000	Y_WP:	0.000	X:	0.024	Y:	0.009	Z:	0.057	yaw:	-3.803	yaw rate:	6.337	Roll:	0.900	Pitch:	0.468	Yaw:	-10.278	Thrust:	0.000
Time:	3.751	Roll Set Point:	-0.048	Pitch Set Point:	-0.019	Yaw Set Point:	0.065	X_WP:	0.000	Y_WP:	0.000	Y_WP:	0.000	X:	0.024	Y:	0.009	Z:	0.057	yaw:	-3.743	yaw rate:	-5.930	Roll:	0.891	Pitch:	0.305	Yaw:	-8.223	Thrust:	0.000
Time:	3.770	Roll Set Point:	-0.048	Pitch Set Point:	-0.019	Yaw Set Point:	0.065	X_WP:	0.000	Y_WP:	0.000	Y_WP:	0.000	X:	0.024	Y:	0.009	Z:	0.057	yaw:	-3.746	yaw rate:	0.322	Roll:	0.924	Pitch:	0.387	Yaw:	-9.236	Thrust:	0.000
Time:	3.790	Roll Set Point:	-0.048	Pitch Set Point:	-0.019	Yaw Set Point:	0.065	X_WP:	0.000	Y_WP:	0.000	Y_WP:	0.000	X:	0.024	Y:	0.009	Z:	0.057	yaw:	-3.741	yaw rate:	-0.571	Roll:	0.896	Pitch:	0.392	Yaw:	-9.118	Thrust:	0.000
Time:	3.814	Roll Set Point:	-0.048	Pitch Set Point:	-0.019	Yaw Set Point:	0.066	X_WP:	0.000	Y_WP:	0.000	Y_WP:	0.000	X:	0.024	Y:	0.009	Z:	0.057	yaw:	-3.807	yaw rate:	6.663	Roll:	0.903	Pitch:	0.463	Yaw:	-10.755	Thrust:	0.000
Time:	3.831	Roll Set Point:	-0.048	Pitch Set Point:	-0.019	Yaw Set Point:	0.068	X_WP:	0.000	Y_WP:	0.000	Y_WP:	0.000	X:	0.024	Y:	0.009	Z:	0.057	yaw:	-3.881	yaw rate:	7.403	Roll:	0.954	Pitch:	0.388	Yaw:	-9.967	Thrust:	0.000
Time:	3.850	Roll Set Point:	-0.048	Pitch Set Point:	-0.019	Yaw Set Point:	0.065	X_WP:	0.000	Y_WP:	0.000	Y_WP:	0.000	X:	0.024	Y:	0.009	Z:	0.057	yaw:	-3.740	yaw rate:	-14.129	Roll:	0.851	Pitch:	0.313	Yaw:	-7.251	Thrust:	0.000
Time:	3.873	Roll Set Point:	-0.048	Pitch Set Point:	-0.019	Yaw Set Point:	0.069	X_WP:	0.000	Y_WP:	0.000	Y_WP:	0.000	X:	0.024	Y:	0.009	Z:	0.057	yaw:	-3.952	yaw rate:	21.158	Roll:	0.954	Pitch:	0.553	Yaw:	-12.483	Thrust:	0.000
Time:	3.890	Roll Set Point:	-0.048	Pitch Set Point:	-0.019	Yaw Set Point:	0.065	X_WP:	0.000	Y_WP:	0.000	Y_WP:	0.000	X:	0.024	Y:	0.009	Z:	0.057	yaw:	-3.742	yaw rate:	-20.972	Roll:	0.857	Pitch:	0.208	Yaw:	-5.552	Thrust:	0.000
Time:	3.911	Roll Set Point:	-0.048	Pitch Set Point:	-0.019	Yaw Set Point:	0.068	X_WP:	0.000	Y_WP:	0.000	Y_WP:	0.000	X:	0.024	Y:	0.009	Z:	0.057	yaw:	-3.879	yaw rate:	13.662	Roll:	0.963	Pitch:	0.483	Yaw:	-11.258	Thrust:	0.000
Time:	3.931	Roll Set Point:	-0.048	Pitch Set Point:	-0.019	Yaw Set Point:	0.068	X_WP:	0.000	Y_WP:	0.000	Y_WP:	0.000	X:	0.024	Y:	0.009	Z:	0.057	yaw:	-3.882	yaw rate:	0.362	Roll:	0.907	Pitch:	0.389	Yaw:	-9.308	Thrust:	0.000
Time:	3.952	Roll Set Point:	-0.048	Pitch Set Point:	-0.019	Yaw Set Point:	0.065	X_WP:	0.000	Y_WP:	0.000	Y_WP:	0.000	X:	0.024	Y:	0.009	Z:	0.057	yaw:	-3.751	yaw rate:	-13.100	Roll:	0.868	Pitch:	0.320	Yaw:	-7.962	Thrust:	0.000
Time:	3.970	Roll Set Point:	-0.048	Pitch Set Point:	-0.019	Yaw Set Point:	0.068	X_WP:	0.000	Y_WP:	0.000	Y_WP:	0.000	X:	0.024	Y:	0.009	Z:	0.057	yaw:	-3.885	yaw rate:	13.401	Roll:	0.962	Pitch:	0.478	Yaw:	-10.980	Thrust:	0.000
Time:	3.991	Roll Set Point:	-0.048	Pitch Set Point:	-0.019	Yaw Set Point:	0.065	X_WP:	0.000	Y_WP:	0.000	Y_WP:	0.000	X:	0.024	Y:	0.009	Z:	0.057	yaw:	-3.737	yaw rate:	-14.836	Roll:	0.860	Pitch:	0.314	Yaw:	-7.513	Thrust:	0.000
Time:	4.014	Roll Set Point:	-0.048	Pitch Set Point:	-0.019	Yaw Set Point:	0.065	X_WP:	0.000	Y_WP:	0.000	Y_WP:	0.000	X:	0.024	Y:	0.009	Z:	0.057	yaw:	-3.749	yaw rate:	1.258	Roll:	0.923	Pitch:	0.400	Yaw:	-9.810	Thrust:	0.000
Time:	4.031	Roll Set Point:	-0.048	Pitch Set Point:	-0.019	Yaw Set Point:	0.065	X_WP:	0.000	Y_WP:	0.000	Y_WP:	0.000	X:	0.024	Y:	0.009	Z:	0.057	yaw:	-3.736	yaw rate:	-1.372	Roll:	0.912	Pitch:	0.390	Yaw:	-8.451	Thrust:	0.000
Time:	4.051	Roll Set Point:	-0.048	Pitch Set Point:	-0.019	Yaw Set Point:	0.065	X_WP:	0.000	Y_WP:	0.000	Y_WP:	0.000	X:	0.024	Y:	0.009	Z:	0.057	yaw:	-3.738	yaw rate:	0.217	Roll:	0.939	Pitch:	0.395	Yaw:	-9.429	Thrust:	0.000
Time:	4.070	Roll Set Point:	-0.048	Pitch Set Point:	-0.019	Yaw Set Point:	0.065	X_WP:	0.000	Y_WP:	0.000	Y_WP:	0.000	X:	0.024	Y:	0.009	Z:	0.057	yaw:	-3.747	yaw rate:	0.915	Roll:	0.895	Pitch:	0.398	Yaw:	-9.235	Thrust:	0.000
Time:	4.090	Roll Set Point:	-0.048	Pitch Set Point:	-0.019	Yaw Set Point:	0.065	X_WP:	0.000	Y_WP:	0.000	Y_WP:	0.000	X:	0.024	Y:	0.009	Z:	0.057	yaw:	-3.742	yaw rate:	-0.546	Roll:	0.912	Pitch:	0.396	Yaw:	-9.195	Thrust:	0.000
Time:	4.111	Roll Set Point:	-0.048	Pitch Set Point:	-0.019	Yaw Set Point:	0.068	X_WP:	0.000	Y_WP:	0.000	Y_WP:	0.000	X:	0.024	Y:	0.009	Z:	0.057	yaw:	-3.888	yaw rate:	14.601	Roll:	0.979	Pitch:	0.485	Yaw:	-11.420	Thrust:	0.000
Time:	4.134	Roll Set Point:	-0.048	Pitch Set Point:	-0.019	Yaw Set Point:	0.068	X_WP:	0.000	Y_WP:	0.000	Y_WP:	0.000	X:	0.024	Y:	0.009	Z:	0.057	yaw:	-3.884	yaw rate:	-0.370	Roll:	0.940	Pitch:	0.410	Yaw:	-9.901	Thrust:	0.000
Time:	4.151	Roll Set Point:	-0.048	Pitch Set Point:	-0.019	Yaw Set Point:	0.065	X_WP:	0.000	Y_WP:	0.000	Y_WP:	0.000	X:	0.024	Y:	0.009	Z:	0.057	yaw:	-3.745	yaw rate:	-13.849	Roll:	0.856	Pitch:	0.286	Yaw:	-6.519	Thrust:	0.000
Time:	4.171	Roll Set Point:	-0.048	Pitch Set Point:	-0.019	Yaw Set Point:	0.065	X_WP:	0.000	Y_WP:	0.000	Y_WP:	0.000	X:	0.024	Y:	0.009	Z:	0.057	yaw:	-3.745	yaw rate:	-0.044	Roll:	0.922	Pitch:	0.397	Yaw:	-9.049	Thrust:	0.000
Time:	4.190	Roll Set Point:	-0.048	Pitch Set Point:	-0.019	Yaw Set Point:	0.065	X_WP:	0.000	Y_WP:	0.000	Y_WP:	0.000	X:	0.024	Y:	0.009	Z:	0.057	yaw:	-3.744	yaw rate:	-0.124	Roll:	0.921	Pitch:	0.394	Yaw:	-9.252	Thrust:	0.000
Time:	4.213	Roll Set Point:	-0.048	Pitch Set Point:	-0.019	Yaw Set Point:	0.065	X_WP:	0.000	Y_WP:	0.000	Y_WP:	0.000	X:	0.024	Y:	0.009	Z:	0.057	yaw:	-3.752	yaw rate:	0.848	Roll:	0.953	Pitch:	0.418	Yaw:	-9.905	Thrust:	0.000
Time:	4.231	Roll Set Point:	-0.048	Pitch Set Point:	-0.019	Yaw Set Point:	0.065	X_WP:	0.000	Y_WP:	0.000	Y_WP:	0.000	X:	0.024	Y:	0.009	Z:	0.057	yaw:	-3.744	yaw rate:	-0.779	Roll:	0.914	Pitch:	0.394	Yaw:	-8.634	Thrust:	0.000
Time:	4.250	Roll Set Point:	-0.048	Pitch Set Point:	-0.019	Yaw Set Point:	0.065	X_WP:	0.000	Y_WP:	0.000	Y_WP:	0.000	X:	0.024	Y:	0.009	Z:	0.057	yaw:	-3.743	yaw rate:	-0.098	Roll:	0.905	Pitch:	0.384	Yaw:	-9.194	Thrust:	0.000
Time:	4.273	Roll Set Point:	-0.048	Pitch Set Point:	-0.019	Yaw Set Point:	0.065	X_WP:	0.000	Y_WP:	0.000	Y_WP:	0.000	X:	0.024	Y:	0.009	Z:	0.057	yaw:	-3.738	yaw rate:	-0.497	Roll:	0.941	Pitch:	0.415	Yaw:	-9.709	Thrust:	0.000
Time:	4.291	Roll Set Point:	-0.048	Pitch Set Point:	-0.019	Yaw Set Point:	0.065	X_WP:	0.000	Y_WP:	0.000	Y_WP:	0.000	X:	0.024	Y:	0.009	Z:	0.057	yaw:	-3.743	yaw rate:	0.457	Roll:	0.943	Pitch:	0.398	Yaw:	-8.859	Thrust:	0.000
Time:	4.311	Roll Set Point:	-0.048	Pitch Set Point:	-0.019	Yaw Set Point:	0.065	X_WP:	0.000	Y_WP:	0.000	Y_WP:	0.000	X:	0.024	Y:	0.009	Z:	0.057	yaw:	-3.740	yaw rate:	-0.297	Roll:	0.929	Pitch:	0.400	Yaw:	-9.190	Thrust:	0.000
Time:	4.331	Roll Set Point:	-0.048	Pitch Set Point:	-0.019	Yaw Set Point:	0.068	X_WP:	0.000	Y_WP:	0.000	Y_WP:	0.000	X:	0.024	Y:	0.009	Z:	0.057	yaw:	-3.897	yaw rate:	15.725	Roll:	0.976	Pitch:	0.498	Yaw:	-11.464	Thrust:	0.000
Time:	4.351	Roll Set Point:	-0.048	Pitch Set Point:	-0.019	Yaw Set Point:	0.065	X_WP:	0.000	Y_WP:	0.000	Y_WP:	0.000	X:	0.024	Y:	0.009	Z:	0.057	yaw:	-3.746	yaw rate:	-15.125	Roll:	0.892	Pitch:	0.307	Yaw:	-7.273	Thrust:	0.000
Time:	4.370	Roll Set Point:	-0.048	Pitch Set Point:	-0.019	Yaw Set Point:	0.068	X_WP:	0.000	Y_WP:	0.000	Y_WP:	0.000	X:	0.024	Y:	0.009	Z:	0.057	yaw:	-3.891	yaw rate:	14.455	Roll:	0.980	Pitch:	0.507	Yaw:	-11.260	Thrust:	0.000
Time:	4.391	Roll Set Point:	-0.048	Pitch Set Point:	-0.019	Yaw Set Point:	0.065	X_WP:	0.000	Y_WP:	0.000	Y_WP:	0.000	X:	0.024	Y:	0.009	Z:	0.057	yaw:	-3.747	yaw rate:	-14.395	Roll:	0.875	Pitch:	0.299	Yaw:	-7.466	Thrust:	0.000
Time:	4.413	Roll Set Point:	-0.048	Pitch Set Point:	-0.019	Yaw Set Point:	0.065	X_WP:	0.000	Y_WP:	0.000	Y_WP:	0.000	X:	0.024	Y:	0.009	Z:	0.057	yaw:	-3.744	yaw rate:	-0.314	Roll:	0.972	Pitch:	0.417	Yaw:	-9.515	Thrust:	0.000
Time:	4.430	Roll Set Point:	-0.048	Pitch Set Point:	-0.019	Yaw Set Point:	0.068	X_WP:	0.000	Y_WP:	0.000	Y_WP:	0.000	X:	0.024	Y:	0.009	Z:	0.057	yaw:	-3.888	yaw rate:	14.406	Roll:	0.962	Pitch:	0.496	Yaw:	-11.113	Thrust:	0.000
Time:	4.451	Roll Set Point:	-0.048	Pitch Set Point:	-0.019	Yaw Set Point:	0.068	X_WP:	0.000	Y_WP:	0.000	Y_WP:	0.000	X:	0.024	Y:	0.009	Z:	0.057	yaw:	-3.882	yaw rate:	-0.517	Roll:	0.926	Pitch:	0.397	Yaw:	-9.480	Thrust:	0.000
Time:	4.473	Roll Set Point:	-0.048	Pitch Set Point:	-0.019	Yaw Set Point:	0.065	X_WP:	0.000	Y_WP:	0.000	Y_WP:	0.000	X:	0.024	Y:	0.009	Z:	0.057	yaw:	-3.749	yaw rate:	-13.331	Roll:	0.929	Pitch:	0.350	Yaw:	-7.980	Thrust:	0.000
Time:	4.491	Roll Set Point:	-0.048	Pitch Set Point:	-0.019	Yaw Set Point:	0.065	X_WP:	0.000	Y_WP:	0.000	Y_WP:	0.000	X:	0.024	Y:	0.009	Z:	0.057	yaw:	-3.743	yaw rate:	-0.624	Roll:	0.933	Pitch:	0.388	Yaw:	-8.769	Thrust:	0.000
Time:	4.511	Roll Set Point:	-0.048	Pitch Set Point:	-0.019	Yaw Set Point:	0.065	X_WP:	0.000	Y_WP:	0.000	Y_WP:	0.000	X:	0.024	Y:	0.009	Z:	0.057	yaw:	-3.738	yaw rate:	-0.500	Roll:	0.943	Pitch:	0.405	Yaw:	-9.268	Thrust:	0.000
Time:	4.532	Roll Set Point:	-0.048	Pitch Set Point:	-0.019	Yaw Set Point:	0.068	X_WP:	0.000	Y_WP:	0.000	Y_WP:	0.000	X:	0.024	Y:	0.009	Z:	0.057	yaw:	-3.901	yaw rate:	16.327	Roll:	0.993	Pitch:	0.512	Yaw:	-11.540	Thrust:	0.000
Time:	4.550	Roll Set Point:	-0.048	Pitch Set Point:	-0.019	Yaw Set Point:	0.065	X_WP:	0.000	Y_WP:	0.000	Y_WP:	0.000	X:	0.024	Y:	0.009	Z:	0.057	yaw:	-3.745	yaw rate:	-15.614	Roll:	0.888	Pitch:	0.314	Yaw:	-7.056	Thrust:	0.000
Time:	4.570	Roll Set Point:	-0.048	Pitch Set Point:	-0.019	Yaw Set Point:	0.065	X_WP:	0.000	Y_WP:	0.000	Y_WP:	0.000	X:	0.024	Y:	0.009	Z:	0.057	yaw:	-3.741	yaw rate:	-0.435	Roll:	0.942	Pitch:	0.389	Yaw:	-9.120	Thrust:	0.000
Time:	4.591	Roll Set Point:	-0.048	Pitch Set Point:	-0.019	Yaw Set Point:	0.065	X_WP:	0.000	Y_WP:	0.000	Y_WP:	0.000	X:	0.024	Y:	0.009	Z:	0.057	yaw:	-3.740	yaw rate:	-0.065	Roll:	0.966	Pitch:	0.426	Yaw:	-9.324	Thrust:	0.000
Time:	4.615	Roll Set Point:	-0.048	Pitch Set Point:	-0.019	Yaw Set Point:	0.065	X_WP:	0.000	Y_WP:	0.000	Y_WP:	0.000	X:	0.024	Y:	0.009	Z:	0.057	yaw:	-3.742	yaw rate:	0.154	Roll:	1.000	Pitch:	0.429	Yaw:	-9.962	Thrust:	0.000
Time:	4.630	Roll Set Point:	-0.048	Pitch Set Point:	-0.019	Yaw Set Point:	0.065	X_WP:	0.000	Y_WP:	0.000	Y_WP:	0.000	X:	0.024	Y:	0.009	Z:	0.057	yaw:	-3.744	yaw rate:	0.221	Roll:	0.900	Pitch:	0.387	Yaw:	-8.473	Thrust:	0.000
Time:	4.651	Roll Set Point:	-0.048	Pitch Set Point:	-0.019	Yaw Set Point:	0.067	X_WP:	0.000	Y_WP:	0.000	Y_WP:	0.000	X:	0.024	Y:	0.009	Z:	0.057	yaw:	-3.810	yaw rate:	6.646	Roll:	0.922	Pitch:	0.492	Yaw:	-10.209	Thrust:	0.000
Time:	4.672	Roll Set Point:	-0.048	Pitch Set Point:	-0.019	Yaw Set Point:	0.065	X_WP:	0.000	Y_WP:	0.000	Y_WP:	0.000	X:	0.024	Y:	0.009	Z:	0.057	yaw:	-3.742	yaw rate:	-6.809	Roll:	0.971	Pitch:	0.330	Yaw:	-8.316	Thrust:	0.000
Time:	4.691	Roll Set Point:	-0.048	Pitch Set Point:	-0.019	Yaw Set Point:	0.068	X_WP:	0.000	Y_WP:	0.000	Y_WP:	0.000	X:	0.024	Y:	0.009	Z:	0.057	yaw:	-3.890	yaw rate:	14.743	Roll:	1.005	Pitch:	0.501	Yaw:	-11.391	Thrust:	0.000
Time:	4.711	Roll Set Point:	-0.048	Pitch Set Point:	-0.019	Yaw Set Point:	0.066	X_WP:	0.000	Y_WP:	0.000	Y_WP:	0.000	X:	0.024	Y:	0.009	Z:	0.057	yaw:	-3.809	yaw rate:	-8.090	Roll:	0.890	Pitch:	0.406	Yaw:	-8.253	Thrust:	0.000
Time:	4.733	Roll Set Point:	-0.048	Pitch Set Point:	-0.019	Yaw Set Point:	0.065	X_WP:	0.000	Y_WP:	0.000	Y_WP:	0.000	X:	0.024	Y:	0.009	Z:	0.057	yaw:	-3.745	yaw rate:	-6.350	Roll:	0.981	Pitch:	0.345	Yaw:	-8.683	Thrust:	0.000
Time:	4.752	Roll Set Point:	-0.048	Pitch Set Point:	-0.019	Yaw Set Point:	0.068	X_WP:	0.000	Y_WP:	0.000	Y_WP:	0.000	X:	0.024	Y:	0.009	Z:	0.057	yaw:	-3.887	yaw rate:	14.147	Roll:	1.008	Pitch:	0.511	Yaw:	-11.288	Thrust:	0.000
Time:	4.776	Roll Set Point:	-0.048	Pitch Set Point:	-0.019	Yaw Set Point:	0.065	X_WP:	0.000	Y_WP:	0.000	Y_WP:	0.000	X:	0.024	Y:	0.009	Z:	0.057	yaw:	-3.746	yaw rate:	-14.084	Roll:	0.897	Pitch:	0.308	Yaw:	-8.492	Thrust:	0.000
Time:	4.791	Roll Set Point:	-0.048	Pitch Set Point:	-0.019	Yaw Set Point:	0.066	X_WP:	0.000	Y_WP:	0.000	Y_WP:	0.000	X:	0.024	Y:	0.009	Z:	0.057	yaw:	-3.803	yaw rate:	5.671	Roll:	0.939	Pitch:	0.490	Yaw:	-9.332	Thrust:	0.000
Time:	4.816	Roll Set Point:	-0.048	Pitch Set Point:	-0.019	Yaw Set Point:	0.065	X_WP:	0.000	Y_WP:	0.000	Y_WP:	0.000	X:	0.024	Y:	0.009	Z:	0.057	yaw:	-3.743	yaw rate:	-5.942	Roll:	1.036	Pitch:	0.377	Yaw:	-9.403	Thrust:	0.000
Time:	4.831	Roll Set Point:	-0.048	Pitch Set Point:	-0.019	Yaw Set Point:	0.065	X_WP:	0.000	Y_WP:	0.000	Y_WP:	0.000	X:	0.024	Y:	0.009	Z:	0.057	yaw:	-3.741	yaw rate:	-0.204	Roll:	0.882	Pitch:	0.380	Yaw:	-8.175	Thrust:	0.000
Time:	4.851	Roll Set Point:	-0.048	Pitch Set Point:	-0.019	Yaw Set Point:	0.065	X_WP:	0.000	Y_WP:	0.000	Y_WP:	0.000	X:	0.024	Y:	0.009	Z:	0.057	yaw:	-3.747	yaw rate:	0.633	Roll:	0.985	Pitch:	0.427	Yaw:	-9.425	Thrust:	0.000
Time:	4.870	Roll Set Point:	-0.048	Pitch Set Point:	-0.019	Yaw Set Point:	0.068	X_WP:	0.000	Y_WP:	0.000	Y_WP:	0.000	X:	0.024	Y:	0.009	Z:	0.057	yaw:	-3.893	yaw rate:	14.565	Roll:	1.001	Pitch:	0.508	Yaw:	-11.304	Thrust:	0.000
Time:	4.890	Roll Set Point:	-0.048	Pitch Set Point:	-0.019	Yaw Set Point:	0.065	X_WP:	0.000	Y_WP:	0.000	Y_WP:	0.000	X:	0.024	Y:	0.009	Z:	0.057	yaw:	-3.740	yaw rate:	-15.275	Roll:	0.930	Pitch:	0.324	Yaw:	-7.252	Thrust:	0.000
Time:	4.911	Roll Set Point:	-0.048	Pitch Set Point:	-0.019	Yaw Set Point:	0.065	X_WP:	0.000	Y_WP:	0.000	Y_WP:	0.000	X:	0.024	Y:	0.009	Z:	0.057	yaw:	-3.739	yaw rate:	-0.142	Roll:	0.975	Pitch:	0.420	Yaw:	-9.244	Thrust:	0.000
Time:	4.931	Roll Set Point:	-0.048	Pitch Set Point:	-0.019	Yaw Set Point:	0.065	X_WP:	0.000	Y_WP:	0.000	Y_WP:	0.000	X:	0.024	Y:	0.009	Z:	0.057	yaw:	-3.743	yaw rate:	0.454	Roll:	0.937	Pitch:	0.412	Yaw:	-9.293	Thrust:	0.000
Time:	4.951	Roll Set Point:	-0.048	Pitch Set Point:	-0.019	Yaw Set Point:	0.065	X_WP:	0.000	Y_WP:	0.000	Y_WP:	0.000	X:	0.024	Y:	0.009	Z:	0.057	yaw:	-3.745	yaw rate:	0.207	Roll:	0.992	Pitch:	0.428	Yaw:	-9.193	Thrust:	0.000
Time:	4.970	Roll Set Point:	-0.048	Pitch Set Point:	-0.019	Yaw Set Point:	0.068	X_WP:	0.000	Y_WP:	0.000	Y_WP:	0.000	X:	0.024	Y:	0.009	Z:	0.057	yaw:	-3.884	yaw rate:	13.806	Roll:	1.013	Pitch:	0.502	Yaw:	-11.248	Thrust:	0.000
Time:	4.990	Roll Set Point:	-0.048	Pitch Set Point:	-0.019	Yaw Set Point:	0.065	X_WP:	0.000	Y_WP:	0.000	Y_WP:	0.000	X:	0.024	Y:	0.009	Z:	0.057	yaw:	-3.743	yaw rate:	-14.037	Roll:	0.938	Pitch:	0.334	Yaw:	-7.352	Thrust:	0.000
Time:	5.013	Roll Set Point:	-0.048	Pitch Set Point:	-0.019	Yaw Set Point:	0.068	X_WP:	0.000	Y_WP:	0.000	Y_WP:	1.750	X:	0.024	Y:	0.009	Z:	0.057	yaw:	-3.898	yaw rate:	15.448	Roll:	1.016	Pitch:	0.515	Yaw:	-11.626	Thrust:	100.000
Time:	5.030	Roll Set Point:	-0.048	Pitch Set Point:	-0.019	Yaw Set Point:	0.065	X_WP:	0.000	Y_WP:	0.000	Y_WP:	1.750	X:	0.024	Y:	0.009	Z:	0.057	yaw:	-3.743	yaw rate:	-15.486	Roll:	0.901	Pitch:	0.301	Yaw:	-6.449	Thrust:	96.194
Time:	5.051	Roll Set Point:	-0.048	Pitch Set Point:	-0.019	Yaw Set Point:	0.068	X_WP:	0.000	Y_WP:	0.000	Y_WP:	1.750	X:	0.024	Y:	0.009	Z:	0.057	yaw:	-3.884	yaw rate:	14.172	Roll:	0.959	Pitch:	0.509	Yaw:	-11.355	Thrust:	100.000
Time:	5.078	Roll Set Point:	-0.047	Pitch Set Point:	-0.019	Yaw Set Point:	0.067	X_WP:	0.000	Y_WP:	0.000	Y_WP:	1.750	X:	0.024	Y:	0.009	Z:	0.057	yaw:	-3.861	yaw rate:	-2.368	Roll:	0.949	Pitch:	0.430	Yaw:	-10.261	Thrust:	100.000
Time:	5.091	Roll Set Point:	-0.047	Pitch Set Point:	-0.019	Yaw Set Point:	0.068	X_WP:	0.000	Y_WP:	0.000	Y_WP:	1.750	X:	0.024	Y:	0.009	Z:	0.057	yaw:	-3.925	yaw rate:	6.384	Roll:	0.974	Pitch:	0.447	Yaw:	-9.536	Thrust:	100.000
Time:	5.111	Roll Set Point:	-0.047	Pitch Set Point:	-0.019	Yaw Set Point:	0.067	X_WP:	0.000	Y_WP:	0.000	Y_WP:	1.750	X:	0.024	Y:	0.009	Z:	0.057	yaw:	-3.854	yaw rate:	-7.112	Roll:	0.924	Pitch:	0.395	Yaw:	-8.581	Thrust:	100.000
Time:	5.135	Roll Set Point:	-0.047	Pitch Set Point:	-0.019	Yaw Set Point:	0.067	X_WP:	0.000	Y_WP:	0.000	Y_WP:	1.750	X:	0.024	Y:	0.009	Z:	0.058	yaw:	-3.851	yaw rate:	-0.215	Roll:	0.980	Pitch:	0.418	Yaw:	-9.691	Thrust:	100.000
Time:	5.152	Roll Set Point:	-0.047	Pitch Set Point:	-0.019	Yaw Set Point:	0.069	X_WP:	0.000	Y_WP:	0.000	Y_WP:	1.750	X:	0.024	Y:	0.009	Z:	0.058	yaw:	-3.962	yaw rate:	11.101	Roll:	0.993	Pitch:	0.462	Yaw:	-10.759	Thrust:	100.000
Time:	5.171	Roll Set Point:	-0.047	Pitch Set Point:	-0.019	Yaw Set Point:	0.073	X_WP:	0.000	Y_WP:	0.000	Y_WP:	1.750	X:	0.024	Y:	0.009	Z:	0.059	yaw:	-4.162	yaw rate:	20.009	Roll:	0.879	Pitch:	0.521	Yaw:	-12.426	Thrust:	100.000
Time:	5.191	Roll Set Point:	-0.047	Pitch Set Point:	-0.019	Yaw Set Point:	0.075	X_WP:	0.000	Y_WP:	0.000	Y_WP:	1.750	X:	0.024	Y:	0.009	Z:	0.062	yaw:	-4.324	yaw rate:	16.151	Roll:	0.981	Pitch:	0.536	Yaw:	-12.113	Thrust:	100.000
Time:	5.216	Roll Set Point:	-0.047	Pitch Set Point:	-0.019	Yaw Set Point:	0.078	X_WP:	0.000	Y_WP:	0.000	Y_WP:	1.750	X:	0.024	Y:	0.009	Z:	0.066	yaw:	-4.476	yaw rate:	15.177	Roll:	0.877	Pitch:	0.464	Yaw:	-12.886	Thrust:	100.000
Time:	5.231	Roll Set Point:	-0.046	Pitch Set Point:	-0.019	Yaw Set Point:	0.081	X_WP:	0.000	Y_WP:	0.000	Y_WP:	1.750	X:	0.023	Y:	0.008	Z:	0.072	yaw:	-4.656	yaw rate:	18.068	Roll:	0.483	Pitch:	0.266	Yaw:	-12.678	Thrust:	100.000
Time:	5.251	Roll Set Point:	-0.045	Pitch Set Point:	-0.018	Yaw Set Point:	0.084	X_WP:	0.000	Y_WP:	0.000	Y_WP:	1.750	X:	0.023	Y:	0.008	Z:	0.081	yaw:	-4.808	yaw rate:	15.193	Roll:	0.501	Pitch:	0.154	Yaw:	-12.799	Thrust:	100.000
Time:	5.277	Roll Set Point:	-0.043	Pitch Set Point:	-0.017	Yaw Set Point:	0.093	X_WP:	0.000	Y_WP:	0.000	Y_WP:	1.750	X:	0.022	Y:	0.008	Z:	0.091	yaw:	-5.306	yaw rate:	49.741	Roll:	0.229	Pitch:	0.095	Yaw:	-17.717	Thrust:	100.000
Time:	5.290	Roll Set Point:	-0.042	Pitch Set Point:	-0.016	Yaw Set Point:	0.103	X_WP:	0.000	Y_WP:	0.000	Y_WP:	1.750	X:	0.021	Y:	0.007	Z:	0.103	yaw:	-5.911	yaw rate:	60.564	Roll:	0.221	Pitch:	-0.107	Yaw:	-20.885	Thrust:	100.000
Time:	5.312	Roll Set Point:	-0.041	Pitch Set Point:	-0.014	Yaw Set Point:	0.119	X_WP:	0.000	Y_WP:	0.000	Y_WP:	1.750	X:	0.021	Y:	0.006	Z:	0.117	yaw:	-6.817	yaw rate:	90.513	Roll:	0.326	Pitch:	-0.241	Yaw:	-25.056	Thrust:	100.000
Time:	5.333	Roll Set Point:	-0.040	Pitch Set Point:	-0.012	Yaw Set Point:	0.138	X_WP:	0.000	Y_WP:	0.000	Y_WP:	1.750	X:	0.020	Y:	0.004	Z:	0.133	yaw:	-7.899	yaw rate:	108.287	Roll:	0.505	Pitch:	-0.664	Yaw:	-28.900	Thrust:	100.000
Time:	5.351	Roll Set Point:	-0.040	Pitch Set Point:	-0.008	Yaw Set Point:	0.157	X_WP:	0.000	Y_WP:	0.000	Y_WP:	1.750	X:	0.020	Y:	0.002	Z:	0.150	yaw:	-8.989	yaw rate:	108.911	Roll:	1.065	Pitch:	-1.140	Yaw:	-31.308	Thrust:	100.000
Time:	5.371	Roll Set Point:	-0.041	Pitch Set Point:	-0.003	Yaw Set Point:	0.175	X_WP:	0.000	Y_WP:	0.000	Y_WP:	1.750	X:	0.021	Y:	-0.000	Z:	0.169	yaw:	-10.023	yaw rate:	103.488	Roll:	1.520	Pitch:	-1.665	Yaw:	-31.659	Thrust:	100.000
