Time:	0.033	Roll Set Point:	-0.016	Pitch Set Point:	-0.027	Yaw Set Point:	0.040	X_WP:	0.000	Y_WP:	0.000	Y_WP:	0.000	X:	0.008	Y:	0.013	Z:	0.057	yaw:	-2.306	yaw rate:	0.847	Roll:	0.221	Pitch:	0.394	Yaw:	-3.219	Thrust:	0.000
Time:	0.050	Roll Set Point:	-0.016	Pitch Set Point:	-0.027	Yaw Set Point:	0.040	X_WP:	0.000	Y_WP:	0.000	Y_WP:	0.000	X:	0.008	Y:	0.013	Z:	0.057	yaw:	-2.302	yaw rate:	-0.333	Roll:	0.217	Pitch:	0.400	Yaw:	-3.179	Thrust:	0.000
Time:	0.070	Roll Set Point:	-0.016	Pitch Set Point:	-0.027	Yaw Set Point:	0.040	X_WP:	0.000	Y_WP:	0.000	Y_WP:	0.000	X:	0.008	Y:	0.013	Z:	0.057	yaw:	-2.304	yaw rate:	0.161	Roll:	0.221	Pitch:	0.391	Yaw:	-3.270	Thrust:	0.000
Time:	0.094	Roll Set Point:	-0.016	Pitch Set Point:	-0.027	Yaw Set Point:	0.040	X_WP:	0.000	Y_WP:	0.000	Y_WP:	0.000	X:	0.008	Y:	0.013	Z:	0.057	yaw:	-2.298	yaw rate:	-0.562	Roll:	0.230	Pitch:	0.398	Yaw:	-3.206	Thrust:	0.000
Time:	0.113	Roll Set Point:	-0.016	Pitch Set Point:	-0.027	Yaw Set Point:	0.040	X_WP:	0.000	Y_WP:	0.000	Y_WP:	0.000	X:	0.008	Y:	0.013	Z:	0.057	yaw:	-2.304	yaw rate:	0.566	Roll:	0.211	Pitch:	0.387	Yaw:	-3.356	Thrust:	0.000
Time:	0.130	Roll Set Point:	-0.016	Pitch Set Point:	-0.027	Yaw Set Point:	0.040	X_WP:	0.000	Y_WP:	0.000	Y_WP:	0.000	X:	0.008	Y:	0.013	Z:	0.057	yaw:	-2.305	yaw rate:	0.064	Roll:	0.226	Pitch:	0.410	Yaw:	-3.294	Thrust:	0.000
Time:	0.156	Roll Set Point:	-0.016	Pitch Set Point:	-0.027	Yaw Set Point:	0.040	X_WP:	0.000	Y_WP:	0.000	Y_WP:	0.000	X:	0.008	Y:	0.013	Z:	0.057	yaw:	-2.302	yaw rate:	-0.242	Roll:	0.233	Pitch:	0.390	Yaw:	-3.316	Thrust:	0.000
Time:	0.170	Roll Set Point:	-0.016	Pitch Set Point:	-0.027	Yaw Set Point:	0.040	X_WP:	0.000	Y_WP:	0.000	Y_WP:	0.000	X:	0.008	Y:	0.013	Z:	0.057	yaw:	-2.309	yaw rate:	0.668	Roll:	0.204	Pitch:	0.395	Yaw:	-3.426	Thrust:	0.000
Time:	0.190	Roll Set Point:	-0.016	Pitch Set Point:	-0.027	Yaw Set Point:	0.040	X_WP:	0.000	Y_WP:	0.000	Y_WP:	0.000	X:	0.008	Y:	0.013	Z:	0.057	yaw:	-2.296	yaw rate:	-1.284	Roll:	0.234	Pitch:	0.411	Yaw:	-3.166	Thrust:	0.000
Time:	0.211	Roll Set Point:	-0.016	Pitch Set Point:	-0.027	Yaw Set Point:	0.040	X_WP:	0.000	Y_WP:	0.000	Y_WP:	0.000	X:	0.008	Y:	0.013	Z:	0.057	yaw:	-2.309	yaw rate:	1.250	Roll:	0.212	Pitch:	0.394	Yaw:	-3.531	Thrust:	0.000
Time:	0.232	Roll Set Point:	-0.016	Pitch Set Point:	-0.027	Yaw Set Point:	0.040	X_WP:	0.000	Y_WP:	0.000	Y_WP:	0.000	X:	0.008	Y:	0.013	Z:	0.057	yaw:	-2.308	yaw rate:	-0.072	Roll:	0.246	Pitch:	0.396	Yaw:	-3.379	Thrust:	0.000
Time:	0.250	Roll Set Point:	-0.016	Pitch Set Point:	-0.027	Yaw Set Point:	0.040	X_WP:	0.000	Y_WP:	0.000	Y_WP:	0.000	X:	0.008	Y:	0.013	Z:	0.057	yaw:	-2.307	yaw rate:	-0.049	Roll:	0.210	Pitch:	0.413	Yaw:	-3.381	Thrust:	0.000
Time:	0.270	Roll Set Point:	-0.016	Pitch Set Point:	-0.027	Yaw Set Point:	0.040	X_WP:	0.000	Y_WP:	0.000	Y_WP:	0.000	X:	0.008	Y:	0.013	Z:	0.057	yaw:	-2.305	yaw rate:	-0.281	Roll:	0.216	Pitch:	0.395	Yaw:	-3.370	Thrust:	0.000
Time:	0.294	Roll Set Point:	-0.016	Pitch Set Point:	-0.027	Yaw Set Point:	0.040	X_WP:	0.000	Y_WP:	0.000	Y_WP:	0.000	X:	0.008	Y:	0.013	Z:	0.057	yaw:	-2.301	yaw rate:	-0.377	Roll:	0.241	Pitch:	0.408	Yaw:	-3.411	Thrust:	0.000
Time:	0.310	Roll Set Point:	-0.016	Pitch Set Point:	-0.027	Yaw Set Point:	0.040	X_WP:	0.000	Y_WP:	0.000	Y_WP:	0.000	X:	0.008	Y:	0.013	Z:	0.057	yaw:	-2.304	yaw rate:	0.343	Roll:	0.219	Pitch:	0.404	Yaw:	-3.462	Thrust:	0.000
Time:	0.330	Roll Set Point:	-0.016	Pitch Set Point:	-0.027	Yaw Set Point:	0.040	X_WP:	0.000	Y_WP:	0.000	Y_WP:	0.000	X:	0.008	Y:	0.013	Z:	0.057	yaw:	-2.301	yaw rate:	-0.296	Roll:	0.229	Pitch:	0.399	Yaw:	-3.417	Thrust:	0.000
Time:	0.355	Roll Set Point:	-0.016	Pitch Set Point:	-0.027	Yaw Set Point:	0.040	X_WP:	0.000	Y_WP:	0.000	Y_WP:	0.000	X:	0.008	Y:	0.013	Z:	0.057	yaw:	-2.300	yaw rate:	-0.085	Roll:	0.223	Pitch:	0.404	Yaw:	-3.520	Thrust:	0.000
Time:	0.370	Roll Set Point:	-0.016	Pitch Set Point:	-0.027	Yaw Set Point:	0.040	X_WP:	0.000	Y_WP:	0.000	Y_WP:	0.000	X:	0.008	Y:	0.013	Z:	0.057	yaw:	-2.302	yaw rate:	0.161	Roll:	0.219	Pitch:	0.403	Yaw:	-3.454	Thrust:	0.000
Time:	0.390	Roll Set Point:	-0.016	Pitch Set Point:	-0.027	Yaw Set Point:	0.040	X_WP:	0.000	Y_WP:	0.000	Y_WP:	0.000	X:	0.008	Y:	0.013	Z:	0.057	yaw:	-2.307	yaw rate:	0.503	Roll:	0.239	Pitch:	0.410	Yaw:	-3.576	Thrust:	0.000
Time:	0.413	Roll Set Point:	-0.016	Pitch Set Point:	-0.027	Yaw Set Point:	0.040	X_WP:	0.000	Y_WP:	0.000	Y_WP:	0.000	X:	0.008	Y:	0.013	Z:	0.057	yaw:	-2.304	yaw rate:	-0.334	Roll:	0.231	Pitch:	0.412	Yaw:	-3.506	Thrust:	0.000
Time:	0.432	Roll Set Point:	-0.016	Pitch Set Point:	-0.027	Yaw Set Point:	0.040	X_WP:	0.000	Y_WP:	0.000	Y_WP:	0.000	X:	0.008	Y:	0.013	Z:	0.057	yaw:	-2.303	yaw rate:	-0.072	Roll:	0.219	Pitch:	0.398	Yaw:	-3.529	Thrust:	0.000
Time:	0.450	Roll Set Point:	-0.016	Pitch Set Point:	-0.027	Yaw Set Point:	0.040	X_WP:	0.000	Y_WP:	0.000	Y_WP:	0.000	X:	0.008	Y:	0.013	Z:	0.057	yaw:	-2.301	yaw rate:	-0.168	Roll:	0.237	Pitch:	0.410	Yaw:	-3.497	Thrust:	0.000
Time:	0.471	Roll Set Point:	-0.016	Pitch Set Point:	-0.027	Yaw Set Point:	0.040	X_WP:	0.000	Y_WP:	0.000	Y_WP:	0.000	X:	0.008	Y:	0.013	Z:	0.057	yaw:	-2.307	yaw rate:	0.574	Roll:	0.218	Pitch:	0.413	Yaw:	-3.645	Thrust:	0.000
Time:	0.494	Roll Set Point:	-0.016	Pitch Set Point:	-0.027	Yaw Set Point:	0.040	X_WP:	0.000	Y_WP:	0.000	Y_WP:	0.000	X:	0.008	Y:	0.013	Z:	0.057	yaw:	-2.307	yaw rate:	-0.056	Roll:	0.235	Pitch:	0.402	Yaw:	-3.641	Thrust:	0.000
Time:	0.515	Roll Set Point:	-0.016	Pitch Set Point:	-0.027	Yaw Set Point:	0.040	X_WP:	0.000	Y_WP:	0.000	Y_WP:	0.000	X:	0.008	Y:	0.013	Z:	0.057	yaw:	-2.304	yaw rate:	-0.235	Roll:	0.226	Pitch:	0.417	Yaw:	-3.594	Thrust:	0.000
Time:	0.531	Roll Set Point:	-0.016	Pitch Set Point:	-0.027	Yaw Set Point:	0.040	X_WP:	0.000	Y_WP:	0.000	Y_WP:	0.000	X:	0.008	Y:	0.013	Z:	0.057	yaw:	-2.306	yaw rate:	0.144	Roll:	0.242	Pitch:	0.402	Yaw:	-3.585	Thrust:	0.000
Time:	0.562	Roll Set Point:	-0.016	Pitch Set Point:	-0.027	Yaw Set Point:	0.040	X_WP:	0.000	Y_WP:	0.000	Y_WP:	0.000	X:	0.008	Y:	0.013	Z:	0.057	yaw:	-2.310	yaw rate:	0.448	Roll:	0.219	Pitch:	0.419	Yaw:	-3.759	Thrust:	0.000
Time:	0.575	Roll Set Point:	-0.016	Pitch Set Point:	-0.027	Yaw Set Point:	0.040	X_WP:	0.000	Y_WP:	0.000	Y_WP:	0.000	X:	0.008	Y:	0.013	Z:	0.057	yaw:	-2.304	yaw rate:	-0.581	Roll:	0.234	Pitch:	0.408	Yaw:	-3.590	Thrust:	0.000
Time:	0.590	Roll Set Point:	-0.016	Pitch Set Point:	-0.027	Yaw Set Point:	0.040	X_WP:	0.000	Y_WP:	0.000	Y_WP:	0.000	X:	0.008	Y:	0.013	Z:	0.057	yaw:	-2.305	yaw rate:	0.050	Roll:	0.238	Pitch:	0.420	Yaw:	-3.577	Thrust:	0.000
Time:	0.612	Roll Set Point:	-0.016	Pitch Set Point:	-0.027	Yaw Set Point:	0.040	X_WP:	0.000	Y_WP:	0.000	Y_WP:	0.000	X:	0.008	Y:	0.013	Z:	0.057	yaw:	-2.305	yaw rate:	0.006	Roll:	0.222	Pitch:	0.403	Yaw:	-3.722	Thrust:	0.000
Time:	0.632	Roll Set Point:	-0.016	Pitch Set Point:	-0.027	Yaw Set Point:	0.040	X_WP:	0.000	Y_WP:	0.000	Y_WP:	0.000	X:	0.008	Y:	0.013	Z:	0.057	yaw:	-2.308	yaw rate:	0.344	Roll:	0.228	Pitch:	0.423	Yaw:	-3.741	Thrust:	0.000
Time:	0.651	Roll Set Point:	-0.016	Pitch Set Point:	-0.027	Yaw Set Point:	0.040	X_WP:	0.000	Y_WP:	0.000	Y_WP:	0.000	X:	0.008	Y:	0.013	Z:	0.057	yaw:	-2.311	yaw rate:	0.233	Roll:	0.250	Pitch:	0.407	Yaw:	-3.728	Thrust:	0.000
Time:	0.670	Roll Set Point:	-0.016	Pitch Set Point:	-0.027	Yaw Set Point:	0.040	X_WP:	0.000	Y_WP:	0.000	Y_WP:	0.000	X:	0.008	Y:	0.013	Z:	0.057	yaw:	-2.311	yaw rate:	0.001	Roll:	0.222	Pitch:	0.420	Yaw:	-3.743	Thrust:	0.000
Time:	0.695	Roll Set Point:	-0.016	Pitch Set Point:	-0.027	Yaw Set Point:	0.040	X_WP:	0.000	Y_WP:	0.000	Y_WP:	0.000	X:	0.008	Y:	0.013	Z:	0.057	yaw:	-2.308	yaw rate:	-0.219	Roll:	0.231	Pitch:	0.410	Yaw:	-3.846	Thrust:	0.000
Time:	0.715	Roll Set Point:	-0.016	Pitch Set Point:	-0.027	Yaw Set Point:	0.040	X_WP:	0.000	Y_WP:	0.000	Y_WP:	0.000	X:	0.008	Y:	0.013	Z:	0.057	yaw:	-2.302	yaw rate:	-0.629	Roll:	0.245	Pitch:	0.430	Yaw:	-3.665	Thrust:	0.000
Time:	0.731	Roll Set Point:	-0.016	Pitch Set Point:	-0.027	Yaw Set Point:	0.040	X_WP:	0.000	Y_WP:	0.000	Y_WP:	0.000	X:	0.008	Y:	0.013	Z:	0.057	yaw:	-2.307	yaw rate:	0.443	Roll:	0.233	Pitch:	0.414	Yaw:	-3.751	Thrust:	0.000
Time:	0.755	Roll Set Point:	-0.016	Pitch Set Point:	-0.027	Yaw Set Point:	0.040	X_WP:	0.000	Y_WP:	0.000	Y_WP:	0.000	X:	0.008	Y:	0.013	Z:	0.057	yaw:	-2.307	yaw rate:	0.075	Roll:	0.233	Pitch:	0.414	Yaw:	-3.913	Thrust:	0.000
Time:	0.770	Roll Set Point:	-0.016	Pitch Set Point:	-0.027	Yaw Set Point:	0.040	X_WP:	0.000	Y_WP:	0.000	Y_WP:	0.000	X:	0.008	Y:	0.013	Z:	0.057	yaw:	-2.306	yaw rate:	-0.110	Roll:	0.226	Pitch:	0.425	Yaw:	-3.680	Thrust:	0.000
Time:	0.790	Roll Set Point:	-0.016	Pitch Set Point:	-0.027	Yaw Set Point:	0.040	X_WP:	0.000	Y_WP:	0.000	Y_WP:	0.000	X:	0.008	Y:	0.013	Z:	0.057	yaw:	-2.304	yaw rate:	-0.178	Roll:	0.234	Pitch:	0.410	Yaw:	-3.814	Thrust:	0.000
Time:	0.814	Roll Set Point:	-0.016	Pitch Set Point:	-0.027	Yaw Set Point:	0.040	X_WP:	0.000	Y_WP:	0.000	Y_WP:	0.000	X:	0.008	Y:	0.013	Z:	0.057	yaw:	-2.310	yaw rate:	0.573	Roll:	0.243	Pitch:	0.426	Yaw:	-4.014	Thrust:	0.000
Time:	0.832	Roll Set Point:	-0.016	Pitch Set Point:	-0.027	Yaw Set Point:	0.040	X_WP:	0.000	Y_WP:	0.000	Y_WP:	0.000	X:	0.008	Y:	0.013	Z:	0.057	yaw:	-2.308	yaw rate:	-0.246	Roll:	0.225	Pitch:	0.417	Yaw:	-3.768	Thrust:	0.000
Time:	0.850	Roll Set Point:	-0.016	Pitch Set Point:	-0.027	Yaw Set Point:	0.040	X_WP:	0.000	Y_WP:	0.000	Y_WP:	0.000	X:	0.008	Y:	0.013	Z:	0.057	yaw:	-2.299	yaw rate:	-0.843	Roll:	0.245	Pitch:	0.426	Yaw:	-3.703	Thrust:	0.000
Time:	0.870	Roll Set Point:	-0.016	Pitch Set Point:	-0.027	Yaw Set Point:	0.040	X_WP:	0.000	Y_WP:	0.000	Y_WP:	0.000	X:	0.008	Y:	0.013	Z:	0.057	yaw:	-2.305	yaw rate:	0.526	Roll:	0.233	Pitch:	0.420	Yaw:	-3.962	Thrust:	0.000
Time:	0.895	Roll Set Point:	-0.016	Pitch Set Point:	-0.027	Yaw Set Point:	0.040	X_WP:	0.000	Y_WP:	0.000	Y_WP:	0.000	X:	0.008	Y:	0.013	Z:	0.057	yaw:	-2.306	yaw rate:	0.099	Roll:	0.232	Pitch:	0.426	Yaw:	-4.081	Thrust:	0.000
Time:	0.911	Roll Set Point:	-0.016	Pitch Set Point:	-0.027	Yaw Set Point:	0.040	X_WP:	0.000	Y_WP:	0.000	Y_WP:	0.000	X:	0.008	Y:	0.013	Z:	0.057	yaw:	-2.302	yaw rate:	-0.341	Roll:	0.238	Pitch:	0.427	Yaw:	-3.727	Thrust:	0.000
Time:	0.931	Roll Set Point:	-0.016	Pitch Set Point:	-0.027	Yaw Set Point:	0.040	X_WP:	0.000	Y_WP:	0.000	Y_WP:	0.000	X:	0.008	Y:	0.013	Z:	0.057	yaw:	-2.302	yaw rate:	-0.005	Roll:	0.262	Pitch:	0.427	Yaw:	-3.929	Thrust:	0.000
Time:	0.956	Roll Set Point:	-0.016	Pitch Set Point:	-0.027	Yaw Set Point:	0.040	X_WP:	0.000	Y_WP:	0.000	Y_WP:	0.000	X:	0.008	Y:	0.013	Z:	0.057	yaw:	-2.306	yaw rate:	0.415	Roll:	0.226	Pitch:	0.425	Yaw:	-4.161	Thrust:	0.000
Time:	0.971	Roll Set Point:	-0.016	Pitch Set Point:	-0.027	Yaw Set Point:	0.040	X_WP:	0.000	Y_WP:	0.000	Y_WP:	0.000	X:	0.008	Y:	0.013	Z:	0.057	yaw:	-2.302	yaw rate:	-0.447	Roll:	0.231	Pitch:	0.429	Yaw:	-3.726	Thrust:	0.000
Time:	0.989	Roll Set Point:	-0.016	Pitch Set Point:	-0.027	Yaw Set Point:	0.040	X_WP:	0.000	Y_WP:	0.000	Y_WP:	0.000	X:	0.008	Y:	0.013	Z:	0.057	yaw:	-2.302	yaw rate:	0.063	Roll:	0.257	Pitch:	0.413	Yaw:	-3.964	Thrust:	0.000
Time:	1.014	Roll Set Point:	-0.016	Pitch Set Point:	-0.027	Yaw Set Point:	0.040	X_WP:	0.000	Y_WP:	0.000	Y_WP:	0.000	X:	0.008	Y:	0.013	Z:	0.057	yaw:	-2.307	yaw rate:	0.456	Roll:	0.222	Pitch:	0.442	Yaw:	-4.203	Thrust:	0.000
Time:	1.032	Roll Set Point:	-0.016	Pitch Set Point:	-0.027	Yaw Set Point:	0.040	X_WP:	0.000	Y_WP:	0.000	Y_WP:	0.000	X:	0.008	Y:	0.013	Z:	0.057	yaw:	-2.296	yaw rate:	-1.062	Roll:	0.248	Pitch:	0.400	Yaw:	-3.779	Thrust:	0.000
Time:	1.051	Roll Set Point:	-0.016	Pitch Set Point:	-0.027	Yaw Set Point:	0.040	X_WP:	0.000	Y_WP:	0.000	Y_WP:	0.000	X:	0.008	Y:	0.013	Z:	0.057	yaw:	-2.305	yaw rate:	0.876	Roll:	0.232	Pitch:	0.443	Yaw:	-4.133	Thrust:	0.000
Time:	1.070	Roll Set Point:	-0.016	Pitch Set Point:	-0.027	Yaw Set Point:	0.040	X_WP:	0.000	Y_WP:	0.000	Y_WP:	0.000	X:	0.008	Y:	0.013	Z:	0.057	yaw:	-2.304	yaw rate:	-0.067	Roll:	0.249	Pitch:	0.429	Yaw:	-4.029	Thrust:	0.000
Time:	1.096	Roll Set Point:	-0.016	Pitch Set Point:	-0.027	Yaw Set Point:	0.040	X_WP:	0.000	Y_WP:	0.000	Y_WP:	0.000	X:	0.008	Y:	0.013	Z:	0.057	yaw:	-2.314	yaw rate:	0.929	Roll:	0.235	Pitch:	0.432	Yaw:	-4.376	Thrust:	0.000
Time:	1.111	Roll Set Point:	-0.016	Pitch Set Point:	-0.027	Yaw Set Point:	0.040	X_WP:	0.000	Y_WP:	0.000	Y_WP:	0.000	X:	0.008	Y:	0.013	Z:	0.057	yaw:	-2.303	yaw rate:	-1.101	Roll:	0.255	Pitch:	0.431	Yaw:	-3.734	Thrust:	0.000
Time:	1.130	Roll Set Point:	-0.016	Pitch Set Point:	-0.027	Yaw Set Point:	0.040	X_WP:	0.000	Y_WP:	0.000	Y_WP:	0.000	X:	0.008	Y:	0.013	Z:	0.057	yaw:	-2.296	yaw rate:	-0.624	Roll:	0.238	Pitch:	0.427	Yaw:	-3.993	Thrust:	0.000
Time:	1.155	Roll Set Point:	-0.016	Pitch Set Point:	-0.027	Yaw Set Point:	0.040	X_WP:	0.000	Y_WP:	0.000	Y_WP:	0.000	X:	0.008	Y:	0.013	Z:	0.057	yaw:	-2.305	yaw rate:	0.846	Roll:	0.243	Pitch:	0.434	Yaw:	-4.394	Thrust:	0.000
Time:	1.170	Roll Set Point:	-0.016	Pitch Set Point:	-0.027	Yaw Set Point:	0.040	X_WP:	0.000	Y_WP:	0.000	Y_WP:	0.000	X:	0.008	Y:	0.013	Z:	0.057	yaw:	-2.307	yaw rate:	0.163	Roll:	0.241	Pitch:	0.435	Yaw:	-3.961	Thrust:	0.000
Time:	1.191	Roll Set Point:	-0.016	Pitch Set Point:	-0.027	Yaw Set Point:	0.040	X_WP:	0.000	Y_WP:	0.000	Y_WP:	0.000	X:	0.008	Y:	0.013	Z:	0.057	yaw:	-2.306	yaw rate:	-0.058	Roll:	0.237	Pitch:	0.421	Yaw:	-4.118	Thrust:	0.000
Time:	1.214	Roll Set Point:	-0.016	Pitch Set Point:	-0.027	Yaw Set Point:	0.040	X_WP:	0.000	Y_WP:	0.000	Y_WP:	0.000	X:	0.008	Y:	0.013	Z:	0.057	yaw:	-2.305	yaw rate:	-0.093	Roll:	0.254	Pitch:	0.449	Yaw:	-4.355	Thrust:	0.000
Time:	1.232	Roll Set Point:	-0.016	Pitch Set Point:	-0.027	Yaw Set Point:	0.040	X_WP:	0.000	Y_WP:	0.000	Y_WP:	0.000	X:	0.008	Y:	0.013	Z:	0.057	yaw:	-2.304	yaw rate:	-0.107	Roll:	0.245	Pitch:	0.432	Yaw:	-4.049	Thrust:	0.000
Time:	1.251	Roll Set Point:	-0.016	Pitch Set Point:	-0.027	Yaw Set Point:	0.040	X_WP:	0.000	Y_WP:	0.000	Y_WP:	0.000	X:	0.008	Y:	0.013	Z:	0.057	yaw:	-2.302	yaw rate:	-0.191	Roll:	0.231	Pitch:	0.433	Yaw:	-4.123	Thrust:	0.000
Time:	1.270	Roll Set Point:	-0.016	Pitch Set Point:	-0.027	Yaw Set Point:	0.040	X_WP:	0.000	Y_WP:	0.000	Y_WP:	0.000	X:	0.008	Y:	0.013	Z:	0.057	yaw:	-2.303	yaw rate:	0.138	Roll:	0.241	Pitch:	0.431	Yaw:	-4.222	Thrust:	0.000
Time:	1.295	Roll Set Point:	-0.016	Pitch Set Point:	-0.027	Yaw Set Point:	0.040	X_WP:	0.000	Y_WP:	0.000	Y_WP:	0.000	X:	0.008	Y:	0.013	Z:	0.057	yaw:	-2.299	yaw rate:	-0.395	Roll:	0.258	Pitch:	0.449	Yaw:	-4.364	Thrust:	0.000
Time:	1.311	Roll Set Point:	-0.016	Pitch Set Point:	-0.027	Yaw Set Point:	0.040	X_WP:	0.000	Y_WP:	0.000	Y_WP:	0.000	X:	0.008	Y:	0.013	Z:	0.057	yaw:	-2.303	yaw rate:	0.343	Roll:	0.230	Pitch:	0.430	Yaw:	-4.147	Thrust:	0.000
Time:	1.330	Roll Set Point:	-0.016	Pitch Set Point:	-0.027	Yaw Set Point:	0.040	X_WP:	0.000	Y_WP:	0.000	Y_WP:	0.000	X:	0.008	Y:	0.013	Z:	0.057	yaw:	-2.305	yaw rate:	0.204	Roll:	0.247	Pitch:	0.434	Yaw:	-4.268	Thrust:	0.000
Time:	1.354	Roll Set Point:	-0.016	Pitch Set Point:	-0.027	Yaw Set Point:	0.040	X_WP:	0.000	Y_WP:	0.000	Y_WP:	0.000	X:	0.008	Y:	0.013	Z:	0.057	yaw:	-2.313	yaw rate:	0.849	Roll:	0.252	Pitch:	0.443	Yaw:	-4.546	Thrust:	0.000
Time:	1.370	Roll Set Point:	-0.016	Pitch Set Point:	-0.027	Yaw Set Point:	0.040	X_WP:	0.000	Y_WP:	0.000	Y_WP:	0.000	X:	0.008	Y:	0.013	Z:	0.057	yaw:	-2.302	yaw rate:	-1.099	Roll:	0.243	Pitch:	0.432	Yaw:	-3.964	Thrust:	0.000
Time:	1.390	Roll Set Point:	-0.016	Pitch Set Point:	-0.027	Yaw Set Point:	0.040	X_WP:	0.000	Y_WP:	0.000	Y_WP:	0.000	X:	0.008	Y:	0.013	Z:	0.057	yaw:	-2.304	yaw rate:	0.115	Roll:	0.249	Pitch:	0.445	Yaw:	-4.275	Thrust:	0.000
Time:	1.412	Roll Set Point:	-0.016	Pitch Set Point:	-0.027	Yaw Set Point:	0.040	X_WP:	0.000	Y_WP:	0.000	Y_WP:	0.000	X:	0.008	Y:	0.013	Z:	0.057	yaw:	-2.309	yaw rate:	0.490	Roll:	0.247	Pitch:	0.445	Yaw:	-4.534	Thrust:	0.000
Time:	1.431	Roll Set Point:	-0.016	Pitch Set Point:	-0.027	Yaw Set Point:	0.040	X_WP:	0.000	Y_WP:	0.000	Y_WP:	0.000	X:	0.008	Y:	0.013	Z:	0.057	yaw:	-2.305	yaw rate:	-0.340	Roll:	0.242	Pitch:	0.426	Yaw:	-4.231	Thrust:	0.000
Time:	1.451	Roll Set Point:	-0.016	Pitch Set Point:	-0.027	Yaw Set Point:	0.040	X_WP:	0.000	Y_WP:	0.000	Y_WP:	0.000	X:	0.008	Y:	0.013	Z:	0.057	yaw:	-2.309	yaw rate:	0.366	Roll:	0.245	Pitch:	0.442	Yaw:	-4.425	Thrust:	0.000
Time:	1.471	Roll Set Point:	-0.016	Pitch Set Point:	-0.027	Yaw Set Point:	0.040	X_WP:	0.000	Y_WP:	0.000	Y_WP:	0.000	X:	0.008	Y:	0.013	Z:	0.057	yaw:	-2.310	yaw rate:	0.105	Roll:	0.256	Pitch:	0.451	Yaw:	-4.344	Thrust:	0.000
Time:	1.495	Roll Set Point:	-0.016	Pitch Set Point:	-0.027	Yaw Set Point:	0.040	X_WP:	0.000	Y_WP:	0.000	Y_WP:	0.000	X:	0.008	Y:	0.013	Z:	0.057	yaw:	-2.307	yaw rate:	-0.237	Roll:	0.251	Pitch:	0.448	Yaw:	-4.665	Thrust:	0.000
Time:	1.511	Roll Set Point:	-0.016	Pitch Set Point:	-0.027	Yaw Set Point:	0.040	X_WP:	0.000	Y_WP:	0.000	Y_WP:	0.000	X:	0.008	Y:	0.013	Z:	0.057	yaw:	-2.312	yaw rate:	0.417	Roll:	0.234	Pitch:	0.440	Yaw:	-4.253	Thrust:	0.000
Time:	1.530	Roll Set Point:	-0.016	Pitch Set Point:	-0.027	Yaw Set Point:	0.040	X_WP:	0.000	Y_WP:	0.000	Y_WP:	0.000	X:	0.008	Y:	0.013	Z:	0.057	yaw:	-2.305	yaw rate:	-0.666	Roll:	0.254	Pitch:	0.440	Yaw:	-4.260	Thrust:	0.000
Time:	1.556	Roll Set Point:	-0.016	Pitch Set Point:	-0.027	Yaw Set Point:	0.040	X_WP:	0.000	Y_WP:	0.000	Y_WP:	0.000	X:	0.008	Y:	0.013	Z:	0.057	yaw:	-2.304	yaw rate:	-0.105	Roll:	0.256	Pitch:	0.461	Yaw:	-4.710	Thrust:	0.000
Time:	1.570	Roll Set Point:	-0.016	Pitch Set Point:	-0.027	Yaw Set Point:	0.040	X_WP:	0.000	Y_WP:	0.000	Y_WP:	0.000	X:	0.008	Y:	0.013	Z:	0.057	yaw:	-2.307	yaw rate:	0.322	Roll:	0.243	Pitch:	0.419	Yaw:	-4.239	Thrust:	0.000
Time:	1.590	Roll Set Point:	-0.016	Pitch Set Point:	-0.027	Yaw Set Point:	0.040	X_WP:	0.000	Y_WP:	0.000	Y_WP:	0.000	X:	0.008	Y:	0.013	Z:	0.057	yaw:	-2.305	yaw rate:	-0.206	Roll:	0.258	Pitch:	0.454	Yaw:	-4.463	Thrust:	0.000
Time:	1.613	Roll Set Point:	-0.016	Pitch Set Point:	-0.027	Yaw Set Point:	0.040	X_WP:	0.000	Y_WP:	0.000	Y_WP:	0.000	X:	0.008	Y:	0.013	Z:	0.057	yaw:	-2.301	yaw rate:	-0.402	Roll:	0.245	Pitch:	0.463	Yaw:	-4.567	Thrust:	0.000
Time:	1.631	Roll Set Point:	-0.016	Pitch Set Point:	-0.027	Yaw Set Point:	0.040	X_WP:	0.000	Y_WP:	0.000	Y_WP:	0.000	X:	0.008	Y:	0.013	Z:	0.057	yaw:	-2.303	yaw rate:	0.153	Roll:	0.247	Pitch:	0.432	Yaw:	-4.381	Thrust:	0.000
Time:	1.650	Roll Set Point:	-0.016	Pitch Set Point:	-0.027	Yaw Set Point:	0.040	X_WP:	0.000	Y_WP:	0.000	Y_WP:	0.000	X:	0.008	Y:	0.013	Z:	0.057	yaw:	-2.304	yaw rate:	0.188	Roll:	0.257	Pitch:	0.450	Yaw:	-4.549	Thrust:	0.000
Time:	1.670	Roll Set Point:	-0.016	Pitch Set Point:	-0.027	Yaw Set Point:	0.040	X_WP:	0.000	Y_WP:	0.000	Y_WP:	0.000	X:	0.008	Y:	0.013	Z:	0.057	yaw:	-2.303	yaw rate:	-0.184	Roll:	0.264	Pitch:	0.444	Yaw:	-4.517	Thrust:	0.000
Time:	1.692	Roll Set Point:	-0.016	Pitch Set Point:	-0.027	Yaw Set Point:	0.040	X_WP:	0.000	Y_WP:	0.000	Y_WP:	0.000	X:	0.008	Y:	0.013	Z:	0.057	yaw:	-2.299	yaw rate:	-0.363	Roll:	0.239	Pitch:	0.460	Yaw:	-4.539	Thrust:	0.000
Time:	1.710	Roll Set Point:	-0.016	Pitch Set Point:	-0.027	Yaw Set Point:	0.040	X_WP:	0.000	Y_WP:	0.000	Y_WP:	0.000	X:	0.008	Y:	0.013	Z:	0.057	yaw:	-2.306	yaw rate:	0.685	Roll:	0.250	Pitch:	0.444	Yaw:	-4.630	Thrust:	0.000
Time:	1.731	Roll Set Point:	-0.016	Pitch Set Point:	-0.027	Yaw Set Point:	0.040	X_WP:	0.000	Y_WP:	0.000	Y_WP:	0.000	X:	0.008	Y:	0.013	Z:	0.057	yaw:	-2.300	yaw rate:	-0.545	Roll:	0.274	Pitch:	0.456	Yaw:	-4.520	Thrust:	0.000
Time:	1.755	Roll Set Point:	-0.016	Pitch Set Point:	-0.027	Yaw Set Point:	0.040	X_WP:	0.000	Y_WP:	0.000	Y_WP:	0.000	X:	0.008	Y:	0.013	Z:	0.057	yaw:	-2.310	yaw rate:	0.977	Roll:	0.246	Pitch:	0.454	Yaw:	-4.983	Thrust:	0.000
Time:	1.770	Roll Set Point:	-0.016	Pitch Set Point:	-0.027	Yaw Set Point:	0.040	X_WP:	0.000	Y_WP:	0.000	Y_WP:	0.000	X:	0.008	Y:	0.013	Z:	0.057	yaw:	-2.304	yaw rate:	-0.572	Roll:	0.243	Pitch:	0.448	Yaw:	-4.246	Thrust:	0.000
Time:	1.791	Roll Set Point:	-0.016	Pitch Set Point:	-0.027	Yaw Set Point:	0.040	X_WP:	0.000	Y_WP:	0.000	Y_WP:	0.000	X:	0.008	Y:	0.013	Z:	0.057	yaw:	-2.307	yaw rate:	0.216	Roll:	0.262	Pitch:	0.446	Yaw:	-4.599	Thrust:	0.000
Time:	1.814	Roll Set Point:	-0.016	Pitch Set Point:	-0.027	Yaw Set Point:	0.040	X_WP:	0.000	Y_WP:	0.000	Y_WP:	0.000	X:	0.008	Y:	0.013	Z:	0.057	yaw:	-2.311	yaw rate:	0.395	Roll:	0.262	Pitch:	0.467	Yaw:	-4.962	Thrust:	0.000
Time:	1.832	Roll Set Point:	-0.016	Pitch Set Point:	-0.027	Yaw Set Point:	0.040	X_WP:	0.000	Y_WP:	0.000	Y_WP:	0.000	X:	0.008	Y:	0.013	Z:	0.057	yaw:	-2.310	yaw rate:	-0.022	Roll:	0.249	Pitch:	0.446	Yaw:	-4.567	Thrust:	0.000
Time:	1.850	Roll Set Point:	-0.016	Pitch Set Point:	-0.027	Yaw Set Point:	0.040	X_WP:	0.000	Y_WP:	0.000	Y_WP:	0.000	X:	0.008	Y:	0.013	Z:	0.057	yaw:	-2.304	yaw rate:	-0.669	Roll:	0.242	Pitch:	0.458	Yaw:	-4.459	Thrust:	0.000
Time:	1.870	Roll Set Point:	-0.016	Pitch Set Point:	-0.027	Yaw Set Point:	0.040	X_WP:	0.000	Y_WP:	0.000	Y_WP:	0.000	X:	0.008	Y:	0.013	Z:	0.057	yaw:	-2.302	yaw rate:	-0.135	Roll:	0.274	Pitch:	0.456	Yaw:	-4.684	Thrust:	0.000
Time:	1.895	Roll Set Point:	-0.016	Pitch Set Point:	-0.027	Yaw Set Point:	0.040	X_WP:	0.000	Y_WP:	0.000	Y_WP:	0.000	X:	0.008	Y:	0.013	Z:	0.057	yaw:	-2.307	yaw rate:	0.469	Roll:	0.244	Pitch:	0.469	Yaw:	-5.040	Thrust:	0.000
Time:	1.915	Roll Set Point:	-0.016	Pitch Set Point:	-0.027	Yaw Set Point:	0.040	X_WP:	0.000	Y_WP:	0.000	Y_WP:	0.000	X:	0.008	Y:	0.013	Z:	0.057	yaw:	-2.310	yaw rate:	0.304	Roll:	0.259	Pitch:	0.456	Yaw:	-4.855	Thrust:	0.000
Time:	1.931	Roll Set Point:	-0.016	Pitch Set Point:	-0.027	Yaw Set Point:	0.040	X_WP:	0.000	Y_WP:	0.000	Y_WP:	0.000	X:	0.008	Y:	0.013	Z:	0.057	yaw:	-2.303	yaw rate:	-0.727	Roll:	0.265	Pitch:	0.450	Yaw:	-4.284	Thrust:	0.000
Time:	1.956	Roll Set Point:	-0.016	Pitch Set Point:	-0.027	Yaw Set Point:	0.040	X_WP:	0.000	Y_WP:	0.000	Y_WP:	0.000	X:	0.008	Y:	0.013	Z:	0.057	yaw:	-2.302	yaw rate:	-0.100	Roll:	0.264	Pitch:	0.468	Yaw:	-5.132	Thrust:	0.000
Time:	1.970	Roll Set Point:	-0.016	Pitch Set Point:	-0.027	Yaw Set Point:	0.040	X_WP:	0.000	Y_WP:	0.000	Y_WP:	0.000	X:	0.008	Y:	0.013	Z:	0.057	yaw:	-2.309	yaw rate:	0.692	Roll:	0.224	Pitch:	0.454	Yaw:	-4.483	Thrust:	0.000
Time:	1.991	Roll Set Point:	-0.016	Pitch Set Point:	-0.027	Yaw Set Point:	0.040	X_WP:	0.000	Y_WP:	0.000	Y_WP:	0.000	X:	0.008	Y:	0.013	Z:	0.057	yaw:	-2.298	yaw rate:	-1.041	Roll:	0.280	Pitch:	0.467	Yaw:	-4.714	Thrust:	0.000
Time:	2.013	Roll Set Point:	-0.016	Pitch Set Point:	-0.027	Yaw Set Point:	0.040	X_WP:	0.000	Y_WP:	0.000	Y_WP:	0.000	X:	0.008	Y:	0.013	Z:	0.057	yaw:	-2.302	yaw rate:	0.380	Roll:	0.249	Pitch:	0.459	Yaw:	-5.017	Thrust:	0.000
Time:	2.032	Roll Set Point:	-0.016	Pitch Set Point:	-0.027	Yaw Set Point:	0.040	X_WP:	0.000	Y_WP:	0.000	Y_WP:	0.000	X:	0.008	Y:	0.013	Z:	0.057	yaw:	-2.304	yaw rate:	0.178	Roll:	0.259	Pitch:	0.465	Yaw:	-4.740	Thrust:	0.000
Time:	2.051	Roll Set Point:	-0.016	Pitch Set Point:	-0.027	Yaw Set Point:	0.040	X_WP:	0.000	Y_WP:	0.000	Y_WP:	0.000	X:	0.008	Y:	0.013	Z:	0.057	yaw:	-2.302	yaw rate:	-0.143	Roll:	0.266	Pitch:	0.458	Yaw:	-4.794	Thrust:	0.000
Time:	2.070	Roll Set Point:	-0.016	Pitch Set Point:	-0.027	Yaw Set Point:	0.040	X_WP:	0.000	Y_WP:	0.000	Y_WP:	0.000	X:	0.008	Y:	0.013	Z:	0.057	yaw:	-2.299	yaw rate:	-0.303	Roll:	0.258	Pitch:	0.450	Yaw:	-4.739	Thrust:	0.000
Time:	2.096	Roll Set Point:	-0.016	Pitch Set Point:	-0.027	Yaw Set Point:	0.040	X_WP:	0.000	Y_WP:	0.000	Y_WP:	0.000	X:	0.008	Y:	0.013	Z:	0.057	yaw:	-2.313	yaw rate:	1.407	Roll:	0.257	Pitch:	0.488	Yaw:	-5.419	Thrust:	0.000
Time:	2.111	Roll Set Point:	-0.016	Pitch Set Point:	-0.027	Yaw Set Point:	0.040	X_WP:	0.000	Y_WP:	0.000	Y_WP:	0.000	X:	0.008	Y:	0.013	Z:	0.057	yaw:	-2.313	yaw rate:	-0.062	Roll:	0.268	Pitch:	0.444	Yaw:	-4.605	Thrust:	0.000
Time:	2.130	Roll Set Point:	-0.016	Pitch Set Point:	-0.027	Yaw Set Point:	0.040	X_WP:	0.000	Y_WP:	0.000	Y_WP:	0.000	X:	0.008	Y:	0.013	Z:	0.057	yaw:	-2.310	yaw rate:	-0.259	Roll:	0.252	Pitch:	0.459	Yaw:	-4.812	Thrust:	0.000
Time:	2.157	Roll Set Point:	-0.016	Pitch Set Point:	-0.027	Yaw Set Point:	0.040	X_WP:	0.000	Y_WP:	0.000	Y_WP:	0.000	X:	0.008	Y:	0.013	Z:	0.057	yaw:	-2.308	yaw rate:	-0.262	Roll:	0.272	Pitch:	0.481	Yaw:	-5.290	Thrust:	0.000
Time:	2.170	Roll Set Point:	-0.016	Pitch Set Point:	-0.027	Yaw Set Point:	0.040	X_WP:	0.000	Y_WP:	0.000	Y_WP:	0.000	X:	0.008	Y:	0.013	Z:	0.057	yaw:	-2.312	yaw rate:	0.438	Roll:	0.254	Pitch:	0.443	Yaw:	-4.599	Thrust:	0.000
Time:	2.190	Roll Set Point:	-0.016	Pitch Set Point:	-0.027	Yaw Set Point:	0.040	X_WP:	0.000	Y_WP:	0.000	Y_WP:	0.000	X:	0.008	Y:	0.013	Z:	0.057	yaw:	-2.305	yaw rate:	-0.710	Roll:	0.260	Pitch:	0.485	Yaw:	-4.879	Thrust:	0.000
Time:	2.214	Roll Set Point:	-0.016	Pitch Set Point:	-0.027	Yaw Set Point:	0.040	X_WP:	0.000	Y_WP:	0.000	Y_WP:	0.000	X:	0.008	Y:	0.013	Z:	0.057	yaw:	-2.308	yaw rate:	0.263	Roll:	0.271	Pitch:	0.468	Yaw:	-5.276	Thrust:	0.000
Time:	2.231	Roll Set Point:	-0.016	Pitch Set Point:	-0.027	Yaw Set Point:	0.040	X_WP:	0.000	Y_WP:	0.000	Y_WP:	0.000	X:	0.008	Y:	0.013	Z:	0.057	yaw:	-2.303	yaw rate:	-0.501	Roll:	0.249	Pitch:	0.460	Yaw:	-4.695	Thrust:	0.000
Time:	2.250	Roll Set Point:	-0.016	Pitch Set Point:	-0.027	Yaw Set Point:	0.040	X_WP:	0.000	Y_WP:	0.000	Y_WP:	0.000	X:	0.008	Y:	0.013	Z:	0.057	yaw:	-2.308	yaw rate:	0.586	Roll:	0.267	Pitch:	0.466	Yaw:	-5.055	Thrust:	0.000
Time:	2.270	Roll Set Point:	-0.016	Pitch Set Point:	-0.027	Yaw Set Point:	0.040	X_WP:	0.000	Y_WP:	0.000	Y_WP:	0.000	X:	0.008	Y:	0.013	Z:	0.057	yaw:	-2.308	yaw rate:	-0.039	Roll:	0.265	Pitch:	0.472	Yaw:	-4.985	Thrust:	0.000
Time:	2.294	Roll Set Point:	-0.016	Pitch Set Point:	-0.027	Yaw Set Point:	0.040	X_WP:	0.000	Y_WP:	0.000	Y_WP:	0.000	X:	0.008	Y:	0.013	Z:	0.057	yaw:	-2.308	yaw rate:	-0.007	Roll:	0.265	Pitch:	0.478	Yaw:	-5.284	Thrust:	0.000
Time:	2.311	Roll Set Point:	-0.016	Pitch Set Point:	-0.027	Yaw Set Point:	0.040	X_WP:	0.000	Y_WP:	0.000	Y_WP:	0.000	X:	0.008	Y:	0.013	Z:	0.057	yaw:	-2.310	yaw rate:	0.238	Roll:	0.256	Pitch:	0.465	Yaw:	-4.920	Thrust:	0.000
Time:	2.330	Roll Set Point:	-0.016	Pitch Set Point:	-0.027	Yaw Set Point:	0.040	X_WP:	0.000	Y_WP:	0.000	Y_WP:	0.000	X:	0.008	Y:	0.013	Z:	0.057	yaw:	-2.301	yaw rate:	-0.907	Roll:	0.275	Pitch:	0.476	Yaw:	-4.909	Thrust:	0.000
Time:	2.360	Roll Set Point:	-0.016	Pitch Set Point:	-0.027	Yaw Set Point:	0.040	X_WP:	0.000	Y_WP:	0.000	Y_WP:	0.000	X:	0.008	Y:	0.013	Z:	0.057	yaw:	-2.304	yaw rate:	0.286	Roll:	0.265	Pitch:	0.480	Yaw:	-5.587	Thrust:	0.000
Time:	2.372	Roll Set Point:	-0.016	Pitch Set Point:	-0.027	Yaw Set Point:	0.040	X_WP:	0.000	Y_WP:	0.000	Y_WP:	0.000	X:	0.008	Y:	0.013	Z:	0.057	yaw:	-2.311	yaw rate:	0.642	Roll:	0.254	Pitch:	0.471	Yaw:	-4.842	Thrust:	0.000
Time:	2.390	Roll Set Point:	-0.016	Pitch Set Point:	-0.027	Yaw Set Point:	0.040	X_WP:	0.000	Y_WP:	0.000	Y_WP:	0.000	X:	0.008	Y:	0.013	Z:	0.057	yaw:	-2.307	yaw rate:	-0.343	Roll:	0.279	Pitch:	0.456	Yaw:	-4.944	Thrust:	0.000
Time:	2.413	Roll Set Point:	-0.016	Pitch Set Point:	-0.027	Yaw Set Point:	0.040	X_WP:	0.000	Y_WP:	0.000	Y_WP:	0.000	X:	0.008	Y:	0.013	Z:	0.057	yaw:	-2.307	yaw rate:	-0.018	Roll:	0.254	Pitch:	0.485	Yaw:	-5.381	Thrust:	0.000
Time:	2.432	Roll Set Point:	-0.016	Pitch Set Point:	-0.027	Yaw Set Point:	0.040	X_WP:	0.000	Y_WP:	0.000	Y_WP:	0.000	X:	0.008	Y:	0.013	Z:	0.057	yaw:	-2.305	yaw rate:	-0.165	Roll:	0.277	Pitch:	0.478	Yaw:	-5.014	Thrust:	0.000
Time:	2.451	Roll Set Point:	-0.016	Pitch Set Point:	-0.027	Yaw Set Point:	0.040	X_WP:	0.000	Y_WP:	0.000	Y_WP:	0.000	X:	0.008	Y:	0.013	Z:	0.057	yaw:	-2.305	yaw rate:	-0.010	Roll:	0.274	Pitch:	0.467	Yaw:	-5.056	Thrust:	0.000
Time:	2.470	Roll Set Point:	-0.016	Pitch Set Point:	-0.027	Yaw Set Point:	0.040	X_WP:	0.000	Y_WP:	0.000	Y_WP:	0.000	X:	0.008	Y:	0.013	Z:	0.057	yaw:	-2.311	yaw rate:	0.574	Roll:	0.249	Pitch:	0.471	Yaw:	-5.228	Thrust:	0.000
Time:	2.494	Roll Set Point:	-0.016	Pitch Set Point:	-0.027	Yaw Set Point:	0.040	X_WP:	0.000	Y_WP:	0.000	Y_WP:	0.000	X:	0.008	Y:	0.013	Z:	0.057	yaw:	-2.307	yaw rate:	-0.350	Roll:	0.270	Pitch:	0.492	Yaw:	-5.393	Thrust:	0.000
Time:	2.511	Roll Set Point:	-0.016	Pitch Set Point:	-0.027	Yaw Set Point:	0.040	X_WP:	0.000	Y_WP:	0.000	Y_WP:	0.000	X:	0.008	Y:	0.013	Z:	0.057	yaw:	-2.305	yaw rate:	-0.293	Roll:	0.274	Pitch:	0.474	Yaw:	-4.979	Thrust:	0.000
Time:	2.531	Roll Set Point:	-0.016	Pitch Set Point:	-0.027	Yaw Set Point:	0.040	X_WP:	0.000	Y_WP:	0.000	Y_WP:	0.000	X:	0.008	Y:	0.013	Z:	0.057	yaw:	-2.306	yaw rate:	0.169	Roll:	0.267	Pitch:	0.469	Yaw:	-5.156	Thrust:	0.000
Time:	2.557	Roll Set Point:	-0.016	Pitch Set Point:	-0.027	Yaw Set Point:	0.040	X_WP:	0.000	Y_WP:	0.000	Y_WP:	0.000	X:	0.008	Y:	0.013	Z:	0.057	yaw:	-2.307	yaw rate:	0.042	Roll:	0.265	Pitch:	0.495	Yaw:	-5.866	Thrust:	0.000
Time:	2.570	Roll Set Point:	-0.016	Pitch Set Point:	-0.027	Yaw Set Point:	0.040	X_WP:	0.000	Y_WP:	0.000	Y_WP:	0.000	X:	0.008	Y:	0.013	Z:	0.057	yaw:	-2.304	yaw rate:	-0.294	Roll:	0.283	Pitch:	0.474	Yaw:	-4.543	Thrust:	0.000
Time:	2.589	Roll Set Point:	-0.016	Pitch Set Point:	-0.027	Yaw Set Point:	0.040	X_WP:	0.000	Y_WP:	0.000	Y_WP:	0.000	X:	0.008	Y:	0.013	Z:	0.057	yaw:	-2.302	yaw rate:	-0.153	Roll:	0.264	Pitch:	0.472	Yaw:	-5.262	Thrust:	0.000
Time:	2.611	Roll Set Point:	-0.016	Pitch Set Point:	-0.027	Yaw Set Point:	0.040	X_WP:	0.000	Y_WP:	0.000	Y_WP:	0.000	X:	0.008	Y:	0.013	Z:	0.057	yaw:	-2.305	yaw rate:	0.289	Roll:	0.268	Pitch:	0.492	Yaw:	-5.442	Thrust:	0.000
Time:	2.631	Roll Set Point:	-0.016	Pitch Set Point:	-0.027	Yaw Set Point:	0.040	X_WP:	0.000	Y_WP:	0.000	Y_WP:	0.000	X:	0.008	Y:	0.013	Z:	0.057	yaw:	-2.306	yaw rate:	0.082	Roll:	0.269	Pitch:	0.472	Yaw:	-5.435	Thrust:	0.000
Time:	2.649	Roll Set Point:	-0.016	Pitch Set Point:	-0.027	Yaw Set Point:	0.040	X_WP:	0.000	Y_WP:	0.000	Y_WP:	0.000	X:	0.008	Y:	0.013	Z:	0.057	yaw:	-2.304	yaw rate:	-0.195	Roll:	0.265	Pitch:	0.479	Yaw:	-5.086	Thrust:	0.000
Time:	2.670	Roll Set Point:	-0.016	Pitch Set Point:	-0.027	Yaw Set Point:	0.040	X_WP:	0.000	Y_WP:	0.000	Y_WP:	0.000	X:	0.008	Y:	0.013	Z:	0.057	yaw:	-2.307	yaw rate:	0.345	Roll:	0.285	Pitch:	0.485	Yaw:	-5.351	Thrust:	0.000
Time:	2.691	Roll Set Point:	-0.016	Pitch Set Point:	-0.027	Yaw Set Point:	0.040	X_WP:	0.000	Y_WP:	0.000	Y_WP:	0.000	X:	0.008	Y:	0.013	Z:	0.057	yaw:	-2.302	yaw rate:	-0.503	Roll:	0.262	Pitch:	0.492	Yaw:	-5.524	Thrust:	0.000
Time:	2.711	Roll Set Point:	-0.016	Pitch Set Point:	-0.027	Yaw Set Point:	0.040	X_WP:	0.000	Y_WP:	0.000	Y_WP:	0.000	X:	0.008	Y:	0.013	Z:	0.057	yaw:	-2.305	yaw rate:	0.271	Roll:	0.275	Pitch:	0.480	Yaw:	-5.364	Thrust:	0.000
Time:	2.730	Roll Set Point:	-0.016	Pitch Set Point:	-0.027	Yaw Set Point:	0.040	X_WP:	0.000	Y_WP:	0.000	Y_WP:	0.000	X:	0.008	Y:	0.013	Z:	0.057	yaw:	-2.297	yaw rate:	-0.775	Roll:	0.274	Pitch:	0.486	Yaw:	-5.170	Thrust:	0.000
Time:	2.755	Roll Set Point:	-0.016	Pitch Set Point:	-0.027	Yaw Set Point:	0.040	X_WP:	0.000	Y_WP:	0.000	Y_WP:	0.000	X:	0.008	Y:	0.013	Z:	0.057	yaw:	-2.312	yaw rate:	1.444	Roll:	0.276	Pitch:	0.505	Yaw:	-6.070	Thrust:	0.000
Time:	2.771	Roll Set Point:	-0.016	Pitch Set Point:	-0.027	Yaw Set Point:	0.040	X_WP:	0.000	Y_WP:	0.000	Y_WP:	0.000	X:	0.008	Y:	0.013	Z:	0.057	yaw:	-2.303	yaw rate:	-0.878	Roll:	0.269	Pitch:	0.475	Yaw:	-4.960	Thrust:	0.000
Time:	2.789	Roll Set Point:	-0.016	Pitch Set Point:	-0.027	Yaw Set Point:	0.040	X_WP:	0.000	Y_WP:	0.000	Y_WP:	0.000	X:	0.008	Y:	0.013	Z:	0.057	yaw:	-2.300	yaw rate:	-0.300	Roll:	0.271	Pitch:	0.475	Yaw:	-5.181	Thrust:	0.000
Time:	2.813	Roll Set Point:	-0.016	Pitch Set Point:	-0.027	Yaw Set Point:	0.040	X_WP:	0.000	Y_WP:	0.000	Y_WP:	0.000	X:	0.008	Y:	0.013	Z:	0.057	yaw:	-2.307	yaw rate:	0.748	Roll:	0.266	Pitch:	0.491	Yaw:	-5.865	Thrust:	0.000
Time:	2.831	Roll Set Point:	-0.016	Pitch Set Point:	-0.027	Yaw Set Point:	0.040	X_WP:	0.000	Y_WP:	0.000	Y_WP:	0.000	X:	0.008	Y:	0.013	Z:	0.057	yaw:	-2.303	yaw rate:	-0.430	Roll:	0.281	Pitch:	0.498	Yaw:	-5.268	Thrust:	0.000
Time:	2.851	Roll Set Point:	-0.016	Pitch Set Point:	-0.027	Yaw Set Point:	0.040	X_WP:	0.000	Y_WP:	0.000	Y_WP:	0.000	X:	0.008	Y:	0.013	Z:	0.057	yaw:	-2.307	yaw rate:	0.425	Roll:	0.274	Pitch:	0.474	Yaw:	-5.450	Thrust:	0.000
Time:	2.870	Roll Set Point:	-0.016	Pitch Set Point:	-0.027	Yaw Set Point:	0.040	X_WP:	0.000	Y_WP:	0.000	Y_WP:	0.000	X:	0.008	Y:	0.013	Z:	0.057	yaw:	-2.306	yaw rate:	-0.101	Roll:	0.277	Pitch:	0.494	Yaw:	-5.489	Thrust:	0.000
Time:	2.892	Roll Set Point:	-0.016	Pitch Set Point:	-0.027	Yaw Set Point:	0.040	X_WP:	0.000	Y_WP:	0.000	Y_WP:	0.000	X:	0.008	Y:	0.013	Z:	0.057	yaw:	-2.304	yaw rate:	-0.190	Roll:	0.272	Pitch:	0.502	Yaw:	-5.732	Thrust:	0.000
Time:	2.910	Roll Set Point:	-0.016	Pitch Set Point:	-0.027	Yaw Set Point:	0.040	X_WP:	0.000	Y_WP:	0.000	Y_WP:	0.000	X:	0.008	Y:	0.013	Z:	0.057	yaw:	-2.301	yaw rate:	-0.347	Roll:	0.283	Pitch:	0.499	Yaw:	-5.253	Thrust:	0.000
Time:	2.930	Roll Set Point:	-0.016	Pitch Set Point:	-0.027	Yaw Set Point:	0.040	X_WP:	0.000	Y_WP:	0.000	Y_WP:	0.000	X:	0.008	Y:	0.013	Z:	0.057	yaw:	-2.303	yaw rate:	0.150	Roll:	0.279	Pitch:	0.477	Yaw:	-5.532	Thrust:	0.000
Time:	2.955	Roll Set Point:	-0.016	Pitch Set Point:	-0.027	Yaw Set Point:	0.040	X_WP:	0.000	Y_WP:	0.000	Y_WP:	0.000	X:	0.008	Y:	0.013	Z:	0.057	yaw:	-2.303	yaw rate:	0.003	Roll:	0.270	Pitch:	0.511	Yaw:	-6.111	Thrust:	0.000
Time:	2.971	Roll Set Point:	-0.016	Pitch Set Point:	-0.027	Yaw Set Point:	0.040	X_WP:	0.000	Y_WP:	0.000	Y_WP:	0.000	X:	0.008	Y:	0.013	Z:	0.057	yaw:	-2.306	yaw rate:	0.299	Roll:	0.276	Pitch:	0.473	Yaw:	-5.050	Thrust:	0.000
Time:	2.990	Roll Set Point:	-0.016	Pitch Set Point:	-0.027	Yaw Set Point:	0.040	X_WP:	0.000	Y_WP:	0.000	Y_WP:	0.000	X:	0.008	Y:	0.013	Z:	0.057	yaw:	-2.308	yaw rate:	0.285	Roll:	0.265	Pitch:	0.480	Yaw:	-5.700	Thrust:	0.000
Time:	3.013	Roll Set Point:	-0.016	Pitch Set Point:	-0.027	Yaw Set Point:	0.040	X_WP:	0.000	Y_WP:	0.000	Y_WP:	0.000	X:	0.008	Y:	0.013	Z:	0.057	yaw:	-2.303	yaw rate:	-0.509	Roll:	0.296	Pitch:	0.517	Yaw:	-5.863	Thrust:	0.000
Time:	3.031	Roll Set Point:	-0.016	Pitch Set Point:	-0.027	Yaw Set Point:	0.040	X_WP:	0.000	Y_WP:	0.000	Y_WP:	0.000	X:	0.008	Y:	0.013	Z:	0.057	yaw:	-2.311	yaw rate:	0.730	Roll:	0.267	Pitch:	0.485	Yaw:	-5.455	Thrust:	0.000
Time:	3.050	Roll Set Point:	-0.016	Pitch Set Point:	-0.027	Yaw Set Point:	0.040	X_WP:	0.000	Y_WP:	0.000	Y_WP:	0.000	X:	0.008	Y:	0.013	Z:	0.057	yaw:	-2.304	yaw rate:	-0.693	Roll:	0.269	Pitch:	0.494	Yaw:	-5.539	Thrust:	0.000
Time:	3.071	Roll Set Point:	-0.016	Pitch Set Point:	-0.027	Yaw Set Point:	0.040	X_WP:	0.000	Y_WP:	0.000	Y_WP:	0.000	X:	0.008	Y:	0.013	Z:	0.057	yaw:	-2.308	yaw rate:	0.426	Roll:	0.288	Pitch:	0.502	Yaw:	-5.671	Thrust:	0.000
Time:	3.093	Roll Set Point:	-0.016	Pitch Set Point:	-0.027	Yaw Set Point:	0.040	X_WP:	0.000	Y_WP:	0.000	Y_WP:	0.000	X:	0.008	Y:	0.013	Z:	0.057	yaw:	-2.302	yaw rate:	-0.580	Roll:	0.306	Pitch:	0.510	Yaw:	-5.990	Thrust:	0.000
Time:	3.111	Roll Set Point:	-0.016	Pitch Set Point:	-0.027	Yaw Set Point:	0.040	X_WP:	0.000	Y_WP:	0.000	Y_WP:	0.000	X:	0.008	Y:	0.013	Z:	0.057	yaw:	-2.302	yaw rate:	0.012	Roll:	0.236	Pitch:	0.484	Yaw:	-5.448	Thrust:	0.000
Time:	3.131	Roll Set Point:	-0.016	Pitch Set Point:	-0.027	Yaw Set Point:	0.040	X_WP:	0.000	Y_WP:	0.000	Y_WP:	0.000	X:	0.008	Y:	0.013	Z:	0.057	yaw:	-2.305	yaw rate:	0.307	Roll:	0.283	Pitch:	0.498	Yaw:	-5.626	Thrust:	0.000
Time:	3.155	Roll Set Point:	-0.016	Pitch Set Point:	-0.027	Yaw Set Point:	0.040	X_WP:	0.000	Y_WP:	0.000	Y_WP:	0.000	X:	0.008	Y:	0.013	Z:	0.057	yaw:	-2.303	yaw rate:	-0.206	Roll:	0.301	Pitch:	0.517	Yaw:	-6.243	Thrust:	0.000
Time:	3.173	Roll Set Point:	-0.016	Pitch Set Point:	-0.027	Yaw Set Point:	0.040	X_WP:	0.000	Y_WP:	0.000	Y_WP:	0.000	X:	0.008	Y:	0.013	Z:	0.057	yaw:	-2.308	yaw rate:	0.511	Roll:	0.264	Pitch:	0.488	Yaw:	-5.639	Thrust:	0.000
Time:	3.190	Roll Set Point:	-0.016	Pitch Set Point:	-0.027	Yaw Set Point:	0.040	X_WP:	0.000	Y_WP:	0.000	Y_WP:	0.000	X:	0.008	Y:	0.013	Z:	0.057	yaw:	-2.303	yaw rate:	-0.541	Roll:	0.283	Pitch:	0.500	Yaw:	-5.376	Thrust:	0.000
Time:	3.212	Roll Set Point:	-0.016	Pitch Set Point:	-0.027	Yaw Set Point:	0.040	X_WP:	0.000	Y_WP:	0.000	Y_WP:	0.000	X:	0.008	Y:	0.013	Z:	0.057	yaw:	-2.304	yaw rate:	0.074	Roll:	0.291	Pitch:	0.502	Yaw:	-5.922	Thrust:	0.000
Time:	3.232	Roll Set Point:	-0.016	Pitch Set Point:	-0.027	Yaw Set Point:	0.040	X_WP:	0.000	Y_WP:	0.000	Y_WP:	0.000	X:	0.008	Y:	0.013	Z:	0.057	yaw:	-2.302	yaw rate:	-0.190	Roll:	0.274	Pitch:	0.502	Yaw:	-5.775	Thrust:	0.000
Time:	3.250	Roll Set Point:	-0.016	Pitch Set Point:	-0.027	Yaw Set Point:	0.040	X_WP:	0.000	Y_WP:	0.000	Y_WP:	0.000	X:	0.008	Y:	0.013	Z:	0.057	yaw:	-2.310	yaw rate:	0.799	Roll:	0.271	Pitch:	0.497	Yaw:	-5.725	Thrust:	0.000
Time:	3.270	Roll Set Point:	-0.016	Pitch Set Point:	-0.027	Yaw Set Point:	0.040	X_WP:	0.000	Y_WP:	0.000	Y_WP:	0.000	X:	0.008	Y:	0.013	Z:	0.057	yaw:	-2.309	yaw rate:	-0.080	Roll:	0.285	Pitch:	0.505	Yaw:	-5.837	Thrust:	0.000
Time:	3.292	Roll Set Point:	-0.016	Pitch Set Point:	-0.027	Yaw Set Point:	0.040	X_WP:	0.000	Y_WP:	0.000	Y_WP:	0.000	X:	0.008	Y:	0.013	Z:	0.057	yaw:	-2.300	yaw rate:	-0.917	Roll:	0.294	Pitch:	0.505	Yaw:	-6.041	Thrust:	0.000
Time:	3.311	Roll Set Point:	-0.016	Pitch Set Point:	-0.027	Yaw Set Point:	0.040	X_WP:	0.000	Y_WP:	0.000	Y_WP:	0.000	X:	0.008	Y:	0.013	Z:	0.057	yaw:	-2.305	yaw rate:	0.493	Roll:	0.273	Pitch:	0.509	Yaw:	-5.688	Thrust:	0.000
Time:	3.330	Roll Set Point:	-0.016	Pitch Set Point:	-0.027	Yaw Set Point:	0.040	X_WP:	0.000	Y_WP:	0.000	Y_WP:	0.000	X:	0.008	Y:	0.013	Z:	0.057	yaw:	-2.305	yaw rate:	0.012	Roll:	0.300	Pitch:	0.496	Yaw:	-5.747	Thrust:	0.000
Time:	3.356	Roll Set Point:	-0.016	Pitch Set Point:	-0.027	Yaw Set Point:	0.040	X_WP:	0.000	Y_WP:	0.000	Y_WP:	0.000	X:	0.008	Y:	0.013	Z:	0.057	yaw:	-2.304	yaw rate:	-0.125	Roll:	0.280	Pitch:	0.533	Yaw:	-6.571	Thrust:	0.000
Time:	3.373	Roll Set Point:	-0.016	Pitch Set Point:	-0.027	Yaw Set Point:	0.040	X_WP:	0.000	Y_WP:	0.000	Y_WP:	0.000	X:	0.008	Y:	0.013	Z:	0.057	yaw:	-2.306	yaw rate:	0.228	Roll:	0.272	Pitch:	0.495	Yaw:	-5.612	Thrust:	0.000
Time:	3.389	Roll Set Point:	-0.016	Pitch Set Point:	-0.027	Yaw Set Point:	0.040	X_WP:	0.000	Y_WP:	0.000	Y_WP:	0.000	X:	0.008	Y:	0.013	Z:	0.057	yaw:	-2.309	yaw rate:	0.284	Roll:	0.300	Pitch:	0.498	Yaw:	-5.571	Thrust:	0.000
Time:	3.414	Roll Set Point:	-0.016	Pitch Set Point:	-0.027	Yaw Set Point:	0.040	X_WP:	0.000	Y_WP:	0.000	Y_WP:	0.000	X:	0.008	Y:	0.013	Z:	0.057	yaw:	-2.297	yaw rate:	-1.190	Roll:	0.278	Pitch:	0.521	Yaw:	-6.314	Thrust:	0.000
Time:	3.432	Roll Set Point:	-0.016	Pitch Set Point:	-0.027	Yaw Set Point:	0.040	X_WP:	0.000	Y_WP:	0.000	Y_WP:	0.000	X:	0.008	Y:	0.013	Z:	0.057	yaw:	-2.300	yaw rate:	0.329	Roll:	0.287	Pitch:	0.494	Yaw:	-5.730	Thrust:	0.000
Time:	3.450	Roll Set Point:	-0.016	Pitch Set Point:	-0.027	Yaw Set Point:	0.040	X_WP:	0.000	Y_WP:	0.000	Y_WP:	0.000	X:	0.008	Y:	0.013	Z:	0.057	yaw:	-2.307	yaw rate:	0.643	Roll:	0.284	Pitch:	0.519	Yaw:	-5.911	Thrust:	0.000
Time:	3.470	Roll Set Point:	-0.016	Pitch Set Point:	-0.027	Yaw Set Point:	0.040	X_WP:	0.000	Y_WP:	0.000	Y_WP:	0.000	X:	0.008	Y:	0.013	Z:	0.057	yaw:	-2.302	yaw rate:	-0.442	Roll:	0.291	Pitch:	0.503	Yaw:	-5.940	Thrust:	0.000
Time:	3.493	Roll Set Point:	-0.016	Pitch Set Point:	-0.027	Yaw Set Point:	0.040	X_WP:	0.000	Y_WP:	0.000	Y_WP:	0.000	X:	0.008	Y:	0.013	Z:	0.057	yaw:	-2.303	yaw rate:	0.064	Roll:	0.279	Pitch:	0.516	Yaw:	-6.189	Thrust:	0.000
Time:	3.511	Roll Set Point:	-0.016	Pitch Set Point:	-0.027	Yaw Set Point:	0.040	X_WP:	0.000	Y_WP:	0.000	Y_WP:	0.000	X:	0.008	Y:	0.013	Z:	0.057	yaw:	-2.309	yaw rate:	0.627	Roll:	0.286	Pitch:	0.510	Yaw:	-6.017	Thrust:	0.000
Time:	3.530	Roll Set Point:	-0.016	Pitch Set Point:	-0.027	Yaw Set Point:	0.040	X_WP:	0.000	Y_WP:	0.000	Y_WP:	0.000	X:	0.008	Y:	0.013	Z:	0.057	yaw:	-2.303	yaw rate:	-0.564	Roll:	0.291	Pitch:	0.502	Yaw:	-5.835	Thrust:	0.000
Time:	3.556	Roll Set Point:	-0.016	Pitch Set Point:	-0.027	Yaw Set Point:	0.040	X_WP:	0.000	Y_WP:	0.000	Y_WP:	0.000	X:	0.008	Y:	0.013	Z:	0.057	yaw:	-2.306	yaw rate:	0.237	Roll:	0.305	Pitch:	0.542	Yaw:	-6.880	Thrust:	0.000
Time:	3.570	Roll Set Point:	-0.016	Pitch Set Point:	-0.027	Yaw Set Point:	0.040	X_WP:	0.000	Y_WP:	0.000	Y_WP:	0.000	X:	0.008	Y:	0.013	Z:	0.057	yaw:	-2.307	yaw rate:	0.105	Roll:	0.265	Pitch:	0.492	Yaw:	-5.310	Thrust:	0.000
Time:	3.590	Roll Set Point:	-0.016	Pitch Set Point:	-0.027	Yaw Set Point:	0.040	X_WP:	0.000	Y_WP:	0.000	Y_WP:	0.000	X:	0.008	Y:	0.013	Z:	0.057	yaw:	-2.305	yaw rate:	-0.188	Roll:	0.294	Pitch:	0.509	Yaw:	-5.926	Thrust:	0.000
Time:	3.614	Roll Set Point:	-0.016	Pitch Set Point:	-0.027	Yaw Set Point:	0.040	X_WP:	0.000	Y_WP:	0.000	Y_WP:	0.000	X:	0.008	Y:	0.013	Z:	0.057	yaw:	-2.308	yaw rate:	0.289	Roll:	0.298	Pitch:	0.537	Yaw:	-6.736	Thrust:	0.000
Time:	3.633	Roll Set Point:	-0.016	Pitch Set Point:	-0.027	Yaw Set Point:	0.040	X_WP:	0.000	Y_WP:	0.000	Y_WP:	0.000	X:	0.008	Y:	0.013	Z:	0.057	yaw:	-2.310	yaw rate:	0.245	Roll:	0.278	Pitch:	0.507	Yaw:	-5.951	Thrust:	0.000
Time:	3.650	Roll Set Point:	-0.016	Pitch Set Point:	-0.027	Yaw Set Point:	0.040	X_WP:	0.000	Y_WP:	0.000	Y_WP:	0.000	X:	0.008	Y:	0.013	Z:	0.057	yaw:	-2.308	yaw rate:	-0.246	Roll:	0.285	Pitch:	0.497	Yaw:	-5.816	Thrust:	0.000
Time:	3.670	Roll Set Point:	-0.016	Pitch Set Point:	-0.027	Yaw Set Point:	0.040	X_WP:	0.000	Y_WP:	0.000	Y_WP:	0.000	X:	0.008	Y:	0.013	Z:	0.057	yaw:	-2.305	yaw rate:	-0.301	Roll:	0.302	Pitch:	0.533	Yaw:	-6.123	Thrust:	0.000
Time:	3.692	Roll Set Point:	-0.016	Pitch Set Point:	-0.027	Yaw Set Point:	0.040	X_WP:	0.000	Y_WP:	0.000	Y_WP:	0.000	X:	0.008	Y:	0.013	Z:	0.057	yaw:	-2.307	yaw rate:	0.257	Roll:	0.283	Pitch:	0.522	Yaw:	-6.426	Thrust:	0.000
Time:	3.710	Roll Set Point:	-0.016	Pitch Set Point:	-0.027	Yaw Set Point:	0.040	X_WP:	0.000	Y_WP:	0.000	Y_WP:	0.000	X:	0.008	Y:	0.013	Z:	0.057	yaw:	-2.304	yaw rate:	-0.342	Roll:	0.278	Pitch:	0.498	Yaw:	-5.913	Thrust:	0.000
Time:	3.730	Roll Set Point:	-0.016	Pitch Set Point:	-0.027	Yaw Set Point:	0.040	X_WP:	0.000	Y_WP:	0.000	Y_WP:	0.000	X:	0.008	Y:	0.013	Z:	0.057	yaw:	-2.308	yaw rate:	0.432	Roll:	0.307	Pitch:	0.526	Yaw:	-6.138	Thrust:	0.000
Time:	3.755	Roll Set Point:	-0.016	Pitch Set Point:	-0.027	Yaw Set Point:	0.040	X_WP:	0.000	Y_WP:	0.000	Y_WP:	0.000	X:	0.008	Y:	0.013	Z:	0.057	yaw:	-2.306	yaw rate:	-0.253	Roll:	0.304	Pitch:	0.537	Yaw:	-6.874	Thrust:	0.000
Time:	3.770	Roll Set Point:	-0.016	Pitch Set Point:	-0.027	Yaw Set Point:	0.040	X_WP:	0.000	Y_WP:	0.000	Y_WP:	0.000	X:	0.008	Y:	0.013	Z:	0.057	yaw:	-2.301	yaw rate:	-0.454	Roll:	0.257	Pitch:	0.513	Yaw:	-5.475	Thrust:	0.000
Time:	3.790	Roll Set Point:	-0.016	Pitch Set Point:	-0.027	Yaw Set Point:	0.040	X_WP:	0.000	Y_WP:	0.000	Y_WP:	0.000	X:	0.008	Y:	0.013	Z:	0.057	yaw:	-2.299	yaw rate:	-0.250	Roll:	0.311	Pitch:	0.513	Yaw:	-6.295	Thrust:	0.000
Time:	3.811	Roll Set Point:	-0.016	Pitch Set Point:	-0.027	Yaw Set Point:	0.040	X_WP:	0.000	Y_WP:	0.000	Y_WP:	0.000	X:	0.008	Y:	0.013	Z:	0.057	yaw:	-2.315	yaw rate:	1.673	Roll:	0.290	Pitch:	0.526	Yaw:	-6.502	Thrust:	0.000
Time:	3.830	Roll Set Point:	-0.016	Pitch Set Point:	-0.027	Yaw Set Point:	0.040	X_WP:	0.000	Y_WP:	0.000	Y_WP:	0.000	X:	0.008	Y:	0.013	Z:	0.057	yaw:	-2.312	yaw rate:	-0.347	Roll:	0.276	Pitch:	0.530	Yaw:	-6.252	Thrust:	0.000
Time:	3.850	Roll Set Point:	-0.016	Pitch Set Point:	-0.027	Yaw Set Point:	0.040	X_WP:	0.000	Y_WP:	0.000	Y_WP:	0.000	X:	0.008	Y:	0.013	Z:	0.057	yaw:	-2.303	yaw rate:	-0.861	Roll:	0.310	Pitch:	0.511	Yaw:	-6.129	Thrust:	0.000
Time:	3.870	Roll Set Point:	-0.016	Pitch Set Point:	-0.027	Yaw Set Point:	0.040	X_WP:	0.000	Y_WP:	0.000	Y_WP:	0.000	X:	0.008	Y:	0.013	Z:	0.057	yaw:	-2.303	yaw rate:	-0.055	Roll:	0.299	Pitch:	0.534	Yaw:	-6.154	Thrust:	0.000
Time:	3.893	Roll Set Point:	-0.016	Pitch Set Point:	-0.027	Yaw Set Point:	0.040	X_WP:	0.000	Y_WP:	0.000	Y_WP:	0.000	X:	0.008	Y:	0.013	Z:	0.057	yaw:	-2.318	yaw rate:	1.481	Roll:	0.285	Pitch:	0.528	Yaw:	-6.947	Thrust:	0.000
Time:	3.910	Roll Set Point:	-0.016	Pitch Set Point:	-0.027	Yaw Set Point:	0.040	X_WP:	0.000	Y_WP:	0.000	Y_WP:	0.000	X:	0.008	Y:	0.013	Z:	0.057	yaw:	-2.307	yaw rate:	-1.069	Roll:	0.301	Pitch:	0.522	Yaw:	-5.869	Thrust:	0.000
Time:	3.931	Roll Set Point:	-0.016	Pitch Set Point:	-0.027	Yaw Set Point:	0.040	X_WP:	0.000	Y_WP:	0.000	Y_WP:	0.000	X:	0.008	Y:	0.013	Z:	0.057	yaw:	-2.307	yaw rate:	0.020	Roll:	0.296	Pitch:	0.514	Yaw:	-6.304	Thrust:	0.000
Time:	3.955	Roll Set Point:	-0.016	Pitch Set Point:	-0.027	Yaw Set Point:	0.040	X_WP:	0.000	Y_WP:	0.000	Y_WP:	0.000	X:	0.008	Y:	0.013	Z:	0.057	yaw:	-2.307	yaw rate:	-0.065	Roll:	0.303	Pitch:	0.555	Yaw:	-7.176	Thrust:	0.000
Time:	3.970	Roll Set Point:	-0.016	Pitch Set Point:	-0.027	Yaw Set Point:	0.040	X_WP:	0.000	Y_WP:	0.000	Y_WP:	0.000	X:	0.008	Y:	0.013	Z:	0.057	yaw:	-2.315	yaw rate:	0.808	Roll:	0.262	Pitch:	0.498	Yaw:	-5.683	Thrust:	0.000
Time:	3.989	Roll Set Point:	-0.016	Pitch Set Point:	-0.027	Yaw Set Point:	0.040	X_WP:	0.000	Y_WP:	0.000	Y_WP:	0.000	X:	0.008	Y:	0.013	Z:	0.057	yaw:	-2.300	yaw rate:	-1.479	Roll:	0.321	Pitch:	0.530	Yaw:	-6.224	Thrust:	0.000
Time:	4.013	Roll Set Point:	-0.016	Pitch Set Point:	-0.027	Yaw Set Point:	0.040	X_WP:	0.000	Y_WP:	0.000	Y_WP:	0.000	X:	0.008	Y:	0.013	Z:	0.057	yaw:	-2.304	yaw rate:	0.378	Roll:	0.299	Pitch:	0.543	Yaw:	-7.045	Thrust:	0.000
Time:	4.031	Roll Set Point:	-0.016	Pitch Set Point:	-0.027	Yaw Set Point:	0.040	X_WP:	0.000	Y_WP:	0.000	Y_WP:	0.000	X:	0.008	Y:	0.013	Z:	0.057	yaw:	-2.306	yaw rate:	0.237	Roll:	0.287	Pitch:	0.520	Yaw:	-6.001	Thrust:	0.000
Time:	4.050	Roll Set Point:	-0.016	Pitch Set Point:	-0.027	Yaw Set Point:	0.040	X_WP:	0.000	Y_WP:	0.000	Y_WP:	0.000	X:	0.008	Y:	0.013	Z:	0.057	yaw:	-2.306	yaw rate:	0.026	Roll:	0.295	Pitch:	0.528	Yaw:	-6.453	Thrust:	0.000
Time:	4.070	Roll Set Point:	-0.016	Pitch Set Point:	-0.027	Yaw Set Point:	0.040	X_WP:	0.000	Y_WP:	0.000	Y_WP:	0.000	X:	0.008	Y:	0.013	Z:	0.057	yaw:	-2.307	yaw rate:	0.119	Roll:	0.302	Pitch:	0.522	Yaw:	-6.361	Thrust:	0.000
Time:	4.094	Roll Set Point:	-0.016	Pitch Set Point:	-0.027	Yaw Set Point:	0.040	X_WP:	0.000	Y_WP:	0.000	Y_WP:	0.000	X:	0.008	Y:	0.013	Z:	0.057	yaw:	-2.302	yaw rate:	-0.567	Roll:	0.304	Pitch:	0.546	Yaw:	-7.017	Thrust:	0.000
Time:	4.113	Roll Set Point:	-0.016	Pitch Set Point:	-0.027	Yaw Set Point:	0.040	X_WP:	0.000	Y_WP:	0.000	Y_WP:	0.000	X:	0.008	Y:	0.013	Z:	0.057	yaw:	-2.305	yaw rate:	0.359	Roll:	0.293	Pitch:	0.552	Yaw:	-6.560	Thrust:	0.000
Time:	4.130	Roll Set Point:	-0.016	Pitch Set Point:	-0.027	Yaw Set Point:	0.040	X_WP:	0.000	Y_WP:	0.000	Y_WP:	0.000	X:	0.008	Y:	0.013	Z:	0.057	yaw:	-2.299	yaw rate:	-0.679	Roll:	0.305	Pitch:	0.502	Yaw:	-5.835	Thrust:	0.000
Time:	4.154	Roll Set Point:	-0.016	Pitch Set Point:	-0.027	Yaw Set Point:	0.040	X_WP:	0.000	Y_WP:	0.000	Y_WP:	0.000	X:	0.008	Y:	0.013	Z:	0.057	yaw:	-2.304	yaw rate:	0.522	Roll:	0.307	Pitch:	0.568	Yaw:	-7.347	Thrust:	0.000
Time:	4.170	Roll Set Point:	-0.016	Pitch Set Point:	-0.027	Yaw Set Point:	0.040	X_WP:	0.000	Y_WP:	0.000	Y_WP:	0.000	X:	0.008	Y:	0.013	Z:	0.057	yaw:	-2.300	yaw rate:	-0.344	Roll:	0.298	Pitch:	0.508	Yaw:	-5.742	Thrust:	0.000
Time:	4.190	Roll Set Point:	-0.016	Pitch Set Point:	-0.027	Yaw Set Point:	0.040	X_WP:	0.000	Y_WP:	0.000	Y_WP:	0.000	X:	0.008	Y:	0.013	Z:	0.057	yaw:	-2.310	yaw rate:	0.949	Roll:	0.285	Pitch:	0.525	Yaw:	-6.629	Thrust:	0.000
Time:	4.212	Roll Set Point:	-0.016	Pitch Set Point:	-0.027	Yaw Set Point:	0.040	X_WP:	0.000	Y_WP:	0.000	Y_WP:	0.000	X:	0.008	Y:	0.013	Z:	0.057	yaw:	-2.308	yaw rate:	-0.138	Roll:	0.311	Pitch:	0.547	Yaw:	-6.939	Thrust:	0.000
Time:	4.232	Roll Set Point:	-0.016	Pitch Set Point:	-0.027	Yaw Set Point:	0.040	X_WP:	0.000	Y_WP:	0.000	Y_WP:	0.000	X:	0.008	Y:	0.013	Z:	0.057	yaw:	-2.306	yaw rate:	-0.249	Roll:	0.292	Pitch:	0.533	Yaw:	-6.580	Thrust:	0.000
Time:	4.250	Roll Set Point:	-0.016	Pitch Set Point:	-0.027	Yaw Set Point:	0.040	X_WP:	0.000	Y_WP:	0.000	Y_WP:	0.000	X:	0.008	Y:	0.013	Z:	0.057	yaw:	-2.307	yaw rate:	0.110	Roll:	0.310	Pitch:	0.535	Yaw:	-6.385	Thrust:	0.000
Time:	4.270	Roll Set Point:	-0.016	Pitch Set Point:	-0.027	Yaw Set Point:	0.040	X_WP:	0.000	Y_WP:	0.000	Y_WP:	0.000	X:	0.008	Y:	0.013	Z:	0.057	yaw:	-2.305	yaw rate:	-0.201	Roll:	0.295	Pitch:	0.521	Yaw:	-6.626	Thrust:	0.000
Time:	4.292	Roll Set Point:	-0.016	Pitch Set Point:	-0.027	Yaw Set Point:	0.040	X_WP:	0.000	Y_WP:	0.000	Y_WP:	0.000	X:	0.008	Y:	0.013	Z:	0.057	yaw:	-2.305	yaw rate:	0.017	Roll:	0.313	Pitch:	0.564	Yaw:	-7.039	Thrust:	0.000
Time:	4.310	Roll Set Point:	-0.016	Pitch Set Point:	-0.027	Yaw Set Point:	0.040	X_WP:	0.000	Y_WP:	0.000	Y_WP:	0.000	X:	0.008	Y:	0.013	Z:	0.057	yaw:	-2.309	yaw rate:	0.351	Roll:	0.286	Pitch:	0.521	Yaw:	-6.297	Thrust:	0.000
Time:	4.330	Roll Set Point:	-0.016	Pitch Set Point:	-0.027	Yaw Set Point:	0.040	X_WP:	0.000	Y_WP:	0.000	Y_WP:	0.000	X:	0.008	Y:	0.013	Z:	0.057	yaw:	-2.308	yaw rate:	-0.070	Roll:	0.310	Pitch:	0.540	Yaw:	-6.645	Thrust:	0.000
Time:	4.355	Roll Set Point:	-0.016	Pitch Set Point:	-0.027	Yaw Set Point:	0.040	X_WP:	0.000	Y_WP:	0.000	Y_WP:	0.000	X:	0.008	Y:	0.013	Z:	0.057	yaw:	-2.302	yaw rate:	-0.625	Roll:	0.311	Pitch:	0.567	Yaw:	-7.370	Thrust:	0.000
Time:	4.370	Roll Set Point:	-0.016	Pitch Set Point:	-0.027	Yaw Set Point:	0.040	X_WP:	0.000	Y_WP:	0.000	Y_WP:	0.000	X:	0.008	Y:	0.013	Z:	0.057	yaw:	-2.310	yaw rate:	0.861	Roll:	0.289	Pitch:	0.504	Yaw:	-6.086	Thrust:	0.000
Time:	4.389	Roll Set Point:	-0.016	Pitch Set Point:	-0.027	Yaw Set Point:	0.040	X_WP:	0.000	Y_WP:	0.000	Y_WP:	0.000	X:	0.008	Y:	0.013	Z:	0.057	yaw:	-2.305	yaw rate:	-0.579	Roll:	0.310	Pitch:	0.547	Yaw:	-6.550	Thrust:	0.000
Time:	4.411	Roll Set Point:	-0.016	Pitch Set Point:	-0.027	Yaw Set Point:	0.040	X_WP:	0.000	Y_WP:	0.000	Y_WP:	0.000	X:	0.008	Y:	0.013	Z:	0.057	yaw:	-2.302	yaw rate:	-0.243	Roll:	0.303	Pitch:	0.550	Yaw:	-6.927	Thrust:	0.000
Time:	4.430	Roll Set Point:	-0.016	Pitch Set Point:	-0.027	Yaw Set Point:	0.040	X_WP:	0.000	Y_WP:	0.000	Y_WP:	0.000	X:	0.008	Y:	0.013	Z:	0.057	yaw:	-2.303	yaw rate:	0.115	Roll:	0.312	Pitch:	0.542	Yaw:	-6.785	Thrust:	0.000
Time:	4.450	Roll Set Point:	-0.016	Pitch Set Point:	-0.027	Yaw Set Point:	0.040	X_WP:	0.000	Y_WP:	0.000	Y_WP:	0.000	X:	0.008	Y:	0.013	Z:	0.057	yaw:	-2.311	yaw rate:	0.808	Roll:	0.294	Pitch:	0.543	Yaw:	-6.813	Thrust:	0.000
Time:	4.470	Roll Set Point:	-0.016	Pitch Set Point:	-0.027	Yaw Set Point:	0.040	X_WP:	0.000	Y_WP:	0.000	Y_WP:	0.000	X:	0.008	Y:	0.013	Z:	0.057	yaw:	-2.306	yaw rate:	-0.545	Roll:	0.304	Pitch:	0.544	Yaw:	-6.738	Thrust:	0.000
Time:	4.492	Roll Set Point:	-0.016	Pitch Set Point:	-0.027	Yaw Set Point:	0.040	X_WP:	0.000	Y_WP:	0.000	Y_WP:	0.000	X:	0.008	Y:	0.013	Z:	0.057	yaw:	-2.312	yaw rate:	0.577	Roll:	0.304	Pitch:	0.545	Yaw:	-7.137	Thrust:	0.000
Time:	4.510	Roll Set Point:	-0.016	Pitch Set Point:	-0.027	Yaw Set Point:	0.040	X_WP:	0.000	Y_WP:	0.000	Y_WP:	0.000	X:	0.008	Y:	0.013	Z:	0.057	yaw:	-2.309	yaw rate:	-0.293	Roll:	0.325	Pitch:	0.538	Yaw:	-6.574	Thrust:	0.000
Time:	4.530	Roll Set Point:	-0.016	Pitch Set Point:	-0.027	Yaw Set Point:	0.040	X_WP:	0.000	Y_WP:	0.000	Y_WP:	0.000	X:	0.008	Y:	0.013	Z:	0.057	yaw:	-2.310	yaw rate:	0.092	Roll:	0.291	Pitch:	0.558	Yaw:	-6.790	Thrust:	0.000
Time:	4.554	Roll Set Point:	-0.016	Pitch Set Point:	-0.027	Yaw Set Point:	0.040	X_WP:	0.000	Y_WP:	0.000	Y_WP:	0.000	X:	0.008	Y:	0.013	Z:	0.057	yaw:	-2.310	yaw rate:	-0.005	Roll:	0.319	Pitch:	0.558	Yaw:	-7.574	Thrust:	0.000
Time:	4.570	Roll Set Point:	-0.016	Pitch Set Point:	-0.027	Yaw Set Point:	0.040	X_WP:	0.000	Y_WP:	0.000	Y_WP:	0.000	X:	0.008	Y:	0.013	Z:	0.057	yaw:	-2.303	yaw rate:	-0.697	Roll:	0.300	Pitch:	0.532	Yaw:	-5.935	Thrust:	0.000
Time:	4.590	Roll Set Point:	-0.016	Pitch Set Point:	-0.027	Yaw Set Point:	0.040	X_WP:	0.000	Y_WP:	0.000	Y_WP:	0.000	X:	0.008	Y:	0.013	Z:	0.057	yaw:	-2.302	yaw rate:	-0.100	Roll:	0.310	Pitch:	0.545	Yaw:	-7.061	Thrust:	0.000
Time:	4.613	Roll Set Point:	-0.016	Pitch Set Point:	-0.027	Yaw Set Point:	0.040	X_WP:	0.000	Y_WP:	0.000	Y_WP:	0.000	X:	0.008	Y:	0.013	Z:	0.057	yaw:	-2.302	yaw rate:	0.059	Roll:	0.305	Pitch:	0.566	Yaw:	-7.289	Thrust:	0.000
Time:	4.632	Roll Set Point:	-0.016	Pitch Set Point:	-0.027	Yaw Set Point:	0.040	X_WP:	0.000	Y_WP:	0.000	Y_WP:	0.000	X:	0.008	Y:	0.013	Z:	0.057	yaw:	-2.313	yaw rate:	1.079	Roll:	0.303	Pitch:	0.546	Yaw:	-6.908	Thrust:	0.000
Time:	4.650	Roll Set Point:	-0.016	Pitch Set Point:	-0.027	Yaw Set Point:	0.040	X_WP:	0.000	Y_WP:	0.000	Y_WP:	0.000	X:	0.008	Y:	0.013	Z:	0.057	yaw:	-2.301	yaw rate:	-1.173	Roll:	0.310	Pitch:	0.537	Yaw:	-6.497	Thrust:	0.000
Time:	4.669	Roll Set Point:	-0.016	Pitch Set Point:	-0.027	Yaw Set Point:	0.040	X_WP:	0.000	Y_WP:	0.000	Y_WP:	0.000	X:	0.008	Y:	0.013	Z:	0.057	yaw:	-2.305	yaw rate:	0.324	Roll:	0.316	Pitch:	0.548	Yaw:	-6.852	Thrust:	0.000
Time:	4.693	Roll Set Point:	-0.016	Pitch Set Point:	-0.027	Yaw Set Point:	0.040	X_WP:	0.000	Y_WP:	0.000	Y_WP:	0.000	X:	0.008	Y:	0.013	Z:	0.057	yaw:	-2.300	yaw rate:	-0.492	Roll:	0.318	Pitch:	0.590	Yaw:	-7.577	Thrust:	0.000
Time:	4.713	Roll Set Point:	-0.016	Pitch Set Point:	-0.027	Yaw Set Point:	0.040	X_WP:	0.000	Y_WP:	0.000	Y_WP:	0.000	X:	0.008	Y:	0.013	Z:	0.057	yaw:	-2.304	yaw rate:	0.403	Roll:	0.307	Pitch:	0.542	Yaw:	-7.049	Thrust:	0.000
Time:	4.730	Roll Set Point:	-0.016	Pitch Set Point:	-0.027	Yaw Set Point:	0.040	X_WP:	0.000	Y_WP:	0.000	Y_WP:	0.000	X:	0.008	Y:	0.013	Z:	0.057	yaw:	-2.311	yaw rate:	0.738	Roll:	0.310	Pitch:	0.532	Yaw:	-6.553	Thrust:	0.000
Time:	4.754	Roll Set Point:	-0.016	Pitch Set Point:	-0.027	Yaw Set Point:	0.040	X_WP:	0.000	Y_WP:	0.000	Y_WP:	0.000	X:	0.008	Y:	0.013	Z:	0.057	yaw:	-2.305	yaw rate:	-0.593	Roll:	0.317	Pitch:	0.573	Yaw:	-7.487	Thrust:	0.000
Time:	4.773	Roll Set Point:	-0.016	Pitch Set Point:	-0.027	Yaw Set Point:	0.040	X_WP:	0.000	Y_WP:	0.000	Y_WP:	0.000	X:	0.008	Y:	0.013	Z:	0.057	yaw:	-2.309	yaw rate:	0.405	Roll:	0.281	Pitch:	0.517	Yaw:	-7.035	Thrust:	0.000
Time:	4.789	Roll Set Point:	-0.016	Pitch Set Point:	-0.027	Yaw Set Point:	0.040	X_WP:	0.000	Y_WP:	0.000	Y_WP:	0.000	X:	0.008	Y:	0.013	Z:	0.057	yaw:	-2.298	yaw rate:	-1.105	Roll:	0.330	Pitch:	0.564	Yaw:	-6.193	Thrust:	0.000
Time:	4.812	Roll Set Point:	-0.016	Pitch Set Point:	-0.027	Yaw Set Point:	0.040	X_WP:	0.000	Y_WP:	0.000	Y_WP:	0.000	X:	0.008	Y:	0.013	Z:	0.057	yaw:	-2.302	yaw rate:	0.345	Roll:	0.310	Pitch:	0.569	Yaw:	-7.505	Thrust:	0.000
Time:	4.832	Roll Set Point:	-0.016	Pitch Set Point:	-0.027	Yaw Set Point:	0.040	X_WP:	0.000	Y_WP:	0.000	Y_WP:	0.000	X:	0.008	Y:	0.013	Z:	0.057	yaw:	-2.310	yaw rate:	0.870	Roll:	0.311	Pitch:	0.563	Yaw:	-7.217	Thrust:	0.000
Time:	4.850	Roll Set Point:	-0.016	Pitch Set Point:	-0.027	Yaw Set Point:	0.040	X_WP:	0.000	Y_WP:	0.000	Y_WP:	0.000	X:	0.008	Y:	0.013	Z:	0.057	yaw:	-2.305	yaw rate:	-0.542	Roll:	0.312	Pitch:	0.546	Yaw:	-6.639	Thrust:	0.000
Time:	4.870	Roll Set Point:	-0.016	Pitch Set Point:	-0.027	Yaw Set Point:	0.040	X_WP:	0.000	Y_WP:	0.000	Y_WP:	0.000	X:	0.008	Y:	0.013	Z:	0.057	yaw:	-2.304	yaw rate:	-0.131	Roll:	0.305	Pitch:	0.547	Yaw:	-7.105	Thrust:	0.000
Time:	4.892	Roll Set Point:	-0.016	Pitch Set Point:	-0.027	Yaw Set Point:	0.040	X_WP:	0.000	Y_WP:	0.000	Y_WP:	0.000	X:	0.008	Y:	0.013	Z:	0.057	yaw:	-2.297	yaw rate:	-0.636	Roll:	0.334	Pitch:	0.576	Yaw:	-7.502	Thrust:	0.000
Time:	4.910	Roll Set Point:	-0.016	Pitch Set Point:	-0.027	Yaw Set Point:	0.040	X_WP:	0.000	Y_WP:	0.000	Y_WP:	0.000	X:	0.008	Y:	0.013	Z:	0.057	yaw:	-2.306	yaw rate:	0.917	Roll:	0.292	Pitch:	0.549	Yaw:	-6.896	Thrust:	0.000
Time:	4.930	Roll Set Point:	-0.016	Pitch Set Point:	-0.027	Yaw Set Point:	0.040	X_WP:	0.000	Y_WP:	0.000	Y_WP:	0.000	X:	0.008	Y:	0.013	Z:	0.057	yaw:	-2.311	yaw rate:	0.419	Roll:	0.319	Pitch:	0.559	Yaw:	-7.293	Thrust:	0.000
Time:	4.951	Roll Set Point:	-0.016	Pitch Set Point:	-0.027	Yaw Set Point:	0.040	X_WP:	0.000	Y_WP:	0.000	Y_WP:	0.000	X:	0.008	Y:	0.013	Z:	0.057	yaw:	-2.308	yaw rate:	-0.245	Roll:	0.319	Pitch:	0.561	Yaw:	-7.282	Thrust:	0.000
Time:	4.969	Roll Set Point:	-0.016	Pitch Set Point:	-0.027	Yaw Set Point:	0.040	X_WP:	0.000	Y_WP:	0.000	Y_WP:	0.000	X:	0.008	Y:	0.013	Z:	0.057	yaw:	-2.305	yaw rate:	-0.332	Roll:	0.302	Pitch:	0.555	Yaw:	-6.743	Thrust:	0.000
Time:	4.989	Roll Set Point:	-0.016	Pitch Set Point:	-0.027	Yaw Set Point:	0.040	X_WP:	0.000	Y_WP:	0.000	Y_WP:	0.000	X:	0.008	Y:	0.013	Z:	0.057	yaw:	-2.302	yaw rate:	-0.241	Roll:	0.324	Pitch:	0.567	Yaw:	-7.184	Thrust:	0.000
Time:	5.012	Roll Set Point:	-0.016	Pitch Set Point:	-0.027	Yaw Set Point:	0.040	X_WP:	0.000	Y_WP:	0.000	Y_WP:	0.000	X:	0.008	Y:	0.013	Z:	0.057	yaw:	-2.304	yaw rate:	0.143	Roll:	0.327	Pitch:	0.581	Yaw:	-7.594	Thrust:	0.000
Time:	5.033	Roll Set Point:	-0.016	Pitch Set Point:	-0.027	Yaw Set Point:	0.040	X_WP:	0.000	Y_WP:	0.000	Y_WP:	0.000	X:	0.008	Y:	0.013	Z:	0.057	yaw:	-2.305	yaw rate:	0.119	Roll:	0.311	Pitch:	0.559	Yaw:	-7.439	Thrust:	0.000
Time:	5.051	Roll Set Point:	-0.016	Pitch Set Point:	-0.027	Yaw Set Point:	0.040	X_WP:	0.000	Y_WP:	0.000	Y_WP:	0.000	X:	0.008	Y:	0.013	Z:	0.057	yaw:	-2.307	yaw rate:	0.198	Roll:	0.324	Pitch:	0.557	Yaw:	-6.808	Thrust:	0.000
Time:	5.071	Roll Set Point:	-0.016	Pitch Set Point:	-0.027	Yaw Set Point:	0.040	X_WP:	0.000	Y_WP:	0.000	Y_WP:	0.000	X:	0.008	Y:	0.013	Z:	0.057	yaw:	-2.305	yaw rate:	-0.202	Roll:	0.297	Pitch:	0.568	Yaw:	-7.123	Thrust:	0.000
Time:	5.096	Roll Set Point:	-0.016	Pitch Set Point:	-0.027	Yaw Set Point:	0.040	X_WP:	0.000	Y_WP:	0.000	Y_WP:	0.000	X:	0.008	Y:	0.013	Z:	0.057	yaw:	-2.301	yaw rate:	-0.357	Roll:	0.348	Pitch:	0.603	Yaw:	-8.435	Thrust:	0.000
Time:	5.111	Roll Set Point:	-0.016	Pitch Set Point:	-0.027	Yaw Set Point:	0.040	X_WP:	0.000	Y_WP:	0.000	Y_WP:	0.000	X:	0.008	Y:	0.013	Z:	0.057	yaw:	-2.311	yaw rate:	0.936	Roll:	0.306	Pitch:	0.537	Yaw:	-6.227	Thrust:	0.000
Time:	5.131	Roll Set Point:	-0.016	Pitch Set Point:	-0.027	Yaw Set Point:	0.040	X_WP:	0.000	Y_WP:	0.000	Y_WP:	0.000	X:	0.008	Y:	0.013	Z:	0.057	yaw:	-2.300	yaw rate:	-1.071	Roll:	0.302	Pitch:	0.556	Yaw:	-7.150	Thrust:	0.000
Time:	5.156	Roll Set Point:	-0.016	Pitch Set Point:	-0.027	Yaw Set Point:	0.040	X_WP:	0.000	Y_WP:	0.000	Y_WP:	0.000	X:	0.008	Y:	0.013	Z:	0.057	yaw:	-2.307	yaw rate:	0.736	Roll:	0.336	Pitch:	0.616	Yaw:	-8.029	Thrust:	0.000
Time:	5.170	Roll Set Point:	-0.016	Pitch Set Point:	-0.027	Yaw Set Point:	0.040	X_WP:	0.000	Y_WP:	0.000	Y_WP:	0.000	X:	0.008	Y:	0.013	Z:	0.057	yaw:	-2.312	yaw rate:	0.464	Roll:	0.307	Pitch:	0.516	Yaw:	-6.328	Thrust:	0.000
Time:	5.191	Roll Set Point:	-0.016	Pitch Set Point:	-0.027	Yaw Set Point:	0.040	X_WP:	0.000	Y_WP:	0.000	Y_WP:	0.000	X:	0.008	Y:	0.013	Z:	0.057	yaw:	-2.311	yaw rate:	-0.102	Roll:	0.317	Pitch:	0.577	Yaw:	-7.055	Thrust:	0.000
Time:	5.215	Roll Set Point:	-0.016	Pitch Set Point:	-0.027	Yaw Set Point:	0.040	X_WP:	0.000	Y_WP:	0.000	Y_WP:	0.000	X:	0.008	Y:	0.013	Z:	0.057	yaw:	-2.301	yaw rate:	-1.031	Roll:	0.324	Pitch:	0.599	Yaw:	-8.211	Thrust:	0.000
Time:	5.233	Roll Set Point:	-0.016	Pitch Set Point:	-0.027	Yaw Set Point:	0.040	X_WP:	0.000	Y_WP:	0.000	Y_WP:	0.000	X:	0.008	Y:	0.013	Z:	0.057	yaw:	-2.307	yaw rate:	0.647	Roll:	0.328	Pitch:	0.553	Yaw:	-6.828	Thrust:	0.000
Time:	5.250	Roll Set Point:	-0.016	Pitch Set Point:	-0.027	Yaw Set Point:	0.040	X_WP:	0.000	Y_WP:	0.000	Y_WP:	0.000	X:	0.008	Y:	0.013	Z:	0.057	yaw:	-2.304	yaw rate:	-0.341	Roll:	0.317	Pitch:	0.557	Yaw:	-6.824	Thrust:	0.000
Time:	5.270	Roll Set Point:	-0.016	Pitch Set Point:	-0.027	Yaw Set Point:	0.040	X_WP:	0.000	Y_WP:	0.000	Y_WP:	0.000	X:	0.008	Y:	0.013	Z:	0.057	yaw:	-2.305	yaw rate:	0.130	Roll:	0.304	Pitch:	0.561	Yaw:	-7.147	Thrust:	0.000
Time:	5.295	Roll Set Point:	-0.016	Pitch Set Point:	-0.027	Yaw Set Point:	0.040	X_WP:	0.000	Y_WP:	0.000	Y_WP:	0.000	X:	0.008	Y:	0.013	Z:	0.057	yaw:	-2.315	yaw rate:	0.983	Roll:	0.348	Pitch:	0.619	Yaw:	-8.127	Thrust:	0.000
Time:	5.314	Roll Set Point:	-0.016	Pitch Set Point:	-0.027	Yaw Set Point:	0.040	X_WP:	0.000	Y_WP:	0.000	Y_WP:	0.000	X:	0.008	Y:	0.013	Z:	0.057	yaw:	-2.313	yaw rate:	-0.213	Roll:	0.330	Pitch:	0.569	Yaw:	-7.030	Thrust:	0.000
Time:	5.331	Roll Set Point:	-0.016	Pitch Set Point:	-0.027	Yaw Set Point:	0.040	X_WP:	0.000	Y_WP:	0.000	Y_WP:	0.000	X:	0.008	Y:	0.013	Z:	0.057	yaw:	-2.303	yaw rate:	-0.950	Roll:	0.288	Pitch:	0.530	Yaw:	-6.422	Thrust:	0.000
Time:	5.355	Roll Set Point:	-0.016	Pitch Set Point:	-0.027	Yaw Set Point:	0.040	X_WP:	0.000	Y_WP:	0.000	Y_WP:	0.000	X:	0.008	Y:	0.013	Z:	0.057	yaw:	-2.303	yaw rate:	-0.065	Roll:	0.333	Pitch:	0.618	Yaw:	-8.199	Thrust:	0.000
Time:	5.370	Roll Set Point:	-0.016	Pitch Set Point:	-0.027	Yaw Set Point:	0.040	X_WP:	0.000	Y_WP:	0.000	Y_WP:	0.000	X:	0.008	Y:	0.013	Z:	0.057	yaw:	-2.306	yaw rate:	0.350	Roll:	0.319	Pitch:	0.522	Yaw:	-6.325	Thrust:	0.000
Time:	5.390	Roll Set Point:	-0.016	Pitch Set Point:	-0.027	Yaw Set Point:	0.040	X_WP:	0.000	Y_WP:	0.000	Y_WP:	0.000	X:	0.008	Y:	0.013	Z:	0.057	yaw:	-2.303	yaw rate:	-0.280	Roll:	0.324	Pitch:	0.592	Yaw:	-7.044	Thrust:	0.000
