Time:	0.334	Roll Set Point:	-1.980	Pitch Set Point:	-0.145	Yaw Set Point:	1.377	X_WP:	0.000	Y_WP:	0.000	Z_WP:	0.500	X:	1.049	Y:	-0.743	Z:	0.040	yaw:	-78.920	yaw rate:	-0.493	Roll:	13.955	Pitch:	13.306	Yaw:	-110.193	Thrust:	25.313
Time:	0.399	Roll Set Point:	-1.980	Pitch Set Point:	-0.144	Yaw Set Point:	1.377	X_WP:	0.000	Y_WP:	0.000	Z_WP:	0.500	X:	1.049	Y:	-0.743	Z:	0.040	yaw:	-78.885	yaw rate:	-1.885	Roll:	14.254	Pitch:	13.293	Yaw:	-111.781	Thrust:	28.855
Time:	0.480	Roll Set Point:	-1.979	Pitch Set Point:	-0.145	Yaw Set Point:	1.378	X_WP:	0.000	Y_WP:	0.000	Z_WP:	0.500	X:	1.049	Y:	-0.743	Z:	0.040	yaw:	-78.935	yaw rate:	4.922	Roll:	14.157	Pitch:	13.838	Yaw:	-114.839	Thrust:	34.282
Time:	0.545	Roll Set Point:	-1.980	Pitch Set Point:	-0.144	Yaw Set Point:	1.377	X_WP:	0.000	Y_WP:	0.000	Z_WP:	0.500	X:	1.049	Y:	-0.743	Z:	0.040	yaw:	-78.912	yaw rate:	0.645	Roll:	14.510	Pitch:	13.639	Yaw:	-115.517	Thrust:	36.188
Time:	0.614	Roll Set Point:	-1.980	Pitch Set Point:	-0.145	Yaw Set Point:	1.377	X_WP:	0.000	Y_WP:	0.000	Z_WP:	0.500	X:	1.049	Y:	-0.743	Z:	0.040	yaw:	-78.922	yaw rate:	0.682	Roll:	14.558	Pitch:	13.963	Yaw:	-117.805	Thrust:	40.474
Time:	0.694	Roll Set Point:	-1.980	Pitch Set Point:	-0.145	Yaw Set Point:	1.377	X_WP:	0.000	Y_WP:	0.000	Z_WP:	0.500	X:	1.049	Y:	-0.743	Z:	0.040	yaw:	-78.920	yaw rate:	1.128	Roll:	14.903	Pitch:	14.185	Yaw:	-121.267	Thrust:	47.546
Time:	0.768	Roll Set Point:	-1.980	Pitch Set Point:	-0.145	Yaw Set Point:	1.377	X_WP:	0.000	Y_WP:	0.000	Z_WP:	0.500	X:	1.049	Y:	-0.743	Z:	0.040	yaw:	-78.922	yaw rate:	2.963	Roll:	14.969	Pitch:	14.289	Yaw:	-122.306	Thrust:	49.571
Time:	0.836	Roll Set Point:	-1.980	Pitch Set Point:	-0.144	Yaw Set Point:	1.377	X_WP:	0.000	Y_WP:	0.000	Z_WP:	0.500	X:	1.049	Y:	-0.743	Z:	0.040	yaw:	-78.910	yaw rate:	-1.078	Roll:	15.109	Pitch:	14.303	Yaw:	-123.187	Thrust:	51.471
Time:	0.905	Roll Set Point:	-1.980	Pitch Set Point:	-0.144	Yaw Set Point:	1.377	X_WP:	0.000	Y_WP:	0.000	Z_WP:	0.500	X:	1.049	Y:	-0.743	Z:	0.040	yaw:	-78.914	yaw rate:	-2.237	Roll:	15.216	Pitch:	14.543	Yaw:	-124.046	Thrust:	55.918
Time:	0.972	Roll Set Point:	-1.980	Pitch Set Point:	-0.144	Yaw Set Point:	1.377	X_WP:	0.000	Y_WP:	0.000	Z_WP:	0.500	X:	1.049	Y:	-0.743	Z:	0.040	yaw:	-78.895	yaw rate:	-2.234	Roll:	15.457	Pitch:	14.581	Yaw:	-123.623	Thrust:	58.954
Time:	1.047	Roll Set Point:	-1.980	Pitch Set Point:	-0.144	Yaw Set Point:	1.377	X_WP:	0.000	Y_WP:	0.000	Z_WP:	0.500	X:	1.049	Y:	-0.743	Z:	0.040	yaw:	-78.900	yaw rate:	-0.084	Roll:	15.691	Pitch:	14.979	Yaw:	-125.227	Thrust:	66.848
Time:	1.119	Roll Set Point:	-1.980	Pitch Set Point:	-0.144	Yaw Set Point:	1.377	X_WP:	0.000	Y_WP:	0.000	Z_WP:	0.500	X:	1.049	Y:	-0.743	Z:	0.040	yaw:	-78.916	yaw rate:	-2.172	Roll:	15.744	Pitch:	15.125	Yaw:	-124.584	Thrust:	68.881
Time:	1.196	Roll Set Point:	-1.980	Pitch Set Point:	-0.144	Yaw Set Point:	1.377	X_WP:	0.000	Y_WP:	0.000	Z_WP:	0.500	X:	1.049	Y:	-0.743	Z:	0.040	yaw:	-78.913	yaw rate:	-0.955	Roll:	16.123	Pitch:	15.348	Yaw:	-125.619	Thrust:	76.495
Time:	1.272	Roll Set Point:	-1.980	Pitch Set Point:	-0.144	Yaw Set Point:	1.377	X_WP:	0.000	Y_WP:	0.000	Z_WP:	0.500	X:	1.049	Y:	-0.743	Z:	0.040	yaw:	-78.903	yaw rate:	-0.452	Roll:	16.267	Pitch:	15.432	Yaw:	-125.249	Thrust:	79.561
Time:	1.351	Roll Set Point:	-1.980	Pitch Set Point:	-0.144	Yaw Set Point:	1.377	X_WP:	0.000	Y_WP:	0.000	Z_WP:	0.500	X:	1.049	Y:	-0.743	Z:	0.040	yaw:	-78.902	yaw rate:	-3.083	Roll:	16.570	Pitch:	15.780	Yaw:	-126.059	Thrust:	86.760
Time:	1.430	Roll Set Point:	-1.980	Pitch Set Point:	-0.144	Yaw Set Point:	1.377	X_WP:	0.000	Y_WP:	0.000	Z_WP:	0.500	X:	1.049	Y:	-0.743	Z:	0.040	yaw:	-78.898	yaw rate:	-3.936	Roll:	16.718	Pitch:	15.901	Yaw:	-125.895	Thrust:	90.521
Time:	1.505	Roll Set Point:	-1.979	Pitch Set Point:	-0.145	Yaw Set Point:	1.378	X_WP:	0.000	Y_WP:	0.000	Z_WP:	0.500	X:	1.049	Y:	-0.743	Z:	0.040	yaw:	-78.951	yaw rate:	5.576	Roll:	16.529	Pitch:	16.155	Yaw:	-125.432	Thrust:	91.649
Time:	1.582	Roll Set Point:	-1.980	Pitch Set Point:	-0.144	Yaw Set Point:	1.377	X_WP:	0.000	Y_WP:	0.000	Z_WP:	0.500	X:	1.049	Y:	-0.743	Z:	0.040	yaw:	-78.890	yaw rate:	-5.277	Roll:	17.084	Pitch:	16.000	Yaw:	-125.390	Thrust:	97.798
Time:	1.667	Roll Set Point:	-1.980	Pitch Set Point:	-0.144	Yaw Set Point:	1.377	X_WP:	0.000	Y_WP:	0.000	Z_WP:	0.500	X:	1.049	Y:	-0.743	Z:	0.040	yaw:	-78.898	yaw rate:	-2.710	Roll:	17.059	Pitch:	16.482	Yaw:	-127.035	Thrust:	100.000
Time:	1.750	Roll Set Point:	-1.980	Pitch Set Point:	-0.144	Yaw Set Point:	1.377	X_WP:	0.000	Y_WP:	0.000	Z_WP:	0.500	X:	1.049	Y:	-0.743	Z:	0.040	yaw:	-78.911	yaw rate:	-2.008	Roll:	17.075	Pitch:	16.471	Yaw:	-126.974	Thrust:	100.000
Time:	1.833	Roll Set Point:	-1.980	Pitch Set Point:	-0.145	Yaw Set Point:	1.377	X_WP:	0.000	Y_WP:	0.000	Z_WP:	0.500	X:	1.049	Y:	-0.743	Z:	0.040	yaw:	-78.921	yaw rate:	-0.525	Roll:	17.008	Pitch:	16.461	Yaw:	-126.777	Thrust:	100.000
Time:	1.921	Roll Set Point:	-1.980	Pitch Set Point:	-0.144	Yaw Set Point:	1.377	X_WP:	0.000	Y_WP:	0.000	Z_WP:	0.500	X:	1.049	Y:	-0.743	Z:	0.040	yaw:	-78.910	yaw rate:	-0.780	Roll:	17.320	Pitch:	16.560	Yaw:	-127.703	Thrust:	100.000
Time:	2.005	Roll Set Point:	-1.979	Pitch Set Point:	-0.145	Yaw Set Point:	1.378	X_WP:	0.000	Y_WP:	0.000	Z_WP:	0.500	X:	1.049	Y:	-0.743	Z:	0.040	yaw:	-78.932	yaw rate:	-0.924	Roll:	17.009	Pitch:	16.502	Yaw:	-127.045	Thrust:	100.000
Time:	2.102	Roll Set Point:	-1.979	Pitch Set Point:	-0.145	Yaw Set Point:	1.378	X_WP:	0.000	Y_WP:	0.000	Z_WP:	0.500	X:	1.049	Y:	-0.743	Z:	0.040	yaw:	-78.972	yaw rate:	6.350	Roll:	17.481	Pitch:	17.079	Yaw:	-129.829	Thrust:	100.000
Time:	2.204	Roll Set Point:	-1.980	Pitch Set Point:	-0.144	Yaw Set Point:	1.377	X_WP:	0.000	Y_WP:	0.000	Z_WP:	0.500	X:	1.049	Y:	-0.743	Z:	0.040	yaw:	-78.913	yaw rate:	-1.541	Roll:	17.927	Pitch:	16.964	Yaw:	-130.395	Thrust:	100.000
Time:	2.289	Roll Set Point:	-1.980	Pitch Set Point:	-0.144	Yaw Set Point:	1.377	X_WP:	0.000	Y_WP:	0.000	Z_WP:	0.500	X:	1.049	Y:	-0.743	Z:	0.040	yaw:	-78.903	yaw rate:	0.660	Roll:	17.206	Pitch:	16.489	Yaw:	-127.187	Thrust:	100.000
Time:	2.376	Roll Set Point:	-1.979	Pitch Set Point:	-0.145	Yaw Set Point:	1.378	X_WP:	0.000	Y_WP:	0.000	Z_WP:	0.500	X:	1.049	Y:	-0.743	Z:	0.040	yaw:	-78.932	yaw rate:	3.927	Roll:	17.127	Pitch:	16.661	Yaw:	-127.702	Thrust:	100.000
Time:	2.474	Roll Set Point:	-1.980	Pitch Set Point:	-0.144	Yaw Set Point:	1.377	X_WP:	0.000	Y_WP:	0.000	Z_WP:	0.500	X:	1.049	Y:	-0.743	Z:	0.040	yaw:	-78.919	yaw rate:	1.033	Roll:	17.639	Pitch:	16.916	Yaw:	-129.615	Thrust:	100.000
Time:	2.589	Roll Set Point:	-1.980	Pitch Set Point:	-0.144	Yaw Set Point:	1.377	X_WP:	0.000	Y_WP:	0.000	Z_WP:	0.500	X:	1.049	Y:	-0.743	Z:	0.040	yaw:	-78.900	yaw rate:	-0.626	Roll:	18.316	Pitch:	17.559	Yaw:	-133.188	Thrust:	100.000
Time:	2.684	Roll Set Point:	-1.980	Pitch Set Point:	-0.144	Yaw Set Point:	1.377	X_WP:	0.000	Y_WP:	0.000	Z_WP:	0.500	X:	1.049	Y:	-0.743	Z:	0.040	yaw:	-78.918	yaw rate:	-1.789	Roll:	17.482	Pitch:	16.938	Yaw:	-129.246	Thrust:	100.000
Time:	2.783	Roll Set Point:	-1.980	Pitch Set Point:	-0.145	Yaw Set Point:	1.378	X_WP:	0.000	Y_WP:	0.000	Z_WP:	0.500	X:	1.049	Y:	-0.743	Z:	0.040	yaw:	-78.928	yaw rate:	0.546	Roll:	17.629	Pitch:	17.039	Yaw:	-129.978	Thrust:	100.000
Time:	2.886	Roll Set Point:	-1.979	Pitch Set Point:	-0.145	Yaw Set Point:	1.378	X_WP:	0.000	Y_WP:	0.000	Z_WP:	0.500	X:	1.049	Y:	-0.743	Z:	0.040	yaw:	-78.959	yaw rate:	2.160	Roll:	17.734	Pitch:	17.269	Yaw:	-130.957	Thrust:	100.000
Time:	2.998	Roll Set Point:	-1.979	Pitch Set Point:	-0.145	Yaw Set Point:	1.378	X_WP:	0.000	Y_WP:	0.000	Z_WP:	0.500	X:	1.049	Y:	-0.743	Z:	0.040	yaw:	-78.933	yaw rate:	3.030	Roll:	18.169	Pitch:	17.400	Yaw:	-132.518	Thrust:	100.000
Time:	3.097	Roll Set Point:	-1.980	Pitch Set Point:	-0.144	Yaw Set Point:	1.377	X_WP:	0.000	Y_WP:	0.000	Z_WP:	0.500	X:	1.049	Y:	-0.743	Z:	0.040	yaw:	-78.899	yaw rate:	1.776	Roll:	17.814	Pitch:	16.964	Yaw:	-129.912	Thrust:	100.000
Time:	3.195	Roll Set Point:	-1.979	Pitch Set Point:	-0.145	Yaw Set Point:	1.378	X_WP:	0.000	Y_WP:	0.000	Z_WP:	0.500	X:	1.049	Y:	-0.743	Z:	0.040	yaw:	-78.946	yaw rate:	4.847	Roll:	17.504	Pitch:	17.130	Yaw:	-130.011	Thrust:	100.000
Time:	3.290	Roll Set Point:	-1.980	Pitch Set Point:	-0.144	Yaw Set Point:	1.377	X_WP:	0.000	Y_WP:	0.000	Z_WP:	0.500	X:	1.049	Y:	-0.743	Z:	0.040	yaw:	-78.908	yaw rate:	-0.729	Roll:	17.604	Pitch:	16.729	Yaw:	-128.939	Thrust:	100.000
Time:	3.380	Roll Set Point:	-1.979	Pitch Set Point:	-0.145	Yaw Set Point:	1.378	X_WP:	0.000	Y_WP:	0.000	Z_WP:	0.500	X:	1.049	Y:	-0.743	Z:	0.040	yaw:	-78.938	yaw rate:	-0.541	Roll:	17.236	Pitch:	16.778	Yaw:	-128.387	Thrust:	100.000
Time:	3.478	Roll Set Point:	-1.980	Pitch Set Point:	-0.144	Yaw Set Point:	1.377	X_WP:	0.000	Y_WP:	0.000	Z_WP:	0.500	X:	1.049	Y:	-0.743	Z:	0.040	yaw:	-78.908	yaw rate:	0.740	Roll:	17.726	Pitch:	16.906	Yaw:	-129.686	Thrust:	100.000
Time:	3.574	Roll Set Point:	-1.980	Pitch Set Point:	-0.144	Yaw Set Point:	1.377	X_WP:	0.000	Y_WP:	0.000	Z_WP:	0.500	X:	1.049	Y:	-0.743	Z:	0.040	yaw:	-78.895	yaw rate:	-4.474	Roll:	17.589	Pitch:	16.849	Yaw:	-129.356	Thrust:	100.000
Time:	3.669	Roll Set Point:	-1.979	Pitch Set Point:	-0.145	Yaw Set Point:	1.378	X_WP:	0.000	Y_WP:	0.000	Z_WP:	0.500	X:	1.049	Y:	-0.743	Z:	0.040	yaw:	-78.933	yaw rate:	0.163	Roll:	17.409	Pitch:	16.984	Yaw:	-129.219	Thrust:	100.000
Time:	3.764	Roll Set Point:	-1.980	Pitch Set Point:	-0.144	Yaw Set Point:	1.377	X_WP:	0.000	Y_WP:	0.000	Z_WP:	0.500	X:	1.049	Y:	-0.743	Z:	0.040	yaw:	-78.884	yaw rate:	-4.317	Roll:	17.663	Pitch:	16.716	Yaw:	-128.994	Thrust:	100.000
Time:	3.860	Roll Set Point:	-1.979	Pitch Set Point:	-0.145	Yaw Set Point:	1.378	X_WP:	0.000	Y_WP:	0.000	Z_WP:	0.500	X:	1.049	Y:	-0.743	Z:	0.040	yaw:	-78.931	yaw rate:	4.874	Roll:	17.425	Pitch:	17.048	Yaw:	-129.569	Thrust:	100.000
Time:	3.959	Roll Set Point:	-1.980	Pitch Set Point:	-0.144	Yaw Set Point:	1.377	X_WP:	0.000	Y_WP:	0.000	Z_WP:	0.500	X:	1.049	Y:	-0.743	Z:	0.040	yaw:	-78.907	yaw rate:	-2.259	Roll:	17.766	Pitch:	16.976	Yaw:	-130.070	Thrust:	100.000
Time:	4.057	Roll Set Point:	-1.980	Pitch Set Point:	-0.144	Yaw Set Point:	1.377	X_WP:	0.000	Y_WP:	0.000	Z_WP:	0.500	X:	1.049	Y:	-0.743	Z:	0.040	yaw:	-78.916	yaw rate:	-1.202	Roll:	17.599	Pitch:	17.000	Yaw:	-129.778	Thrust:	100.000
Time:	4.155	Roll Set Point:	-1.980	Pitch Set Point:	-0.145	Yaw Set Point:	1.377	X_WP:	0.000	Y_WP:	0.000	Z_WP:	0.500	X:	1.049	Y:	-0.743	Z:	0.040	yaw:	-78.924	yaw rate:	1.917	Roll:	17.606	Pitch:	17.002	Yaw:	-129.812	Thrust:	100.000
Time:	4.256	Roll Set Point:	-1.979	Pitch Set Point:	-0.145	Yaw Set Point:	1.378	X_WP:	0.000	Y_WP:	0.000	Z_WP:	0.500	X:	1.049	Y:	-0.743	Z:	0.040	yaw:	-78.938	yaw rate:	3.102	Roll:	17.703	Pitch:	17.137	Yaw:	-130.466	Thrust:	100.000
Time:	4.358	Roll Set Point:	-1.980	Pitch Set Point:	-0.144	Yaw Set Point:	1.377	X_WP:	0.000	Y_WP:	0.000	Z_WP:	0.500	X:	1.049	Y:	-0.743	Z:	0.040	yaw:	-78.909	yaw rate:	1.505	Roll:	17.863	Pitch:	17.056	Yaw:	-130.521	Thrust:	100.000
Time:	4.460	Roll Set Point:	-1.979	Pitch Set Point:	-0.145	Yaw Set Point:	1.378	X_WP:	0.000	Y_WP:	0.000	Z_WP:	0.500	X:	1.049	Y:	-0.743	Z:	0.040	yaw:	-78.941	yaw rate:	2.524	Roll:	17.644	Pitch:	17.178	Yaw:	-130.461	Thrust:	100.000
Time:	4.560	Roll Set Point:	-1.980	Pitch Set Point:	-0.144	Yaw Set Point:	1.377	X_WP:	0.000	Y_WP:	0.000	Z_WP:	0.500	X:	1.049	Y:	-0.743	Z:	0.040	yaw:	-78.898	yaw rate:	-2.452	Roll:	17.878	Pitch:	16.984	Yaw:	-130.337	Thrust:	100.000
Time:	4.666	Roll Set Point:	-1.980	Pitch Set Point:	-0.145	Yaw Set Point:	1.377	X_WP:	0.000	Y_WP:	0.000	Z_WP:	0.500	X:	1.049	Y:	-0.743	Z:	0.040	yaw:	-78.922	yaw rate:	0.638	Roll:	17.867	Pitch:	17.342	Yaw:	-131.445	Thrust:	100.000
Time:	4.771	Roll Set Point:	-1.980	Pitch Set Point:	-0.144	Yaw Set Point:	1.377	X_WP:	0.000	Y_WP:	0.000	Z_WP:	0.500	X:	1.049	Y:	-0.743	Z:	0.040	yaw:	-78.888	yaw rate:	-3.080	Roll:	17.957	Pitch:	17.114	Yaw:	-130.994	Thrust:	100.000
Time:	4.873	Roll Set Point:	-1.980	Pitch Set Point:	-0.144	Yaw Set Point:	1.377	X_WP:	0.000	Y_WP:	0.000	Z_WP:	0.500	X:	1.049	Y:	-0.743	Z:	0.040	yaw:	-78.914	yaw rate:	0.072	Roll:	17.718	Pitch:	17.211	Yaw:	-130.602	Thrust:	100.000
Time:	4.982	Roll Set Point:	-1.980	Pitch Set Point:	-0.144	Yaw Set Point:	1.377	X_WP:	0.000	Y_WP:	0.000	Z_WP:	0.500	X:	1.049	Y:	-0.743	Z:	0.040	yaw:	-78.878	yaw rate:	-4.475	Roll:	18.153	Pitch:	17.299	Yaw:	-131.896	Thrust:	100.000
Time:	5.094	Roll Set Point:	-1.979	Pitch Set Point:	-0.145	Yaw Set Point:	1.378	X_WP:	0.000	Y_WP:	0.000	Z_WP:	0.500	X:	1.049	Y:	-0.743	Z:	0.040	yaw:	-78.939	yaw rate:	4.771	Roll:	17.985	Pitch:	17.645	Yaw:	-132.661	Thrust:	100.000
Time:	5.202	Roll Set Point:	-1.980	Pitch Set Point:	-0.144	Yaw Set Point:	1.377	X_WP:	0.000	Y_WP:	0.000	Z_WP:	0.500	X:	1.049	Y:	-0.743	Z:	0.040	yaw:	-78.904	yaw rate:	-1.168	Roll:	18.084	Pitch:	17.244	Yaw:	-131.613	Thrust:	100.000
Time:	5.313	Roll Set Point:	-1.980	Pitch Set Point:	-0.144	Yaw Set Point:	1.377	X_WP:	0.000	Y_WP:	0.000	Z_WP:	0.500	X:	1.049	Y:	-0.743	Z:	0.040	yaw:	-78.917	yaw rate:	1.740	Roll:	18.114	Pitch:	17.530	Yaw:	-132.656	Thrust:	100.000
Time:	5.426	Roll Set Point:	-1.980	Pitch Set Point:	-0.144	Yaw Set Point:	1.377	X_WP:	0.000	Y_WP:	0.000	Z_WP:	0.500	X:	1.049	Y:	-0.743	Z:	0.040	yaw:	-78.917	yaw rate:	0.126	Roll:	18.181	Pitch:	17.527	Yaw:	-132.630	Thrust:	100.000
Time:	5.533	Roll Set Point:	-1.980	Pitch Set Point:	-0.144	Yaw Set Point:	1.377	X_WP:	0.000	Y_WP:	0.000	Z_WP:	0.500	X:	1.049	Y:	-0.743	Z:	0.040	yaw:	-78.903	yaw rate:	-1.029	Roll:	17.996	Pitch:	17.272	Yaw:	-131.693	Thrust:	100.000
Time:	5.648	Roll Set Point:	-1.980	Pitch Set Point:	-0.145	Yaw Set Point:	1.378	X_WP:	0.000	Y_WP:	0.000	Z_WP:	0.500	X:	1.049	Y:	-0.743	Z:	0.040	yaw:	-78.928	yaw rate:	0.370	Roll:	18.216	Pitch:	17.684	Yaw:	-133.077	Thrust:	100.000
Time:	5.763	Roll Set Point:	-1.980	Pitch Set Point:	-0.144	Yaw Set Point:	1.377	X_WP:	0.000	Y_WP:	0.000	Z_WP:	0.500	X:	1.049	Y:	-0.743	Z:	0.040	yaw:	-78.900	yaw rate:	-2.108	Roll:	18.333	Pitch:	17.544	Yaw:	-133.097	Thrust:	100.000
Time:	5.879	Roll Set Point:	-1.980	Pitch Set Point:	-0.145	Yaw Set Point:	1.377	X_WP:	0.000	Y_WP:	0.000	Z_WP:	0.500	X:	1.049	Y:	-0.743	Z:	0.040	yaw:	-78.920	yaw rate:	-0.129	Roll:	18.264	Pitch:	17.709	Yaw:	-133.471	Thrust:	100.000
Time:	5.999	Roll Set Point:	-1.980	Pitch Set Point:	-0.144	Yaw Set Point:	1.377	X_WP:	0.000	Y_WP:	0.000	Z_WP:	0.500	X:	1.049	Y:	-0.743	Z:	0.040	yaw:	-78.896	yaw rate:	-5.054	Roll:	18.499	Pitch:	17.724	Yaw:	-134.201	Thrust:	100.000
Time:	6.118	Roll Set Point:	-1.090	Pitch Set Point:	0.714	Yaw Set Point:	1.377	X_WP:	1.013	Y_WP:	-0.708	Z_WP:	0.500	X:	1.049	Y:	-0.743	Z:	0.040	yaw:	-78.877	yaw rate:	-3.784	Roll:	-30.000	Pitch:	-30.000	Yaw:	-133.813	Thrust:	100.000
Time:	6.237	Roll Set Point:	-1.090	Pitch Set Point:	0.714	Yaw Set Point:	1.377	X_WP:	1.013	Y_WP:	-0.708	Z_WP:	0.500	X:	1.049	Y:	-0.743	Z:	0.040	yaw:	-78.899	yaw rate:	-1.816	Roll:	5.071	Pitch:	4.885	Yaw:	-133.974	Thrust:	100.000
Time:	6.356	Roll Set Point:	-1.090	Pitch Set Point:	0.714	Yaw Set Point:	1.377	X_WP:	1.013	Y_WP:	-0.708	Z_WP:	0.500	X:	1.049	Y:	-0.743	Z:	0.040	yaw:	-78.916	yaw rate:	1.912	Roll:	5.074	Pitch:	4.887	Yaw:	-134.189	Thrust:	100.000
Time:	6.477	Roll Set Point:	-1.090	Pitch Set Point:	0.714	Yaw Set Point:	1.377	X_WP:	1.013	Y_WP:	-0.708	Z_WP:	0.500	X:	1.049	Y:	-0.743	Z:	0.040	yaw:	-78.916	yaw rate:	-1.022	Roll:	5.166	Pitch:	4.977	Yaw:	-134.356	Thrust:	100.000
Time:	6.598	Roll Set Point:	-1.090	Pitch Set Point:	0.714	Yaw Set Point:	1.378	X_WP:	1.013	Y_WP:	-0.708	Z_WP:	0.500	X:	1.049	Y:	-0.743	Z:	0.040	yaw:	-78.937	yaw rate:	6.703	Roll:	5.160	Pitch:	4.974	Yaw:	-134.415	Thrust:	100.000
Time:	6.723	Roll Set Point:	-1.090	Pitch Set Point:	0.714	Yaw Set Point:	1.377	X_WP:	1.013	Y_WP:	-0.708	Z_WP:	0.500	X:	1.049	Y:	-0.743	Z:	0.040	yaw:	-78.921	yaw rate:	-0.255	Roll:	5.306	Pitch:	5.114	Yaw:	-135.165	Thrust:	100.000
Time:	6.846	Roll Set Point:	-1.090	Pitch Set Point:	0.714	Yaw Set Point:	1.377	X_WP:	1.013	Y_WP:	-0.708	Z_WP:	0.500	X:	1.049	Y:	-0.743	Z:	0.040	yaw:	-78.883	yaw rate:	-2.816	Roll:	5.232	Pitch:	5.035	Yaw:	-134.749	Thrust:	100.000
Time:	6.971	Roll Set Point:	-1.090	Pitch Set Point:	0.714	Yaw Set Point:	1.377	X_WP:	1.013	Y_WP:	-0.708	Z_WP:	0.500	X:	1.049	Y:	-0.743	Z:	0.040	yaw:	-78.883	yaw rate:	-4.709	Roll:	5.307	Pitch:	5.117	Yaw:	-135.156	Thrust:	100.000
Time:	7.098	Roll Set Point:	-1.090	Pitch Set Point:	0.714	Yaw Set Point:	1.378	X_WP:	1.013	Y_WP:	-0.708	Z_WP:	0.500	X:	1.049	Y:	-0.742	Z:	0.040	yaw:	-78.947	yaw rate:	3.316	Roll:	5.333	Pitch:	5.155	Yaw:	-135.458	Thrust:	100.000
Time:	7.222	Roll Set Point:	-1.090	Pitch Set Point:	0.714	Yaw Set Point:	1.378	X_WP:	1.013	Y_WP:	-0.708	Z_WP:	0.500	X:	1.049	Y:	-0.743	Z:	0.040	yaw:	-78.928	yaw rate:	5.467	Roll:	5.306	Pitch:	5.113	Yaw:	-135.168	Thrust:	100.000
Time:	7.348	Roll Set Point:	-1.090	Pitch Set Point:	0.714	Yaw Set Point:	1.377	X_WP:	1.013	Y_WP:	-0.708	Z_WP:	0.500	X:	1.049	Y:	-0.743	Z:	0.040	yaw:	-78.901	yaw rate:	-0.346	Roll:	5.314	Pitch:	5.120	Yaw:	-135.239	Thrust:	100.000
Time:	7.477	Roll Set Point:	-1.090	Pitch Set Point:	0.714	Yaw Set Point:	1.377	X_WP:	1.013	Y_WP:	-0.708	Z_WP:	0.500	X:	1.049	Y:	-0.743	Z:	0.040	yaw:	-78.891	yaw rate:	-1.339	Roll:	5.484	Pitch:	5.292	Yaw:	-136.083	Thrust:	100.000
Time:	7.606	Roll Set Point:	-1.090	Pitch Set Point:	0.714	Yaw Set Point:	1.377	X_WP:	1.013	Y_WP:	-0.708	Z_WP:	0.500	X:	1.049	Y:	-0.743	Z:	0.040	yaw:	-78.913	yaw rate:	-1.323	Roll:	5.427	Pitch:	5.240	Yaw:	-135.898	Thrust:	100.000
Time:	7.736	Roll Set Point:	-1.090	Pitch Set Point:	0.714	Yaw Set Point:	1.378	X_WP:	1.013	Y_WP:	-0.708	Z_WP:	0.500	X:	1.049	Y:	-0.743	Z:	0.040	yaw:	-78.930	yaw rate:	4.688	Roll:	5.514	Pitch:	5.328	Yaw:	-136.379	Thrust:	100.000
Time:	7.866	Roll Set Point:	-1.090	Pitch Set Point:	0.714	Yaw Set Point:	1.377	X_WP:	1.013	Y_WP:	-0.708	Z_WP:	0.500	X:	1.049	Y:	-0.743	Z:	0.040	yaw:	-78.902	yaw rate:	3.827	Roll:	5.485	Pitch:	5.291	Yaw:	-135.967	Thrust:	100.000
Time:	7.994	Roll Set Point:	-1.090	Pitch Set Point:	0.714	Yaw Set Point:	1.377	X_WP:	1.013	Y_WP:	-0.708	Z_WP:	0.500	X:	1.049	Y:	-0.743	Z:	0.040	yaw:	-78.911	yaw rate:	4.036	Roll:	5.403	Pitch:	5.215	Yaw:	-135.729	Thrust:	100.000
Time:	8.123	Roll Set Point:	-1.090	Pitch Set Point:	0.714	Yaw Set Point:	1.377	X_WP:	1.013	Y_WP:	-0.708	Z_WP:	0.500	X:	1.049	Y:	-0.743	Z:	0.040	yaw:	-78.916	yaw rate:	0.198	Roll:	5.484	Pitch:	5.294	Yaw:	-136.157	Thrust:	100.000
Time:	8.257	Roll Set Point:	-1.090	Pitch Set Point:	0.714	Yaw Set Point:	1.377	X_WP:	1.013	Y_WP:	-0.708	Z_WP:	0.500	X:	1.049	Y:	-0.743	Z:	0.040	yaw:	-78.885	yaw rate:	-2.830	Roll:	5.644	Pitch:	5.449	Yaw:	-136.884	Thrust:	100.000
Time:	8.392	Roll Set Point:	-1.090	Pitch Set Point:	0.714	Yaw Set Point:	1.378	X_WP:	1.013	Y_WP:	-0.708	Z_WP:	0.500	X:	1.049	Y:	-0.742	Z:	0.040	yaw:	-78.927	yaw rate:	0.393	Roll:	5.643	Pitch:	5.475	Yaw:	-137.186	Thrust:	100.000
Time:	8.527	Roll Set Point:	-1.090	Pitch Set Point:	0.714	Yaw Set Point:	1.377	X_WP:	1.013	Y_WP:	-0.708	Z_WP:	0.500	X:	1.049	Y:	-0.743	Z:	0.040	yaw:	-78.915	yaw rate:	-1.534	Roll:	5.710	Pitch:	5.503	Yaw:	-137.244	Thrust:	100.000
Time:	8.663	Roll Set Point:	-1.090	Pitch Set Point:	0.714	Yaw Set Point:	1.378	X_WP:	1.013	Y_WP:	-0.708	Z_WP:	0.500	X:	1.049	Y:	-0.743	Z:	0.040	yaw:	-78.939	yaw rate:	2.532	Roll:	5.710	Pitch:	5.524	Yaw:	-137.436	Thrust:	100.000
Time:	8.804	Roll Set Point:	-1.090	Pitch Set Point:	0.714	Yaw Set Point:	1.378	X_WP:	1.013	Y_WP:	-0.708	Z_WP:	0.500	X:	1.049	Y:	-0.743	Z:	0.040	yaw:	-78.928	yaw rate:	-0.751	Roll:	5.899	Pitch:	5.708	Yaw:	-138.355	Thrust:	100.000
Time:	8.942	Roll Set Point:	-1.090	Pitch Set Point:	0.714	Yaw Set Point:	1.377	X_WP:	1.013	Y_WP:	-0.708	Z_WP:	0.500	X:	1.049	Y:	-0.743	Z:	0.040	yaw:	-78.905	yaw rate:	-0.910	Roll:	5.780	Pitch:	5.587	Yaw:	-137.742	Thrust:	100.000
Time:	9.082	Roll Set Point:	-1.090	Pitch Set Point:	0.714	Yaw Set Point:	1.378	X_WP:	1.013	Y_WP:	-0.708	Z_WP:	0.500	X:	1.049	Y:	-0.743	Z:	0.040	yaw:	-78.937	yaw rate:	1.886	Roll:	5.866	Pitch:	5.696	Yaw:	-138.278	Thrust:	100.000
Time:	9.221	Roll Set Point:	-1.090	Pitch Set Point:	0.717	Yaw Set Point:	1.316	X_WP:	1.011	Y_WP:	-0.708	Z_WP:	0.500	X:	1.047	Y:	-0.743	Z:	0.039	yaw:	-75.410	yaw rate:	-4.509	Roll:	6.089	Pitch:	5.286	Yaw:	-126.516	Thrust:	100.000
Time:	9.363	Roll Set Point:	-1.090	Pitch Set Point:	0.714	Yaw Set Point:	1.380	X_WP:	1.013	Y_WP:	-0.708	Z_WP:	0.500	X:	1.049	Y:	-0.743	Z:	0.040	yaw:	-79.049	yaw rate:	19.726	Roll:	5.722	Pitch:	6.075	Yaw:	-145.456	Thrust:	100.000
Time:	9.504	Roll Set Point:	-1.090	Pitch Set Point:	0.717	Yaw Set Point:	1.317	X_WP:	1.011	Y_WP:	-0.708	Z_WP:	0.500	X:	1.047	Y:	-0.743	Z:	0.039	yaw:	-75.431	yaw rate:	28.880	Roll:	6.131	Pitch:	5.334	Yaw:	-126.847	Thrust:	100.000
Time:	9.648	Roll Set Point:	-1.090	Pitch Set Point:	0.717	Yaw Set Point:	1.313	X_WP:	1.011	Y_WP:	-0.708	Z_WP:	0.500	X:	1.047	Y:	-0.743	Z:	0.039	yaw:	-75.235	yaw rate:	3.634	Roll:	6.068	Pitch:	5.783	Yaw:	-133.560	Thrust:	100.000
Time:	9.792	Roll Set Point:	-1.090	Pitch Set Point:	0.717	Yaw Set Point:	1.317	X_WP:	1.011	Y_WP:	-0.708	Z_WP:	0.500	X:	1.047	Y:	-0.743	Z:	0.039	yaw:	-75.468	yaw rate:	21.090	Roll:	6.028	Pitch:	5.805	Yaw:	-134.594	Thrust:	100.000
Time:	9.938	Roll Set Point:	-1.090	Pitch Set Point:	0.717	Yaw Set Point:	1.317	X_WP:	1.011	Y_WP:	-0.708	Z_WP:	0.500	X:	1.047	Y:	-0.743	Z:	0.039	yaw:	-75.460	yaw rate:	-2.518	Roll:	6.089	Pitch:	5.834	Yaw:	-134.299	Thrust:	100.000
Time:	10.136	Roll Set Point:	-1.090	Pitch Set Point:	0.717	Yaw Set Point:	1.314	X_WP:	1.011	Y_WP:	-0.708	Z_WP:	0.500	X:	1.047	Y:	-0.743	Z:	0.039	yaw:	-75.259	yaw rate:	5.499	Roll:	8.080	Pitch:	7.823	Yaw:	-144.545	Thrust:	100.000
Time:	10.338	Roll Set Point:	-1.091	Pitch Set Point:	0.714	Yaw Set Point:	1.374	X_WP:	1.014	Y_WP:	-0.707	Z_WP:	0.500	X:	1.050	Y:	-0.742	Z:	0.040	yaw:	-78.697	yaw rate:	-6.365	Roll:	8.081	Pitch:	8.227	Yaw:	-154.869	Thrust:	100.000
Time:	10.481	Roll Set Point:	-1.092	Pitch Set Point:	0.720	Yaw Set Point:	1.277	X_WP:	1.013	Y_WP:	-0.709	Z_WP:	0.500	X:	1.049	Y:	-0.744	Z:	0.041	yaw:	-73.171	yaw rate:	1.754	Roll:	6.294	Pitch:	5.194	Yaw:	-120.414	Thrust:	100.000
Time:	10.625	Roll Set Point:	-1.092	Pitch Set Point:	0.720	Yaw Set Point:	1.286	X_WP:	1.013	Y_WP:	-0.709	Z_WP:	0.500	X:	1.048	Y:	-0.744	Z:	0.041	yaw:	-73.710	yaw rate:	14.320	Roll:	6.064	Pitch:	5.852	Yaw:	-132.791	Thrust:	100.000
Time:	10.772	Roll Set Point:	-1.090	Pitch Set Point:	0.717	Yaw Set Point:	1.378	X_WP:	1.013	Y_WP:	-0.711	Z_WP:	0.500	X:	1.049	Y:	-0.746	Z:	0.040	yaw:	-78.963	yaw rate:	45.634	Roll:	5.839	Pitch:	6.377	Yaw:	-149.042	Thrust:	100.000
Time:	10.917	Roll Set Point:	-1.090	Pitch Set Point:	0.717	Yaw Set Point:	1.382	X_WP:	1.013	Y_WP:	-0.711	Z_WP:	0.500	X:	1.049	Y:	-0.746	Z:	0.040	yaw:	-79.177	yaw rate:	14.280	Roll:	6.055	Pitch:	5.899	Yaw:	-139.912	Thrust:	100.000
Time:	11.070	Roll Set Point:	-1.093	Pitch Set Point:	0.719	Yaw Set Point:	1.240	X_WP:	1.013	Y_WP:	-0.707	Z_WP:	0.500	X:	1.048	Y:	-0.742	Z:	0.039	yaw:	-71.074	yaw rate:	-12.431	Roll:	6.789	Pitch:	5.391	Yaw:	-115.969	Thrust:	100.000
Time:	11.226	Roll Set Point:	-1.077	Pitch Set Point:	0.702	Yaw Set Point:	1.503	X_WP:	1.004	Y_WP:	-0.701	Z_WP:	0.500	X:	1.040	Y:	-0.736	Z:	0.091	yaw:	-86.137	yaw rate:	19701.842	Roll:	5.611	Pitch:	7.514	Yaw:	-176.728	Thrust:	100.000
Time:	11.406	Roll Set Point:	-1.034	Pitch Set Point:	0.729	Yaw Set Point:	0.230	X_WP:	0.957	Y_WP:	-0.667	Z_WP:	0.500	X:	0.992	Y:	-0.703	Z:	0.278	yaw:	-13.177	yaw rate:	-66.122	Roll:	7.852	Pitch:	0.680	Yaw:	51.875	Thrust:	100.000
Time:	11.558	Roll Set Point:	-0.976	Pitch Set Point:	0.632	Yaw Set Point:	1.265	X_WP:	0.896	Y_WP:	-0.618	Z_WP:	0.500	X:	0.931	Y:	-0.654	Z:	0.526	yaw:	-72.482	yaw rate:	91.864	Roll:	6.703	Pitch:	11.438	Yaw:	-233.318	Thrust:	100.000
Time:	11.715	Roll Set Point:	-0.934	Pitch Set Point:	0.586	Yaw Set Point:	1.293	X_WP:	0.855	Y_WP:	-0.572	Z_WP:	0.500	X:	0.889	Y:	-0.609	Z:	0.709	yaw:	-74.071	yaw rate:	-226.452	Roll:	6.496	Pitch:	6.286	Yaw:	-137.457	Thrust:	100.000
Time:	11.873	Roll Set Point:	-0.888	Pitch Set Point:	0.555	Yaw Set Point:	1.291	X_WP:	0.809	Y_WP:	-0.539	Z_WP:	0.500	X:	0.842	Y:	-0.576	Z:	0.863	yaw:	-73.944	yaw rate:	5.766	Roll:	6.652	Pitch:	6.090	Yaw:	-134.549	Thrust:	100.000
Time:	12.029	Roll Set Point:	-1.577	Pitch Set Point:	-0.015	Yaw Set Point:	1.251	X_WP:	0.000	Y_WP:	0.000	Z_WP:	-0.100	X:	0.794	Y:	-0.562	Z:	0.955	yaw:	-71.673	yaw rate:	-20.446	Roll:	30.000	Pitch:	30.000	Yaw:	-127.511	Thrust:	100.000
Time:	12.187	Roll Set Point:	-1.537	Pitch Set Point:	0.005	Yaw Set Point:	1.225	X_WP:	0.000	Y_WP:	0.000	Z_WP:	-0.100	X:	0.767	Y:	-0.543	Z:	0.995	yaw:	-70.212	yaw rate:	9.484	Roll:	16.048	Pitch:	9.719	Yaw:	-127.200	Thrust:	100.000
Time:	12.347	Roll Set Point:	-1.513	Pitch Set Point:	0.020	Yaw Set Point:	1.184	X_WP:	0.000	Y_WP:	0.000	Z_WP:	-0.100	X:	0.750	Y:	-0.519	Z:	1.010	yaw:	-67.854	yaw rate:	-45.869	Roll:	16.683	Pitch:	9.417	Yaw:	-122.958	Thrust:	100.000
Time:	12.510	Roll Set Point:	-1.471	Pitch Set Point:	-0.001	Yaw Set Point:	1.163	X_WP:	0.000	Y_WP:	0.000	Z_WP:	-0.100	X:	0.736	Y:	-0.483	Z:	1.015	yaw:	-66.616	yaw rate:	-53.711	Roll:	14.234	Pitch:	11.778	Yaw:	-123.598	Thrust:	100.000
