Time:	0.039	Roll Set Point:	-0.010	Pitch Set Point:	0.031	Yaw Set Point:	0.080	X_WP:	0.000	Y_WP:	0.000	Y_WP:	0.750	X:	0.004	Y:	-0.016	Z:	0.053	yaw:	-4.598	yaw rate:	-6.645	Roll:	0.165	Pitch:	-0.446	Yaw:	-6.421	Thrust:	38.356
Time:	0.059	Roll Set Point:	-0.010	Pitch Set Point:	0.031	Yaw Set Point:	0.080	X_WP:	0.000	Y_WP:	0.000	Y_WP:	0.750	X:	0.004	Y:	-0.016	Z:	0.053	yaw:	-4.574	yaw rate:	-2.403	Roll:	0.170	Pitch:	-0.438	Yaw:	-6.092	Thrust:	39.900
Time:	0.079	Roll Set Point:	-0.010	Pitch Set Point:	0.031	Yaw Set Point:	0.085	X_WP:	0.000	Y_WP:	0.000	Y_WP:	0.750	X:	0.004	Y:	-0.016	Z:	0.053	yaw:	-4.861	yaw rate:	28.673	Roll:	0.114	Pitch:	-0.238	Yaw:	-10.416	Thrust:	41.815
Time:	0.099	Roll Set Point:	-0.010	Pitch Set Point:	0.031	Yaw Set Point:	0.079	X_WP:	0.000	Y_WP:	0.000	Y_WP:	0.750	X:	0.004	Y:	-0.016	Z:	0.052	yaw:	-4.546	yaw rate:	-31.515	Roll:	0.194	Pitch:	-0.737	Yaw:	-2.032	Thrust:	43.551
Time:	0.118	Roll Set Point:	-0.011	Pitch Set Point:	0.032	Yaw Set Point:	0.072	X_WP:	0.000	Y_WP:	0.000	Y_WP:	0.750	X:	0.005	Y:	-0.016	Z:	0.052	yaw:	-4.102	yaw rate:	-44.439	Roll:	0.332	Pitch:	-0.702	Yaw:	0.062	Thrust:	45.671
Time:	0.138	Roll Set Point:	-0.010	Pitch Set Point:	0.031	Yaw Set Point:	0.079	X_WP:	0.000	Y_WP:	0.000	Y_WP:	0.750	X:	0.004	Y:	-0.016	Z:	0.052	yaw:	-4.500	yaw rate:	39.826	Roll:	-0.047	Pitch:	-0.140	Yaw:	-11.459	Thrust:	46.386
Time:	0.159	Roll Set Point:	-0.009	Pitch Set Point:	0.031	Yaw Set Point:	0.066	X_WP:	0.000	Y_WP:	0.000	Y_WP:	0.750	X:	0.004	Y:	-0.015	Z:	0.052	yaw:	-3.779	yaw rate:	-72.121	Roll:	-0.169	Pitch:	-0.292	Yaw:	3.468	Thrust:	49.760
Time:	0.179	Roll Set Point:	-0.010	Pitch Set Point:	0.031	Yaw Set Point:	0.080	X_WP:	0.000	Y_WP:	0.000	Y_WP:	0.750	X:	0.005	Y:	-0.016	Z:	0.052	yaw:	-4.587	yaw rate:	80.796	Roll:	0.634	Pitch:	-0.727	Yaw:	-17.322	Thrust:	49.454
Time:	0.199	Roll Set Point:	-0.010	Pitch Set Point:	0.031	Yaw Set Point:	0.086	X_WP:	0.000	Y_WP:	0.000	Y_WP:	0.750	X:	0.005	Y:	-0.016	Z:	0.053	yaw:	-4.908	yaw rate:	32.136	Roll:	0.259	Pitch:	-0.348	Yaw:	-11.273	Thrust:	50.887
Time:	0.218	Roll Set Point:	-0.010	Pitch Set Point:	0.031	Yaw Set Point:	0.079	X_WP:	0.000	Y_WP:	0.000	Y_WP:	0.750	X:	0.005	Y:	-0.016	Z:	0.052	yaw:	-4.513	yaw rate:	-39.526	Roll:	0.076	Pitch:	-0.546	Yaw:	-1.170	Thrust:	53.178
Time:	0.238	Roll Set Point:	-0.010	Pitch Set Point:	0.031	Yaw Set Point:	0.075	X_WP:	0.000	Y_WP:	0.000	Y_WP:	0.750	X:	0.004	Y:	-0.016	Z:	0.053	yaw:	-4.297	yaw rate:	-21.530	Roll:	-0.024	Pitch:	-0.302	Yaw:	-3.504	Thrust:	55.653
Time:	0.259	Roll Set Point:	-0.010	Pitch Set Point:	0.031	Yaw Set Point:	0.078	X_WP:	0.000	Y_WP:	0.000	Y_WP:	0.750	X:	0.004	Y:	-0.016	Z:	0.053	yaw:	-4.497	yaw rate:	19.923	Roll:	0.262	Pitch:	-0.432	Yaw:	-9.200	Thrust:	56.517
Time:	0.279	Roll Set Point:	-0.010	Pitch Set Point:	0.031	Yaw Set Point:	0.081	X_WP:	0.000	Y_WP:	0.000	Y_WP:	0.750	X:	0.004	Y:	-0.016	Z:	0.053	yaw:	-4.655	yaw rate:	15.832	Roll:	0.212	Pitch:	-0.595	Yaw:	-8.981	Thrust:	58.256
Time:	0.298	Roll Set Point:	-0.010	Pitch Set Point:	0.032	Yaw Set Point:	0.077	X_WP:	0.000	Y_WP:	0.000	Y_WP:	0.750	X:	0.004	Y:	-0.016	Z:	0.053	yaw:	-4.434	yaw rate:	-22.082	Roll:	-0.071	Pitch:	-0.624	Yaw:	-3.687	Thrust:	59.986
Time:	0.318	Roll Set Point:	-0.010	Pitch Set Point:	0.032	Yaw Set Point:	0.086	X_WP:	0.000	Y_WP:	0.000	Y_WP:	0.750	X:	0.004	Y:	-0.016	Z:	0.053	yaw:	-4.902	yaw rate:	46.825	Roll:	0.307	Pitch:	-0.646	Yaw:	-13.495	Thrust:	61.393
Time:	0.339	Roll Set Point:	-0.009	Pitch Set Point:	0.032	Yaw Set Point:	0.074	X_WP:	0.000	Y_WP:	0.000	Y_WP:	0.750	X:	0.004	Y:	-0.016	Z:	0.053	yaw:	-4.262	yaw rate:	-64.015	Roll:	-0.356	Pitch:	-0.405	Yaw:	1.847	Thrust:	62.565
Time:	0.359	Roll Set Point:	-0.008	Pitch Set Point:	0.032	Yaw Set Point:	0.091	X_WP:	0.000	Y_WP:	0.000	Y_WP:	0.750	X:	0.003	Y:	-0.016	Z:	0.054	yaw:	-5.212	yaw rate:	94.934	Roll:	0.050	Pitch:	-0.494	Yaw:	-19.465	Thrust:	65.455
Time:	0.380	Roll Set Point:	-0.007	Pitch Set Point:	0.032	Yaw Set Point:	0.087	X_WP:	0.000	Y_WP:	0.000	Y_WP:	0.750	X:	0.003	Y:	-0.016	Z:	0.055	yaw:	-4.996	yaw rate:	-21.545	Roll:	-0.357	Pitch:	-0.312	Yaw:	-4.643	Thrust:	63.546
Time:	0.398	Roll Set Point:	-0.007	Pitch Set Point:	0.032	Yaw Set Point:	0.089	X_WP:	0.000	Y_WP:	0.000	Y_WP:	0.750	X:	0.003	Y:	-0.016	Z:	0.057	yaw:	-5.125	yaw rate:	12.919	Roll:	-0.037	Pitch:	-0.547	Yaw:	-9.497	Thrust:	62.465
Time:	0.421	Roll Set Point:	-0.005	Pitch Set Point:	0.031	Yaw Set Point:	0.081	X_WP:	0.000	Y_WP:	0.000	Y_WP:	0.750	X:	0.002	Y:	-0.016	Z:	0.059	yaw:	-4.643	yaw rate:	-48.223	Roll:	-0.678	Pitch:	-0.309	Yaw:	-1.813	Thrust:	71.218
Time:	0.438	Roll Set Point:	-0.003	Pitch Set Point:	0.030	Yaw Set Point:	0.055	X_WP:	0.000	Y_WP:	0.000	Y_WP:	0.750	X:	0.001	Y:	-0.015	Z:	0.061	yaw:	-3.151	yaw rate:	-149.214	Roll:	-1.046	Pitch:	-0.154	Yaw:	17.957	Thrust:	59.407
Time:	0.458	Roll Set Point:	-0.003	Pitch Set Point:	0.031	Yaw Set Point:	0.073	X_WP:	0.000	Y_WP:	0.000	Y_WP:	0.750	X:	0.001	Y:	-0.016	Z:	0.065	yaw:	-4.155	yaw rate:	100.364	Roll:	0.063	Pitch:	-0.664	Yaw:	-19.659	Thrust:	64.500
Time:	0.478	Roll Set Point:	-0.001	Pitch Set Point:	0.030	Yaw Set Point:	0.069	X_WP:	0.000	Y_WP:	0.000	Y_WP:	0.750	X:	0.000	Y:	-0.015	Z:	0.070	yaw:	-3.954	yaw rate:	-20.037	Roll:	-0.738	Pitch:	-0.074	Yaw:	-3.623	Thrust:	63.804
Time:	0.498	Roll Set Point:	0.001	Pitch Set Point:	0.030	Yaw Set Point:	0.061	X_WP:	0.000	Y_WP:	0.000	Y_WP:	0.750	X:	-0.001	Y:	-0.015	Z:	0.075	yaw:	-3.496	yaw rate:	-45.774	Roll:	-0.770	Pitch:	-0.270	Yaw:	0.401	Thrust:	62.388
Time:	0.519	Roll Set Point:	0.001	Pitch Set Point:	0.029	Yaw Set Point:	0.076	X_WP:	0.000	Y_WP:	0.000	Y_WP:	0.750	X:	-0.001	Y:	-0.015	Z:	0.081	yaw:	-4.357	yaw rate:	86.077	Roll:	-0.211	Pitch:	-0.372	Yaw:	-18.500	Thrust:	63.905
Time:	0.538	Roll Set Point:	0.003	Pitch Set Point:	0.028	Yaw Set Point:	0.066	X_WP:	0.000	Y_WP:	0.000	Y_WP:	0.750	X:	-0.002	Y:	-0.014	Z:	0.087	yaw:	-3.790	yaw rate:	-56.734	Roll:	-0.892	Pitch:	0.147	Yaw:	1.134	Thrust:	65.201
Time:	0.560	Roll Set Point:	0.005	Pitch Set Point:	0.027	Yaw Set Point:	0.060	X_WP:	0.000	Y_WP:	0.000	Y_WP:	0.750	X:	-0.003	Y:	-0.014	Z:	0.094	yaw:	-3.411	yaw rate:	-37.863	Roll:	-0.730	Pitch:	-0.104	Yaw:	-0.766	Thrust:	65.713
Time:	0.579	Roll Set Point:	0.007	Pitch Set Point:	0.026	Yaw Set Point:	0.064	X_WP:	0.000	Y_WP:	0.000	Y_WP:	0.750	X:	-0.004	Y:	-0.013	Z:	0.101	yaw:	-3.683	yaw rate:	27.227	Roll:	-0.966	Pitch:	0.100	Yaw:	-9.564	Thrust:	62.874
Time:	0.598	Roll Set Point:	0.009	Pitch Set Point:	0.025	Yaw Set Point:	0.052	X_WP:	0.000	Y_WP:	0.000	Y_WP:	0.750	X:	-0.005	Y:	-0.012	Z:	0.109	yaw:	-2.998	yaw rate:	-68.587	Roll:	-1.306	Pitch:	0.084	Yaw:	4.057	Thrust:	63.299
Time:	0.618	Roll Set Point:	0.011	Pitch Set Point:	0.023	Yaw Set Point:	0.056	X_WP:	0.000	Y_WP:	0.000	Y_WP:	0.750	X:	-0.006	Y:	-0.012	Z:	0.118	yaw:	-3.189	yaw rate:	19.180	Roll:	-1.008	Pitch:	0.200	Yaw:	-7.877	Thrust:	61.503
Time:	0.644	Roll Set Point:	0.013	Pitch Set Point:	0.022	Yaw Set Point:	0.052	X_WP:	0.000	Y_WP:	0.000	Y_WP:	0.750	X:	-0.007	Y:	-0.011	Z:	0.127	yaw:	-2.999	yaw rate:	-19.059	Roll:	-0.894	Pitch:	0.116	Yaw:	-3.140	Thrust:	75.344
Time:	0.659	Roll Set Point:	0.016	Pitch Set Point:	0.020	Yaw Set Point:	0.061	X_WP:	0.000	Y_WP:	0.000	Y_WP:	0.750	X:	-0.008	Y:	-0.010	Z:	0.137	yaw:	-3.470	yaw rate:	47.118	Roll:	-1.702	Pitch:	0.460	Yaw:	-12.814	Thrust:	51.985
Time:	0.678	Roll Set Point:	0.018	Pitch Set Point:	0.019	Yaw Set Point:	0.045	X_WP:	0.000	Y_WP:	0.000	Y_WP:	0.750	X:	-0.009	Y:	-0.009	Z:	0.147	yaw:	-2.604	yaw rate:	-86.579	Roll:	-1.115	Pitch:	0.419	Yaw:	7.211	Thrust:	60.272
Time:	0.698	Roll Set Point:	0.021	Pitch Set Point:	0.017	Yaw Set Point:	0.058	X_WP:	0.000	Y_WP:	0.000	Y_WP:	0.750	X:	-0.011	Y:	-0.008	Z:	0.157	yaw:	-3.326	yaw rate:	72.177	Roll:	-1.518	Pitch:	0.337	Yaw:	-15.138	Thrust:	61.489
Time:	0.718	Roll Set Point:	0.024	Pitch Set Point:	0.015	Yaw Set Point:	0.053	X_WP:	0.000	Y_WP:	0.000	Y_WP:	0.750	X:	-0.012	Y:	-0.007	Z:	0.168	yaw:	-3.058	yaw rate:	-26.767	Roll:	-1.568	Pitch:	0.445	Yaw:	-1.768	Thrust:	63.967
Time:	0.739	Roll Set Point:	0.026	Pitch Set Point:	0.014	Yaw Set Point:	0.047	X_WP:	0.000	Y_WP:	0.000	Y_WP:	0.750	X:	-0.013	Y:	-0.007	Z:	0.180	yaw:	-2.683	yaw rate:	-37.557	Roll:	-1.172	Pitch:	0.445	Yaw:	-0.262	Thrust:	67.966
Time:	0.759	Roll Set Point:	0.028	Pitch Set Point:	0.012	Yaw Set Point:	0.039	X_WP:	0.000	Y_WP:	0.000	Y_WP:	0.750	X:	-0.014	Y:	-0.006	Z:	0.192	yaw:	-2.250	yaw rate:	-43.309	Roll:	-1.587	Pitch:	0.739	Yaw:	1.870	Thrust:	57.190
Time:	0.779	Roll Set Point:	0.031	Pitch Set Point:	0.011	Yaw Set Point:	0.058	X_WP:	0.000	Y_WP:	0.000	Y_WP:	0.750	X:	-0.016	Y:	-0.005	Z:	0.204	yaw:	-3.299	yaw rate:	104.960	Roll:	-1.425	Pitch:	0.081	Yaw:	-19.048	Thrust:	63.680
Time:	0.799	Roll Set Point:	0.033	Pitch Set Point:	0.009	Yaw Set Point:	0.053	X_WP:	0.000	Y_WP:	0.000	Y_WP:	0.750	X:	-0.017	Y:	-0.004	Z:	0.216	yaw:	-3.024	yaw rate:	-27.568	Roll:	-1.572	Pitch:	0.573	Yaw:	-1.592	Thrust:	61.064
Time:	0.818	Roll Set Point:	0.036	Pitch Set Point:	0.007	Yaw Set Point:	0.051	X_WP:	0.000	Y_WP:	0.000	Y_WP:	0.750	X:	-0.018	Y:	-0.003	Z:	0.229	yaw:	-2.932	yaw rate:	-9.145	Roll:	-1.583	Pitch:	0.522	Yaw:	-3.924	Thrust:	59.474
Time:	0.838	Roll Set Point:	0.038	Pitch Set Point:	0.006	Yaw Set Point:	0.043	X_WP:	0.000	Y_WP:	0.000	Y_WP:	0.750	X:	-0.019	Y:	-0.002	Z:	0.242	yaw:	-2.456	yaw rate:	-47.635	Roll:	-1.491	Pitch:	0.619	Yaw:	1.685	Thrust:	62.443
Time:	0.859	Roll Set Point:	0.040	Pitch Set Point:	0.004	Yaw Set Point:	0.046	X_WP:	0.000	Y_WP:	0.000	Y_WP:	0.750	X:	-0.020	Y:	-0.002	Z:	0.255	yaw:	-2.627	yaw rate:	17.121	Roll:	-1.582	Pitch:	0.525	Yaw:	-6.979	Thrust:	65.734
Time:	0.879	Roll Set Point:	0.043	Pitch Set Point:	0.004	Yaw Set Point:	0.065	X_WP:	0.000	Y_WP:	0.000	Y_WP:	0.750	X:	-0.021	Y:	-0.001	Z:	0.268	yaw:	-3.705	yaw rate:	107.843	Roll:	-1.625	Pitch:	-0.062	Yaw:	-21.015	Thrust:	58.811
Time:	0.899	Roll Set Point:	0.045	Pitch Set Point:	0.002	Yaw Set Point:	0.063	X_WP:	0.000	Y_WP:	0.000	Y_WP:	0.750	X:	-0.022	Y:	-0.000	Z:	0.282	yaw:	-3.586	yaw rate:	-11.899	Roll:	-1.645	Pitch:	0.440	Yaw:	-4.721	Thrust:	65.595
Time:	0.919	Roll Set Point:	0.047	Pitch Set Point:	-0.000	Yaw Set Point:	0.044	X_WP:	0.000	Y_WP:	0.000	Y_WP:	0.750	X:	-0.023	Y:	0.001	Z:	0.296	yaw:	-2.520	yaw rate:	-106.687	Roll:	-1.582	Pitch:	1.246	Yaw:	10.262	Thrust:	53.791
Time:	0.938	Roll Set Point:	0.049	Pitch Set Point:	-0.001	Yaw Set Point:	0.036	X_WP:	0.000	Y_WP:	0.000	Y_WP:	0.750	X:	-0.024	Y:	0.001	Z:	0.310	yaw:	-2.034	yaw rate:	-48.552	Roll:	-1.509	Pitch:	0.445	Yaw:	2.083	Thrust:	62.147
Time:	0.960	Roll Set Point:	0.051	Pitch Set Point:	-0.002	Yaw Set Point:	0.037	X_WP:	0.000	Y_WP:	0.000	Y_WP:	0.750	X:	-0.025	Y:	0.002	Z:	0.325	yaw:	-2.145	yaw rate:	11.092	Roll:	-1.482	Pitch:	0.518	Yaw:	-5.660	Thrust:	66.565
Time:	0.980	Roll Set Point:	0.053	Pitch Set Point:	-0.004	Yaw Set Point:	0.039	X_WP:	0.000	Y_WP:	0.000	Y_WP:	0.750	X:	-0.026	Y:	0.002	Z:	0.340	yaw:	-2.227	yaw rate:	8.198	Roll:	-1.753	Pitch:	0.536	Yaw:	-5.420	Thrust:	62.870
Time:	0.998	Roll Set Point:	0.054	Pitch Set Point:	-0.004	Yaw Set Point:	0.032	X_WP:	0.000	Y_WP:	0.000	Y_WP:	0.750	X:	-0.027	Y:	0.003	Z:	0.354	yaw:	-1.813	yaw rate:	-41.374	Roll:	-1.479	Pitch:	0.399	Yaw:	2.188	Thrust:	51.991
Time:	1.018	Roll Set Point:	0.000	Pitch Set Point:	0.867	Yaw Set Point:	0.045	X_WP:	-0.018	Y_WP:	0.873	Y_WP:	0.750	X:	-0.028	Y:	0.003	Z:	0.369	yaw:	-2.574	yaw rate:	76.073	Roll:	30.000	Pitch:	-30.000	Yaw:	-14.773	Thrust:	60.755
Time:	1.038	Roll Set Point:	0.007	Pitch Set Point:	0.866	Yaw Set Point:	0.038	X_WP:	-0.018	Y_WP:	0.873	Y_WP:	0.750	X:	-0.029	Y:	0.003	Z:	0.384	yaw:	-2.199	yaw rate:	-37.479	Roll:	-4.865	Pitch:	-25.263	Yaw:	0.538	Thrust:	60.335
Time:	1.059	Roll Set Point:	0.009	Pitch Set Point:	0.865	Yaw Set Point:	0.038	X_WP:	-0.018	Y_WP:	0.873	Y_WP:	0.750	X:	-0.030	Y:	0.004	Z:	0.400	yaw:	-2.162	yaw rate:	-3.757	Roll:	-0.588	Pitch:	-24.996	Yaw:	-3.887	Thrust:	62.954
Time:	1.079	Roll Set Point:	0.010	Pitch Set Point:	0.865	Yaw Set Point:	0.038	X_WP:	-0.018	Y_WP:	0.873	Y_WP:	0.750	X:	-0.031	Y:	0.004	Z:	0.416	yaw:	-2.200	yaw rate:	3.872	Roll:	0.378	Pitch:	-25.094	Yaw:	-4.893	Thrust:	58.768
Time:	1.098	Roll Set Point:	0.026	Pitch Set Point:	0.864	Yaw Set Point:	0.023	X_WP:	-0.018	Y_WP:	0.873	Y_WP:	0.750	X:	-0.031	Y:	0.004	Z:	0.432	yaw:	-1.292	yaw rate:	-90.856	Roll:	-12.842	Pitch:	-25.158	Yaw:	9.097	Thrust:	54.010
Time:	1.119	Roll Set Point:	0.029	Pitch Set Point:	0.862	Yaw Set Point:	0.021	X_WP:	-0.018	Y_WP:	0.873	Y_WP:	0.750	X:	-0.032	Y:	0.006	Z:	0.448	yaw:	-1.197	yaw rate:	-9.458	Roll:	-1.558	Pitch:	-24.540	Yaw:	-1.845	Thrust:	61.378
Time:	1.139	Roll Set Point:	0.036	Pitch Set Point:	0.859	Yaw Set Point:	0.014	X_WP:	-0.018	Y_WP:	0.873	Y_WP:	0.750	X:	-0.033	Y:	0.007	Z:	0.464	yaw:	-0.806	yaw rate:	-39.068	Roll:	-6.232	Pitch:	-24.142	Yaw:	2.780	Thrust:	55.271
Time:	1.160	Roll Set Point:	0.036	Pitch Set Point:	0.856	Yaw Set Point:	0.015	X_WP:	-0.018	Y_WP:	0.873	Y_WP:	0.750	X:	-0.033	Y:	0.009	Z:	0.480	yaw:	-0.852	yaw rate:	4.537	Roll:	0.241	Pitch:	-24.006	Yaw:	-3.173	Thrust:	62.646
Time:	1.178	Roll Set Point:	0.052	Pitch Set Point:	0.849	Yaw Set Point:	-0.002	X_WP:	-0.018	Y_WP:	0.873	Y_WP:	0.750	X:	-0.034	Y:	0.012	Z:	0.495	yaw:	0.114	yaw rate:	-96.549	Roll:	-14.513	Pitch:	-22.489	Yaw:	12.381	Thrust:	51.958
Time:	1.205	Roll Set Point:	0.075	Pitch Set Point:	0.840	Yaw Set Point:	-0.027	X_WP:	-0.018	Y_WP:	0.873	Y_WP:	0.750	X:	-0.035	Y:	0.016	Z:	0.510	yaw:	1.529	yaw rate:	-141.525	Roll:	-15.442	Pitch:	-22.017	Yaw:	14.327	Thrust:	91.365
Time:	1.218	Roll Set Point:	0.071	Pitch Set Point:	0.831	Yaw Set Point:	-0.022	X_WP:	-0.018	Y_WP:	0.873	Y_WP:	0.750	X:	-0.035	Y:	0.021	Z:	0.526	yaw:	1.247	yaw rate:	28.183	Roll:	4.294	Pitch:	-19.282	Yaw:	-4.658	Thrust:	17.535
Time:	1.238	Roll Set Point:	0.074	Pitch Set Point:	0.819	Yaw Set Point:	-0.025	X_WP:	-0.018	Y_WP:	0.873	Y_WP:	0.750	X:	-0.035	Y:	0.027	Z:	0.541	yaw:	1.415	yaw rate:	-16.759	Roll:	-3.370	Pitch:	-19.961	Yaw:	2.824	Thrust:	58.455
Time:	1.258	Roll Set Point:	0.078	Pitch Set Point:	0.805	Yaw Set Point:	-0.029	X_WP:	-0.018	Y_WP:	0.873	Y_WP:	0.750	X:	-0.036	Y:	0.034	Z:	0.556	yaw:	1.642	yaw rate:	-22.730	Roll:	-4.039	Pitch:	-18.776	Yaw:	4.091	Thrust:	54.622
Time:	1.278	Roll Set Point:	0.081	Pitch Set Point:	0.788	Yaw Set Point:	-0.034	X_WP:	-0.018	Y_WP:	0.873	Y_WP:	0.750	X:	-0.035	Y:	0.042	Z:	0.570	yaw:	1.922	yaw rate:	-27.993	Roll:	-4.347	Pitch:	-17.690	Yaw:	4.856	Thrust:	63.798
Time:	1.298	Roll Set Point:	0.083	Pitch Set Point:	0.770	Yaw Set Point:	-0.037	X_WP:	-0.018	Y_WP:	0.873	Y_WP:	0.750	X:	-0.035	Y:	0.051	Z:	0.584	yaw:	2.117	yaw rate:	-19.561	Roll:	-3.085	Pitch:	-16.803	Yaw:	4.210	Thrust:	60.797
Time:	1.318	Roll Set Point:	0.055	Pitch Set Point:	0.753	Yaw Set Point:	-0.004	X_WP:	-0.018	Y_WP:	0.873	Y_WP:	0.750	X:	-0.034	Y:	0.060	Z:	0.598	yaw:	0.256	yaw rate:	186.188	Roll:	23.256	Pitch:	-17.101	Yaw:	-25.901	Thrust:	57.068
Time:	1.338	Roll Set Point:	0.075	Pitch Set Point:	0.728	Yaw Set Point:	-0.031	X_WP:	-0.018	Y_WP:	0.873	Y_WP:	0.750	X:	-0.034	Y:	0.072	Z:	0.609	yaw:	1.782	yaw rate:	-152.630	Roll:	-18.733	Pitch:	-13.208	Yaw:	20.974	Thrust:	65.736
Time:	1.359	Roll Set Point:	0.077	Pitch Set Point:	0.702	Yaw Set Point:	-0.036	X_WP:	-0.018	Y_WP:	0.873	Y_WP:	0.750	X:	-0.033	Y:	0.085	Z:	0.622	yaw:	2.048	yaw rate:	-26.602	Roll:	-3.243	Pitch:	-13.193	Yaw:	4.798	Thrust:	69.481
Time:	1.379	Roll Set Point:	0.071	Pitch Set Point:	0.676	Yaw Set Point:	-0.032	X_WP:	-0.018	Y_WP:	0.873	Y_WP:	0.750	X:	-0.032	Y:	0.098	Z:	0.634	yaw:	1.837	yaw rate:	21.074	Roll:	2.740	Pitch:	-11.786	Yaw:	-1.476	Thrust:	61.144
Time:	1.398	Roll Set Point:	0.066	Pitch Set Point:	0.647	Yaw Set Point:	-0.028	X_WP:	-0.018	Y_WP:	0.873	Y_WP:	0.750	X:	-0.031	Y:	0.113	Z:	0.645	yaw:	1.623	yaw rate:	21.398	Roll:	2.982	Pitch:	-10.172	Yaw:	-1.831	Thrust:	59.863
Time:	1.418	Roll Set Point:	0.062	Pitch Set Point:	0.615	Yaw Set Point:	-0.028	X_WP:	-0.018	Y_WP:	0.873	Y_WP:	0.750	X:	-0.029	Y:	0.129	Z:	0.657	yaw:	1.590	yaw rate:	3.296	Roll:	0.902	Pitch:	-8.075	Yaw:	0.562	Thrust:	62.177
Time:	1.438	Roll Set Point:	0.061	Pitch Set Point:	0.581	Yaw Set Point:	-0.031	X_WP:	-0.018	Y_WP:	0.873	Y_WP:	0.750	X:	-0.028	Y:	0.146	Z:	0.669	yaw:	1.762	yaw rate:	-17.148	Roll:	-1.323	Pitch:	-8.067	Yaw:	3.473	Thrust:	63.038
Time:	1.458	Roll Set Point:	0.055	Pitch Set Point:	0.546	Yaw Set Point:	-0.027	X_WP:	-0.018	Y_WP:	0.873	Y_WP:	0.750	X:	-0.027	Y:	0.163	Z:	0.681	yaw:	1.565	yaw rate:	19.632	Roll:	3.181	Pitch:	-6.529	Yaw:	-1.581	Thrust:	61.852
Time:	1.479	Roll Set Point:	0.035	Pitch Set Point:	0.509	Yaw Set Point:	-0.004	X_WP:	-0.018	Y_WP:	0.873	Y_WP:	0.750	X:	-0.025	Y:	0.182	Z:	0.694	yaw:	0.239	yaw rate:	132.652	Roll:	14.608	Pitch:	-5.363	Yaw:	-18.417	Thrust:	58.580
Time:	1.498	Roll Set Point:	0.047	Pitch Set Point:	0.468	Yaw Set Point:	-0.026	X_WP:	-0.018	Y_WP:	0.873	Y_WP:	0.750	X:	-0.024	Y:	0.202	Z:	0.705	yaw:	1.475	yaw rate:	-123.563	Roll:	-12.016	Pitch:	-2.440	Yaw:	17.206	Thrust:	59.949
Time:	1.518	Roll Set Point:	0.030	Pitch Set Point:	0.429	Yaw Set Point:	-0.005	X_WP:	-0.018	Y_WP:	0.873	Y_WP:	0.750	X:	-0.022	Y:	0.222	Z:	0.718	yaw:	0.301	yaw rate:	117.392	Roll:	13.422	Pitch:	-2.757	Yaw:	-16.276	Thrust:	57.685
Time:	1.538	Roll Set Point:	0.040	Pitch Set Point:	0.385	Yaw Set Point:	-0.025	X_WP:	-0.018	Y_WP:	0.873	Y_WP:	0.750	X:	-0.021	Y:	0.244	Z:	0.730	yaw:	1.435	yaw rate:	-113.472	Roll:	-9.994	Pitch:	-0.308	Yaw:	15.559	Thrust:	59.559
Time:	1.559	Roll Set Point:	0.036	Pitch Set Point:	0.341	Yaw Set Point:	-0.024	X_WP:	-0.018	Y_WP:	0.873	Y_WP:	0.750	X:	-0.019	Y:	0.266	Z:	0.743	yaw:	1.353	yaw rate:	8.206	Roll:	1.761	Pitch:	0.022	Yaw:	-0.362	Thrust:	59.172
Time:	1.578	Roll Set Point:	0.030	Pitch Set Point:	0.296	Yaw Set Point:	-0.020	X_WP:	-0.018	Y_WP:	0.873	Y_WP:	0.750	X:	-0.018	Y:	0.289	Z:	0.755	yaw:	1.130	yaw rate:	22.353	Roll:	3.241	Pitch:	1.702	Yaw:	-2.497	Thrust:	57.691
Time:	1.597	Roll Set Point:	0.028	Pitch Set Point:	0.249	Yaw Set Point:	-0.021	X_WP:	-0.018	Y_WP:	0.873	Y_WP:	0.750	X:	-0.017	Y:	0.312	Z:	0.768	yaw:	1.206	yaw rate:	-7.635	Roll:	0.309	Pitch:	3.407	Yaw:	1.665	Thrust:	49.061
Time:	1.617	Roll Set Point:	0.007	Pitch Set Point:	0.204	Yaw Set Point:	0.010	X_WP:	-0.018	Y_WP:	0.873	Y_WP:	0.750	X:	-0.015	Y:	0.334	Z:	0.781	yaw:	-0.592	yaw rate:	179.803	Roll:	16.359	Pitch:	2.661	Yaw:	-25.362	Thrust:	54.124
Time:	1.637	Roll Set Point:	0.018	Pitch Set Point:	0.156	Yaw Set Point:	-0.013	X_WP:	-0.018	Y_WP:	0.873	Y_WP:	0.750	X:	-0.014	Y:	0.359	Z:	0.794	yaw:	0.739	yaw rate:	-133.142	Roll:	-9.739	Pitch:	5.017	Yaw:	17.258	Thrust:	54.515
Time:	1.657	Roll Set Point:	0.013	Pitch Set Point:	0.107	Yaw Set Point:	-0.006	X_WP:	-0.018	Y_WP:	0.873	Y_WP:	0.750	X:	-0.014	Y:	0.383	Z:	0.807	yaw:	0.367	yaw rate:	37.265	Roll:	3.545	Pitch:	5.645	Yaw:	-5.546	Thrust:	51.495
Time:	1.678	Roll Set Point:	0.009	Pitch Set Point:	0.059	Yaw Set Point:	-0.001	X_WP:	-0.018	Y_WP:	0.873	Y_WP:	0.750	X:	-0.013	Y:	0.407	Z:	0.820	yaw:	0.034	yaw rate:	33.272	Roll:	2.849	Pitch:	5.805	Yaw:	-5.371	Thrust:	55.519
Time:	1.698	Roll Set Point:	0.010	Pitch Set Point:	0.011	Yaw Set Point:	-0.006	X_WP:	-0.018	Y_WP:	0.873	Y_WP:	0.750	X:	-0.012	Y:	0.431	Z:	0.832	yaw:	0.365	yaw rate:	-33.070	Roll:	-1.309	Pitch:	7.554	Yaw:	3.907	Thrust:	48.342
Time:	1.717	Roll Set Point:	0.007	Pitch Set Point:	-0.037	Yaw Set Point:	-0.001	X_WP:	-0.018	Y_WP:	0.873	Y_WP:	0.750	X:	-0.012	Y:	0.455	Z:	0.844	yaw:	0.061	yaw rate:	30.375	Roll:	2.306	Pitch:	7.214	Yaw:	-4.983	Thrust:	53.114
Time:	1.739	Roll Set Point:	0.008	Pitch Set Point:	-0.085	Yaw Set Point:	-0.005	X_WP:	-0.018	Y_WP:	0.873	Y_WP:	0.750	X:	-0.012	Y:	0.479	Z:	0.856	yaw:	0.293	yaw rate:	-23.169	Roll:	-0.921	Pitch:	7.346	Yaw:	2.050	Thrust:	57.958
Time:	1.760	Roll Set Point:	0.007	Pitch Set Point:	-0.132	Yaw Set Point:	-0.006	X_WP:	-0.018	Y_WP:	0.873	Y_WP:	0.750	X:	-0.011	Y:	0.503	Z:	0.868	yaw:	0.335	yaw rate:	-4.179	Roll:	0.063	Pitch:	8.075	Yaw:	-0.136	Thrust:	51.496
Time:	1.780	Roll Set Point:	-0.001	Pitch Set Point:	-0.178	Yaw Set Point:	0.015	X_WP:	-0.018	Y_WP:	0.873	Y_WP:	0.750	X:	-0.011	Y:	0.525	Z:	0.880	yaw:	-0.883	yaw rate:	121.762	Roll:	6.936	Pitch:	7.683	Yaw:	-17.693	Thrust:	54.633
Time:	1.798	Roll Set Point:	-0.000	Pitch Set Point:	-0.224	Yaw Set Point:	0.016	X_WP:	-0.018	Y_WP:	0.873	Y_WP:	0.750	X:	-0.011	Y:	0.548	Z:	0.891	yaw:	-0.889	yaw rate:	0.605	Roll:	-0.248	Pitch:	11.020	Yaw:	-2.391	Thrust:	42.585
Time:	1.819	Roll Set Point:	0.009	Pitch Set Point:	-0.270	Yaw Set Point:	-0.013	X_WP:	-0.018	Y_WP:	0.873	Y_WP:	0.750	X:	-0.012	Y:	0.571	Z:	0.901	yaw:	0.741	yaw rate:	-162.965	Roll:	-7.843	Pitch:	10.035	Yaw:	21.406	Thrust:	51.580
Time:	1.838	Roll Set Point:	-0.000	Pitch Set Point:	-0.314	Yaw Set Point:	0.027	X_WP:	-0.018	Y_WP:	0.873	Y_WP:	0.750	X:	-0.012	Y:	0.593	Z:	0.912	yaw:	-1.549	yaw rate:	228.977	Roll:	9.345	Pitch:	10.002	Yaw:	-33.235	Thrust:	49.540
Time:	1.858	Roll Set Point:	0.010	Pitch Set Point:	-0.358	Yaw Set Point:	-0.008	X_WP:	-0.018	Y_WP:	0.873	Y_WP:	0.750	X:	-0.013	Y:	0.616	Z:	0.922	yaw:	0.451	yaw rate:	-200.012	Roll:	-8.559	Pitch:	10.356	Yaw:	25.437	Thrust:	51.709
Time:	1.878	Roll Set Point:	0.011	Pitch Set Point:	-0.401	Yaw Set Point:	-0.006	X_WP:	-0.018	Y_WP:	0.873	Y_WP:	0.750	X:	-0.014	Y:	0.637	Z:	0.931	yaw:	0.351	yaw rate:	9.991	Roll:	-0.088	Pitch:	10.905	Yaw:	-1.974	Thrust:	48.998
Time:	1.898	Roll Set Point:	0.013	Pitch Set Point:	-0.442	Yaw Set Point:	-0.009	X_WP:	-0.018	Y_WP:	0.873	Y_WP:	0.750	X:	-0.014	Y:	0.658	Z:	0.940	yaw:	0.531	yaw rate:	-18.003	Roll:	-1.155	Pitch:	10.438	Yaw:	1.907	Thrust:	52.522
Time:	1.918	Roll Set Point:	0.016	Pitch Set Point:	-0.483	Yaw Set Point:	-0.014	X_WP:	-0.018	Y_WP:	0.873	Y_WP:	0.750	X:	-0.015	Y:	0.678	Z:	0.948	yaw:	0.805	yaw rate:	-27.370	Roll:	-1.435	Pitch:	10.902	Yaw:	3.605	Thrust:	50.363
Time:	1.939	Roll Set Point:	0.012	Pitch Set Point:	-0.521	Yaw Set Point:	0.022	X_WP:	-0.018	Y_WP:	0.873	Y_WP:	0.750	X:	-0.017	Y:	0.697	Z:	0.956	yaw:	-1.261	yaw rate:	206.607	Roll:	4.757	Pitch:	10.366	Yaw:	-29.233	Thrust:	51.955
Time:	1.959	Roll Set Point:	0.015	Pitch Set Point:	-0.559	Yaw Set Point:	0.020	X_WP:	-0.018	Y_WP:	0.873	Y_WP:	0.750	X:	-0.018	Y:	0.716	Z:	0.964	yaw:	-1.159	yaw rate:	-10.265	Roll:	-1.462	Pitch:	10.216	Yaw:	-1.453	Thrust:	55.322
Time:	1.980	Roll Set Point:	0.018	Pitch Set Point:	-0.596	Yaw Set Point:	0.018	X_WP:	-0.018	Y_WP:	0.873	Y_WP:	0.750	X:	-0.019	Y:	0.734	Z:	0.970	yaw:	-1.053	yaw rate:	-10.579	Roll:	-1.633	Pitch:	10.335	Yaw:	-1.342	Thrust:	56.533
Time:	1.998	Roll Set Point:	0.020	Pitch Set Point:	-0.631	Yaw Set Point:	0.021	X_WP:	-0.018	Y_WP:	0.873	Y_WP:	0.750	X:	-0.020	Y:	0.752	Z:	0.976	yaw:	-1.212	yaw rate:	15.952	Roll:	-1.094	Pitch:	11.475	Yaw:	-5.008	Thrust:	47.079
Time:	2.018	Roll Set Point:	0.024	Pitch Set Point:	-0.665	Yaw Set Point:	0.012	X_WP:	-0.018	Y_WP:	0.873	Y_WP:	0.750	X:	-0.022	Y:	0.769	Z:	0.982	yaw:	-0.696	yaw rate:	-51.661	Roll:	-2.577	Pitch:	10.771	Yaw:	4.667	Thrust:	53.305
Time:	2.038	Roll Set Point:	0.027	Pitch Set Point:	-0.697	Yaw Set Point:	0.020	X_WP:	-0.018	Y_WP:	0.873	Y_WP:	0.750	X:	-0.023	Y:	0.785	Z:	0.987	yaw:	-1.130	yaw rate:	43.387	Roll:	-0.928	Pitch:	10.875	Yaw:	-8.648	Thrust:	48.614
Time:	2.058	Roll Set Point:	0.031	Pitch Set Point:	-0.727	Yaw Set Point:	0.013	X_WP:	-0.018	Y_WP:	0.873	Y_WP:	0.750	X:	-0.025	Y:	0.800	Z:	0.991	yaw:	-0.739	yaw rate:	-39.080	Roll:	-2.162	Pitch:	10.156	Yaw:	2.613	Thrust:	58.182
Time:	2.078	Roll Set Point:	0.034	Pitch Set Point:	-0.757	Yaw Set Point:	0.013	X_WP:	-0.018	Y_WP:	0.873	Y_WP:	0.750	X:	-0.026	Y:	0.815	Z:	0.996	yaw:	-0.727	yaw rate:	-1.180	Roll:	-1.821	Pitch:	9.812	Yaw:	-2.063	Thrust:	52.673
Time:	2.098	Roll Set Point:	0.037	Pitch Set Point:	-0.784	Yaw Set Point:	0.011	X_WP:	-0.018	Y_WP:	0.873	Y_WP:	0.750	X:	-0.028	Y:	0.829	Z:	0.999	yaw:	-0.644	yaw rate:	-8.275	Roll:	-1.812	Pitch:	9.442	Yaw:	-0.994	Thrust:	55.422
Time:	2.118	Roll Set Point:	0.041	Pitch Set Point:	-0.811	Yaw Set Point:	0.017	X_WP:	-0.018	Y_WP:	0.873	Y_WP:	0.750	X:	-0.029	Y:	0.842	Z:	1.002	yaw:	-0.953	yaw rate:	30.864	Roll:	-1.722	Pitch:	9.640	Yaw:	-6.626	Thrust:	53.248
Time:	2.138	Roll Set Point:	0.044	Pitch Set Point:	-0.836	Yaw Set Point:	0.013	X_WP:	-0.018	Y_WP:	0.873	Y_WP:	0.750	X:	-0.031	Y:	0.854	Z:	1.005	yaw:	-0.757	yaw rate:	-19.554	Roll:	-2.014	Pitch:	9.237	Yaw:	0.257	Thrust:	55.514
Time:	2.159	Roll Set Point:	0.048	Pitch Set Point:	-0.859	Yaw Set Point:	0.001	X_WP:	-0.018	Y_WP:	0.873	Y_WP:	0.750	X:	-0.033	Y:	0.866	Z:	1.007	yaw:	-0.080	yaw rate:	-67.777	Roll:	-2.088	Pitch:	8.531	Yaw:	6.950	Thrust:	60.989
Time:	2.180	Roll Set Point:	0.051	Pitch Set Point:	-0.881	Yaw Set Point:	0.005	X_WP:	-0.018	Y_WP:	0.873	Y_WP:	0.750	X:	-0.034	Y:	0.877	Z:	1.009	yaw:	-0.286	yaw rate:	20.601	Roll:	-1.876	Pitch:	8.724	Yaw:	-4.297	Thrust:	55.877
Time:	2.198	Roll Set Point:	0.054	Pitch Set Point:	-0.901	Yaw Set Point:	0.005	X_WP:	-0.018	Y_WP:	0.873	Y_WP:	0.750	X:	-0.036	Y:	0.887	Z:	1.010	yaw:	-0.258	yaw rate:	-2.762	Roll:	-2.019	Pitch:	8.983	Yaw:	-1.068	Thrust:	48.994
Time:	2.218	Roll Set Point:	0.057	Pitch Set Point:	-0.919	Yaw Set Point:	0.007	X_WP:	-0.018	Y_WP:	0.873	Y_WP:	0.750	X:	-0.037	Y:	0.896	Z:	1.011	yaw:	-0.418	yaw rate:	16.028	Roll:	-1.916	Pitch:	7.902	Yaw:	-3.888	Thrust:	56.463
Time:	2.238	Roll Set Point:	0.060	Pitch Set Point:	-0.937	Yaw Set Point:	-0.000	X_WP:	-0.018	Y_WP:	0.873	Y_WP:	0.750	X:	-0.039	Y:	0.905	Z:	1.012	yaw:	0.020	yaw rate:	-43.816	Roll:	-1.782	Pitch:	7.415	Yaw:	4.524	Thrust:	56.328
Time:	2.259	Roll Set Point:	0.063	Pitch Set Point:	-0.953	Yaw Set Point:	-0.004	X_WP:	-0.018	Y_WP:	0.873	Y_WP:	0.750	X:	-0.040	Y:	0.913	Z:	1.013	yaw:	0.214	yaw rate:	-19.414	Roll:	-1.805	Pitch:	7.400	Yaw:	1.505	Thrust:	57.735
Time:	2.279	Roll Set Point:	0.067	Pitch Set Point:	-0.967	Yaw Set Point:	0.021	X_WP:	-0.018	Y_WP:	0.873	Y_WP:	0.750	X:	-0.042	Y:	0.920	Z:	1.013	yaw:	-1.215	yaw rate:	142.937	Roll:	-3.033	Pitch:	6.012	Yaw:	-21.662	Thrust:	53.643
Time:	2.298	Roll Set Point:	0.068	Pitch Set Point:	-0.981	Yaw Set Point:	-0.005	X_WP:	-0.018	Y_WP:	0.873	Y_WP:	0.750	X:	-0.043	Y:	0.927	Z:	1.013	yaw:	0.280	yaw rate:	-149.580	Roll:	-0.792	Pitch:	7.389	Yaw:	19.234	Thrust:	52.651
Time:	2.318	Roll Set Point:	0.071	Pitch Set Point:	-0.992	Yaw Set Point:	-0.002	X_WP:	-0.018	Y_WP:	0.873	Y_WP:	0.750	X:	-0.044	Y:	0.932	Z:	1.012	yaw:	0.099	yaw rate:	18.157	Roll:	-1.847	Pitch:	5.403	Yaw:	-3.478	Thrust:	58.302
Time:	2.339	Roll Set Point:	0.073	Pitch Set Point:	-1.003	Yaw Set Point:	-0.006	X_WP:	-0.018	Y_WP:	0.873	Y_WP:	0.750	X:	-0.045	Y:	0.938	Z:	1.012	yaw:	0.330	yaw rate:	-23.138	Roll:	-1.706	Pitch:	5.710	Yaw:	2.145	Thrust:	57.183
Time:	2.360	Roll Set Point:	0.075	Pitch Set Point:	-1.012	Yaw Set Point:	-0.010	X_WP:	-0.018	Y_WP:	0.873	Y_WP:	0.750	X:	-0.047	Y:	0.942	Z:	1.011	yaw:	0.547	yaw rate:	-21.655	Roll:	-1.625	Pitch:	5.165	Yaw:	2.235	Thrust:	58.872
Time:	2.380	Roll Set Point:	0.078	Pitch Set Point:	-1.020	Yaw Set Point:	-0.003	X_WP:	-0.018	Y_WP:	0.873	Y_WP:	0.750	X:	-0.048	Y:	0.946	Z:	1.010	yaw:	0.165	yaw rate:	38.197	Roll:	-2.222	Pitch:	4.538	Yaw:	-5.958	Thrust:	55.855
Time:	2.398	Roll Set Point:	0.079	Pitch Set Point:	-1.028	Yaw Set Point:	-0.013	X_WP:	-0.018	Y_WP:	0.873	Y_WP:	0.750	X:	-0.049	Y:	0.950	Z:	1.008	yaw:	0.768	yaw rate:	-60.361	Roll:	-1.205	Pitch:	5.151	Yaw:	8.321	Thrust:	52.891
Time:	2.419	Roll Set Point:	0.081	Pitch Set Point:	-1.033	Yaw Set Point:	-0.006	X_WP:	-0.018	Y_WP:	0.873	Y_WP:	0.750	X:	-0.050	Y:	0.953	Z:	1.006	yaw:	0.348	yaw rate:	42.030	Roll:	-2.191	Pitch:	3.734	Yaw:	-6.287	Thrust:	54.478
Time:	2.438	Roll Set Point:	0.084	Pitch Set Point:	-1.037	Yaw Set Point:	-0.005	X_WP:	-0.018	Y_WP:	0.873	Y_WP:	0.750	X:	-0.051	Y:	0.955	Z:	1.005	yaw:	0.292	yaw rate:	5.654	Roll:	-1.894	Pitch:	3.658	Yaw:	-1.544	Thrust:	55.650
Time:	2.458	Roll Set Point:	0.085	Pitch Set Point:	-1.042	Yaw Set Point:	-0.014	X_WP:	-0.018	Y_WP:	0.873	Y_WP:	0.750	X:	-0.052	Y:	0.957	Z:	1.003	yaw:	0.799	yaw rate:	-50.756	Roll:	-1.136	Pitch:	3.709	Yaw:	6.468	Thrust:	56.729
Time:	2.479	Roll Set Point:	0.087	Pitch Set Point:	-1.044	Yaw Set Point:	-0.010	X_WP:	-0.018	Y_WP:	0.873	Y_WP:	0.750	X:	-0.052	Y:	0.958	Z:	1.000	yaw:	0.549	yaw rate:	24.993	Roll:	-2.046	Pitch:	2.813	Yaw:	-3.726	Thrust:	54.717
Time:	2.498	Roll Set Point:	0.088	Pitch Set Point:	-1.046	Yaw Set Point:	-0.012	X_WP:	-0.018	Y_WP:	0.873	Y_WP:	0.750	X:	-0.053	Y:	0.960	Z:	0.998	yaw:	0.702	yaw rate:	-15.327	Roll:	-1.548	Pitch:	2.760	Yaw:	1.769	Thrust:	56.851
Time:	2.518	Roll Set Point:	0.090	Pitch Set Point:	-1.048	Yaw Set Point:	-0.009	X_WP:	-0.018	Y_WP:	0.873	Y_WP:	0.750	X:	-0.054	Y:	0.960	Z:	0.995	yaw:	0.490	yaw rate:	21.209	Roll:	-2.033	Pitch:	2.338	Yaw:	-3.294	Thrust:	55.382
Time:	2.538	Roll Set Point:	0.091	Pitch Set Point:	-1.048	Yaw Set Point:	-0.011	X_WP:	-0.018	Y_WP:	0.873	Y_WP:	0.750	X:	-0.055	Y:	0.960	Z:	0.992	yaw:	0.648	yaw rate:	-15.761	Roll:	-1.362	Pitch:	2.190	Yaw:	1.818	Thrust:	55.361
Time:	2.559	Roll Set Point:	0.092	Pitch Set Point:	-1.048	Yaw Set Point:	-0.008	X_WP:	-0.018	Y_WP:	0.873	Y_WP:	0.750	X:	-0.055	Y:	0.960	Z:	0.989	yaw:	0.477	yaw rate:	17.054	Roll:	-1.755	Pitch:	1.441	Yaw:	-2.716	Thrust:	55.237
Time:	2.580	Roll Set Point:	0.093	Pitch Set Point:	-1.047	Yaw Set Point:	-0.004	X_WP:	-0.018	Y_WP:	0.873	Y_WP:	0.750	X:	-0.056	Y:	0.960	Z:	0.985	yaw:	0.233	yaw rate:	24.459	Roll:	-1.910	Pitch:	1.314	Yaw:	-3.944	Thrust:	61.258
Time:	2.598	Roll Set Point:	0.093	Pitch Set Point:	-1.046	Yaw Set Point:	-0.014	X_WP:	-0.018	Y_WP:	0.873	Y_WP:	0.750	X:	-0.056	Y:	0.959	Z:	0.981	yaw:	0.780	yaw rate:	-54.739	Roll:	-0.789	Pitch:	1.587	Yaw:	7.761	Thrust:	54.214
Time:	2.619	Roll Set Point:	0.094	Pitch Set Point:	-1.043	Yaw Set Point:	-0.010	X_WP:	-0.018	Y_WP:	0.873	Y_WP:	0.750	X:	-0.056	Y:	0.958	Z:	0.978	yaw:	0.554	yaw rate:	22.633	Roll:	-1.749	Pitch:	0.741	Yaw:	-3.372	Thrust:	56.121
Time:	2.638	Roll Set Point:	0.095	Pitch Set Point:	-1.041	Yaw Set Point:	-0.010	X_WP:	-0.018	Y_WP:	0.873	Y_WP:	0.750	X:	-0.057	Y:	0.957	Z:	0.973	yaw:	0.570	yaw rate:	-1.594	Roll:	-1.384	Pitch:	0.645	Yaw:	-0.171	Thrust:	57.150
Time:	2.659	Roll Set Point:	0.095	Pitch Set Point:	-1.038	Yaw Set Point:	-0.015	X_WP:	-0.018	Y_WP:	0.873	Y_WP:	0.750	X:	-0.057	Y:	0.955	Z:	0.969	yaw:	0.876	yaw rate:	-30.571	Roll:	-1.130	Pitch:	0.878	Yaw:	4.070	Thrust:	56.837
Time:	2.678	Roll Set Point:	0.096	Pitch Set Point:	-1.034	Yaw Set Point:	-0.010	X_WP:	-0.018	Y_WP:	0.873	Y_WP:	0.750	X:	-0.057	Y:	0.954	Z:	0.965	yaw:	0.576	yaw rate:	29.990	Roll:	-1.639	Pitch:	-0.061	Yaw:	-4.288	Thrust:	56.894
Time:	2.698	Roll Set Point:	0.097	Pitch Set Point:	-1.031	Yaw Set Point:	-0.009	X_WP:	-0.018	Y_WP:	0.873	Y_WP:	0.750	X:	-0.057	Y:	0.952	Z:	0.960	yaw:	0.535	yaw rate:	4.065	Roll:	-1.543	Pitch:	-0.002	Yaw:	-0.919	Thrust:	55.410
Time:	2.718	Roll Set Point:	0.096	Pitch Set Point:	-1.027	Yaw Set Point:	-0.014	X_WP:	-0.018	Y_WP:	0.873	Y_WP:	0.750	X:	-0.057	Y:	0.950	Z:	0.955	yaw:	0.809	yaw rate:	-27.445	Roll:	-0.902	Pitch:	0.018	Yaw:	3.585	Thrust:	57.252
Time:	2.738	Roll Set Point:	0.097	Pitch Set Point:	-1.022	Yaw Set Point:	-0.010	X_WP:	-0.018	Y_WP:	0.873	Y_WP:	0.750	X:	-0.058	Y:	0.948	Z:	0.950	yaw:	0.571	yaw rate:	23.864	Roll:	-1.627	Pitch:	-0.372	Yaw:	-3.372	Thrust:	59.962
Time:	2.759	Roll Set Point:	0.097	Pitch Set Point:	-1.017	Yaw Set Point:	-0.008	X_WP:	-0.018	Y_WP:	0.873	Y_WP:	0.750	X:	-0.057	Y:	0.945	Z:	0.945	yaw:	0.468	yaw rate:	10.324	Roll:	-1.233	Pitch:	-0.759	Yaw:	-1.836	Thrust:	59.313
Time:	2.780	Roll Set Point:	0.093	Pitch Set Point:	-1.011	Yaw Set Point:	-0.021	X_WP:	-0.018	Y_WP:	0.873	Y_WP:	0.750	X:	-0.056	Y:	0.942	Z:	0.939	yaw:	1.185	yaw rate:	-71.788	Roll:	0.665	Pitch:	-0.991	Yaw:	9.606	Thrust:	60.216
Time:	2.799	Roll Set Point:	0.094	Pitch Set Point:	-1.006	Yaw Set Point:	-0.008	X_WP:	-0.018	Y_WP:	0.873	Y_WP:	0.750	X:	-0.056	Y:	0.939	Z:	0.934	yaw:	0.475	yaw rate:	71.041	Roll:	-2.095	Pitch:	-1.390	Yaw:	-10.701	Thrust:	53.547
Time:	2.818	Roll Set Point:	0.094	Pitch Set Point:	-1.001	Yaw Set Point:	-0.010	X_WP:	-0.018	Y_WP:	0.873	Y_WP:	0.750	X:	-0.056	Y:	0.937	Z:	0.928	yaw:	0.597	yaw rate:	-12.231	Roll:	-0.961	Pitch:	-0.806	Yaw:	1.223	Thrust:	59.378
Time:	2.838	Roll Set Point:	0.094	Pitch Set Point:	-0.998	Yaw Set Point:	-0.021	X_WP:	-0.018	Y_WP:	0.873	Y_WP:	0.750	X:	-0.057	Y:	0.935	Z:	0.922	yaw:	1.217	yaw rate:	-61.994	Roll:	-1.130	Pitch:	0.155	Yaw:	8.665	Thrust:	58.472
Time:	2.858	Roll Set Point:	0.093	Pitch Set Point:	-0.992	Yaw Set Point:	-0.024	X_WP:	-0.018	Y_WP:	0.873	Y_WP:	0.750	X:	-0.056	Y:	0.932	Z:	0.917	yaw:	1.357	yaw rate:	-13.958	Roll:	-0.712	Pitch:	-1.429	Yaw:	2.752	Thrust:	55.936
Time:	2.879	Roll Set Point:	0.093	Pitch Set Point:	-0.986	Yaw Set Point:	-0.021	X_WP:	-0.018	Y_WP:	0.873	Y_WP:	0.750	X:	-0.056	Y:	0.929	Z:	0.911	yaw:	1.205	yaw rate:	15.232	Roll:	-1.143	Pitch:	-1.227	Yaw:	-1.349	Thrust:	62.464
Time:	2.898	Roll Set Point:	0.093	Pitch Set Point:	-0.979	Yaw Set Point:	-0.007	X_WP:	-0.018	Y_WP:	0.873	Y_WP:	0.750	X:	-0.055	Y:	0.926	Z:	0.906	yaw:	0.374	yaw rate:	83.056	Roll:	-1.515	Pitch:	-2.485	Yaw:	-12.113	Thrust:	54.813
Time:	2.918	Roll Set Point:	0.092	Pitch Set Point:	-0.974	Yaw Set Point:	-0.012	X_WP:	-0.018	Y_WP:	0.873	Y_WP:	0.750	X:	-0.055	Y:	0.923	Z:	0.900	yaw:	0.671	yaw rate:	-29.657	Roll:	-0.788	Pitch:	-1.314	Yaw:	3.725	Thrust:	58.520
Time:	2.938	Roll Set Point:	0.092	Pitch Set Point:	-0.969	Yaw Set Point:	-0.003	X_WP:	-0.018	Y_WP:	0.873	Y_WP:	0.750	X:	-0.055	Y:	0.921	Z:	0.894	yaw:	0.197	yaw rate:	47.395	Roll:	-1.355	Pitch:	-1.731	Yaw:	-7.133	Thrust:	57.067
Time:	2.958	Roll Set Point:	0.092	Pitch Set Point:	-0.965	Yaw Set Point:	-0.026	X_WP:	-0.018	Y_WP:	0.873	Y_WP:	0.750	X:	-0.055	Y:	0.919	Z:	0.888	yaw:	1.471	yaw rate:	-127.470	Roll:	-0.456	Pitch:	-0.279	Yaw:	17.081	Thrust:	60.702
Time:	2.979	Roll Set Point:	0.091	Pitch Set Point:	-0.959	Yaw Set Point:	-0.011	X_WP:	-0.018	Y_WP:	0.873	Y_WP:	0.750	X:	-0.055	Y:	0.916	Z:	0.882	yaw:	0.638	yaw rate:	83.365	Roll:	-1.341	Pitch:	-2.329	Yaw:	-10.703	Thrust:	58.567
Time:	2.999	Roll Set Point:	0.091	Pitch Set Point:	-0.954	Yaw Set Point:	-0.009	X_WP:	-0.018	Y_WP:	0.873	Y_WP:	0.750	X:	-0.054	Y:	0.913	Z:	0.876	yaw:	0.530	yaw rate:	10.776	Roll:	-1.022	Pitch:	-1.751	Yaw:	-1.777	Thrust:	57.324
Time:	3.018	Roll Set Point:	0.091	Pitch Set Point:	-0.951	Yaw Set Point:	-0.017	X_WP:	-0.018	Y_WP:	0.873	Y_WP:	0.750	X:	-0.055	Y:	0.912	Z:	0.869	yaw:	0.989	yaw rate:	-45.936	Roll:	-1.153	Pitch:	-0.652	Yaw:	6.216	Thrust:	60.083
Time:	3.038	Roll Set Point:	0.090	Pitch Set Point:	-0.946	Yaw Set Point:	-0.023	X_WP:	-0.018	Y_WP:	0.873	Y_WP:	0.750	X:	-0.054	Y:	0.909	Z:	0.863	yaw:	1.336	yaw rate:	-34.692	Roll:	-0.593	Pitch:	-1.432	Yaw:	5.327	Thrust:	59.745
Time:	3.059	Roll Set Point:	0.090	Pitch Set Point:	-0.941	Yaw Set Point:	-0.017	X_WP:	-0.018	Y_WP:	0.873	Y_WP:	0.750	X:	-0.054	Y:	0.907	Z:	0.857	yaw:	0.959	yaw rate:	37.691	Roll:	-1.067	Pitch:	-1.774	Yaw:	-4.568	Thrust:	59.608
Time:	3.078	Roll Set Point:	0.089	Pitch Set Point:	-0.935	Yaw Set Point:	-0.005	X_WP:	-0.018	Y_WP:	0.873	Y_WP:	0.750	X:	-0.053	Y:	0.904	Z:	0.851	yaw:	0.269	yaw rate:	69.055	Roll:	-0.929	Pitch:	-2.578	Yaw:	-10.016	Thrust:	57.665
Time:	3.098	Roll Set Point:	0.088	Pitch Set Point:	-0.931	Yaw Set Point:	-0.006	X_WP:	-0.018	Y_WP:	0.873	Y_WP:	0.750	X:	-0.053	Y:	0.902	Z:	0.845	yaw:	0.354	yaw rate:	-8.499	Roll:	-0.900	Pitch:	-1.453	Yaw:	0.612	Thrust:	58.934
Time:	3.118	Roll Set Point:	0.087	Pitch Set Point:	-0.927	Yaw Set Point:	-0.004	X_WP:	-0.018	Y_WP:	0.873	Y_WP:	0.750	X:	-0.053	Y:	0.900	Z:	0.838	yaw:	0.257	yaw rate:	9.714	Roll:	-0.865	Pitch:	-1.534	Yaw:	-1.957	Thrust:	59.391
Time:	3.138	Roll Set Point:	0.087	Pitch Set Point:	-0.923	Yaw Set Point:	-0.005	X_WP:	-0.018	Y_WP:	0.873	Y_WP:	0.750	X:	-0.052	Y:	0.898	Z:	0.832	yaw:	0.270	yaw rate:	-1.326	Roll:	-0.788	Pitch:	-1.525	Yaw:	-0.532	Thrust:	61.116
Time:	3.158	Roll Set Point:	0.086	Pitch Set Point:	-0.919	Yaw Set Point:	-0.007	X_WP:	-0.018	Y_WP:	0.873	Y_WP:	0.750	X:	-0.052	Y:	0.896	Z:	0.826	yaw:	0.377	yaw rate:	-10.704	Roll:	-0.769	Pitch:	-1.388	Yaw:	0.880	Thrust:	60.469
Time:	3.178	Roll Set Point:	0.085	Pitch Set Point:	-0.916	Yaw Set Point:	-0.003	X_WP:	-0.018	Y_WP:	0.873	Y_WP:	0.750	X:	-0.051	Y:	0.895	Z:	0.819	yaw:	0.180	yaw rate:	19.671	Roll:	-0.884	Pitch:	-1.459	Yaw:	-3.397	Thrust:	59.102
Time:	3.199	Roll Set Point:	0.085	Pitch Set Point:	-0.913	Yaw Set Point:	-0.004	X_WP:	-0.018	Y_WP:	0.873	Y_WP:	0.750	X:	-0.051	Y:	0.893	Z:	0.813	yaw:	0.232	yaw rate:	-5.141	Roll:	-0.838	Pitch:	-1.290	Yaw:	-0.105	Thrust:	59.793
Time:	3.219	Roll Set Point:	0.084	Pitch Set Point:	-0.910	Yaw Set Point:	-0.011	X_WP:	-0.018	Y_WP:	0.873	Y_WP:	0.750	X:	-0.051	Y:	0.892	Z:	0.807	yaw:	0.657	yaw rate:	-42.540	Roll:	-0.664	Pitch:	-1.064	Yaw:	5.722	Thrust:	61.159
Time:	3.238	Roll Set Point:	0.083	Pitch Set Point:	-0.908	Yaw Set Point:	-0.010	X_WP:	-0.018	Y_WP:	0.873	Y_WP:	0.750	X:	-0.050	Y:	0.890	Z:	0.801	yaw:	0.584	yaw rate:	7.341	Roll:	-0.819	Pitch:	-1.294	Yaw:	-1.177	Thrust:	60.475
Time:	3.259	Roll Set Point:	0.083	Pitch Set Point:	-0.907	Yaw Set Point:	-0.014	X_WP:	-0.018	Y_WP:	0.873	Y_WP:	0.750	X:	-0.050	Y:	0.890	Z:	0.795	yaw:	0.830	yaw rate:	-24.623	Roll:	-0.956	Pitch:	-0.536	Yaw:	3.206	Thrust:	61.990
Time:	3.279	Roll Set Point:	0.082	Pitch Set Point:	-0.903	Yaw Set Point:	-0.007	X_WP:	-0.018	Y_WP:	0.873	Y_WP:	0.750	X:	-0.050	Y:	0.888	Z:	0.789	yaw:	0.394	yaw rate:	43.545	Roll:	-0.620	Pitch:	-1.822	Yaw:	-6.143	Thrust:	59.088
Time:	3.299	Roll Set Point:	0.080	Pitch Set Point:	-0.903	Yaw Set Point:	-0.035	X_WP:	-0.018	Y_WP:	0.873	Y_WP:	0.750	X:	-0.049	Y:	0.887	Z:	0.783	yaw:	2.017	yaw rate:	-162.286	Roll:	-0.213	Pitch:	0.184	Yaw:	24.209	Thrust:	59.617
Time:	3.319	Roll Set Point:	0.079	Pitch Set Point:	-0.900	Yaw Set Point:	-0.025	X_WP:	-0.018	Y_WP:	0.873	Y_WP:	0.750	X:	-0.049	Y:	0.886	Z:	0.777	yaw:	1.461	yaw rate:	55.646	Roll:	-0.607	Pitch:	-1.719	Yaw:	-6.221	Thrust:	60.053
Time:	3.338	Roll Set Point:	0.080	Pitch Set Point:	-0.901	Yaw Set Point:	-0.041	X_WP:	-0.018	Y_WP:	0.873	Y_WP:	0.750	X:	-0.049	Y:	0.886	Z:	0.772	yaw:	2.372	yaw rate:	-91.095	Roll:	-1.353	Pitch:	0.571	Yaw:	14.218	Thrust:	60.230
Time:	3.359	Roll Set Point:	0.079	Pitch Set Point:	-0.899	Yaw Set Point:	-0.038	X_WP:	-0.018	Y_WP:	0.873	Y_WP:	0.750	X:	-0.049	Y:	0.886	Z:	0.767	yaw:	2.174	yaw rate:	19.765	Roll:	-0.671	Pitch:	-0.888	Yaw:	-0.470	Thrust:	61.501
Time:	3.379	Roll Set Point:	0.079	Pitch Set Point:	-0.898	Yaw Set Point:	-0.039	X_WP:	-0.018	Y_WP:	0.873	Y_WP:	0.750	X:	-0.048	Y:	0.885	Z:	0.761	yaw:	2.244	yaw rate:	-7.024	Roll:	-0.726	Pitch:	-0.758	Yaw:	3.094	Thrust:	60.480
Time:	3.398	Roll Set Point:	0.078	Pitch Set Point:	-0.896	Yaw Set Point:	-0.031	X_WP:	-0.018	Y_WP:	0.873	Y_WP:	0.750	X:	-0.048	Y:	0.884	Z:	0.756	yaw:	1.798	yaw rate:	44.620	Roll:	-0.622	Pitch:	-0.983	Yaw:	-4.445	Thrust:	58.780
Time:	3.418	Roll Set Point:	0.077	Pitch Set Point:	-0.896	Yaw Set Point:	-0.034	X_WP:	-0.018	Y_WP:	0.873	Y_WP:	0.750	X:	-0.047	Y:	0.884	Z:	0.751	yaw:	1.940	yaw rate:	-14.213	Roll:	-0.663	Pitch:	-0.563	Yaw:	3.605	Thrust:	61.250
Time:	3.438	Roll Set Point:	0.076	Pitch Set Point:	-0.894	Yaw Set Point:	-0.031	X_WP:	-0.018	Y_WP:	0.873	Y_WP:	0.750	X:	-0.047	Y:	0.883	Z:	0.746	yaw:	1.755	yaw rate:	18.471	Roll:	-0.496	Pitch:	-0.857	Yaw:	-0.882	Thrust:	60.160
Time:	3.458	Roll Set Point:	0.075	Pitch Set Point:	-0.894	Yaw Set Point:	-0.032	X_WP:	-0.018	Y_WP:	0.873	Y_WP:	0.750	X:	-0.046	Y:	0.883	Z:	0.741	yaw:	1.823	yaw rate:	-6.746	Roll:	-0.568	Pitch:	-0.576	Yaw:	2.541	Thrust:	59.932
Time:	3.478	Roll Set Point:	0.074	Pitch Set Point:	-0.893	Yaw Set Point:	-0.031	X_WP:	-0.018	Y_WP:	0.873	Y_WP:	0.750	X:	-0.046	Y:	0.883	Z:	0.736	yaw:	1.755	yaw rate:	6.793	Roll:	-0.528	Pitch:	-0.577	Yaw:	0.666	Thrust:	60.121
Time:	3.498	Roll Set Point:	0.073	Pitch Set Point:	-0.893	Yaw Set Point:	-0.030	X_WP:	-0.018	Y_WP:	0.873	Y_WP:	0.750	X:	-0.045	Y:	0.882	Z:	0.731	yaw:	1.732	yaw rate:	2.256	Roll:	-0.685	Pitch:	-0.514	Yaw:	1.246	Thrust:	60.337
Time:	3.518	Roll Set Point:	0.072	Pitch Set Point:	-0.892	Yaw Set Point:	-0.029	X_WP:	-0.018	Y_WP:	0.873	Y_WP:	0.750	X:	-0.045	Y:	0.882	Z:	0.727	yaw:	1.664	yaw rate:	6.819	Roll:	-0.396	Pitch:	-0.559	Yaw:	0.560	Thrust:	60.064
Time:	3.538	Roll Set Point:	0.071	Pitch Set Point:	-0.892	Yaw Set Point:	-0.031	X_WP:	-0.018	Y_WP:	0.873	Y_WP:	0.750	X:	-0.044	Y:	0.882	Z:	0.722	yaw:	1.756	yaw rate:	-9.130	Roll:	-0.522	Pitch:	-0.469	Yaw:	2.732	Thrust:	61.912
Time:	3.559	Roll Set Point:	0.070	Pitch Set Point:	-0.891	Yaw Set Point:	-0.029	X_WP:	-0.018	Y_WP:	0.873	Y_WP:	0.750	X:	-0.044	Y:	0.882	Z:	0.718	yaw:	1.684	yaw rate:	7.127	Roll:	-0.497	Pitch:	-0.513	Yaw:	0.573	Thrust:	61.189
Time:	3.579	Roll Set Point:	0.069	Pitch Set Point:	-0.891	Yaw Set Point:	-0.029	X_WP:	-0.018	Y_WP:	0.873	Y_WP:	0.750	X:	-0.043	Y:	0.882	Z:	0.713	yaw:	1.678	yaw rate:	0.614	Roll:	-0.482	Pitch:	-0.485	Yaw:	1.419	Thrust:	61.663
Time:	3.598	Roll Set Point:	0.068	Pitch Set Point:	-0.891	Yaw Set Point:	-0.031	X_WP:	-0.018	Y_WP:	0.873	Y_WP:	0.750	X:	-0.043	Y:	0.881	Z:	0.709	yaw:	1.793	yaw rate:	-11.451	Roll:	-0.472	Pitch:	-0.349	Yaw:	3.261	Thrust:	59.807
Time:	3.618	Roll Set Point:	0.067	Pitch Set Point:	-0.891	Yaw Set Point:	-0.031	X_WP:	-0.018	Y_WP:	0.873	Y_WP:	0.750	X:	-0.042	Y:	0.881	Z:	0.705	yaw:	1.759	yaw rate:	3.315	Roll:	-0.421	Pitch:	-0.348	Yaw:	1.212	Thrust:	60.997
Time:	3.639	Roll Set Point:	0.066	Pitch Set Point:	-0.891	Yaw Set Point:	-0.036	X_WP:	-0.018	Y_WP:	0.873	Y_WP:	0.750	X:	-0.042	Y:	0.882	Z:	0.700	yaw:	2.041	yaw rate:	-28.112	Roll:	-0.617	Pitch:	-0.181	Yaw:	5.504	Thrust:	63.843
Time:	3.658	Roll Set Point:	0.065	Pitch Set Point:	-0.890	Yaw Set Point:	-0.029	X_WP:	-0.018	Y_WP:	0.873	Y_WP:	0.750	X:	-0.041	Y:	0.881	Z:	0.697	yaw:	1.690	yaw rate:	35.079	Roll:	-0.324	Pitch:	-0.609	Yaw:	-3.373	Thrust:	57.126
Time:	3.678	Roll Set Point:	0.064	Pitch Set Point:	-0.890	Yaw Set Point:	-0.029	X_WP:	-0.018	Y_WP:	0.873	Y_WP:	0.750	X:	-0.041	Y:	0.881	Z:	0.693	yaw:	1.640	yaw rate:	4.977	Roll:	-0.463	Pitch:	-0.410	Yaw:	0.863	Thrust:	62.022
Time:	3.698	Roll Set Point:	0.063	Pitch Set Point:	-0.890	Yaw Set Point:	-0.030	X_WP:	-0.018	Y_WP:	0.873	Y_WP:	0.750	X:	-0.041	Y:	0.881	Z:	0.690	yaw:	1.716	yaw rate:	-7.566	Roll:	-0.478	Pitch:	-0.232	Yaw:	2.600	Thrust:	61.586
Time:	3.718	Roll Set Point:	0.063	Pitch Set Point:	-0.891	Yaw Set Point:	-0.036	X_WP:	-0.018	Y_WP:	0.873	Y_WP:	0.750	X:	-0.040	Y:	0.881	Z:	0.686	yaw:	2.051	yaw rate:	-33.510	Roll:	-0.619	Pitch:	-0.136	Yaw:	6.481	Thrust:	59.715
Time:	3.738	Roll Set Point:	0.062	Pitch Set Point:	-0.890	Yaw Set Point:	-0.031	X_WP:	-0.018	Y_WP:	0.873	Y_WP:	0.750	X:	-0.040	Y:	0.881	Z:	0.683	yaw:	1.779	yaw rate:	27.131	Roll:	-0.469	Pitch:	-0.548	Yaw:	-1.829	Thrust:	62.525
Time:	3.758	Roll Set Point:	0.061	Pitch Set Point:	-0.890	Yaw Set Point:	-0.029	X_WP:	-0.018	Y_WP:	0.873	Y_WP:	0.750	X:	-0.040	Y:	0.881	Z:	0.680	yaw:	1.679	yaw rate:	10.065	Roll:	-0.390	Pitch:	-0.359	Yaw:	0.311	Thrust:	61.004
Time:	3.779	Roll Set Point:	0.061	Pitch Set Point:	-0.890	Yaw Set Point:	-0.030	X_WP:	-0.018	Y_WP:	0.873	Y_WP:	0.750	X:	-0.039	Y:	0.881	Z:	0.677	yaw:	1.744	yaw rate:	-6.545	Roll:	-0.557	Pitch:	-0.308	Yaw:	2.510	Thrust:	63.116
Time:	3.798	Roll Set Point:	0.060	Pitch Set Point:	-0.891	Yaw Set Point:	-0.033	X_WP:	-0.018	Y_WP:	0.873	Y_WP:	0.750	X:	-0.039	Y:	0.881	Z:	0.674	yaw:	1.889	yaw rate:	-14.438	Roll:	-0.407	Pitch:	-0.174	Yaw:	3.965	Thrust:	56.308
Time:	3.817	Roll Set Point:	0.059	Pitch Set Point:	-0.890	Yaw Set Point:	-0.032	X_WP:	-0.018	Y_WP:	0.873	Y_WP:	0.750	X:	-0.038	Y:	0.881	Z:	0.672	yaw:	1.848	yaw rate:	4.042	Roll:	-0.436	Pitch:	-0.341	Yaw:	1.373	Thrust:	60.864
Time:	3.838	Roll Set Point:	0.058	Pitch Set Point:	-0.891	Yaw Set Point:	-0.036	X_WP:	-0.018	Y_WP:	0.873	Y_WP:	0.750	X:	-0.038	Y:	0.881	Z:	0.669	yaw:	2.060	yaw rate:	-21.185	Roll:	-0.457	Pitch:	-0.298	Yaw:	4.803	Thrust:	63.046
Time:	3.859	Roll Set Point:	0.058	Pitch Set Point:	-0.890	Yaw Set Point:	-0.030	X_WP:	-0.018	Y_WP:	0.873	Y_WP:	0.750	X:	-0.038	Y:	0.881	Z:	0.667	yaw:	1.701	yaw rate:	35.880	Roll:	-0.494	Pitch:	-0.458	Yaw:	-2.840	Thrust:	62.096
Time:	3.878	Roll Set Point:	0.057	Pitch Set Point:	-0.890	Yaw Set Point:	-0.030	X_WP:	-0.018	Y_WP:	0.873	Y_WP:	0.750	X:	-0.037	Y:	0.881	Z:	0.665	yaw:	1.747	yaw rate:	-4.529	Roll:	-0.416	Pitch:	-0.300	Yaw:	2.449	Thrust:	58.590
Time:	3.899	Roll Set Point:	0.056	Pitch Set Point:	-0.890	Yaw Set Point:	-0.030	X_WP:	-0.018	Y_WP:	0.873	Y_WP:	0.750	X:	-0.037	Y:	0.881	Z:	0.663	yaw:	1.747	yaw rate:	-0.075	Roll:	-0.483	Pitch:	-0.320	Yaw:	1.829	Thrust:	59.626
Time:	3.918	Roll Set Point:	0.056	Pitch Set Point:	-0.890	Yaw Set Point:	-0.030	X_WP:	-0.018	Y_WP:	0.873	Y_WP:	0.750	X:	-0.037	Y:	0.881	Z:	0.661	yaw:	1.734	yaw rate:	1.354	Roll:	-0.480	Pitch:	-0.306	Yaw:	1.601	Thrust:	60.559
Time:	3.938	Roll Set Point:	0.055	Pitch Set Point:	-0.890	Yaw Set Point:	-0.032	X_WP:	-0.018	Y_WP:	0.873	Y_WP:	0.750	X:	-0.037	Y:	0.881	Z:	0.660	yaw:	1.825	yaw rate:	-9.156	Roll:	-0.521	Pitch:	-0.296	Yaw:	3.173	Thrust:	62.163
Time:	3.959	Roll Set Point:	0.055	Pitch Set Point:	-0.890	Yaw Set Point:	-0.030	X_WP:	-0.018	Y_WP:	0.873	Y_WP:	0.750	X:	-0.036	Y:	0.881	Z:	0.658	yaw:	1.733	yaw rate:	9.255	Roll:	-0.521	Pitch:	-0.465	Yaw:	0.648	Thrust:	64.133
Time:	3.978	Roll Set Point:	0.055	Pitch Set Point:	-0.890	Yaw Set Point:	-0.029	X_WP:	-0.018	Y_WP:	0.873	Y_WP:	0.750	X:	-0.036	Y:	0.881	Z:	0.657	yaw:	1.688	yaw rate:	4.443	Roll:	-0.538	Pitch:	-0.276	Yaw:	1.189	Thrust:	58.096
Time:	3.998	Roll Set Point:	0.054	Pitch Set Point:	-0.890	Yaw Set Point:	-0.030	X_WP:	-0.018	Y_WP:	0.873	Y_WP:	0.750	X:	-0.036	Y:	0.881	Z:	0.655	yaw:	1.704	yaw rate:	-1.587	Roll:	-0.562	Pitch:	-0.361	Yaw:	2.056	Thrust:	58.312
Time:	4.018	Roll Set Point:	0.054	Pitch Set Point:	-0.890	Yaw Set Point:	-0.033	X_WP:	-0.018	Y_WP:	0.873	Y_WP:	0.750	X:	-0.036	Y:	0.881	Z:	0.654	yaw:	1.909	yaw rate:	-20.444	Roll:	-0.656	Pitch:	-0.244	Yaw:	4.633	Thrust:	63.517
Time:	4.038	Roll Set Point:	0.054	Pitch Set Point:	-0.890	Yaw Set Point:	-0.028	X_WP:	-0.018	Y_WP:	0.873	Y_WP:	0.750	X:	-0.036	Y:	0.881	Z:	0.653	yaw:	1.592	yaw rate:	31.684	Roll:	-0.536	Pitch:	-0.480	Yaw:	-2.644	Thrust:	58.261
Time:	4.058	Roll Set Point:	0.054	Pitch Set Point:	-0.890	Yaw Set Point:	-0.028	X_WP:	-0.018	Y_WP:	0.873	Y_WP:	0.750	X:	-0.036	Y:	0.881	Z:	0.652	yaw:	1.623	yaw rate:	-3.067	Roll:	-0.662	Pitch:	-0.441	Yaw:	2.083	Thrust:	63.929
Time:	4.080	Roll Set Point:	0.053	Pitch Set Point:	-0.890	Yaw Set Point:	-0.028	X_WP:	-0.018	Y_WP:	0.873	Y_WP:	0.750	X:	-0.036	Y:	0.881	Z:	0.651	yaw:	1.594	yaw rate:	2.856	Roll:	-0.596	Pitch:	-0.408	Yaw:	1.317	Thrust:	63.790
Time:	4.098	Roll Set Point:	0.053	Pitch Set Point:	-0.890	Yaw Set Point:	-0.025	X_WP:	-0.018	Y_WP:	0.873	Y_WP:	0.750	X:	-0.035	Y:	0.881	Z:	0.650	yaw:	1.424	yaw rate:	16.961	Roll:	-0.602	Pitch:	-0.352	Yaw:	-0.861	Thrust:	57.786
Time:	4.118	Roll Set Point:	0.053	Pitch Set Point:	-0.889	Yaw Set Point:	-0.024	X_WP:	-0.018	Y_WP:	0.873	Y_WP:	0.750	X:	-0.035	Y:	0.881	Z:	0.649	yaw:	1.387	yaw rate:	3.687	Roll:	-0.668	Pitch:	-0.390	Yaw:	0.951	Thrust:	61.501
Time:	4.138	Roll Set Point:	0.053	Pitch Set Point:	-0.889	Yaw Set Point:	-0.023	X_WP:	-0.018	Y_WP:	0.873	Y_WP:	0.750	X:	-0.035	Y:	0.881	Z:	0.649	yaw:	1.319	yaw rate:	6.848	Roll:	-0.589	Pitch:	-0.467	Yaw:	0.434	Thrust:	58.985
Time:	4.159	Roll Set Point:	0.053	Pitch Set Point:	-0.889	Yaw Set Point:	-0.025	X_WP:	-0.018	Y_WP:	0.873	Y_WP:	0.750	X:	-0.035	Y:	0.881	Z:	0.649	yaw:	1.443	yaw rate:	-12.364	Roll:	-0.623	Pitch:	-0.400	Yaw:	2.985	Thrust:	65.373
Time:	4.180	Roll Set Point:	0.052	Pitch Set Point:	-0.889	Yaw Set Point:	-0.021	X_WP:	-0.018	Y_WP:	0.873	Y_WP:	0.750	X:	-0.035	Y:	0.881	Z:	0.648	yaw:	1.213	yaw rate:	22.999	Roll:	-0.608	Pitch:	-0.416	Yaw:	-1.668	Thrust:	63.500
Time:	4.197	Roll Set Point:	0.052	Pitch Set Point:	-0.889	Yaw Set Point:	-0.022	X_WP:	-0.018	Y_WP:	0.873	Y_WP:	0.750	X:	-0.035	Y:	0.881	Z:	0.648	yaw:	1.233	yaw rate:	-1.999	Roll:	-0.603	Pitch:	-0.340	Yaw:	1.629	Thrust:	52.799
Time:	4.218	Roll Set Point:	0.052	Pitch Set Point:	-0.889	Yaw Set Point:	-0.027	X_WP:	-0.018	Y_WP:	0.873	Y_WP:	0.750	X:	-0.035	Y:	0.881	Z:	0.648	yaw:	1.533	yaw rate:	-30.038	Roll:	-0.747	Pitch:	-0.348	Yaw:	5.469	Thrust:	63.371
Time:	4.239	Roll Set Point:	0.052	Pitch Set Point:	-0.888	Yaw Set Point:	-0.019	X_WP:	-0.018	Y_WP:	0.873	Y_WP:	0.750	X:	-0.035	Y:	0.881	Z:	0.648	yaw:	1.105	yaw rate:	42.832	Roll:	-0.558	Pitch:	-0.530	Yaw:	-4.498	Thrust:	60.350
Time:	4.258	Roll Set Point:	0.052	Pitch Set Point:	-0.889	Yaw Set Point:	-0.023	X_WP:	-0.018	Y_WP:	0.873	Y_WP:	0.750	X:	-0.035	Y:	0.881	Z:	0.649	yaw:	1.330	yaw rate:	-22.516	Roll:	-0.593	Pitch:	-0.274	Yaw:	4.406	Thrust:	59.742
Time:	4.278	Roll Set Point:	0.052	Pitch Set Point:	-0.888	Yaw Set Point:	-0.021	X_WP:	-0.018	Y_WP:	0.873	Y_WP:	0.750	X:	-0.035	Y:	0.880	Z:	0.649	yaw:	1.215	yaw rate:	11.442	Roll:	-0.655	Pitch:	-0.473	Yaw:	-0.223	Thrust:	61.470
Time:	4.297	Roll Set Point:	0.057	Pitch Set Point:	-0.882	Yaw Set Point:	0.205	X_WP:	-0.018	Y_WP:	0.873	Y_WP:	0.750	X:	-0.037	Y:	0.879	Z:	0.655	yaw:	-11.767	yaw rate:	1298.268	Roll:	-3.410	Pitch:	-5.161	Yaw:	-191.316	Thrust:	46.183
Time:	4.318	Roll Set Point:	0.057	Pitch Set Point:	-0.882	Yaw Set Point:	0.207	X_WP:	-0.018	Y_WP:	0.873	Y_WP:	0.750	X:	-0.037	Y:	0.879	Z:	0.655	yaw:	-11.858	yaw rate:	9.084	Roll:	-0.656	Pitch:	-0.567	Yaw:	-18.228	Thrust:	62.522
Time:	4.338	Roll Set Point:	0.057	Pitch Set Point:	-0.882	Yaw Set Point:	0.206	X_WP:	-0.018	Y_WP:	0.873	Y_WP:	0.750	X:	-0.037	Y:	0.880	Z:	0.656	yaw:	-11.804	yaw rate:	-5.362	Roll:	-0.823	Pitch:	-0.323	Yaw:	-16.383	Thrust:	61.508
Time:	4.359	Roll Set Point:	0.056	Pitch Set Point:	-0.882	Yaw Set Point:	0.204	X_WP:	-0.018	Y_WP:	0.873	Y_WP:	0.750	X:	-0.037	Y:	0.879	Z:	0.657	yaw:	-11.706	yaw rate:	-9.814	Roll:	-0.617	Pitch:	-0.805	Yaw:	-15.810	Thrust:	62.964
Time:	4.379	Roll Set Point:	0.056	Pitch Set Point:	-0.881	Yaw Set Point:	0.221	X_WP:	-0.018	Y_WP:	0.873	Y_WP:	0.750	X:	-0.036	Y:	0.879	Z:	0.657	yaw:	-12.666	yaw rate:	96.015	Roll:	-0.676	Pitch:	-0.858	Yaw:	-30.984	Thrust:	61.012
Time:	4.398	Roll Set Point:	0.056	Pitch Set Point:	-0.881	Yaw Set Point:	0.219	X_WP:	-0.018	Y_WP:	0.873	Y_WP:	0.750	X:	-0.036	Y:	0.879	Z:	0.658	yaw:	-12.564	yaw rate:	-10.282	Roll:	-0.720	Pitch:	-0.497	Yaw:	-16.853	Thrust:	56.594
Time:	4.418	Roll Set Point:	0.051	Pitch Set Point:	-0.887	Yaw Set Point:	-0.027	X_WP:	-0.018	Y_WP:	0.873	Y_WP:	0.750	X:	-0.034	Y:	0.880	Z:	0.653	yaw:	1.557	yaw rate:	-1412.069	Roll:	1.913	Pitch:	4.231	Yaw:	182.680	Thrust:	75.151
Time:	4.438	Roll Set Point:	0.051	Pitch Set Point:	-0.888	Yaw Set Point:	-0.043	X_WP:	-0.018	Y_WP:	0.873	Y_WP:	0.750	X:	-0.034	Y:	0.880	Z:	0.654	yaw:	2.444	yaw rate:	-88.647	Roll:	-0.590	Pitch:	-0.040	Yaw:	14.064	Thrust:	61.434
Time:	4.457	Roll Set Point:	0.051	Pitch Set Point:	-0.888	Yaw Set Point:	-0.044	X_WP:	-0.018	Y_WP:	0.873	Y_WP:	0.750	X:	-0.034	Y:	0.880	Z:	0.654	yaw:	2.543	yaw rate:	-9.919	Roll:	-0.593	Pitch:	-0.332	Yaw:	4.030	Thrust:	59.257
Time:	4.478	Roll Set Point:	0.051	Pitch Set Point:	-0.888	Yaw Set Point:	-0.042	X_WP:	-0.018	Y_WP:	0.873	Y_WP:	0.750	X:	-0.034	Y:	0.880	Z:	0.655	yaw:	2.420	yaw rate:	12.223	Roll:	-0.626	Pitch:	-0.451	Yaw:	0.920	Thrust:	62.971
Time:	4.499	Roll Set Point:	0.051	Pitch Set Point:	-0.888	Yaw Set Point:	-0.040	X_WP:	-0.018	Y_WP:	0.873	Y_WP:	0.750	X:	-0.034	Y:	0.880	Z:	0.657	yaw:	2.301	yaw rate:	11.926	Roll:	-0.702	Pitch:	-0.295	Yaw:	0.821	Thrust:	64.071
Time:	4.518	Roll Set Point:	0.051	Pitch Set Point:	-0.888	Yaw Set Point:	-0.042	X_WP:	-0.018	Y_WP:	0.873	Y_WP:	0.750	X:	-0.034	Y:	0.880	Z:	0.658	yaw:	2.389	yaw rate:	-8.757	Roll:	-0.649	Pitch:	-0.270	Yaw:	3.738	Thrust:	57.312
Time:	4.538	Roll Set Point:	0.051	Pitch Set Point:	-0.888	Yaw Set Point:	-0.028	X_WP:	-0.018	Y_WP:	0.873	Y_WP:	0.750	X:	-0.034	Y:	0.880	Z:	0.660	yaw:	1.616	yaw rate:	77.234	Roll:	-0.973	Pitch:	-0.470	Yaw:	-8.821	Thrust:	59.789
Time:	4.559	Roll Set Point:	0.051	Pitch Set Point:	-0.888	Yaw Set Point:	-0.044	X_WP:	-0.018	Y_WP:	0.873	Y_WP:	0.750	X:	-0.034	Y:	0.880	Z:	0.661	yaw:	2.537	yaw rate:	-92.063	Roll:	-0.398	Pitch:	-0.300	Yaw:	13.827	Thrust:	65.118
Time:	4.579	Roll Set Point:	0.050	Pitch Set Point:	-0.887	Yaw Set Point:	-0.042	X_WP:	-0.018	Y_WP:	0.873	Y_WP:	0.750	X:	-0.034	Y:	0.880	Z:	0.663	yaw:	2.386	yaw rate:	15.085	Roll:	-0.581	Pitch:	-0.463	Yaw:	0.549	Thrust:	59.192
Time:	4.598	Roll Set Point:	0.051	Pitch Set Point:	-0.888	Yaw Set Point:	-0.042	X_WP:	-0.018	Y_WP:	0.873	Y_WP:	0.750	X:	-0.034	Y:	0.880	Z:	0.665	yaw:	2.424	yaw rate:	-3.740	Roll:	-0.743	Pitch:	-0.284	Yaw:	3.180	Thrust:	55.038
Time:	4.627	Roll Set Point:	0.051	Pitch Set Point:	-0.887	Yaw Set Point:	-0.041	X_WP:	-0.018	Y_WP:	0.873	Y_WP:	0.750	X:	-0.034	Y:	0.880	Z:	0.668	yaw:	2.357	yaw rate:	6.702	Roll:	-0.791	Pitch:	-0.664	Yaw:	1.562	Thrust:	89.126
Time:	4.638	Roll Set Point:	0.051	Pitch Set Point:	-0.887	Yaw Set Point:	-0.040	X_WP:	-0.018	Y_WP:	0.873	Y_WP:	0.750	X:	-0.034	Y:	0.880	Z:	0.670	yaw:	2.316	yaw rate:	4.023	Roll:	-0.705	Pitch:	-0.052	Yaw:	1.807	Thrust:	24.419
Time:	4.659	Roll Set Point:	0.051	Pitch Set Point:	-0.887	Yaw Set Point:	-0.044	X_WP:	-0.018	Y_WP:	0.873	Y_WP:	0.750	X:	-0.034	Y:	0.880	Z:	0.672	yaw:	2.504	yaw rate:	-18.735	Roll:	-0.639	Pitch:	-0.398	Yaw:	5.078	Thrust:	61.484
Time:	4.678	Roll Set Point:	0.051	Pitch Set Point:	-0.887	Yaw Set Point:	-0.039	X_WP:	-0.018	Y_WP:	0.873	Y_WP:	0.750	X:	-0.034	Y:	0.880	Z:	0.675	yaw:	2.215	yaw rate:	28.836	Roll:	-0.814	Pitch:	-0.421	Yaw:	-1.439	Thrust:	58.287
Time:	4.698	Roll Set Point:	0.051	Pitch Set Point:	-0.887	Yaw Set Point:	-0.044	X_WP:	-0.018	Y_WP:	0.873	Y_WP:	0.750	X:	-0.035	Y:	0.880	Z:	0.677	yaw:	2.517	yaw rate:	-30.185	Roll:	-0.816	Pitch:	-0.304	Yaw:	6.832	Thrust:	59.333
Time:	4.720	Roll Set Point:	0.051	Pitch Set Point:	-0.887	Yaw Set Point:	-0.046	X_WP:	-0.018	Y_WP:	0.873	Y_WP:	0.750	X:	-0.035	Y:	0.880	Z:	0.679	yaw:	2.655	yaw rate:	-13.805	Roll:	-0.769	Pitch:	-0.388	Yaw:	4.521	Thrust:	68.750
Time:	4.738	Roll Set Point:	0.052	Pitch Set Point:	-0.887	Yaw Set Point:	-0.042	X_WP:	-0.018	Y_WP:	0.873	Y_WP:	0.750	X:	-0.035	Y:	0.880	Z:	0.681	yaw:	2.427	yaw rate:	22.802	Roll:	-0.810	Pitch:	-0.337	Yaw:	-0.588	Thrust:	52.920
Time:	4.759	Roll Set Point:	0.052	Pitch Set Point:	-0.887	Yaw Set Point:	-0.045	X_WP:	-0.018	Y_WP:	0.873	Y_WP:	0.750	X:	-0.035	Y:	0.879	Z:	0.682	yaw:	2.566	yaw rate:	-13.905	Roll:	-0.719	Pitch:	-0.521	Yaw:	4.608	Thrust:	65.430
Time:	4.783	Roll Set Point:	0.052	Pitch Set Point:	-0.887	Yaw Set Point:	-0.036	X_WP:	-0.018	Y_WP:	0.873	Y_WP:	0.750	X:	-0.035	Y:	0.880	Z:	0.684	yaw:	2.084	yaw rate:	48.266	Roll:	-0.855	Pitch:	-0.467	Yaw:	-3.156	Thrust:	62.216
Time:	4.798	Roll Set Point:	0.052	Pitch Set Point:	-0.887	Yaw Set Point:	-0.038	X_WP:	-0.018	Y_WP:	0.873	Y_WP:	0.750	X:	-0.035	Y:	0.879	Z:	0.685	yaw:	2.149	yaw rate:	-6.587	Roll:	-0.746	Pitch:	-0.349	Yaw:	3.689	Thrust:	57.025
Time:	4.818	Roll Set Point:	0.052	Pitch Set Point:	-0.886	Yaw Set Point:	-0.035	X_WP:	-0.018	Y_WP:	0.873	Y_WP:	0.750	X:	-0.035	Y:	0.879	Z:	0.686	yaw:	1.983	yaw rate:	16.604	Roll:	-0.823	Pitch:	-0.531	Yaw:	0.001	Thrust:	62.715
Time:	4.838	Roll Set Point:	0.053	Pitch Set Point:	-0.886	Yaw Set Point:	-0.035	X_WP:	-0.018	Y_WP:	0.873	Y_WP:	0.750	X:	-0.035	Y:	0.879	Z:	0.688	yaw:	1.997	yaw rate:	-1.356	Roll:	-0.817	Pitch:	-0.352	Yaw:	2.375	Thrust:	62.077
Time:	4.858	Roll Set Point:	0.053	Pitch Set Point:	-0.886	Yaw Set Point:	-0.035	X_WP:	-0.018	Y_WP:	0.873	Y_WP:	0.750	X:	-0.035	Y:	0.879	Z:	0.689	yaw:	2.032	yaw rate:	-3.482	Roll:	-0.864	Pitch:	-0.333	Yaw:	2.709	Thrust:	62.293
Time:	4.878	Roll Set Point:	0.053	Pitch Set Point:	-0.886	Yaw Set Point:	-0.032	X_WP:	-0.018	Y_WP:	0.873	Y_WP:	0.750	X:	-0.036	Y:	0.879	Z:	0.690	yaw:	1.849	yaw rate:	18.243	Roll:	-0.882	Pitch:	-0.491	Yaw:	-0.363	Thrust:	62.202
Time:	4.898	Roll Set Point:	0.054	Pitch Set Point:	-0.886	Yaw Set Point:	-0.034	X_WP:	-0.018	Y_WP:	0.873	Y_WP:	0.750	X:	-0.036	Y:	0.879	Z:	0.692	yaw:	1.974	yaw rate:	-12.472	Roll:	-0.872	Pitch:	-0.321	Yaw:	3.893	Thrust:	60.290
Time:	4.919	Roll Set Point:	0.054	Pitch Set Point:	-0.886	Yaw Set Point:	-0.034	X_WP:	-0.018	Y_WP:	0.873	Y_WP:	0.750	X:	-0.036	Y:	0.879	Z:	0.694	yaw:	1.948	yaw rate:	2.593	Roll:	-0.827	Pitch:	-0.478	Yaw:	1.838	Thrust:	64.176
Time:	4.938	Roll Set Point:	0.054	Pitch Set Point:	-0.886	Yaw Set Point:	-0.034	X_WP:	-0.018	Y_WP:	0.873	Y_WP:	0.750	X:	-0.036	Y:	0.879	Z:	0.696	yaw:	1.945	yaw rate:	0.349	Roll:	-0.872	Pitch:	-0.377	Yaw:	2.172	Thrust:	57.943
Time:	4.959	Roll Set Point:	0.054	Pitch Set Point:	-0.886	Yaw Set Point:	-0.032	X_WP:	-0.018	Y_WP:	0.873	Y_WP:	0.750	X:	-0.036	Y:	0.879	Z:	0.698	yaw:	1.839	yaw rate:	10.581	Roll:	-0.877	Pitch:	-0.427	Yaw:	0.738	Thrust:	66.280
Time:	4.979	Roll Set Point:	0.055	Pitch Set Point:	-0.886	Yaw Set Point:	-0.034	X_WP:	-0.018	Y_WP:	0.873	Y_WP:	0.750	X:	-0.036	Y:	0.879	Z:	0.700	yaw:	1.931	yaw rate:	-9.243	Roll:	-1.007	Pitch:	-0.272	Yaw:	3.502	Thrust:	57.432
Time:	4.999	Roll Set Point:	0.055	Pitch Set Point:	-0.886	Yaw Set Point:	-0.030	X_WP:	-0.018	Y_WP:	0.873	Y_WP:	0.750	X:	-0.037	Y:	0.879	Z:	0.702	yaw:	1.728	yaw rate:	20.353	Roll:	-0.915	Pitch:	-0.470	Yaw:	-0.757	Thrust:	59.286
Time:	5.018	Roll Set Point:	0.057	Pitch Set Point:	-0.886	Yaw Set Point:	-0.020	X_WP:	-0.018	Y_WP:	0.873	Y_WP:	0.750	X:	-0.037	Y:	0.879	Z:	0.704	yaw:	1.159	yaw rate:	56.839	Roll:	-1.343	Pitch:	-0.226	Yaw:	-6.185	Thrust:	61.459
Time:	5.038	Roll Set Point:	0.056	Pitch Set Point:	-0.886	Yaw Set Point:	-0.033	X_WP:	-0.018	Y_WP:	0.873	Y_WP:	0.750	X:	-0.037	Y:	0.879	Z:	0.707	yaw:	1.865	yaw rate:	-70.550	Roll:	-0.701	Pitch:	-0.316	Yaw:	11.341	Thrust:	59.975
Time:	5.058	Roll Set Point:	0.057	Pitch Set Point:	-0.886	Yaw Set Point:	-0.030	X_WP:	-0.018	Y_WP:	0.873	Y_WP:	0.750	X:	-0.037	Y:	0.879	Z:	0.709	yaw:	1.709	yaw rate:	15.609	Roll:	-0.950	Pitch:	-0.320	Yaw:	-0.142	Thrust:	57.916
Time:	5.079	Roll Set Point:	0.057	Pitch Set Point:	-0.886	Yaw Set Point:	-0.038	X_WP:	-0.018	Y_WP:	0.873	Y_WP:	0.750	X:	-0.038	Y:	0.879	Z:	0.712	yaw:	2.171	yaw rate:	-46.187	Roll:	-0.985	Pitch:	-0.327	Yaw:	8.476	Thrust:	61.639
Time:	5.099	Roll Set Point:	0.058	Pitch Set Point:	-0.886	Yaw Set Point:	-0.035	X_WP:	-0.018	Y_WP:	0.873	Y_WP:	0.750	X:	-0.038	Y:	0.879	Z:	0.714	yaw:	1.998	yaw rate:	17.257	Roll:	-0.997	Pitch:	-0.430	Yaw:	0.079	Thrust:	58.109
Time:	5.118	Roll Set Point:	0.058	Pitch Set Point:	-0.886	Yaw Set Point:	-0.029	X_WP:	-0.018	Y_WP:	0.873	Y_WP:	0.750	X:	-0.038	Y:	0.879	Z:	0.717	yaw:	1.664	yaw rate:	33.378	Roll:	-1.102	Pitch:	-0.459	Yaw:	-2.459	Thrust:	58.955
Time:	5.139	Roll Set Point:	0.059	Pitch Set Point:	-0.886	Yaw Set Point:	-0.026	X_WP:	-0.018	Y_WP:	0.873	Y_WP:	0.750	X:	-0.038	Y:	0.879	Z:	0.720	yaw:	1.498	yaw rate:	16.670	Roll:	-1.018	Pitch:	-0.362	Yaw:	-0.481	Thrust:	58.926
Time:	5.160	Roll Set Point:	0.059	Pitch Set Point:	-0.886	Yaw Set Point:	-0.029	X_WP:	-0.018	Y_WP:	0.873	Y_WP:	0.750	X:	-0.039	Y:	0.879	Z:	0.723	yaw:	1.674	yaw rate:	-17.642	Roll:	-0.991	Pitch:	-0.358	Yaw:	4.091	Thrust:	63.784
Time:	5.180	Roll Set Point:	0.060	Pitch Set Point:	-0.886	Yaw Set Point:	-0.025	X_WP:	-0.018	Y_WP:	0.873	Y_WP:	0.750	X:	-0.039	Y:	0.879	Z:	0.725	yaw:	1.452	yaw rate:	22.196	Roll:	-1.158	Pitch:	-0.454	Yaw:	-1.188	Thrust:	58.975
Time:	5.199	Roll Set Point:	0.060	Pitch Set Point:	-0.886	Yaw Set Point:	-0.025	X_WP:	-0.018	Y_WP:	0.873	Y_WP:	0.750	X:	-0.039	Y:	0.879	Z:	0.728	yaw:	1.438	yaw rate:	1.412	Roll:	-1.035	Pitch:	-0.348	Yaw:	1.466	Thrust:	58.419
Time:	5.219	Roll Set Point:	0.061	Pitch Set Point:	-0.886	Yaw Set Point:	-0.027	X_WP:	-0.018	Y_WP:	0.873	Y_WP:	0.750	X:	-0.039	Y:	0.879	Z:	0.730	yaw:	1.546	yaw rate:	-10.785	Roll:	-1.012	Pitch:	-0.290	Yaw:	3.235	Thrust:	58.252
Time:	5.238	Roll Set Point:	0.062	Pitch Set Point:	-0.886	Yaw Set Point:	-0.025	X_WP:	-0.018	Y_WP:	0.873	Y_WP:	0.750	X:	-0.040	Y:	0.879	Z:	0.733	yaw:	1.410	yaw rate:	13.585	Roll:	-1.208	Pitch:	-0.273	Yaw:	-0.224	Thrust:	55.329
Time:	5.258	Roll Set Point:	0.062	Pitch Set Point:	-0.886	Yaw Set Point:	-0.025	X_WP:	-0.018	Y_WP:	0.873	Y_WP:	0.750	X:	-0.040	Y:	0.879	Z:	0.736	yaw:	1.419	yaw rate:	-0.894	Roll:	-1.087	Pitch:	-0.360	Yaw:	1.769	Thrust:	54.680
Time:	5.279	Roll Set Point:	0.062	Pitch Set Point:	-0.886	Yaw Set Point:	-0.027	X_WP:	-0.018	Y_WP:	0.873	Y_WP:	0.750	X:	-0.040	Y:	0.879	Z:	0.738	yaw:	1.539	yaw rate:	-11.989	Roll:	-1.034	Pitch:	-0.392	Yaw:	3.330	Thrust:	64.635
Time:	5.299	Roll Set Point:	0.063	Pitch Set Point:	-0.886	Yaw Set Point:	-0.025	X_WP:	-0.018	Y_WP:	0.873	Y_WP:	0.750	X:	-0.040	Y:	0.879	Z:	0.741	yaw:	1.456	yaw rate:	8.312	Roll:	-1.169	Pitch:	-0.273	Yaw:	0.634	Thrust:	56.779
