Time:	0.038	Roll Set Point:	0.012	Pitch Set Point:	0.013	Yaw Set Point:	-3.002	X_WP:	0.000	Y_WP:	0.000	Y_WP:	1.000	X:	0.084	Y:	-0.093	Z:	0.057	yaw:	172.012	yaw rate:	-1.263	Roll:	-2.784	Pitch:	2.329	Yaw:	240.173	Thrust:	51.863
Time:	0.060	Roll Set Point:	0.012	Pitch Set Point:	0.013	Yaw Set Point:	-3.002	X_WP:	0.000	Y_WP:	0.000	Y_WP:	1.000	X:	0.084	Y:	-0.093	Z:	0.057	yaw:	172.009	yaw rate:	0.285	Roll:	-2.776	Pitch:	2.334	Yaw:	241.421	Thrust:	54.322
Time:	0.080	Roll Set Point:	0.012	Pitch Set Point:	0.013	Yaw Set Point:	-3.002	X_WP:	0.000	Y_WP:	0.000	Y_WP:	1.000	X:	0.084	Y:	-0.093	Z:	0.057	yaw:	172.001	yaw rate:	0.777	Roll:	-2.809	Pitch:	2.327	Yaw:	242.122	Thrust:	56.577
Time:	0.098	Roll Set Point:	0.012	Pitch Set Point:	0.013	Yaw Set Point:	-3.002	X_WP:	0.000	Y_WP:	0.000	Y_WP:	1.000	X:	0.084	Y:	-0.093	Z:	0.057	yaw:	171.997	yaw rate:	0.381	Roll:	-2.808	Pitch:	2.337	Yaw:	241.928	Thrust:	58.014
Time:	0.118	Roll Set Point:	0.012	Pitch Set Point:	0.013	Yaw Set Point:	-3.002	X_WP:	0.000	Y_WP:	0.000	Y_WP:	1.000	X:	0.084	Y:	-0.093	Z:	0.057	yaw:	172.002	yaw rate:	-0.472	Roll:	-2.793	Pitch:	2.348	Yaw:	242.234	Thrust:	61.007
Time:	0.138	Roll Set Point:	0.012	Pitch Set Point:	0.013	Yaw Set Point:	-3.002	X_WP:	0.000	Y_WP:	0.000	Y_WP:	1.000	X:	0.084	Y:	-0.093	Z:	0.057	yaw:	171.995	yaw rate:	0.651	Roll:	-2.782	Pitch:	2.354	Yaw:	242.082	Thrust:	63.118
Time:	0.158	Roll Set Point:	0.012	Pitch Set Point:	0.013	Yaw Set Point:	-3.002	X_WP:	0.000	Y_WP:	0.000	Y_WP:	1.000	X:	0.084	Y:	-0.093	Z:	0.057	yaw:	171.995	yaw rate:	-0.009	Roll:	-2.845	Pitch:	2.344	Yaw:	242.096	Thrust:	64.913
Time:	0.179	Roll Set Point:	0.012	Pitch Set Point:	0.013	Yaw Set Point:	-3.002	X_WP:	0.000	Y_WP:	0.000	Y_WP:	1.000	X:	0.084	Y:	-0.093	Z:	0.057	yaw:	171.997	yaw rate:	-0.139	Roll:	-2.827	Pitch:	2.356	Yaw:	242.182	Thrust:	68.180
Time:	0.201	Roll Set Point:	0.012	Pitch Set Point:	0.013	Yaw Set Point:	-3.002	X_WP:	0.000	Y_WP:	0.000	Y_WP:	1.000	X:	0.084	Y:	-0.093	Z:	0.057	yaw:	172.006	yaw rate:	-0.906	Roll:	-2.817	Pitch:	2.367	Yaw:	242.484	Thrust:	71.899
Time:	0.218	Roll Set Point:	0.012	Pitch Set Point:	0.013	Yaw Set Point:	-3.002	X_WP:	0.000	Y_WP:	0.000	Y_WP:	1.000	X:	0.084	Y:	-0.093	Z:	0.057	yaw:	171.986	yaw rate:	1.983	Roll:	-2.817	Pitch:	2.358	Yaw:	241.600	Thrust:	69.898
Time:	0.238	Roll Set Point:	0.012	Pitch Set Point:	0.013	Yaw Set Point:	-3.002	X_WP:	0.000	Y_WP:	0.000	Y_WP:	1.000	X:	0.084	Y:	-0.093	Z:	0.057	yaw:	172.001	yaw rate:	-1.451	Roll:	-2.842	Pitch:	2.372	Yaw:	242.385	Thrust:	74.837
Time:	0.258	Roll Set Point:	0.012	Pitch Set Point:	0.013	Yaw Set Point:	-3.002	X_WP:	0.000	Y_WP:	0.000	Y_WP:	1.000	X:	0.084	Y:	-0.093	Z:	0.057	yaw:	172.004	yaw rate:	-0.368	Roll:	-2.760	Pitch:	2.383	Yaw:	242.183	Thrust:	76.644
Time:	0.280	Roll Set Point:	0.012	Pitch Set Point:	0.013	Yaw Set Point:	-3.002	X_WP:	0.000	Y_WP:	0.000	Y_WP:	1.000	X:	0.084	Y:	-0.093	Z:	0.057	yaw:	171.997	yaw rate:	0.678	Roll:	-2.910	Pitch:	2.368	Yaw:	242.234	Thrust:	81.038
Time:	0.298	Roll Set Point:	0.012	Pitch Set Point:	0.013	Yaw Set Point:	-3.002	X_WP:	0.000	Y_WP:	0.000	Y_WP:	1.000	X:	0.084	Y:	-0.093	Z:	0.057	yaw:	172.003	yaw rate:	-0.511	Roll:	-2.852	Pitch:	2.393	Yaw:	242.041	Thrust:	78.459
Time:	0.318	Roll Set Point:	0.012	Pitch Set Point:	0.013	Yaw Set Point:	-3.002	X_WP:	0.000	Y_WP:	0.000	Y_WP:	1.000	X:	0.084	Y:	-0.093	Z:	0.057	yaw:	171.997	yaw rate:	0.601	Roll:	-2.821	Pitch:	2.383	Yaw:	242.132	Thrust:	84.443
Time:	0.348	Roll Set Point:	0.012	Pitch Set Point:	0.013	Yaw Set Point:	-3.002	X_WP:	0.000	Y_WP:	0.000	Y_WP:	1.000	X:	0.084	Y:	-0.093	Z:	0.057	yaw:	172.010	yaw rate:	-1.370	Roll:	-2.890	Pitch:	2.417	Yaw:	243.163	Thrust:	99.635
Time:	0.359	Roll Set Point:	0.012	Pitch Set Point:	0.013	Yaw Set Point:	-3.002	X_WP:	0.000	Y_WP:	0.000	Y_WP:	1.000	X:	0.084	Y:	-0.093	Z:	0.057	yaw:	171.996	yaw rate:	1.453	Roll:	-2.854	Pitch:	2.343	Yaw:	241.041	Thrust:	74.717
Time:	0.379	Roll Set Point:	0.012	Pitch Set Point:	0.013	Yaw Set Point:	-3.002	X_WP:	0.000	Y_WP:	0.000	Y_WP:	1.000	X:	0.084	Y:	-0.093	Z:	0.057	yaw:	172.003	yaw rate:	-0.718	Roll:	-2.854	Pitch:	2.409	Yaw:	242.213	Thrust:	89.459
Time:	0.401	Roll Set Point:	0.012	Pitch Set Point:	0.013	Yaw Set Point:	-3.002	X_WP:	0.000	Y_WP:	0.000	Y_WP:	1.000	X:	0.084	Y:	-0.093	Z:	0.057	yaw:	171.987	yaw rate:	1.625	Roll:	-2.869	Pitch:	2.391	Yaw:	242.152	Thrust:	95.795
Time:	0.419	Roll Set Point:	0.012	Pitch Set Point:	0.013	Yaw Set Point:	-3.002	X_WP:	0.000	Y_WP:	0.000	Y_WP:	1.000	X:	0.084	Y:	-0.093	Z:	0.057	yaw:	171.999	yaw rate:	-1.286	Roll:	-2.879	Pitch:	2.413	Yaw:	242.110	Thrust:	90.817
Time:	0.438	Roll Set Point:	0.012	Pitch Set Point:	0.013	Yaw Set Point:	-3.002	X_WP:	0.000	Y_WP:	0.000	Y_WP:	1.000	X:	0.084	Y:	-0.093	Z:	0.057	yaw:	171.998	yaw rate:	0.101	Roll:	-2.888	Pitch:	2.410	Yaw:	242.145	Thrust:	96.033
Time:	0.459	Roll Set Point:	0.012	Pitch Set Point:	0.013	Yaw Set Point:	-3.002	X_WP:	0.000	Y_WP:	0.000	Y_WP:	1.000	X:	0.084	Y:	-0.093	Z:	0.057	yaw:	172.002	yaw rate:	-0.368	Roll:	-2.885	Pitch:	2.412	Yaw:	242.264	Thrust:	100.000
Time:	0.482	Roll Set Point:	0.012	Pitch Set Point:	0.013	Yaw Set Point:	-3.002	X_WP:	0.000	Y_WP:	0.000	Y_WP:	1.000	X:	0.084	Y:	-0.093	Z:	0.057	yaw:	172.005	yaw rate:	-0.303	Roll:	-2.916	Pitch:	2.432	Yaw:	242.559	Thrust:	100.000
Time:	0.498	Roll Set Point:	0.012	Pitch Set Point:	0.013	Yaw Set Point:	-3.002	X_WP:	0.000	Y_WP:	0.000	Y_WP:	1.000	X:	0.084	Y:	-0.093	Z:	0.057	yaw:	172.007	yaw rate:	-0.141	Roll:	-2.846	Pitch:	2.427	Yaw:	241.698	Thrust:	91.147
Time:	0.519	Roll Set Point:	0.012	Pitch Set Point:	0.013	Yaw Set Point:	-3.002	X_WP:	0.000	Y_WP:	0.000	Y_WP:	1.000	X:	0.084	Y:	-0.093	Z:	0.057	yaw:	171.998	yaw rate:	0.908	Roll:	-2.916	Pitch:	2.411	Yaw:	242.200	Thrust:	100.000
Time:	0.546	Roll Set Point:	0.012	Pitch Set Point:	0.013	Yaw Set Point:	-3.002	X_WP:	0.000	Y_WP:	0.000	Y_WP:	1.000	X:	0.084	Y:	-0.093	Z:	0.057	yaw:	172.000	yaw rate:	-0.282	Roll:	-2.909	Pitch:	2.438	Yaw:	242.450	Thrust:	100.000
Time:	0.558	Roll Set Point:	0.012	Pitch Set Point:	0.013	Yaw Set Point:	-3.002	X_WP:	0.000	Y_WP:	0.000	Y_WP:	1.000	X:	0.084	Y:	-0.093	Z:	0.057	yaw:	172.009	yaw rate:	-0.836	Roll:	-2.886	Pitch:	2.439	Yaw:	241.958	Thrust:	100.000
Time:	0.579	Roll Set Point:	0.012	Pitch Set Point:	0.013	Yaw Set Point:	-3.002	X_WP:	0.000	Y_WP:	0.000	Y_WP:	1.000	X:	0.084	Y:	-0.093	Z:	0.057	yaw:	171.994	yaw rate:	1.442	Roll:	-2.946	Pitch:	2.416	Yaw:	242.022	Thrust:	100.000
Time:	0.600	Roll Set Point:	0.012	Pitch Set Point:	0.013	Yaw Set Point:	-3.002	X_WP:	0.000	Y_WP:	0.000	Y_WP:	1.000	X:	0.084	Y:	-0.093	Z:	0.057	yaw:	171.998	yaw rate:	-0.374	Roll:	-2.906	Pitch:	2.450	Yaw:	242.258	Thrust:	100.000
Time:	0.620	Roll Set Point:	0.012	Pitch Set Point:	0.013	Yaw Set Point:	-3.002	X_WP:	0.000	Y_WP:	0.000	Y_WP:	1.000	X:	0.084	Y:	-0.093	Z:	0.057	yaw:	172.004	yaw rate:	-0.555	Roll:	-2.919	Pitch:	2.464	Yaw:	242.243	Thrust:	100.000
Time:	0.638	Roll Set Point:	0.012	Pitch Set Point:	0.013	Yaw Set Point:	-3.002	X_WP:	0.000	Y_WP:	0.000	Y_WP:	1.000	X:	0.084	Y:	-0.093	Z:	0.057	yaw:	172.000	yaw rate:	0.358	Roll:	-2.923	Pitch:	2.436	Yaw:	242.013	Thrust:	100.000
Time:	0.658	Roll Set Point:	0.012	Pitch Set Point:	0.013	Yaw Set Point:	-3.002	X_WP:	0.000	Y_WP:	0.000	Y_WP:	1.000	X:	0.084	Y:	-0.093	Z:	0.057	yaw:	171.999	yaw rate:	0.086	Roll:	-2.940	Pitch:	2.440	Yaw:	242.151	Thrust:	100.000
Time:	0.683	Roll Set Point:	0.012	Pitch Set Point:	0.013	Yaw Set Point:	-3.002	X_WP:	0.000	Y_WP:	0.000	Y_WP:	1.000	X:	0.084	Y:	-0.093	Z:	0.057	yaw:	172.004	yaw rate:	-0.513	Roll:	-2.963	Pitch:	2.490	Yaw:	242.581	Thrust:	100.000
Time:	0.699	Roll Set Point:	0.012	Pitch Set Point:	0.013	Yaw Set Point:	-3.002	X_WP:	0.000	Y_WP:	0.000	Y_WP:	1.000	X:	0.084	Y:	-0.093	Z:	0.057	yaw:	171.987	yaw rate:	1.691	Roll:	-2.851	Pitch:	2.426	Yaw:	241.526	Thrust:	100.000
Time:	0.719	Roll Set Point:	0.012	Pitch Set Point:	0.013	Yaw Set Point:	-3.002	X_WP:	0.000	Y_WP:	0.000	Y_WP:	1.000	X:	0.084	Y:	-0.093	Z:	0.057	yaw:	171.997	yaw rate:	-0.937	Roll:	-3.016	Pitch:	2.469	Yaw:	242.281	Thrust:	100.000
Time:	0.745	Roll Set Point:	0.012	Pitch Set Point:	0.013	Yaw Set Point:	-3.002	X_WP:	0.000	Y_WP:	0.000	Y_WP:	1.000	X:	0.084	Y:	-0.093	Z:	0.057	yaw:	172.004	yaw rate:	-0.759	Roll:	-2.957	Pitch:	2.487	Yaw:	242.559	Thrust:	100.000
Time:	0.759	Roll Set Point:	0.012	Pitch Set Point:	0.013	Yaw Set Point:	-3.002	X_WP:	0.000	Y_WP:	0.000	Y_WP:	1.000	X:	0.084	Y:	-0.093	Z:	0.057	yaw:	172.004	yaw rate:	-0.001	Roll:	-2.937	Pitch:	2.472	Yaw:	241.920	Thrust:	100.000
Time:	0.779	Roll Set Point:	0.012	Pitch Set Point:	0.013	Yaw Set Point:	-3.002	X_WP:	0.000	Y_WP:	0.000	Y_WP:	1.000	X:	0.084	Y:	-0.093	Z:	0.057	yaw:	172.002	yaw rate:	0.264	Roll:	-2.952	Pitch:	2.472	Yaw:	242.028	Thrust:	100.000
Time:	0.801	Roll Set Point:	0.012	Pitch Set Point:	0.013	Yaw Set Point:	-3.002	X_WP:	0.000	Y_WP:	0.000	Y_WP:	1.000	X:	0.084	Y:	-0.093	Z:	0.057	yaw:	172.007	yaw rate:	-0.559	Roll:	-2.983	Pitch:	2.494	Yaw:	242.422	Thrust:	100.000
Time:	0.818	Roll Set Point:	0.012	Pitch Set Point:	0.013	Yaw Set Point:	-3.002	X_WP:	0.000	Y_WP:	0.000	Y_WP:	1.000	X:	0.084	Y:	-0.093	Z:	0.057	yaw:	172.008	yaw rate:	-0.119	Roll:	-2.949	Pitch:	2.473	Yaw:	241.962	Thrust:	100.000
Time:	0.838	Roll Set Point:	0.012	Pitch Set Point:	0.013	Yaw Set Point:	-3.002	X_WP:	0.000	Y_WP:	0.000	Y_WP:	1.000	X:	0.084	Y:	-0.093	Z:	0.057	yaw:	171.995	yaw rate:	1.309	Roll:	-2.994	Pitch:	2.473	Yaw:	241.987	Thrust:	100.000
Time:	0.858	Roll Set Point:	0.012	Pitch Set Point:	0.013	Yaw Set Point:	-3.002	X_WP:	0.000	Y_WP:	0.000	Y_WP:	1.000	X:	0.084	Y:	-0.093	Z:	0.057	yaw:	172.003	yaw rate:	-0.766	Roll:	-2.964	Pitch:	2.514	Yaw:	242.223	Thrust:	100.000
Time:	0.880	Roll Set Point:	0.012	Pitch Set Point:	0.013	Yaw Set Point:	-3.002	X_WP:	0.000	Y_WP:	0.000	Y_WP:	1.000	X:	0.084	Y:	-0.093	Z:	0.057	yaw:	172.009	yaw rate:	-0.594	Roll:	-3.002	Pitch:	2.508	Yaw:	242.410	Thrust:	100.000
Time:	0.898	Roll Set Point:	0.012	Pitch Set Point:	0.013	Yaw Set Point:	-3.002	X_WP:	0.000	Y_WP:	0.000	Y_WP:	1.000	X:	0.084	Y:	-0.093	Z:	0.057	yaw:	172.001	yaw rate:	0.774	Roll:	-2.993	Pitch:	2.475	Yaw:	241.912	Thrust:	100.000
Time:	0.918	Roll Set Point:	0.012	Pitch Set Point:	0.013	Yaw Set Point:	-3.002	X_WP:	0.000	Y_WP:	0.000	Y_WP:	1.000	X:	0.084	Y:	-0.093	Z:	0.057	yaw:	172.006	yaw rate:	-0.466	Roll:	-2.982	Pitch:	2.515	Yaw:	242.249	Thrust:	100.000
Time:	0.941	Roll Set Point:	0.012	Pitch Set Point:	0.013	Yaw Set Point:	-3.002	X_WP:	0.000	Y_WP:	0.000	Y_WP:	1.000	X:	0.084	Y:	-0.093	Z:	0.057	yaw:	172.003	yaw rate:	0.255	Roll:	-3.036	Pitch:	2.537	Yaw:	242.396	Thrust:	100.000
Time:	0.959	Roll Set Point:	0.012	Pitch Set Point:	0.013	Yaw Set Point:	-3.002	X_WP:	0.000	Y_WP:	0.000	Y_WP:	1.000	X:	0.084	Y:	-0.093	Z:	0.057	yaw:	171.988	yaw rate:	1.504	Roll:	-2.952	Pitch:	2.474	Yaw:	241.588	Thrust:	100.000
Time:	0.979	Roll Set Point:	0.012	Pitch Set Point:	0.013	Yaw Set Point:	-3.002	X_WP:	0.000	Y_WP:	0.000	Y_WP:	1.000	X:	0.084	Y:	-0.093	Z:	0.057	yaw:	172.005	yaw rate:	-1.715	Roll:	-3.039	Pitch:	2.528	Yaw:	242.484	Thrust:	100.000
Time:	1.000	Roll Set Point:	0.012	Pitch Set Point:	0.013	Yaw Set Point:	-3.002	X_WP:	0.000	Y_WP:	0.000	Y_WP:	1.000	X:	0.084	Y:	-0.093	Z:	0.057	yaw:	172.003	yaw rate:	0.256	Roll:	-3.007	Pitch:	2.552	Yaw:	242.314	Thrust:	100.000
Time:	1.018	Roll Set Point:	0.012	Pitch Set Point:	0.013	Yaw Set Point:	-3.002	X_WP:	0.000	Y_WP:	0.000	Y_WP:	1.000	X:	0.084	Y:	-0.093	Z:	0.057	yaw:	172.000	yaw rate:	0.321	Roll:	-2.995	Pitch:	2.486	Yaw:	241.822	Thrust:	100.000
Time:	1.038	Roll Set Point:	0.012	Pitch Set Point:	0.013	Yaw Set Point:	-3.002	X_WP:	0.000	Y_WP:	0.000	Y_WP:	1.000	X:	0.084	Y:	-0.093	Z:	0.057	yaw:	172.004	yaw rate:	-0.446	Roll:	-3.042	Pitch:	2.536	Yaw:	242.224	Thrust:	100.000
Time:	1.058	Roll Set Point:	0.012	Pitch Set Point:	0.013	Yaw Set Point:	-3.002	X_WP:	0.000	Y_WP:	0.000	Y_WP:	1.000	X:	0.084	Y:	-0.093	Z:	0.057	yaw:	172.008	yaw rate:	-0.396	Roll:	-3.019	Pitch:	2.535	Yaw:	242.218	Thrust:	100.000
Time:	1.079	Roll Set Point:	0.012	Pitch Set Point:	0.013	Yaw Set Point:	-3.002	X_WP:	0.000	Y_WP:	0.000	Y_WP:	1.000	X:	0.084	Y:	-0.093	Z:	0.057	yaw:	172.004	yaw rate:	0.438	Roll:	-3.056	Pitch:	2.542	Yaw:	242.234	Thrust:	100.000
Time:	1.097	Roll Set Point:	0.012	Pitch Set Point:	0.013	Yaw Set Point:	-3.002	X_WP:	0.000	Y_WP:	0.000	Y_WP:	1.000	X:	0.084	Y:	-0.093	Z:	0.057	yaw:	172.001	yaw rate:	0.245	Roll:	-3.014	Pitch:	2.529	Yaw:	241.980	Thrust:	100.000
Time:	1.118	Roll Set Point:	0.012	Pitch Set Point:	0.013	Yaw Set Point:	-3.002	X_WP:	0.000	Y_WP:	0.000	Y_WP:	1.000	X:	0.084	Y:	-0.093	Z:	0.057	yaw:	172.006	yaw rate:	-0.492	Roll:	-3.036	Pitch:	2.560	Yaw:	242.302	Thrust:	100.000
Time:	1.140	Roll Set Point:	0.012	Pitch Set Point:	0.013	Yaw Set Point:	-3.002	X_WP:	0.000	Y_WP:	0.000	Y_WP:	1.000	X:	0.084	Y:	-0.093	Z:	0.057	yaw:	172.005	yaw rate:	0.086	Roll:	-3.081	Pitch:	2.574	Yaw:	242.380	Thrust:	100.000
Time:	1.157	Roll Set Point:	0.012	Pitch Set Point:	0.013	Yaw Set Point:	-3.002	X_WP:	0.000	Y_WP:	0.000	Y_WP:	1.000	X:	0.084	Y:	-0.093	Z:	0.057	yaw:	172.000	yaw rate:	0.570	Roll:	-3.045	Pitch:	2.514	Yaw:	241.778	Thrust:	100.000
Time:	1.179	Roll Set Point:	0.012	Pitch Set Point:	0.013	Yaw Set Point:	-3.002	X_WP:	0.000	Y_WP:	0.000	Y_WP:	1.000	X:	0.084	Y:	-0.093	Z:	0.057	yaw:	172.005	yaw rate:	-0.552	Roll:	-3.064	Pitch:	2.570	Yaw:	242.285	Thrust:	100.000
Time:	1.199	Roll Set Point:	0.012	Pitch Set Point:	0.013	Yaw Set Point:	-3.002	X_WP:	0.000	Y_WP:	0.000	Y_WP:	1.000	X:	0.084	Y:	-0.093	Z:	0.057	yaw:	172.012	yaw rate:	-0.684	Roll:	-3.044	Pitch:	2.582	Yaw:	242.338	Thrust:	100.000
Time:	1.218	Roll Set Point:	0.012	Pitch Set Point:	0.013	Yaw Set Point:	-3.002	X_WP:	0.000	Y_WP:	0.000	Y_WP:	1.000	X:	0.084	Y:	-0.093	Z:	0.057	yaw:	172.003	yaw rate:	0.859	Roll:	-3.074	Pitch:	2.539	Yaw:	241.960	Thrust:	100.000
Time:	1.238	Roll Set Point:	0.012	Pitch Set Point:	0.013	Yaw Set Point:	-3.002	X_WP:	0.000	Y_WP:	0.000	Y_WP:	1.000	X:	0.084	Y:	-0.093	Z:	0.057	yaw:	172.005	yaw rate:	-0.125	Roll:	-3.079	Pitch:	2.569	Yaw:	242.164	Thrust:	100.000
Time:	1.258	Roll Set Point:	0.012	Pitch Set Point:	0.013	Yaw Set Point:	-3.002	X_WP:	0.000	Y_WP:	0.000	Y_WP:	1.000	X:	0.084	Y:	-0.093	Z:	0.057	yaw:	172.006	yaw rate:	-0.096	Roll:	-3.078	Pitch:	2.580	Yaw:	242.169	Thrust:	100.000
Time:	1.280	Roll Set Point:	0.012	Pitch Set Point:	0.013	Yaw Set Point:	-3.002	X_WP:	0.000	Y_WP:	0.000	Y_WP:	1.000	X:	0.084	Y:	-0.093	Z:	0.057	yaw:	172.001	yaw rate:	0.441	Roll:	-3.105	Pitch:	2.591	Yaw:	242.367	Thrust:	100.000
Time:	1.298	Roll Set Point:	0.012	Pitch Set Point:	0.013	Yaw Set Point:	-3.002	X_WP:	0.000	Y_WP:	0.000	Y_WP:	1.000	X:	0.084	Y:	-0.093	Z:	0.057	yaw:	172.002	yaw rate:	-0.053	Roll:	-3.061	Pitch:	2.568	Yaw:	241.937	Thrust:	100.000
Time:	1.318	Roll Set Point:	0.012	Pitch Set Point:	0.013	Yaw Set Point:	-3.002	X_WP:	0.000	Y_WP:	0.000	Y_WP:	1.000	X:	0.084	Y:	-0.093	Z:	0.057	yaw:	171.996	yaw rate:	0.557	Roll:	-3.094	Pitch:	2.568	Yaw:	242.040	Thrust:	100.000
Time:	1.340	Roll Set Point:	0.012	Pitch Set Point:	0.013	Yaw Set Point:	-3.002	X_WP:	0.000	Y_WP:	0.000	Y_WP:	1.000	X:	0.084	Y:	-0.093	Z:	0.057	yaw:	172.010	yaw rate:	-1.356	Roll:	-3.124	Pitch:	2.634	Yaw:	242.587	Thrust:	100.000
Time:	1.358	Roll Set Point:	0.012	Pitch Set Point:	0.013	Yaw Set Point:	-3.002	X_WP:	0.000	Y_WP:	0.000	Y_WP:	1.000	X:	0.084	Y:	-0.093	Z:	0.057	yaw:	172.004	yaw rate:	0.589	Roll:	-3.071	Pitch:	2.567	Yaw:	241.842	Thrust:	100.000
Time:	1.379	Roll Set Point:	0.012	Pitch Set Point:	0.013	Yaw Set Point:	-3.002	X_WP:	0.000	Y_WP:	0.000	Y_WP:	1.000	X:	0.084	Y:	-0.093	Z:	0.057	yaw:	172.003	yaw rate:	0.040	Roll:	-3.112	Pitch:	2.603	Yaw:	242.268	Thrust:	100.000
Time:	1.399	Roll Set Point:	0.012	Pitch Set Point:	0.013	Yaw Set Point:	-3.002	X_WP:	0.000	Y_WP:	0.000	Y_WP:	1.000	X:	0.084	Y:	-0.093	Z:	0.057	yaw:	171.998	yaw rate:	0.525	Roll:	-3.127	Pitch:	2.601	Yaw:	242.101	Thrust:	100.000
Time:	1.418	Roll Set Point:	0.012	Pitch Set Point:	0.013	Yaw Set Point:	-3.002	X_WP:	0.000	Y_WP:	0.000	Y_WP:	1.000	X:	0.084	Y:	-0.093	Z:	0.057	yaw:	172.009	yaw rate:	-1.124	Roll:	-3.081	Pitch:	2.601	Yaw:	242.173	Thrust:	100.000
Time:	1.439	Roll Set Point:	0.012	Pitch Set Point:	0.013	Yaw Set Point:	-3.002	X_WP:	0.000	Y_WP:	0.000	Y_WP:	1.000	X:	0.084	Y:	-0.093	Z:	0.057	yaw:	172.012	yaw rate:	-0.222	Roll:	-3.138	Pitch:	2.627	Yaw:	242.306	Thrust:	100.000
Time:	1.458	Roll Set Point:	0.012	Pitch Set Point:	0.013	Yaw Set Point:	-3.002	X_WP:	0.000	Y_WP:	0.000	Y_WP:	1.000	X:	0.084	Y:	-0.093	Z:	0.057	yaw:	171.999	yaw rate:	1.246	Roll:	-3.124	Pitch:	2.588	Yaw:	241.941	Thrust:	100.000
Time:	1.481	Roll Set Point:	0.012	Pitch Set Point:	0.013	Yaw Set Point:	-3.002	X_WP:	0.000	Y_WP:	0.000	Y_WP:	1.000	X:	0.084	Y:	-0.093	Z:	0.057	yaw:	172.005	yaw rate:	-0.619	Roll:	-3.158	Pitch:	2.652	Yaw:	242.388	Thrust:	100.000
Time:	1.498	Roll Set Point:	0.012	Pitch Set Point:	0.013	Yaw Set Point:	-3.002	X_WP:	0.000	Y_WP:	0.000	Y_WP:	1.000	X:	0.084	Y:	-0.093	Z:	0.057	yaw:	172.004	yaw rate:	0.110	Roll:	-3.080	Pitch:	2.578	Yaw:	241.892	Thrust:	100.000
Time:	1.518	Roll Set Point:	0.012	Pitch Set Point:	0.013	Yaw Set Point:	-3.002	X_WP:	0.000	Y_WP:	0.000	Y_WP:	1.000	X:	0.084	Y:	-0.093	Z:	0.057	yaw:	172.004	yaw rate:	0.018	Roll:	-3.161	Pitch:	2.643	Yaw:	242.306	Thrust:	100.000
Time:	1.543	Roll Set Point:	0.012	Pitch Set Point:	0.013	Yaw Set Point:	-3.002	X_WP:	0.000	Y_WP:	0.000	Y_WP:	1.000	X:	0.084	Y:	-0.093	Z:	0.057	yaw:	172.004	yaw rate:	0.050	Roll:	-3.190	Pitch:	2.677	Yaw:	242.360	Thrust:	100.000
Time:	1.558	Roll Set Point:	0.012	Pitch Set Point:	0.013	Yaw Set Point:	-3.002	X_WP:	0.000	Y_WP:	0.000	Y_WP:	1.000	X:	0.084	Y:	-0.093	Z:	0.057	yaw:	171.996	yaw rate:	0.774	Roll:	-3.117	Pitch:	2.567	Yaw:	241.774	Thrust:	100.000
Time:	1.578	Roll Set Point:	0.012	Pitch Set Point:	0.013	Yaw Set Point:	-3.002	X_WP:	0.000	Y_WP:	0.000	Y_WP:	1.000	X:	0.084	Y:	-0.093	Z:	0.057	yaw:	172.011	yaw rate:	-1.493	Roll:	-3.116	Pitch:	2.666	Yaw:	242.422	Thrust:	100.000
Time:	1.601	Roll Set Point:	0.012	Pitch Set Point:	0.013	Yaw Set Point:	-3.002	X_WP:	0.000	Y_WP:	0.000	Y_WP:	1.000	X:	0.084	Y:	-0.093	Z:	0.057	yaw:	172.005	yaw rate:	0.550	Roll:	-3.224	Pitch:	2.661	Yaw:	242.358	Thrust:	100.000
Time:	1.618	Roll Set Point:	0.012	Pitch Set Point:	0.013	Yaw Set Point:	-3.002	X_WP:	0.000	Y_WP:	0.000	Y_WP:	1.000	X:	0.084	Y:	-0.093	Z:	0.057	yaw:	171.995	yaw rate:	1.053	Roll:	-3.124	Pitch:	2.592	Yaw:	241.642	Thrust:	100.000
Time:	1.638	Roll Set Point:	0.012	Pitch Set Point:	0.013	Yaw Set Point:	-3.002	X_WP:	0.000	Y_WP:	0.000	Y_WP:	1.000	X:	0.084	Y:	-0.093	Z:	0.057	yaw:	172.012	yaw rate:	-1.708	Roll:	-3.155	Pitch:	2.684	Yaw:	242.412	Thrust:	100.000
Time:	1.658	Roll Set Point:	0.012	Pitch Set Point:	0.013	Yaw Set Point:	-3.002	X_WP:	0.000	Y_WP:	0.000	Y_WP:	1.000	X:	0.084	Y:	-0.093	Z:	0.057	yaw:	171.998	yaw rate:	1.342	Roll:	-3.195	Pitch:	2.629	Yaw:	242.053	Thrust:	100.000
Time:	1.682	Roll Set Point:	0.012	Pitch Set Point:	0.013	Yaw Set Point:	-3.002	X_WP:	0.000	Y_WP:	0.000	Y_WP:	1.000	X:	0.084	Y:	-0.093	Z:	0.057	yaw:	172.009	yaw rate:	-1.025	Roll:	-3.217	Pitch:	2.713	Yaw:	242.553	Thrust:	100.000
Time:	1.697	Roll Set Point:	0.012	Pitch Set Point:	0.013	Yaw Set Point:	-3.002	X_WP:	0.000	Y_WP:	0.000	Y_WP:	1.000	X:	0.084	Y:	-0.093	Z:	0.057	yaw:	172.004	yaw rate:	0.431	Roll:	-3.116	Pitch:	2.607	Yaw:	241.700	Thrust:	100.000
Time:	1.717	Roll Set Point:	0.012	Pitch Set Point:	0.013	Yaw Set Point:	-3.002	X_WP:	0.000	Y_WP:	0.000	Y_WP:	1.000	X:	0.084	Y:	-0.093	Z:	0.057	yaw:	172.008	yaw rate:	-0.319	Roll:	-3.175	Pitch:	2.671	Yaw:	242.220	Thrust:	100.000
Time:	1.740	Roll Set Point:	0.012	Pitch Set Point:	0.013	Yaw Set Point:	-3.002	X_WP:	0.000	Y_WP:	0.000	Y_WP:	1.000	X:	0.084	Y:	-0.093	Z:	0.057	yaw:	171.998	yaw rate:	0.986	Roll:	-3.248	Pitch:	2.694	Yaw:	242.298	Thrust:	100.000
Time:	1.757	Roll Set Point:	0.012	Pitch Set Point:	0.013	Yaw Set Point:	-3.002	X_WP:	0.000	Y_WP:	0.000	Y_WP:	1.000	X:	0.084	Y:	-0.093	Z:	0.057	yaw:	172.000	yaw rate:	-0.271	Roll:	-3.141	Pitch:	2.644	Yaw:	241.936	Thrust:	100.000
Time:	1.778	Roll Set Point:	0.012	Pitch Set Point:	0.013	Yaw Set Point:	-3.002	X_WP:	0.000	Y_WP:	0.000	Y_WP:	1.000	X:	0.084	Y:	-0.093	Z:	0.057	yaw:	172.009	yaw rate:	-0.867	Roll:	-3.218	Pitch:	2.694	Yaw:	242.339	Thrust:	100.000
Time:	1.800	Roll Set Point:	0.012	Pitch Set Point:	0.013	Yaw Set Point:	-3.002	X_WP:	0.000	Y_WP:	0.000	Y_WP:	1.000	X:	0.084	Y:	-0.093	Z:	0.057	yaw:	172.001	yaw rate:	0.809	Roll:	-3.230	Pitch:	2.691	Yaw:	242.153	Thrust:	100.000
Time:	1.818	Roll Set Point:	0.012	Pitch Set Point:	0.013	Yaw Set Point:	-3.002	X_WP:	0.000	Y_WP:	0.000	Y_WP:	1.000	X:	0.084	Y:	-0.093	Z:	0.057	yaw:	172.003	yaw rate:	-0.230	Roll:	-3.194	Pitch:	2.676	Yaw:	242.107	Thrust:	100.000
Time:	1.846	Roll Set Point:	0.012	Pitch Set Point:	0.013	Yaw Set Point:	-3.002	X_WP:	0.000	Y_WP:	0.000	Y_WP:	1.000	X:	0.084	Y:	-0.093	Z:	0.057	yaw:	172.000	yaw rate:	0.329	Roll:	-3.385	Pitch:	2.817	Yaw:	242.920	Thrust:	100.000
Time:	1.859	Roll Set Point:	0.012	Pitch Set Point:	0.013	Yaw Set Point:	-3.002	X_WP:	0.000	Y_WP:	0.000	Y_WP:	1.000	X:	0.084	Y:	-0.093	Z:	0.057	yaw:	172.006	yaw rate:	-0.580	Roll:	-3.044	Pitch:	2.588	Yaw:	241.528	Thrust:	100.000
Time:	1.882	Roll Set Point:	0.012	Pitch Set Point:	0.013	Yaw Set Point:	-3.002	X_WP:	0.000	Y_WP:	0.000	Y_WP:	1.000	X:	0.084	Y:	-0.093	Z:	0.057	yaw:	172.006	yaw rate:	-0.053	Roll:	-3.314	Pitch:	2.759	Yaw:	242.562	Thrust:	100.000
Time:	1.897	Roll Set Point:	0.012	Pitch Set Point:	0.013	Yaw Set Point:	-3.002	X_WP:	0.000	Y_WP:	0.000	Y_WP:	1.000	X:	0.084	Y:	-0.093	Z:	0.057	yaw:	172.001	yaw rate:	0.489	Roll:	-3.131	Pitch:	2.599	Yaw:	241.575	Thrust:	100.000
Time:	1.919	Roll Set Point:	0.012	Pitch Set Point:	0.013	Yaw Set Point:	-3.002	X_WP:	0.000	Y_WP:	0.000	Y_WP:	1.000	X:	0.084	Y:	-0.093	Z:	0.057	yaw:	172.010	yaw rate:	-0.837	Roll:	-3.241	Pitch:	2.739	Yaw:	242.376	Thrust:	100.000
Time:	1.941	Roll Set Point:	0.012	Pitch Set Point:	0.013	Yaw Set Point:	-3.002	X_WP:	0.000	Y_WP:	0.000	Y_WP:	1.000	X:	0.084	Y:	-0.093	Z:	0.057	yaw:	171.999	yaw rate:	1.032	Roll:	-3.279	Pitch:	2.741	Yaw:	242.248	Thrust:	100.000
Time:	1.959	Roll Set Point:	0.012	Pitch Set Point:	0.013	Yaw Set Point:	-3.002	X_WP:	0.000	Y_WP:	0.000	Y_WP:	1.000	X:	0.084	Y:	-0.093	Z:	0.057	yaw:	172.006	yaw rate:	-0.644	Roll:	-3.215	Pitch:	2.670	Yaw:	242.120	Thrust:	100.000
Time:	1.987	Roll Set Point:	0.012	Pitch Set Point:	0.013	Yaw Set Point:	-3.002	X_WP:	0.000	Y_WP:	0.000	Y_WP:	1.000	X:	0.084	Y:	-0.093	Z:	0.057	yaw:	172.010	yaw rate:	-0.443	Roll:	-3.429	Pitch:	2.882	Yaw:	242.964	Thrust:	100.000
Time:	2.001	Roll Set Point:	0.012	Pitch Set Point:	0.013	Yaw Set Point:	-3.002	X_WP:	0.000	Y_WP:	0.000	Y_WP:	1.000	X:	0.084	Y:	-0.093	Z:	0.057	yaw:	171.992	yaw rate:	1.785	Roll:	-3.096	Pitch:	2.560	Yaw:	241.097	Thrust:	100.000
Time:	2.019	Roll Set Point:	0.012	Pitch Set Point:	0.013	Yaw Set Point:	-3.002	X_WP:	0.000	Y_WP:	0.000	Y_WP:	1.000	X:	0.084	Y:	-0.093	Z:	0.057	yaw:	172.001	yaw rate:	-0.881	Roll:	-3.275	Pitch:	2.725	Yaw:	242.187	Thrust:	100.000
Time:	2.039	Roll Set Point:	0.012	Pitch Set Point:	0.013	Yaw Set Point:	-3.002	X_WP:	0.000	Y_WP:	0.000	Y_WP:	1.000	X:	0.084	Y:	-0.093	Z:	0.057	yaw:	172.000	yaw rate:	0.139	Roll:	-3.256	Pitch:	2.726	Yaw:	242.132	Thrust:	100.000
Time:	2.068	Roll Set Point:	0.012	Pitch Set Point:	0.013	Yaw Set Point:	-3.002	X_WP:	0.000	Y_WP:	0.000	Y_WP:	1.000	X:	0.084	Y:	-0.093	Z:	0.057	yaw:	172.009	yaw rate:	-0.945	Roll:	-3.465	Pitch:	2.913	Yaw:	243.154	Thrust:	100.000
Time:	2.086	Roll Set Point:	0.012	Pitch Set Point:	0.013	Yaw Set Point:	-3.002	X_WP:	0.000	Y_WP:	0.000	Y_WP:	1.000	X:	0.084	Y:	-0.093	Z:	0.057	yaw:	172.023	yaw rate:	-1.335	Roll:	-3.227	Pitch:	2.725	Yaw:	242.190	Thrust:	100.000
Time:	2.106	Roll Set Point:	0.012	Pitch Set Point:	0.013	Yaw Set Point:	-2.997	X_WP:	0.000	Y_WP:	0.000	Y_WP:	1.000	X:	0.084	Y:	-0.093	Z:	0.057	yaw:	171.743	yaw rate:	28.001	Roll:	-3.508	Pitch:	2.424	Yaw:	238.138	Thrust:	100.000
Time:	2.128	Roll Set Point:	0.012	Pitch Set Point:	0.013	Yaw Set Point:	-2.998	X_WP:	0.000	Y_WP:	0.000	Y_WP:	1.000	X:	0.084	Y:	-0.093	Z:	0.057	yaw:	171.755	yaw rate:	-1.218	Roll:	-3.313	Pitch:	2.789	Yaw:	242.169	Thrust:	100.000
Time:	2.148	Roll Set Point:	0.012	Pitch Set Point:	0.013	Yaw Set Point:	-2.998	X_WP:	0.000	Y_WP:	0.000	Y_WP:	1.000	X:	0.084	Y:	-0.093	Z:	0.057	yaw:	171.751	yaw rate:	0.424	Roll:	-3.294	Pitch:	2.753	Yaw:	241.763	Thrust:	100.000
Time:	2.167	Roll Set Point:	0.012	Pitch Set Point:	0.013	Yaw Set Point:	-2.998	X_WP:	0.000	Y_WP:	0.000	Y_WP:	1.000	X:	0.084	Y:	-0.093	Z:	0.057	yaw:	171.752	yaw rate:	-0.126	Roll:	-3.320	Pitch:	2.719	Yaw:	241.745	Thrust:	100.000
Time:	2.187	Roll Set Point:	0.012	Pitch Set Point:	0.013	Yaw Set Point:	-2.998	X_WP:	0.000	Y_WP:	0.000	Y_WP:	1.000	X:	0.084	Y:	-0.093	Z:	0.057	yaw:	171.757	yaw rate:	-0.498	Roll:	-3.281	Pitch:	2.744	Yaw:	241.811	Thrust:	100.000
Time:	2.211	Roll Set Point:	0.012	Pitch Set Point:	0.013	Yaw Set Point:	-2.997	X_WP:	0.000	Y_WP:	0.000	Y_WP:	1.000	X:	0.084	Y:	-0.093	Z:	0.057	yaw:	171.743	yaw rate:	1.403	Roll:	-3.338	Pitch:	2.766	Yaw:	242.057	Thrust:	100.000
Time:	2.222	Roll Set Point:	0.012	Pitch Set Point:	0.013	Yaw Set Point:	-2.998	X_WP:	0.000	Y_WP:	0.000	Y_WP:	1.000	X:	0.084	Y:	-0.093	Z:	0.057	yaw:	171.763	yaw rate:	-2.034	Roll:	-3.152	Pitch:	2.665	Yaw:	241.455	Thrust:	100.000
Time:	2.238	Roll Set Point:	0.012	Pitch Set Point:	0.013	Yaw Set Point:	-2.997	X_WP:	0.000	Y_WP:	0.000	Y_WP:	1.000	X:	0.084	Y:	-0.093	Z:	0.057	yaw:	171.740	yaw rate:	2.296	Roll:	-3.225	Pitch:	2.649	Yaw:	241.041	Thrust:	100.000
Time:	2.259	Roll Set Point:	0.012	Pitch Set Point:	0.013	Yaw Set Point:	-2.998	X_WP:	0.000	Y_WP:	0.000	Y_WP:	1.000	X:	0.084	Y:	-0.093	Z:	0.057	yaw:	171.749	yaw rate:	-0.878	Roll:	-3.315	Pitch:	2.784	Yaw:	241.942	Thrust:	100.000
Time:	2.281	Roll Set Point:	0.012	Pitch Set Point:	0.013	Yaw Set Point:	-2.998	X_WP:	0.000	Y_WP:	0.000	Y_WP:	1.000	X:	0.084	Y:	-0.093	Z:	0.057	yaw:	171.754	yaw rate:	-0.540	Roll:	-3.394	Pitch:	2.827	Yaw:	242.142	Thrust:	100.000
Time:	2.298	Roll Set Point:	0.012	Pitch Set Point:	0.013	Yaw Set Point:	-2.998	X_WP:	0.000	Y_WP:	0.000	Y_WP:	1.000	X:	0.084	Y:	-0.093	Z:	0.057	yaw:	171.747	yaw rate:	0.727	Roll:	-3.293	Pitch:	2.701	Yaw:	241.403	Thrust:	100.000
Time:	2.319	Roll Set Point:	0.012	Pitch Set Point:	0.013	Yaw Set Point:	-2.998	X_WP:	0.000	Y_WP:	0.000	Y_WP:	1.000	X:	0.084	Y:	-0.093	Z:	0.057	yaw:	171.750	yaw rate:	-0.253	Roll:	-3.327	Pitch:	2.792	Yaw:	241.841	Thrust:	100.000
Time:	2.340	Roll Set Point:	0.012	Pitch Set Point:	0.013	Yaw Set Point:	-2.998	X_WP:	0.000	Y_WP:	0.000	Y_WP:	1.000	X:	0.084	Y:	-0.093	Z:	0.057	yaw:	171.749	yaw rate:	0.097	Roll:	-3.398	Pitch:	2.805	Yaw:	242.005	Thrust:	100.000
Time:	2.359	Roll Set Point:	0.012	Pitch Set Point:	0.013	Yaw Set Point:	-2.998	X_WP:	0.000	Y_WP:	0.000	Y_WP:	1.000	X:	0.084	Y:	-0.093	Z:	0.057	yaw:	171.757	yaw rate:	-0.805	Roll:	-3.329	Pitch:	2.766	Yaw:	241.777	Thrust:	100.000
Time:	2.379	Roll Set Point:	0.013	Pitch Set Point:	0.013	Yaw Set Point:	-2.994	X_WP:	0.000	Y_WP:	0.000	Y_WP:	1.000	X:	0.084	Y:	-0.093	Z:	0.057	yaw:	171.557	yaw rate:	19.971	Roll:	-3.531	Pitch:	2.624	Yaw:	239.059	Thrust:	100.000
Time:	2.401	Roll Set Point:	0.012	Pitch Set Point:	0.013	Yaw Set Point:	-2.998	X_WP:	0.000	Y_WP:	0.000	Y_WP:	1.000	X:	0.084	Y:	-0.093	Z:	0.057	yaw:	171.761	yaw rate:	-20.382	Roll:	-3.249	Pitch:	3.005	Yaw:	244.449	Thrust:	100.000
Time:	2.419	Roll Set Point:	0.012	Pitch Set Point:	0.013	Yaw Set Point:	-2.998	X_WP:	0.000	Y_WP:	0.000	Y_WP:	1.000	X:	0.084	Y:	-0.093	Z:	0.057	yaw:	171.758	yaw rate:	0.237	Roll:	-3.312	Pitch:	2.720	Yaw:	241.503	Thrust:	100.000
Time:	2.439	Roll Set Point:	0.012	Pitch Set Point:	0.013	Yaw Set Point:	-2.998	X_WP:	0.000	Y_WP:	0.000	Y_WP:	1.000	X:	0.084	Y:	-0.093	Z:	0.057	yaw:	171.750	yaw rate:	0.799	Roll:	-3.357	Pitch:	2.800	Yaw:	241.728	Thrust:	100.000
Time:	2.460	Roll Set Point:	0.013	Pitch Set Point:	0.013	Yaw Set Point:	-2.997	X_WP:	0.000	Y_WP:	0.000	Y_WP:	1.000	X:	0.084	Y:	-0.093	Z:	0.057	yaw:	171.729	yaw rate:	2.132	Roll:	-3.399	Pitch:	2.822	Yaw:	241.638	Thrust:	100.000
Time:	2.482	Roll Set Point:	0.012	Pitch Set Point:	0.013	Yaw Set Point:	-2.998	X_WP:	0.000	Y_WP:	0.000	Y_WP:	1.000	X:	0.084	Y:	-0.093	Z:	0.057	yaw:	171.758	yaw rate:	-2.850	Roll:	-3.396	Pitch:	2.855	Yaw:	242.315	Thrust:	100.000
Time:	2.499	Roll Set Point:	0.012	Pitch Set Point:	0.013	Yaw Set Point:	-2.998	X_WP:	0.000	Y_WP:	0.000	Y_WP:	1.000	X:	0.084	Y:	-0.093	Z:	0.057	yaw:	171.765	yaw rate:	-0.686	Roll:	-3.351	Pitch:	2.786	Yaw:	241.702	Thrust:	100.000
Time:	2.519	Roll Set Point:	0.012	Pitch Set Point:	0.013	Yaw Set Point:	-2.998	X_WP:	0.000	Y_WP:	0.000	Y_WP:	1.000	X:	0.084	Y:	-0.093	Z:	0.057	yaw:	171.754	yaw rate:	1.030	Roll:	-3.380	Pitch:	2.807	Yaw:	241.699	Thrust:	100.000
Time:	2.541	Roll Set Point:	0.012	Pitch Set Point:	0.013	Yaw Set Point:	-2.998	X_WP:	0.000	Y_WP:	0.000	Y_WP:	1.000	X:	0.084	Y:	-0.093	Z:	0.057	yaw:	171.765	yaw rate:	-1.043	Roll:	-3.445	Pitch:	2.851	Yaw:	242.064	Thrust:	100.000
Time:	2.559	Roll Set Point:	0.012	Pitch Set Point:	0.013	Yaw Set Point:	-2.998	X_WP:	0.000	Y_WP:	0.000	Y_WP:	1.000	X:	0.084	Y:	-0.093	Z:	0.057	yaw:	171.770	yaw rate:	-0.545	Roll:	-3.308	Pitch:	2.766	Yaw:	241.724	Thrust:	100.000
Time:	2.580	Roll Set Point:	0.012	Pitch Set Point:	0.013	Yaw Set Point:	-2.998	X_WP:	0.000	Y_WP:	0.000	Y_WP:	1.000	X:	0.084	Y:	-0.093	Z:	0.057	yaw:	171.752	yaw rate:	1.830	Roll:	-3.456	Pitch:	2.800	Yaw:	241.740	Thrust:	100.000
Time:	2.601	Roll Set Point:	0.012	Pitch Set Point:	0.013	Yaw Set Point:	-2.998	X_WP:	0.000	Y_WP:	0.000	Y_WP:	1.000	X:	0.084	Y:	-0.093	Z:	0.057	yaw:	171.768	yaw rate:	-1.592	Roll:	-3.421	Pitch:	2.892	Yaw:	242.126	Thrust:	100.000
Time:	2.619	Roll Set Point:	0.012	Pitch Set Point:	0.013	Yaw Set Point:	-2.998	X_WP:	0.000	Y_WP:	0.000	Y_WP:	1.000	X:	0.084	Y:	-0.093	Z:	0.057	yaw:	171.753	yaw rate:	1.498	Roll:	-3.358	Pitch:	2.743	Yaw:	241.347	Thrust:	100.000
Time:	2.639	Roll Set Point:	0.012	Pitch Set Point:	0.013	Yaw Set Point:	-2.998	X_WP:	0.000	Y_WP:	0.000	Y_WP:	1.000	X:	0.084	Y:	-0.093	Z:	0.057	yaw:	171.755	yaw rate:	-0.236	Roll:	-3.400	Pitch:	2.835	Yaw:	241.856	Thrust:	100.000
Time:	2.659	Roll Set Point:	0.012	Pitch Set Point:	0.013	Yaw Set Point:	-2.998	X_WP:	0.000	Y_WP:	0.000	Y_WP:	1.000	X:	0.084	Y:	-0.093	Z:	0.057	yaw:	171.758	yaw rate:	-0.317	Roll:	-3.408	Pitch:	2.856	Yaw:	241.848	Thrust:	100.000
Time:	2.682	Roll Set Point:	0.012	Pitch Set Point:	0.013	Yaw Set Point:	-2.998	X_WP:	0.000	Y_WP:	0.000	Y_WP:	1.000	X:	0.084	Y:	-0.093	Z:	0.057	yaw:	171.754	yaw rate:	0.429	Roll:	-3.509	Pitch:	2.902	Yaw:	241.981	Thrust:	100.000
Time:	2.698	Roll Set Point:	0.012	Pitch Set Point:	0.013	Yaw Set Point:	-2.998	X_WP:	0.000	Y_WP:	0.000	Y_WP:	1.000	X:	0.084	Y:	-0.093	Z:	0.057	yaw:	171.761	yaw rate:	-0.678	Roll:	-3.334	Pitch:	2.788	Yaw:	241.666	Thrust:	100.000
Time:	2.718	Roll Set Point:	0.012	Pitch Set Point:	0.013	Yaw Set Point:	-2.998	X_WP:	0.000	Y_WP:	0.000	Y_WP:	1.000	X:	0.084	Y:	-0.093	Z:	0.057	yaw:	171.767	yaw rate:	-0.658	Roll:	-3.443	Pitch:	2.861	Yaw:	241.923	Thrust:	100.000
Time:	2.740	Roll Set Point:	0.012	Pitch Set Point:	0.013	Yaw Set Point:	-2.998	X_WP:	0.000	Y_WP:	0.000	Y_WP:	1.000	X:	0.084	Y:	-0.093	Z:	0.057	yaw:	171.756	yaw rate:	1.103	Roll:	-3.524	Pitch:	2.919	Yaw:	241.921	Thrust:	100.000
Time:	2.759	Roll Set Point:	0.012	Pitch Set Point:	0.013	Yaw Set Point:	-2.998	X_WP:	0.000	Y_WP:	0.000	Y_WP:	1.000	X:	0.084	Y:	-0.093	Z:	0.057	yaw:	171.764	yaw rate:	-0.774	Roll:	-3.344	Pitch:	2.790	Yaw:	241.663	Thrust:	100.000
Time:	2.780	Roll Set Point:	0.012	Pitch Set Point:	0.013	Yaw Set Point:	-2.998	X_WP:	0.000	Y_WP:	0.000	Y_WP:	1.000	X:	0.084	Y:	-0.093	Z:	0.057	yaw:	171.758	yaw rate:	0.556	Roll:	-3.511	Pitch:	2.895	Yaw:	241.893	Thrust:	100.000
Time:	2.800	Roll Set Point:	0.012	Pitch Set Point:	0.013	Yaw Set Point:	-2.998	X_WP:	0.000	Y_WP:	0.000	Y_WP:	1.000	X:	0.084	Y:	-0.093	Z:	0.057	yaw:	171.750	yaw rate:	0.884	Roll:	-3.494	Pitch:	2.898	Yaw:	241.830	Thrust:	100.000
Time:	2.819	Roll Set Point:	0.012	Pitch Set Point:	0.013	Yaw Set Point:	-2.998	X_WP:	0.000	Y_WP:	0.000	Y_WP:	1.000	X:	0.084	Y:	-0.093	Z:	0.057	yaw:	171.761	yaw rate:	-1.122	Roll:	-3.416	Pitch:	2.848	Yaw:	241.876	Thrust:	100.000
Time:	2.840	Roll Set Point:	0.012	Pitch Set Point:	0.013	Yaw Set Point:	-2.998	X_WP:	0.000	Y_WP:	0.000	Y_WP:	1.000	X:	0.084	Y:	-0.093	Z:	0.057	yaw:	171.762	yaw rate:	-0.157	Roll:	-3.451	Pitch:	2.893	Yaw:	241.874	Thrust:	100.000
Time:	2.861	Roll Set Point:	0.012	Pitch Set Point:	0.013	Yaw Set Point:	-2.998	X_WP:	0.000	Y_WP:	0.000	Y_WP:	1.000	X:	0.084	Y:	-0.093	Z:	0.057	yaw:	171.762	yaw rate:	0.083	Roll:	-3.531	Pitch:	2.902	Yaw:	241.878	Thrust:	100.000
Time:	2.882	Roll Set Point:	0.012	Pitch Set Point:	0.013	Yaw Set Point:	-2.998	X_WP:	0.000	Y_WP:	0.000	Y_WP:	1.000	X:	0.084	Y:	-0.093	Z:	0.057	yaw:	171.770	yaw rate:	-0.874	Roll:	-3.466	Pitch:	2.951	Yaw:	242.105	Thrust:	100.000
Time:	2.899	Roll Set Point:	0.012	Pitch Set Point:	0.013	Yaw Set Point:	-2.998	X_WP:	0.000	Y_WP:	0.000	Y_WP:	1.000	X:	0.084	Y:	-0.093	Z:	0.057	yaw:	171.757	yaw rate:	1.335	Roll:	-3.444	Pitch:	2.788	Yaw:	241.331	Thrust:	100.000
Time:	2.919	Roll Set Point:	0.012	Pitch Set Point:	0.013	Yaw Set Point:	-2.998	X_WP:	0.000	Y_WP:	0.000	Y_WP:	1.000	X:	0.084	Y:	-0.093	Z:	0.057	yaw:	171.763	yaw rate:	-0.629	Roll:	-3.462	Pitch:	2.901	Yaw:	241.882	Thrust:	100.000
Time:	2.941	Roll Set Point:	0.012	Pitch Set Point:	0.013	Yaw Set Point:	-2.998	X_WP:	0.000	Y_WP:	0.000	Y_WP:	1.000	X:	0.084	Y:	-0.093	Z:	0.057	yaw:	171.760	yaw rate:	0.330	Roll:	-3.544	Pitch:	2.964	Yaw:	242.049	Thrust:	100.000
Time:	2.960	Roll Set Point:	0.012	Pitch Set Point:	0.013	Yaw Set Point:	-2.998	X_WP:	0.000	Y_WP:	0.000	Y_WP:	1.000	X:	0.084	Y:	-0.093	Z:	0.057	yaw:	171.759	yaw rate:	0.076	Roll:	-3.444	Pitch:	2.856	Yaw:	241.635	Thrust:	100.000
Time:	2.980	Roll Set Point:	0.012	Pitch Set Point:	0.013	Yaw Set Point:	-2.998	X_WP:	0.000	Y_WP:	0.000	Y_WP:	1.000	X:	0.084	Y:	-0.093	Z:	0.057	yaw:	171.763	yaw rate:	-0.370	Roll:	-3.511	Pitch:	2.898	Yaw:	241.884	Thrust:	100.000
Time:	3.000	Roll Set Point:	0.012	Pitch Set Point:	0.013	Yaw Set Point:	-2.998	X_WP:	0.000	Y_WP:	0.000	Y_WP:	1.000	X:	0.084	Y:	-0.093	Z:	0.057	yaw:	171.757	yaw rate:	0.604	Roll:	-3.505	Pitch:	2.904	Yaw:	241.784	Thrust:	100.000
Time:	3.020	Roll Set Point:	0.012	Pitch Set Point:	0.013	Yaw Set Point:	-2.998	X_WP:	0.000	Y_WP:	0.000	Y_WP:	1.000	X:	0.084	Y:	-0.093	Z:	0.057	yaw:	171.762	yaw rate:	-0.523	Roll:	-3.490	Pitch:	2.932	Yaw:	241.785	Thrust:	100.000
Time:	3.039	Roll Set Point:	0.012	Pitch Set Point:	0.013	Yaw Set Point:	-2.998	X_WP:	0.000	Y_WP:	0.000	Y_WP:	1.000	X:	0.084	Y:	-0.093	Z:	0.057	yaw:	171.754	yaw rate:	0.857	Roll:	-3.523	Pitch:	2.891	Yaw:	241.747	Thrust:	100.000
Time:	3.060	Roll Set Point:	0.012	Pitch Set Point:	0.013	Yaw Set Point:	-2.998	X_WP:	0.000	Y_WP:	0.000	Y_WP:	1.000	X:	0.084	Y:	-0.093	Z:	0.057	yaw:	171.755	yaw rate:	-0.137	Roll:	-3.521	Pitch:	2.938	Yaw:	241.809	Thrust:	100.000
Time:	3.081	Roll Set Point:	0.012	Pitch Set Point:	0.013	Yaw Set Point:	-2.998	X_WP:	0.000	Y_WP:	0.000	Y_WP:	1.000	X:	0.084	Y:	-0.093	Z:	0.057	yaw:	171.754	yaw rate:	0.138	Roll:	-3.522	Pitch:	2.949	Yaw:	241.903	Thrust:	100.000
Time:	3.098	Roll Set Point:	0.012	Pitch Set Point:	0.012	Yaw Set Point:	-3.003	X_WP:	0.000	Y_WP:	0.000	Y_WP:	1.000	X:	0.084	Y:	-0.093	Z:	0.057	yaw:	172.071	yaw rate:	-31.752	Roll:	-3.234	Pitch:	3.262	Yaw:	246.707	Thrust:	100.000
Time:	3.120	Roll Set Point:	0.012	Pitch Set Point:	0.013	Yaw Set Point:	-3.003	X_WP:	0.000	Y_WP:	0.000	Y_WP:	1.000	X:	0.084	Y:	-0.093	Z:	0.057	yaw:	172.042	yaw rate:	2.860	Roll:	-3.555	Pitch:	2.929	Yaw:	241.972	Thrust:	100.000
Time:	3.142	Roll Set Point:	0.012	Pitch Set Point:	0.013	Yaw Set Point:	-3.003	X_WP:	0.000	Y_WP:	0.000	Y_WP:	1.000	X:	0.084	Y:	-0.093	Z:	0.057	yaw:	172.036	yaw rate:	0.604	Roll:	-3.576	Pitch:	3.026	Yaw:	242.342	Thrust:	100.000
Time:	3.159	Roll Set Point:	0.012	Pitch Set Point:	0.013	Yaw Set Point:	-3.003	X_WP:	0.000	Y_WP:	0.000	Y_WP:	1.000	X:	0.084	Y:	-0.093	Z:	0.057	yaw:	172.051	yaw rate:	-1.469	Roll:	-3.448	Pitch:	2.862	Yaw:	242.115	Thrust:	100.000
Time:	3.178	Roll Set Point:	0.012	Pitch Set Point:	0.013	Yaw Set Point:	-2.998	X_WP:	0.000	Y_WP:	0.000	Y_WP:	1.000	X:	0.084	Y:	-0.093	Z:	0.057	yaw:	171.762	yaw rate:	28.957	Roll:	-3.773	Pitch:	2.652	Yaw:	238.223	Thrust:	100.000
Time:	3.200	Roll Set Point:	0.012	Pitch Set Point:	0.013	Yaw Set Point:	-2.998	X_WP:	0.000	Y_WP:	0.000	Y_WP:	1.000	X:	0.084	Y:	-0.093	Z:	0.057	yaw:	171.762	yaw rate:	-0.030	Roll:	-3.559	Pitch:	3.008	Yaw:	241.977	Thrust:	100.000
Time:	3.219	Roll Set Point:	0.012	Pitch Set Point:	0.013	Yaw Set Point:	-2.998	X_WP:	0.000	Y_WP:	0.000	Y_WP:	1.000	X:	0.084	Y:	-0.093	Z:	0.057	yaw:	171.752	yaw rate:	0.950	Roll:	-3.513	Pitch:	2.883	Yaw:	241.507	Thrust:	100.000
Time:	3.238	Roll Set Point:	0.012	Pitch Set Point:	0.013	Yaw Set Point:	-2.998	X_WP:	0.000	Y_WP:	0.000	Y_WP:	1.000	X:	0.084	Y:	-0.093	Z:	0.057	yaw:	171.759	yaw rate:	-0.697	Roll:	-3.550	Pitch:	2.935	Yaw:	241.887	Thrust:	100.000
Time:	3.259	Roll Set Point:	0.012	Pitch Set Point:	0.013	Yaw Set Point:	-3.002	X_WP:	0.000	Y_WP:	0.000	Y_WP:	1.000	X:	0.084	Y:	-0.093	Z:	0.057	yaw:	172.030	yaw rate:	-27.022	Roll:	-3.266	Pitch:	3.293	Yaw:	245.726	Thrust:	100.000
Time:	3.281	Roll Set Point:	0.012	Pitch Set Point:	0.013	Yaw Set Point:	-3.002	X_WP:	0.000	Y_WP:	0.000	Y_WP:	1.000	X:	0.084	Y:	-0.093	Z:	0.057	yaw:	172.006	yaw rate:	2.307	Roll:	-3.637	Pitch:	3.054	Yaw:	242.184	Thrust:	100.000
Time:	3.297	Roll Set Point:	0.012	Pitch Set Point:	0.013	Yaw Set Point:	-3.002	X_WP:	0.000	Y_WP:	0.000	Y_WP:	1.000	X:	0.084	Y:	-0.093	Z:	0.057	yaw:	172.001	yaw rate:	0.588	Roll:	-3.458	Pitch:	2.859	Yaw:	241.694	Thrust:	100.000
Time:	3.318	Roll Set Point:	0.012	Pitch Set Point:	0.013	Yaw Set Point:	-3.002	X_WP:	0.000	Y_WP:	0.000	Y_WP:	1.000	X:	0.084	Y:	-0.093	Z:	0.057	yaw:	172.006	yaw rate:	-0.514	Roll:	-3.514	Pitch:	2.997	Yaw:	242.298	Thrust:	100.000
Time:	3.341	Roll Set Point:	0.012	Pitch Set Point:	0.013	Yaw Set Point:	-3.002	X_WP:	0.000	Y_WP:	0.000	Y_WP:	1.000	X:	0.084	Y:	-0.093	Z:	0.057	yaw:	172.013	yaw rate:	-0.764	Roll:	-3.606	Pitch:	3.077	Yaw:	242.493	Thrust:	100.000
Time:	3.358	Roll Set Point:	0.012	Pitch Set Point:	0.013	Yaw Set Point:	-3.002	X_WP:	0.000	Y_WP:	0.000	Y_WP:	1.000	X:	0.084	Y:	-0.093	Z:	0.057	yaw:	172.008	yaw rate:	0.491	Roll:	-3.495	Pitch:	2.912	Yaw:	241.856	Thrust:	100.000
Time:	3.379	Roll Set Point:	0.012	Pitch Set Point:	0.013	Yaw Set Point:	-3.002	X_WP:	0.000	Y_WP:	0.000	Y_WP:	1.000	X:	0.084	Y:	-0.093	Z:	0.057	yaw:	172.008	yaw rate:	0.058	Roll:	-3.535	Pitch:	3.003	Yaw:	242.229	Thrust:	100.000
Time:	3.399	Roll Set Point:	0.012	Pitch Set Point:	0.013	Yaw Set Point:	-3.002	X_WP:	0.000	Y_WP:	0.000	Y_WP:	1.000	X:	0.084	Y:	-0.093	Z:	0.057	yaw:	172.012	yaw rate:	-0.413	Roll:	-3.558	Pitch:	3.040	Yaw:	242.270	Thrust:	100.000
Time:	3.417	Roll Set Point:	0.012	Pitch Set Point:	0.013	Yaw Set Point:	-3.002	X_WP:	0.000	Y_WP:	0.000	Y_WP:	1.000	X:	0.084	Y:	-0.093	Z:	0.057	yaw:	172.012	yaw rate:	0.005	Roll:	-3.478	Pitch:	2.936	Yaw:	241.973	Thrust:	100.000
Time:	3.438	Roll Set Point:	0.012	Pitch Set Point:	0.013	Yaw Set Point:	-3.002	X_WP:	0.000	Y_WP:	0.000	Y_WP:	1.000	X:	0.084	Y:	-0.093	Z:	0.057	yaw:	172.018	yaw rate:	-0.573	Roll:	-3.543	Pitch:	3.029	Yaw:	242.308	Thrust:	100.000
Time:	3.457	Roll Set Point:	0.012	Pitch Set Point:	0.013	Yaw Set Point:	-3.002	X_WP:	0.000	Y_WP:	0.000	Y_WP:	1.000	X:	0.084	Y:	-0.093	Z:	0.057	yaw:	172.017	yaw rate:	0.063	Roll:	-3.524	Pitch:	3.014	Yaw:	242.174	Thrust:	100.000
Time:	3.481	Roll Set Point:	0.012	Pitch Set Point:	0.013	Yaw Set Point:	-3.002	X_WP:	0.000	Y_WP:	0.000	Y_WP:	1.000	X:	0.084	Y:	-0.093	Z:	0.057	yaw:	172.018	yaw rate:	-0.060	Roll:	-3.596	Pitch:	3.108	Yaw:	242.442	Thrust:	100.000
Time:	3.497	Roll Set Point:	0.012	Pitch Set Point:	0.013	Yaw Set Point:	-3.002	X_WP:	0.000	Y_WP:	0.000	Y_WP:	1.000	X:	0.084	Y:	-0.093	Z:	0.057	yaw:	172.015	yaw rate:	0.227	Roll:	-3.482	Pitch:	2.913	Yaw:	241.867	Thrust:	100.000
Time:	3.518	Roll Set Point:	0.012	Pitch Set Point:	0.013	Yaw Set Point:	-3.002	X_WP:	0.000	Y_WP:	0.000	Y_WP:	1.000	X:	0.084	Y:	-0.093	Z:	0.057	yaw:	172.011	yaw rate:	0.463	Roll:	-3.508	Pitch:	3.041	Yaw:	242.155	Thrust:	100.000
Time:	3.541	Roll Set Point:	0.012	Pitch Set Point:	0.013	Yaw Set Point:	-3.002	X_WP:	0.000	Y_WP:	0.000	Y_WP:	1.000	X:	0.084	Y:	-0.093	Z:	0.057	yaw:	172.015	yaw rate:	-0.383	Roll:	-3.619	Pitch:	3.105	Yaw:	242.477	Thrust:	100.000
Time:	3.558	Roll Set Point:	0.012	Pitch Set Point:	0.013	Yaw Set Point:	-3.002	X_WP:	0.000	Y_WP:	0.000	Y_WP:	1.000	X:	0.084	Y:	-0.093	Z:	0.057	yaw:	172.015	yaw rate:	0.006	Roll:	-3.475	Pitch:	2.935	Yaw:	241.932	Thrust:	100.000
Time:	3.578	Roll Set Point:	0.012	Pitch Set Point:	0.013	Yaw Set Point:	-3.002	X_WP:	0.000	Y_WP:	0.000	Y_WP:	1.000	X:	0.084	Y:	-0.093	Z:	0.057	yaw:	172.009	yaw rate:	0.527	Roll:	-3.545	Pitch:	3.059	Yaw:	242.101	Thrust:	100.000
Time:	3.598	Roll Set Point:	0.012	Pitch Set Point:	0.013	Yaw Set Point:	-3.002	X_WP:	0.000	Y_WP:	0.000	Y_WP:	1.000	X:	0.084	Y:	-0.093	Z:	0.057	yaw:	172.016	yaw rate:	-0.676	Roll:	-3.537	Pitch:	3.047	Yaw:	242.311	Thrust:	100.000
Time:	3.618	Roll Set Point:	0.012	Pitch Set Point:	0.013	Yaw Set Point:	-3.002	X_WP:	0.000	Y_WP:	0.000	Y_WP:	1.000	X:	0.084	Y:	-0.093	Z:	0.057	yaw:	172.009	yaw rate:	0.698	Roll:	-3.532	Pitch:	2.991	Yaw:	242.037	Thrust:	100.000
Time:	3.638	Roll Set Point:	0.012	Pitch Set Point:	0.012	Yaw Set Point:	-3.003	X_WP:	0.000	Y_WP:	0.000	Y_WP:	1.000	X:	0.084	Y:	-0.093	Z:	0.057	yaw:	172.050	yaw rate:	-4.080	Roll:	-3.477	Pitch:	3.057	Yaw:	242.776	Thrust:	100.000
Time:	3.658	Roll Set Point:	0.012	Pitch Set Point:	0.013	Yaw Set Point:	-3.002	X_WP:	0.000	Y_WP:	0.000	Y_WP:	1.000	X:	0.084	Y:	-0.093	Z:	0.057	yaw:	172.011	yaw rate:	3.839	Roll:	-3.547	Pitch:	2.990	Yaw:	241.555	Thrust:	100.000
Time:	3.681	Roll Set Point:	0.012	Pitch Set Point:	0.012	Yaw Set Point:	-3.006	X_WP:	0.000	Y_WP:	0.000	Y_WP:	1.000	X:	0.084	Y:	-0.093	Z:	0.057	yaw:	172.225	yaw rate:	-21.312	Roll:	-3.324	Pitch:	3.473	Yaw:	245.196	Thrust:	100.000
Time:	3.698	Roll Set Point:	0.012	Pitch Set Point:	0.012	Yaw Set Point:	-3.006	X_WP:	0.000	Y_WP:	0.000	Y_WP:	1.000	X:	0.084	Y:	-0.093	Z:	0.057	yaw:	172.228	yaw rate:	-0.304	Roll:	-3.410	Pitch:	3.007	Yaw:	242.219	Thrust:	100.000
Time:	3.718	Roll Set Point:	0.012	Pitch Set Point:	0.012	Yaw Set Point:	-3.006	X_WP:	0.000	Y_WP:	0.000	Y_WP:	1.000	X:	0.084	Y:	-0.093	Z:	0.057	yaw:	172.212	yaw rate:	1.593	Roll:	-3.529	Pitch:	3.026	Yaw:	242.313	Thrust:	100.000
Time:	3.740	Roll Set Point:	0.012	Pitch Set Point:	0.012	Yaw Set Point:	-3.005	X_WP:	0.000	Y_WP:	0.000	Y_WP:	1.000	X:	0.084	Y:	-0.093	Z:	0.057	yaw:	172.202	yaw rate:	0.966	Roll:	-3.611	Pitch:	3.116	Yaw:	242.531	Thrust:	100.000
Time:	3.758	Roll Set Point:	0.012	Pitch Set Point:	0.012	Yaw Set Point:	-3.006	X_WP:	0.000	Y_WP:	0.000	Y_WP:	1.000	X:	0.084	Y:	-0.093	Z:	0.057	yaw:	172.209	yaw rate:	-0.700	Roll:	-3.412	Pitch:	3.050	Yaw:	242.353	Thrust:	100.000
Time:	3.778	Roll Set Point:	0.012	Pitch Set Point:	0.012	Yaw Set Point:	-3.005	X_WP:	0.000	Y_WP:	0.000	Y_WP:	1.000	X:	0.084	Y:	-0.093	Z:	0.057	yaw:	172.202	yaw rate:	0.702	Roll:	-3.569	Pitch:	3.054	Yaw:	242.345	Thrust:	100.000
Time:	3.799	Roll Set Point:	0.012	Pitch Set Point:	0.012	Yaw Set Point:	-3.003	X_WP:	0.000	Y_WP:	0.000	Y_WP:	1.000	X:	0.084	Y:	-0.093	Z:	0.057	yaw:	172.070	yaw rate:	13.239	Roll:	-3.677	Pitch:	3.096	Yaw:	240.769	Thrust:	100.000
Time:	3.817	Roll Set Point:	0.012	Pitch Set Point:	0.012	Yaw Set Point:	-3.006	X_WP:	0.000	Y_WP:	0.000	Y_WP:	1.000	X:	0.084	Y:	-0.093	Z:	0.057	yaw:	172.258	yaw rate:	-18.794	Roll:	-3.194	Pitch:	3.226	Yaw:	245.048	Thrust:	100.000
Time:	3.838	Roll Set Point:	0.012	Pitch Set Point:	0.012	Yaw Set Point:	-3.005	X_WP:	0.000	Y_WP:	0.000	Y_WP:	1.000	X:	0.084	Y:	-0.093	Z:	0.057	yaw:	172.189	yaw rate:	6.816	Roll:	-3.649	Pitch:	2.909	Yaw:	241.600	Thrust:	100.000
Time:	3.858	Roll Set Point:	0.012	Pitch Set Point:	0.013	Yaw Set Point:	-3.002	X_WP:	0.000	Y_WP:	0.000	Y_WP:	1.000	X:	0.084	Y:	-0.093	Z:	0.057	yaw:	171.984	yaw rate:	20.509	Roll:	-3.807	Pitch:	2.686	Yaw:	239.487	Thrust:	100.000
Time:	3.880	Roll Set Point:	0.012	Pitch Set Point:	0.013	Yaw Set Point:	-3.002	X_WP:	0.000	Y_WP:	0.000	Y_WP:	1.000	X:	0.084	Y:	-0.093	Z:	0.057	yaw:	171.995	yaw rate:	-1.020	Roll:	-3.610	Pitch:	3.147	Yaw:	242.487	Thrust:	100.000
Time:	3.898	Roll Set Point:	0.012	Pitch Set Point:	0.013	Yaw Set Point:	-3.002	X_WP:	0.000	Y_WP:	0.000	Y_WP:	1.000	X:	0.084	Y:	-0.093	Z:	0.057	yaw:	171.986	yaw rate:	0.871	Roll:	-3.444	Pitch:	2.953	Yaw:	241.788	Thrust:	100.000
Time:	3.918	Roll Set Point:	0.012	Pitch Set Point:	0.013	Yaw Set Point:	-3.002	X_WP:	0.000	Y_WP:	0.000	Y_WP:	1.000	X:	0.084	Y:	-0.093	Z:	0.057	yaw:	171.999	yaw rate:	-1.349	Roll:	-3.531	Pitch:	3.131	Yaw:	242.356	Thrust:	100.000
Time:	3.941	Roll Set Point:	0.012	Pitch Set Point:	0.013	Yaw Set Point:	-3.002	X_WP:	0.000	Y_WP:	0.000	Y_WP:	1.000	X:	0.084	Y:	-0.093	Z:	0.057	yaw:	171.989	yaw rate:	1.046	Roll:	-3.606	Pitch:	3.127	Yaw:	242.205	Thrust:	100.000
Time:	3.957	Roll Set Point:	0.012	Pitch Set Point:	0.013	Yaw Set Point:	-3.002	X_WP:	0.000	Y_WP:	0.000	Y_WP:	1.000	X:	0.084	Y:	-0.093	Z:	0.057	yaw:	171.991	yaw rate:	-0.258	Roll:	-3.465	Pitch:	2.983	Yaw:	241.923	Thrust:	100.000
Time:	3.978	Roll Set Point:	0.012	Pitch Set Point:	0.013	Yaw Set Point:	-3.002	X_WP:	0.000	Y_WP:	0.000	Y_WP:	1.000	X:	0.084	Y:	-0.093	Z:	0.057	yaw:	171.994	yaw rate:	-0.264	Roll:	-3.539	Pitch:	3.076	Yaw:	242.193	Thrust:	100.000
Time:	4.000	Roll Set Point:	0.012	Pitch Set Point:	0.013	Yaw Set Point:	-3.002	X_WP:	0.000	Y_WP:	0.000	Y_WP:	1.000	X:	0.084	Y:	-0.093	Z:	0.057	yaw:	171.997	yaw rate:	-0.259	Roll:	-3.601	Pitch:	3.150	Yaw:	242.463	Thrust:	100.000
Time:	4.018	Roll Set Point:	0.012	Pitch Set Point:	0.013	Yaw Set Point:	-3.002	X_WP:	0.000	Y_WP:	0.000	Y_WP:	1.000	X:	0.084	Y:	-0.093	Z:	0.057	yaw:	171.996	yaw rate:	0.077	Roll:	-3.470	Pitch:	2.982	Yaw:	241.844	Thrust:	100.000
Time:	4.038	Roll Set Point:	0.012	Pitch Set Point:	0.013	Yaw Set Point:	-3.002	X_WP:	0.000	Y_WP:	0.000	Y_WP:	1.000	X:	0.084	Y:	-0.093	Z:	0.057	yaw:	171.991	yaw rate:	0.469	Roll:	-3.539	Pitch:	3.093	Yaw:	242.113	Thrust:	100.000
Time:	4.058	Roll Set Point:	0.012	Pitch Set Point:	0.013	Yaw Set Point:	-3.001	X_WP:	0.000	Y_WP:	0.000	Y_WP:	1.000	X:	0.084	Y:	-0.093	Z:	0.057	yaw:	171.972	yaw rate:	1.916	Roll:	-3.540	Pitch:	3.030	Yaw:	241.850	Thrust:	100.000
Time:	4.080	Roll Set Point:	0.012	Pitch Set Point:	0.012	Yaw Set Point:	-3.003	X_WP:	0.000	Y_WP:	0.000	Y_WP:	1.000	X:	0.084	Y:	-0.093	Z:	0.057	yaw:	172.064	yaw rate:	-9.224	Roll:	-3.464	Pitch:	3.229	Yaw:	243.550	Thrust:	100.000
Time:	4.097	Roll Set Point:	0.012	Pitch Set Point:	0.013	Yaw Set Point:	-3.000	X_WP:	0.000	Y_WP:	0.000	Y_WP:	1.000	X:	0.084	Y:	-0.093	Z:	0.057	yaw:	171.889	yaw rate:	17.519	Roll:	-3.739	Pitch:	2.807	Yaw:	239.206	Thrust:	100.000
Time:	4.118	Roll Set Point:	0.012	Pitch Set Point:	0.012	Yaw Set Point:	-3.004	X_WP:	0.000	Y_WP:	0.000	Y_WP:	1.000	X:	0.084	Y:	-0.093	Z:	0.057	yaw:	172.123	yaw rate:	-23.418	Roll:	-3.296	Pitch:	3.392	Yaw:	245.379	Thrust:	100.000
Time:	4.142	Roll Set Point:	0.012	Pitch Set Point:	0.013	Yaw Set Point:	-3.000	X_WP:	0.000	Y_WP:	0.000	Y_WP:	1.000	X:	0.084	Y:	-0.093	Z:	0.057	yaw:	171.872	yaw rate:	25.080	Roll:	-3.811	Pitch:	2.951	Yaw:	239.457	Thrust:	100.000
Time:	4.158	Roll Set Point:	0.012	Pitch Set Point:	0.013	Yaw Set Point:	-3.000	X_WP:	0.000	Y_WP:	0.000	Y_WP:	1.000	X:	0.084	Y:	-0.093	Z:	0.057	yaw:	171.886	yaw rate:	-1.354	Roll:	-3.428	Pitch:	3.021	Yaw:	241.928	Thrust:	100.000
Time:	4.178	Roll Set Point:	0.012	Pitch Set Point:	0.013	Yaw Set Point:	-3.000	X_WP:	0.000	Y_WP:	0.000	Y_WP:	1.000	X:	0.084	Y:	-0.093	Z:	0.057	yaw:	171.873	yaw rate:	1.318	Roll:	-3.527	Pitch:	3.030	Yaw:	241.780	Thrust:	100.000
Time:	4.199	Roll Set Point:	0.012	Pitch Set Point:	0.012	Yaw Set Point:	-3.004	X_WP:	0.000	Y_WP:	0.000	Y_WP:	1.000	X:	0.084	Y:	-0.093	Z:	0.057	yaw:	172.103	yaw rate:	-23.037	Roll:	-3.309	Pitch:	3.580	Yaw:	245.268	Thrust:	100.000
Time:	4.218	Roll Set Point:	0.012	Pitch Set Point:	0.012	Yaw Set Point:	-3.004	X_WP:	0.000	Y_WP:	0.000	Y_WP:	1.000	X:	0.084	Y:	-0.093	Z:	0.057	yaw:	172.094	yaw rate:	0.907	Roll:	-3.452	Pitch:	3.008	Yaw:	241.959	Thrust:	100.000
Time:	4.238	Roll Set Point:	0.012	Pitch Set Point:	0.012	Yaw Set Point:	-3.004	X_WP:	0.000	Y_WP:	0.000	Y_WP:	1.000	X:	0.084	Y:	-0.093	Z:	0.057	yaw:	172.091	yaw rate:	0.280	Roll:	-3.551	Pitch:	3.094	Yaw:	242.341	Thrust:	100.000
Time:	4.258	Roll Set Point:	0.012	Pitch Set Point:	0.012	Yaw Set Point:	-3.003	X_WP:	0.000	Y_WP:	0.000	Y_WP:	1.000	X:	0.084	Y:	-0.093	Z:	0.057	yaw:	172.056	yaw rate:	3.486	Roll:	-3.515	Pitch:	2.961	Yaw:	241.715	Thrust:	100.000
Time:	4.280	Roll Set Point:	0.012	Pitch Set Point:	0.012	Yaw Set Point:	-3.005	X_WP:	0.000	Y_WP:	0.000	Y_WP:	1.000	X:	0.084	Y:	-0.093	Z:	0.057	yaw:	172.175	yaw rate:	-11.866	Roll:	-3.487	Pitch:	3.416	Yaw:	244.020	Thrust:	100.000
Time:	4.297	Roll Set Point:	0.012	Pitch Set Point:	0.012	Yaw Set Point:	-3.005	X_WP:	0.000	Y_WP:	0.000	Y_WP:	1.000	X:	0.084	Y:	-0.093	Z:	0.057	yaw:	172.181	yaw rate:	-0.605	Roll:	-3.466	Pitch:	3.033	Yaw:	242.260	Thrust:	100.000
Time:	4.318	Roll Set Point:	0.012	Pitch Set Point:	0.012	Yaw Set Point:	-3.006	X_WP:	0.000	Y_WP:	0.000	Y_WP:	1.000	X:	0.084	Y:	-0.093	Z:	0.057	yaw:	172.212	yaw rate:	-3.063	Roll:	-3.506	Pitch:	3.121	Yaw:	242.921	Thrust:	100.000
Time:	4.341	Roll Set Point:	0.012	Pitch Set Point:	0.013	Yaw Set Point:	-3.001	X_WP:	0.000	Y_WP:	0.000	Y_WP:	1.000	X:	0.084	Y:	-0.093	Z:	0.057	yaw:	171.951	yaw rate:	26.118	Roll:	-3.954	Pitch:	2.735	Yaw:	239.326	Thrust:	100.000
Time:	4.358	Roll Set Point:	0.012	Pitch Set Point:	0.013	Yaw Set Point:	-3.001	X_WP:	0.000	Y_WP:	0.000	Y_WP:	1.000	X:	0.084	Y:	-0.093	Z:	0.057	yaw:	171.954	yaw rate:	-0.339	Roll:	-3.433	Pitch:	2.929	Yaw:	241.849	Thrust:	100.000
Time:	4.378	Roll Set Point:	0.012	Pitch Set Point:	0.013	Yaw Set Point:	-3.001	X_WP:	0.000	Y_WP:	0.000	Y_WP:	1.000	X:	0.084	Y:	-0.093	Z:	0.057	yaw:	171.957	yaw rate:	-0.250	Roll:	-3.530	Pitch:	3.065	Yaw:	242.118	Thrust:	100.000
Time:	4.400	Roll Set Point:	0.012	Pitch Set Point:	0.013	Yaw Set Point:	-3.001	X_WP:	0.000	Y_WP:	0.000	Y_WP:	1.000	X:	0.084	Y:	-0.093	Z:	0.057	yaw:	171.952	yaw rate:	0.430	Roll:	-3.584	Pitch:	3.133	Yaw:	242.189	Thrust:	100.000
Time:	4.418	Roll Set Point:	0.012	Pitch Set Point:	0.013	Yaw Set Point:	-3.001	X_WP:	0.000	Y_WP:	0.000	Y_WP:	1.000	X:	0.084	Y:	-0.093	Z:	0.057	yaw:	171.955	yaw rate:	-0.323	Roll:	-3.470	Pitch:	3.048	Yaw:	242.002	Thrust:	100.000
Time:	4.438	Roll Set Point:	0.012	Pitch Set Point:	0.013	Yaw Set Point:	-3.001	X_WP:	0.000	Y_WP:	0.000	Y_WP:	1.000	X:	0.084	Y:	-0.093	Z:	0.057	yaw:	171.955	yaw rate:	0.052	Roll:	-3.537	Pitch:	3.056	Yaw:	242.106	Thrust:	100.000
Time:	4.458	Roll Set Point:	0.012	Pitch Set Point:	0.013	Yaw Set Point:	-3.002	X_WP:	0.000	Y_WP:	0.000	Y_WP:	1.000	X:	0.084	Y:	-0.093	Z:	0.057	yaw:	172.011	yaw rate:	-5.641	Roll:	-3.370	Pitch:	3.126	Yaw:	242.894	Thrust:	100.000
Time:	4.480	Roll Set Point:	0.012	Pitch Set Point:	0.013	Yaw Set Point:	-3.001	X_WP:	0.000	Y_WP:	0.000	Y_WP:	1.000	X:	0.084	Y:	-0.093	Z:	0.057	yaw:	171.960	yaw rate:	5.088	Roll:	-3.700	Pitch:	3.106	Yaw:	241.660	Thrust:	100.000
Time:	4.497	Roll Set Point:	0.012	Pitch Set Point:	0.013	Yaw Set Point:	-3.001	X_WP:	0.000	Y_WP:	0.000	Y_WP:	1.000	X:	0.084	Y:	-0.093	Z:	0.057	yaw:	171.966	yaw rate:	-0.532	Roll:	-3.486	Pitch:	2.996	Yaw:	241.996	Thrust:	100.000
Time:	4.518	Roll Set Point:	0.012	Pitch Set Point:	0.013	Yaw Set Point:	-3.001	X_WP:	0.000	Y_WP:	0.000	Y_WP:	1.000	X:	0.084	Y:	-0.093	Z:	0.057	yaw:	171.966	yaw rate:	0.027	Roll:	-3.516	Pitch:	3.076	Yaw:	242.137	Thrust:	100.000
Time:	4.541	Roll Set Point:	0.012	Pitch Set Point:	0.013	Yaw Set Point:	-3.001	X_WP:	0.000	Y_WP:	0.000	Y_WP:	1.000	X:	0.084	Y:	-0.093	Z:	0.057	yaw:	171.958	yaw rate:	0.791	Roll:	-3.631	Pitch:	3.163	Yaw:	242.235	Thrust:	100.000
Time:	4.558	Roll Set Point:	0.012	Pitch Set Point:	0.013	Yaw Set Point:	-3.001	X_WP:	0.000	Y_WP:	0.000	Y_WP:	1.000	X:	0.084	Y:	-0.093	Z:	0.057	yaw:	171.967	yaw rate:	-0.890	Roll:	-3.519	Pitch:	3.130	Yaw:	241.996	Thrust:	100.000
Time:	4.578	Roll Set Point:	0.012	Pitch Set Point:	0.013	Yaw Set Point:	-3.001	X_WP:	0.000	Y_WP:	0.000	Y_WP:	1.000	X:	0.084	Y:	-0.093	Z:	0.057	yaw:	171.962	yaw rate:	0.457	Roll:	-3.498	Pitch:	2.961	Yaw:	242.040	Thrust:	100.000
Time:	4.599	Roll Set Point:	0.012	Pitch Set Point:	0.013	Yaw Set Point:	-3.001	X_WP:	0.000	Y_WP:	0.000	Y_WP:	1.000	X:	0.084	Y:	-0.093	Z:	0.057	yaw:	171.969	yaw rate:	-0.705	Roll:	-3.534	Pitch:	3.081	Yaw:	242.349	Thrust:	100.000
Time:	4.624	Roll Set Point:	0.012	Pitch Set Point:	0.013	Yaw Set Point:	-3.003	X_WP:	0.000	Y_WP:	0.000	Y_WP:	1.000	X:	0.084	Y:	-0.093	Z:	0.057	yaw:	172.036	yaw rate:	-6.692	Roll:	-3.674	Pitch:	3.350	Yaw:	243.391	Thrust:	100.000
Time:	4.638	Roll Set Point:	0.012	Pitch Set Point:	0.013	Yaw Set Point:	-3.002	X_WP:	0.000	Y_WP:	0.000	Y_WP:	1.000	X:	0.084	Y:	-0.093	Z:	0.057	yaw:	171.989	yaw rate:	4.649	Roll:	-3.367	Pitch:	2.778	Yaw:	240.720	Thrust:	100.000
Time:	4.658	Roll Set Point:	0.012	Pitch Set Point:	0.013	Yaw Set Point:	-3.001	X_WP:	0.000	Y_WP:	0.000	Y_WP:	1.000	X:	0.084	Y:	-0.093	Z:	0.057	yaw:	171.972	yaw rate:	1.758	Roll:	-3.531	Pitch:	3.023	Yaw:	241.923	Thrust:	100.000
Time:	4.679	Roll Set Point:	0.012	Pitch Set Point:	0.013	Yaw Set Point:	-3.002	X_WP:	0.000	Y_WP:	0.000	Y_WP:	1.000	X:	0.084	Y:	-0.093	Z:	0.057	yaw:	172.020	yaw rate:	-4.828	Roll:	-3.442	Pitch:	3.082	Yaw:	242.877	Thrust:	100.000
Time:	4.698	Roll Set Point:	0.012	Pitch Set Point:	0.013	Yaw Set Point:	-3.002	X_WP:	0.000	Y_WP:	0.000	Y_WP:	1.000	X:	0.084	Y:	-0.093	Z:	0.057	yaw:	172.013	yaw rate:	0.757	Roll:	-3.516	Pitch:	3.143	Yaw:	241.938	Thrust:	100.000
Time:	4.718	Roll Set Point:	0.012	Pitch Set Point:	0.012	Yaw Set Point:	-3.004	X_WP:	0.000	Y_WP:	0.000	Y_WP:	1.000	X:	0.084	Y:	-0.093	Z:	0.057	yaw:	172.106	yaw rate:	-9.318	Roll:	-3.388	Pitch:	3.171	Yaw:	243.531	Thrust:	100.000
Time:	4.742	Roll Set Point:	0.012	Pitch Set Point:	0.013	Yaw Set Point:	-3.003	X_WP:	0.000	Y_WP:	0.000	Y_WP:	1.000	X:	0.084	Y:	-0.093	Z:	0.057	yaw:	172.035	yaw rate:	7.094	Roll:	-3.759	Pitch:	3.130	Yaw:	241.672	Thrust:	100.000
Time:	4.758	Roll Set Point:	0.012	Pitch Set Point:	0.012	Yaw Set Point:	-3.003	X_WP:	0.000	Y_WP:	0.000	Y_WP:	1.000	X:	0.084	Y:	-0.093	Z:	0.057	yaw:	172.061	yaw rate:	-2.637	Roll:	-3.331	Pitch:	3.024	Yaw:	242.352	Thrust:	100.000
Time:	4.780	Roll Set Point:	0.012	Pitch Set Point:	0.012	Yaw Set Point:	-3.004	X_WP:	0.000	Y_WP:	0.000	Y_WP:	1.000	X:	0.084	Y:	-0.093	Z:	0.057	yaw:	172.115	yaw rate:	-5.347	Roll:	-3.287	Pitch:	3.155	Yaw:	243.157	Thrust:	100.000
Time:	4.800	Roll Set Point:	0.012	Pitch Set Point:	0.012	Yaw Set Point:	-3.003	X_WP:	0.000	Y_WP:	0.000	Y_WP:	1.000	X:	0.084	Y:	-0.093	Z:	0.057	yaw:	172.069	yaw rate:	4.566	Roll:	-3.785	Pitch:	3.127	Yaw:	241.624	Thrust:	100.000
Time:	4.818	Roll Set Point:	0.011	Pitch Set Point:	0.011	Yaw Set Point:	-3.016	X_WP:	0.000	Y_WP:	0.000	Y_WP:	1.000	X:	0.084	Y:	-0.093	Z:	0.057	yaw:	172.792	yaw rate:	-72.332	Roll:	-2.366	Pitch:	3.946	Yaw:	253.663	Thrust:	100.000
Time:	4.838	Roll Set Point:	0.011	Pitch Set Point:	0.012	Yaw Set Point:	-3.013	X_WP:	0.000	Y_WP:	0.000	Y_WP:	1.000	X:	0.084	Y:	-0.093	Z:	0.057	yaw:	172.610	yaw rate:	18.214	Roll:	-3.770	Pitch:	2.893	Yaw:	240.615	Thrust:	100.000
Time:	4.859	Roll Set Point:	0.011	Pitch Set Point:	0.011	Yaw Set Point:	-3.019	X_WP:	0.000	Y_WP:	0.000	Y_WP:	1.000	X:	0.083	Y:	-0.093	Z:	0.057	yaw:	172.977	yaw rate:	-36.647	Roll:	-2.701	Pitch:	3.724	Yaw:	248.196	Thrust:	100.000
Time:	4.881	Roll Set Point:	0.011	Pitch Set Point:	0.011	Yaw Set Point:	-3.021	X_WP:	0.000	Y_WP:	0.000	Y_WP:	1.000	X:	0.083	Y:	-0.093	Z:	0.057	yaw:	173.078	yaw rate:	-10.151	Roll:	-3.316	Pitch:	3.620	Yaw:	245.053	Thrust:	100.000
Time:	4.898	Roll Set Point:	0.010	Pitch Set Point:	0.010	Yaw Set Point:	-3.027	X_WP:	0.000	Y_WP:	0.000	Y_WP:	1.000	X:	0.083	Y:	-0.093	Z:	0.057	yaw:	173.423	yaw rate:	-34.488	Roll:	-2.669	Pitch:	3.419	Yaw:	248.987	Thrust:	100.000
Time:	4.918	Roll Set Point:	0.009	Pitch Set Point:	0.009	Yaw Set Point:	-3.042	X_WP:	0.000	Y_WP:	0.000	Y_WP:	1.000	X:	0.082	Y:	-0.093	Z:	0.057	yaw:	174.277	yaw rate:	-85.427	Roll:	-1.661	Pitch:	4.367	Yaw:	256.595	Thrust:	100.000
Time:	4.941	Roll Set Point:	0.007	Pitch Set Point:	0.007	Yaw Set Point:	-3.064	X_WP:	0.000	Y_WP:	0.000	Y_WP:	1.000	X:	0.081	Y:	-0.093	Z:	0.058	yaw:	175.547	yaw rate:	-126.927	Roll:	-0.983	Pitch:	5.212	Yaw:	262.241	Thrust:	100.000
Time:	4.958	Roll Set Point:	0.005	Pitch Set Point:	0.005	Yaw Set Point:	-3.086	X_WP:	0.000	Y_WP:	0.000	Y_WP:	1.000	X:	0.080	Y:	-0.093	Z:	0.060	yaw:	176.819	yaw rate:	-127.251	Roll:	-0.288	Pitch:	5.256	Yaw:	267.465	Thrust:	100.000
Time:	4.978	Roll Set Point:	0.005	Pitch Set Point:	0.004	Yaw Set Point:	-3.090	X_WP:	0.000	Y_WP:	0.000	Y_WP:	1.000	X:	0.079	Y:	-0.092	Z:	0.063	yaw:	177.060	yaw rate:	-24.129	Roll:	-2.004	Pitch:	3.093	Yaw:	252.370	Thrust:	100.000
Time:	4.999	Roll Set Point:	0.005	Pitch Set Point:	0.005	Yaw Set Point:	-3.085	X_WP:	0.000	Y_WP:	0.000	Y_WP:	1.000	X:	0.078	Y:	-0.092	Z:	0.065	yaw:	176.780	yaw rate:	28.074	Roll:	-2.788	Pitch:	2.503	Yaw:	245.400	Thrust:	100.000
Time:	5.018	Roll Set Point:	-0.126	Pitch Set Point:	2.668	Yaw Set Point:	-3.089	X_WP:	-0.008	Y_WP:	-2.667	Y_WP:	1.000	X:	0.077	Y:	-0.091	Z:	0.070	yaw:	177.013	yaw rate:	-23.331	Roll:	30.000	Pitch:	-30.000	Yaw:	252.294	Thrust:	100.000
Time:	5.039	Roll Set Point:	-0.102	Pitch Set Point:	2.669	Yaw Set Point:	-3.099	X_WP:	-0.008	Y_WP:	-2.667	Y_WP:	1.000	X:	0.076	Y:	-0.090	Z:	0.076	yaw:	177.542	yaw rate:	-52.920	Roll:	-18.721	Pitch:	-30.000	Yaw:	256.688	Thrust:	100.000
Time:	5.059	Roll Set Point:	-0.105	Pitch Set Point:	2.668	Yaw Set Point:	-3.098	X_WP:	-0.008	Y_WP:	-2.667	Y_WP:	1.000	X:	0.075	Y:	-0.089	Z:	0.084	yaw:	177.497	yaw rate:	4.552	Roll:	2.793	Pitch:	-30.000	Yaw:	249.345	Thrust:	100.000
Time:	5.082	Roll Set Point:	-0.127	Pitch Set Point:	2.668	Yaw Set Point:	-3.089	X_WP:	-0.008	Y_WP:	-2.667	Y_WP:	1.000	X:	0.074	Y:	-0.088	Z:	0.093	yaw:	177.008	yaw rate:	48.901	Roll:	18.228	Pitch:	-30.000	Yaw:	243.677	Thrust:	100.000
Time:	5.098	Roll Set Point:	-0.147	Pitch Set Point:	2.668	Yaw Set Point:	-3.082	X_WP:	-0.008	Y_WP:	-2.667	Y_WP:	1.000	X:	0.073	Y:	-0.087	Z:	0.104	yaw:	176.567	yaw rate:	44.045	Roll:	22.804	Pitch:	-30.000	Yaw:	241.247	Thrust:	100.000
Time:	5.119	Roll Set Point:	-0.187	Pitch Set Point:	2.666	Yaw Set Point:	-3.066	X_WP:	-0.008	Y_WP:	-2.667	Y_WP:	1.000	X:	0.072	Y:	-0.087	Z:	0.117	yaw:	175.667	yaw rate:	89.999	Roll:	30.000	Pitch:	-30.000	Yaw:	235.580	Thrust:	100.000
Time:	5.142	Roll Set Point:	-0.188	Pitch Set Point:	2.666	Yaw Set Point:	-3.066	X_WP:	-0.008	Y_WP:	-2.667	Y_WP:	1.000	X:	0.071	Y:	-0.086	Z:	0.131	yaw:	175.653	yaw rate:	1.417	Roll:	4.249	Pitch:	-30.000	Yaw:	247.477	Thrust:	100.000
Time:	5.158	Roll Set Point:	-0.199	Pitch Set Point:	2.665	Yaw Set Point:	-3.062	X_WP:	-0.008	Y_WP:	-2.667	Y_WP:	1.000	X:	0.069	Y:	-0.086	Z:	0.146	yaw:	175.413	yaw rate:	24.045	Roll:	14.641	Pitch:	-30.000	Yaw:	242.473	Thrust:	100.000
Time:	5.178	Roll Set Point:	-0.197	Pitch Set Point:	2.665	Yaw Set Point:	-3.062	X_WP:	-0.008	Y_WP:	-2.667	Y_WP:	1.000	X:	0.067	Y:	-0.087	Z:	0.163	yaw:	175.449	yaw rate:	-3.622	Roll:	2.927	Pitch:	-30.000	Yaw:	247.515	Thrust:	100.000
Time:	5.200	Roll Set Point:	-0.198	Pitch Set Point:	2.665	Yaw Set Point:	-3.062	X_WP:	-0.008	Y_WP:	-2.667	Y_WP:	1.000	X:	0.066	Y:	-0.088	Z:	0.181	yaw:	175.431	yaw rate:	1.810	Roll:	4.990	Pitch:	-30.000	Yaw:	246.861	Thrust:	100.000
Time:	5.218	Roll Set Point:	-0.194	Pitch Set Point:	2.665	Yaw Set Point:	-3.063	X_WP:	-0.008	Y_WP:	-2.667	Y_WP:	1.000	X:	0.064	Y:	-0.089	Z:	0.199	yaw:	175.498	yaw rate:	-6.749	Roll:	1.783	Pitch:	-30.000	Yaw:	247.858	Thrust:	100.000
Time:	5.238	Roll Set Point:	-0.151	Pitch Set Point:	2.667	Yaw Set Point:	-3.080	X_WP:	-0.008	Y_WP:	-2.667	Y_WP:	1.000	X:	0.062	Y:	-0.091	Z:	0.219	yaw:	176.462	yaw rate:	-96.412	Roll:	-30.000	Pitch:	-30.000	Yaw:	261.270	Thrust:	100.000
Time:	5.258	Roll Set Point:	-0.126	Pitch Set Point:	2.667	Yaw Set Point:	-3.089	X_WP:	-0.008	Y_WP:	-2.667	Y_WP:	1.000	X:	0.060	Y:	-0.093	Z:	0.238	yaw:	177.013	yaw rate:	-55.123	Roll:	-18.495	Pitch:	-30.000	Yaw:	256.456	Thrust:	100.000
Time:	5.286	Roll Set Point:	-0.115	Pitch Set Point:	2.668	Yaw Set Point:	-3.094	X_WP:	-0.008	Y_WP:	-2.667	Y_WP:	1.000	X:	0.058	Y:	-0.095	Z:	0.259	yaw:	177.247	yaw rate:	-23.367	Roll:	-4.705	Pitch:	-30.000	Yaw:	252.468	Thrust:	100.000
