Time:	0.043	Roll Set Point:	-0.025	Pitch Set Point:	0.000	Yaw Set Point:	-0.007	X_WP:	0.000	Y_WP:	0.000	Y_WP:	0.750	X:	0.013	Y:	-0.000	Z:	0.052	yaw:	0.393	yaw rate:	3.913	Roll:	0.366	Pitch:	-0.005	Yaw:	0.548	Thrust:	38.388
Time:	0.062	Roll Set Point:	-0.025	Pitch Set Point:	0.000	Yaw Set Point:	-0.007	X_WP:	0.000	Y_WP:	0.000	Y_WP:	0.750	X:	0.013	Y:	-0.000	Z:	0.052	yaw:	0.399	yaw rate:	-0.625	Roll:	0.413	Pitch:	-0.039	Yaw:	0.643	Thrust:	39.819
Time:	0.083	Roll Set Point:	-0.025	Pitch Set Point:	-0.000	Yaw Set Point:	-0.012	X_WP:	0.000	Y_WP:	0.000	Y_WP:	0.750	X:	0.013	Y:	0.000	Z:	0.052	yaw:	0.701	yaw rate:	-30.163	Roll:	0.238	Pitch:	0.143	Yaw:	4.827	Thrust:	41.845
Time:	0.101	Roll Set Point:	-0.025	Pitch Set Point:	-0.000	Yaw Set Point:	0.005	X_WP:	0.000	Y_WP:	0.000	Y_WP:	0.750	X:	0.012	Y:	0.000	Z:	0.052	yaw:	-0.304	yaw rate:	100.436	Roll:	0.268	Pitch:	0.250	Yaw:	-14.160	Thrust:	43.951
Time:	0.121	Roll Set Point:	-0.025	Pitch Set Point:	-0.000	Yaw Set Point:	0.005	X_WP:	0.000	Y_WP:	0.000	Y_WP:	0.750	X:	0.013	Y:	0.000	Z:	0.052	yaw:	-0.312	yaw rate:	0.845	Roll:	0.465	Pitch:	0.001	Yaw:	-0.541	Thrust:	44.152
Time:	0.143	Roll Set Point:	-0.025	Pitch Set Point:	0.000	Yaw Set Point:	-0.016	X_WP:	0.000	Y_WP:	0.000	Y_WP:	0.750	X:	0.013	Y:	-0.000	Z:	0.052	yaw:	0.927	yaw rate:	-123.959	Roll:	0.368	Pitch:	-0.404	Yaw:	15.962	Thrust:	48.389
Time:	0.162	Roll Set Point:	-0.025	Pitch Set Point:	-0.000	Yaw Set Point:	-0.008	X_WP:	0.000	Y_WP:	0.000	Y_WP:	0.750	X:	0.013	Y:	0.000	Z:	0.052	yaw:	0.452	yaw rate:	47.508	Roll:	0.351	Pitch:	0.221	Yaw:	-5.800	Thrust:	46.709
Time:	0.183	Roll Set Point:	-0.025	Pitch Set Point:	0.000	Yaw Set Point:	-0.006	X_WP:	0.000	Y_WP:	0.000	Y_WP:	0.750	X:	0.013	Y:	-0.000	Z:	0.052	yaw:	0.360	yaw rate:	9.255	Roll:	0.459	Pitch:	-0.077	Yaw:	-0.659	Thrust:	51.027
Time:	0.202	Roll Set Point:	-0.025	Pitch Set Point:	-0.000	Yaw Set Point:	0.007	X_WP:	0.000	Y_WP:	0.000	Y_WP:	0.750	X:	0.012	Y:	0.000	Z:	0.052	yaw:	-0.418	yaw rate:	77.800	Roll:	0.247	Pitch:	0.237	Yaw:	-11.433	Thrust:	51.628
Time:	0.222	Roll Set Point:	-0.025	Pitch Set Point:	-0.000	Yaw Set Point:	-0.013	X_WP:	0.000	Y_WP:	0.000	Y_WP:	0.750	X:	0.013	Y:	0.000	Z:	0.052	yaw:	0.727	yaw rate:	-114.554	Roll:	0.419	Pitch:	-0.130	Yaw:	15.994	Thrust:	52.008
Time:	0.245	Roll Set Point:	-0.025	Pitch Set Point:	-0.000	Yaw Set Point:	-0.002	X_WP:	0.000	Y_WP:	0.000	Y_WP:	0.750	X:	0.013	Y:	0.000	Z:	0.052	yaw:	0.115	yaw rate:	61.246	Roll:	0.377	Pitch:	0.078	Yaw:	-6.757	Thrust:	58.157
Time:	0.261	Roll Set Point:	-0.025	Pitch Set Point:	-0.000	Yaw Set Point:	-0.008	X_WP:	0.000	Y_WP:	0.000	Y_WP:	0.750	X:	0.013	Y:	0.000	Z:	0.052	yaw:	0.452	yaw rate:	-33.707	Roll:	0.380	Pitch:	-0.054	Yaw:	5.955	Thrust:	54.126
Time:	0.282	Roll Set Point:	-0.025	Pitch Set Point:	-0.001	Yaw Set Point:	-0.000	X_WP:	0.000	Y_WP:	0.000	Y_WP:	0.750	X:	0.013	Y:	0.000	Z:	0.052	yaw:	0.008	yaw rate:	44.367	Roll:	0.341	Pitch:	0.295	Yaw:	-5.743	Thrust:	58.456
Time:	0.302	Roll Set Point:	-0.025	Pitch Set Point:	-0.001	Yaw Set Point:	-0.005	X_WP:	0.000	Y_WP:	0.000	Y_WP:	0.750	X:	0.012	Y:	0.000	Z:	0.052	yaw:	0.289	yaw rate:	-28.027	Roll:	0.323	Pitch:	-0.053	Yaw:	4.086	Thrust:	60.087
Time:	0.322	Roll Set Point:	-0.024	Pitch Set Point:	-0.001	Yaw Set Point:	-0.001	X_WP:	0.000	Y_WP:	0.000	Y_WP:	0.750	X:	0.012	Y:	0.001	Z:	0.052	yaw:	0.049	yaw rate:	23.985	Roll:	0.117	Pitch:	0.227	Yaw:	-3.033	Thrust:	61.624
Time:	0.344	Roll Set Point:	-0.025	Pitch Set Point:	-0.001	Yaw Set Point:	-0.008	X_WP:	0.000	Y_WP:	0.000	Y_WP:	0.750	X:	0.012	Y:	0.000	Z:	0.053	yaw:	0.480	yaw rate:	-43.104	Roll:	0.515	Pitch:	-0.143	Yaw:	5.953	Thrust:	64.558
Time:	0.362	Roll Set Point:	-0.024	Pitch Set Point:	-0.002	Yaw Set Point:	0.012	X_WP:	0.000	Y_WP:	0.000	Y_WP:	0.750	X:	0.012	Y:	0.001	Z:	0.053	yaw:	-0.708	yaw rate:	118.800	Roll:	0.068	Pitch:	0.549	Yaw:	-17.073	Thrust:	63.062
Time:	0.382	Roll Set Point:	-0.024	Pitch Set Point:	-0.002	Yaw Set Point:	0.013	X_WP:	0.000	Y_WP:	0.000	Y_WP:	0.750	X:	0.012	Y:	0.001	Z:	0.055	yaw:	-0.722	yaw rate:	1.415	Roll:	0.222	Pitch:	0.299	Yaw:	-1.179	Thrust:	62.081
Time:	0.402	Roll Set Point:	-0.023	Pitch Set Point:	-0.002	Yaw Set Point:	-0.007	X_WP:	0.000	Y_WP:	0.000	Y_WP:	0.750	X:	0.012	Y:	0.001	Z:	0.056	yaw:	0.391	yaw rate:	-111.355	Roll:	0.196	Pitch:	-0.021	Yaw:	14.996	Thrust:	64.760
Time:	0.422	Roll Set Point:	-0.023	Pitch Set Point:	-0.003	Yaw Set Point:	0.001	X_WP:	0.000	Y_WP:	0.000	Y_WP:	0.750	X:	0.011	Y:	0.002	Z:	0.059	yaw:	-0.083	yaw rate:	47.444	Roll:	-0.062	Pitch:	0.475	Yaw:	-6.290	Thrust:	63.959
Time:	0.444	Roll Set Point:	-0.022	Pitch Set Point:	-0.004	Yaw Set Point:	0.009	X_WP:	0.000	Y_WP:	0.000	Y_WP:	0.750	X:	0.011	Y:	0.002	Z:	0.062	yaw:	-0.528	yaw rate:	44.475	Roll:	0.007	Pitch:	0.263	Yaw:	-6.074	Thrust:	67.517
Time:	0.461	Roll Set Point:	-0.021	Pitch Set Point:	-0.004	Yaw Set Point:	0.015	X_WP:	0.000	Y_WP:	0.000	Y_WP:	0.750	X:	0.010	Y:	0.002	Z:	0.066	yaw:	-0.847	yaw rate:	31.844	Roll:	-0.083	Pitch:	0.134	Yaw:	-5.863	Thrust:	59.311
Time:	0.483	Roll Set Point:	-0.020	Pitch Set Point:	-0.004	Yaw Set Point:	0.010	X_WP:	0.000	Y_WP:	0.000	Y_WP:	0.750	X:	0.010	Y:	0.002	Z:	0.071	yaw:	-0.574	yaw rate:	-27.234	Roll:	-0.054	Pitch:	0.168	Yaw:	2.627	Thrust:	65.633
Time:	0.503	Roll Set Point:	-0.019	Pitch Set Point:	-0.005	Yaw Set Point:	0.001	X_WP:	0.000	Y_WP:	0.000	Y_WP:	0.750	X:	0.010	Y:	0.002	Z:	0.076	yaw:	-0.078	yaw rate:	-49.605	Roll:	-0.078	Pitch:	0.152	Yaw:	6.209	Thrust:	61.559
Time:	0.522	Roll Set Point:	-0.018	Pitch Set Point:	-0.004	Yaw Set Point:	0.012	X_WP:	0.000	Y_WP:	0.000	Y_WP:	0.750	X:	0.009	Y:	0.002	Z:	0.082	yaw:	-0.715	yaw rate:	63.677	Roll:	-0.029	Pitch:	-0.132	Yaw:	-9.638	Thrust:	64.545
Time:	0.543	Roll Set Point:	-0.017	Pitch Set Point:	-0.004	Yaw Set Point:	0.008	X_WP:	0.000	Y_WP:	0.000	Y_WP:	0.750	X:	0.009	Y:	0.002	Z:	0.089	yaw:	-0.482	yaw rate:	-23.260	Roll:	-0.174	Pitch:	-0.047	Yaw:	2.292	Thrust:	64.332
Time:	0.562	Roll Set Point:	-0.016	Pitch Set Point:	-0.004	Yaw Set Point:	0.025	X_WP:	0.000	Y_WP:	0.000	Y_WP:	0.750	X:	0.008	Y:	0.002	Z:	0.096	yaw:	-1.414	yaw rate:	93.126	Roll:	-0.405	Pitch:	0.027	Yaw:	-14.380	Thrust:	62.055
Time:	0.583	Roll Set Point:	-0.014	Pitch Set Point:	-0.003	Yaw Set Point:	0.017	X_WP:	0.000	Y_WP:	0.000	Y_WP:	0.750	X:	0.007	Y:	0.001	Z:	0.104	yaw:	-0.983	yaw rate:	-43.034	Roll:	-0.399	Pitch:	-0.211	Yaw:	4.091	Thrust:	64.473
Time:	0.601	Roll Set Point:	-0.013	Pitch Set Point:	-0.002	Yaw Set Point:	0.016	X_WP:	0.000	Y_WP:	0.000	Y_WP:	0.750	X:	0.006	Y:	0.001	Z:	0.112	yaw:	-0.904	yaw rate:	-7.892	Roll:	-0.424	Pitch:	-0.293	Yaw:	-0.173	Thrust:	58.172
Time:	0.623	Roll Set Point:	-0.012	Pitch Set Point:	-0.002	Yaw Set Point:	0.022	X_WP:	0.000	Y_WP:	0.000	Y_WP:	0.750	X:	0.006	Y:	0.001	Z:	0.121	yaw:	-1.287	yaw rate:	38.241	Roll:	-0.305	Pitch:	-0.243	Yaw:	-6.801	Thrust:	62.382
Time:	0.644	Roll Set Point:	-0.010	Pitch Set Point:	-0.001	Yaw Set Point:	0.012	X_WP:	0.000	Y_WP:	0.000	Y_WP:	0.750	X:	0.005	Y:	0.001	Z:	0.131	yaw:	-0.704	yaw rate:	-58.246	Roll:	-0.411	Pitch:	-0.229	Yaw:	6.053	Thrust:	67.885
Time:	0.662	Roll Set Point:	-0.009	Pitch Set Point:	-0.000	Yaw Set Point:	0.025	X_WP:	0.000	Y_WP:	0.000	Y_WP:	0.750	X:	0.004	Y:	0.000	Z:	0.141	yaw:	-1.453	yaw rate:	74.913	Roll:	-0.602	Pitch:	-0.311	Yaw:	-12.636	Thrust:	56.257
Time:	0.682	Roll Set Point:	-0.007	Pitch Set Point:	0.001	Yaw Set Point:	0.020	X_WP:	0.000	Y_WP:	0.000	Y_WP:	0.750	X:	0.004	Y:	-0.001	Z:	0.151	yaw:	-1.164	yaw rate:	-28.984	Roll:	-0.446	Pitch:	-0.643	Yaw:	2.025	Thrust:	64.720
Time:	0.702	Roll Set Point:	-0.006	Pitch Set Point:	0.002	Yaw Set Point:	0.023	X_WP:	0.000	Y_WP:	0.000	Y_WP:	0.750	X:	0.003	Y:	-0.001	Z:	0.161	yaw:	-1.346	yaw rate:	18.233	Roll:	-0.626	Pitch:	-0.279	Yaw:	-4.468	Thrust:	57.141
Time:	0.722	Roll Set Point:	-0.004	Pitch Set Point:	0.003	Yaw Set Point:	0.025	X_WP:	0.000	Y_WP:	0.000	Y_WP:	0.750	X:	0.002	Y:	-0.001	Z:	0.171	yaw:	-1.419	yaw rate:	7.308	Roll:	-0.552	Pitch:	-0.432	Yaw:	-3.006	Thrust:	64.113
Time:	0.744	Roll Set Point:	-0.003	Pitch Set Point:	0.003	Yaw Set Point:	0.028	X_WP:	0.000	Y_WP:	0.000	Y_WP:	0.750	X:	0.001	Y:	-0.002	Z:	0.183	yaw:	-1.581	yaw rate:	16.160	Roll:	-0.368	Pitch:	-0.394	Yaw:	-4.197	Thrust:	69.698
Time:	0.761	Roll Set Point:	-0.001	Pitch Set Point:	0.005	Yaw Set Point:	0.022	X_WP:	0.000	Y_WP:	0.000	Y_WP:	0.750	X:	0.001	Y:	-0.003	Z:	0.194	yaw:	-1.264	yaw rate:	-31.692	Roll:	-0.645	Pitch:	-0.830	Yaw:	2.676	Thrust:	56.742
Time:	0.782	Roll Set Point:	-0.000	Pitch Set Point:	0.006	Yaw Set Point:	0.014	X_WP:	0.000	Y_WP:	0.000	Y_WP:	0.750	X:	0.000	Y:	-0.003	Z:	0.206	yaw:	-0.778	yaw rate:	-48.546	Roll:	-0.478	Pitch:	-0.635	Yaw:	5.163	Thrust:	63.754
Time:	0.802	Roll Set Point:	0.001	Pitch Set Point:	0.007	Yaw Set Point:	0.018	X_WP:	0.000	Y_WP:	0.000	Y_WP:	0.750	X:	-0.000	Y:	-0.004	Z:	0.218	yaw:	-1.048	yaw rate:	27.001	Roll:	-0.417	Pitch:	-0.546	Yaw:	-5.067	Thrust:	63.721
Time:	0.822	Roll Set Point:	0.002	Pitch Set Point:	0.009	Yaw Set Point:	0.018	X_WP:	0.000	Y_WP:	0.000	Y_WP:	0.750	X:	-0.001	Y:	-0.005	Z:	0.229	yaw:	-1.039	yaw rate:	-0.887	Roll:	-0.539	Pitch:	-0.951	Yaw:	-1.447	Thrust:	66.498
Time:	0.844	Roll Set Point:	0.003	Pitch Set Point:	0.011	Yaw Set Point:	0.023	X_WP:	0.000	Y_WP:	0.000	Y_WP:	0.750	X:	-0.002	Y:	-0.005	Z:	0.241	yaw:	-1.296	yaw rate:	25.704	Roll:	-0.420	Pitch:	-0.804	Yaw:	-5.048	Thrust:	71.015
Time:	0.861	Roll Set Point:	0.004	Pitch Set Point:	0.012	Yaw Set Point:	0.016	X_WP:	0.000	Y_WP:	0.000	Y_WP:	0.750	X:	-0.002	Y:	-0.006	Z:	0.254	yaw:	-0.904	yaw rate:	-39.281	Roll:	-0.601	Pitch:	-0.567	Yaw:	4.431	Thrust:	51.961
Time:	0.882	Roll Set Point:	0.005	Pitch Set Point:	0.014	Yaw Set Point:	0.020	X_WP:	0.000	Y_WP:	0.000	Y_WP:	0.750	X:	-0.003	Y:	-0.007	Z:	0.266	yaw:	-1.129	yaw rate:	22.504	Roll:	-0.357	Pitch:	-1.143	Yaw:	-4.573	Thrust:	66.778
Time:	0.902	Roll Set Point:	0.005	Pitch Set Point:	0.015	Yaw Set Point:	0.012	X_WP:	0.000	Y_WP:	0.000	Y_WP:	0.750	X:	-0.003	Y:	-0.008	Z:	0.280	yaw:	-0.671	yaw rate:	-45.752	Roll:	-0.201	Pitch:	-0.693	Yaw:	4.992	Thrust:	61.480
Time:	0.922	Roll Set Point:	0.006	Pitch Set Point:	0.017	Yaw Set Point:	0.009	X_WP:	0.000	Y_WP:	0.000	Y_WP:	0.750	X:	-0.003	Y:	-0.008	Z:	0.293	yaw:	-0.508	yaw rate:	-16.351	Roll:	-0.499	Pitch:	-0.951	Yaw:	1.252	Thrust:	63.960
Time:	0.942	Roll Set Point:	0.007	Pitch Set Point:	0.018	Yaw Set Point:	0.013	X_WP:	0.000	Y_WP:	0.000	Y_WP:	0.750	X:	-0.004	Y:	-0.009	Z:	0.307	yaw:	-0.765	yaw rate:	25.760	Roll:	-0.527	Pitch:	-0.932	Yaw:	-4.699	Thrust:	58.930
Time:	0.962	Roll Set Point:	0.008	Pitch Set Point:	0.020	Yaw Set Point:	0.006	X_WP:	0.000	Y_WP:	0.000	Y_WP:	0.750	X:	-0.004	Y:	-0.010	Z:	0.321	yaw:	-0.326	yaw rate:	-43.881	Roll:	-0.304	Pitch:	-1.023	Yaw:	4.872	Thrust:	67.271
Time:	0.982	Roll Set Point:	0.008	Pitch Set Point:	0.022	Yaw Set Point:	0.012	X_WP:	0.000	Y_WP:	0.000	Y_WP:	0.750	X:	-0.004	Y:	-0.011	Z:	0.335	yaw:	-0.666	yaw rate:	33.949	Roll:	-0.244	Pitch:	-0.915	Yaw:	-5.625	Thrust:	58.699
Time:	1.002	Roll Set Point:	0.064	Pitch Set Point:	1.263	Yaw Set Point:	0.006	X_WP:	0.062	Y_WP:	1.239	Y_WP:	0.750	X:	-0.004	Y:	-0.012	Z:	0.349	yaw:	-0.347	yaw rate:	-31.859	Roll:	-30.000	Pitch:	-30.000	Yaw:	3.569	Thrust:	60.962
Time:	1.022	Roll Set Point:	0.061	Pitch Set Point:	1.265	Yaw Set Point:	0.009	X_WP:	0.062	Y_WP:	1.239	Y_WP:	0.750	X:	-0.005	Y:	-0.012	Z:	0.364	yaw:	-0.521	yaw rate:	17.424	Roll:	1.491	Pitch:	-30.000	Yaw:	-3.129	Thrust:	57.221
Time:	1.042	Roll Set Point:	0.062	Pitch Set Point:	1.266	Yaw Set Point:	0.008	X_WP:	0.062	Y_WP:	1.239	Y_WP:	0.750	X:	-0.005	Y:	-0.013	Z:	0.380	yaw:	-0.471	yaw rate:	-5.019	Roll:	-2.578	Pitch:	-30.000	Yaw:	-0.170	Thrust:	66.059
Time:	1.062	Roll Set Point:	0.066	Pitch Set Point:	1.267	Yaw Set Point:	0.005	X_WP:	0.062	Y_WP:	1.239	Y_WP:	0.750	X:	-0.005	Y:	-0.014	Z:	0.395	yaw:	-0.305	yaw rate:	-16.587	Roll:	-5.081	Pitch:	-30.000	Yaw:	1.626	Thrust:	57.257
Time:	1.082	Roll Set Point:	0.066	Pitch Set Point:	1.268	Yaw Set Point:	0.005	X_WP:	0.062	Y_WP:	1.239	Y_WP:	0.750	X:	-0.005	Y:	-0.014	Z:	0.411	yaw:	-0.310	yaw rate:	0.457	Roll:	-1.632	Pitch:	-30.000	Yaw:	-0.664	Thrust:	60.595
Time:	1.102	Roll Set Point:	0.097	Pitch Set Point:	1.266	Yaw Set Point:	-0.021	X_WP:	0.062	Y_WP:	1.239	Y_WP:	0.750	X:	-0.004	Y:	-0.014	Z:	0.427	yaw:	1.181	yaw rate:	-149.105	Roll:	-30.000	Pitch:	-30.000	Yaw:	21.863	Thrust:	53.533
Time:	1.122	Roll Set Point:	0.110	Pitch Set Point:	1.262	Yaw Set Point:	-0.032	X_WP:	0.062	Y_WP:	1.239	Y_WP:	0.750	X:	-0.004	Y:	-0.013	Z:	0.443	yaw:	1.806	yaw rate:	-62.460	Roll:	-14.462	Pitch:	-30.000	Yaw:	10.694	Thrust:	54.855
Time:	1.143	Roll Set Point:	0.104	Pitch Set Point:	1.260	Yaw Set Point:	-0.028	X_WP:	0.062	Y_WP:	1.239	Y_WP:	0.750	X:	-0.003	Y:	-0.011	Z:	0.460	yaw:	1.613	yaw rate:	19.257	Roll:	1.259	Pitch:	-30.000	Yaw:	-0.229	Thrust:	66.275
Time:	1.162	Roll Set Point:	0.106	Pitch Set Point:	1.254	Yaw Set Point:	-0.031	X_WP:	0.062	Y_WP:	1.239	Y_WP:	0.750	X:	-0.002	Y:	-0.009	Z:	0.476	yaw:	1.795	yaw rate:	-18.208	Roll:	-5.556	Pitch:	-30.000	Yaw:	4.908	Thrust:	50.721
Time:	1.182	Roll Set Point:	0.086	Pitch Set Point:	1.246	Yaw Set Point:	-0.016	X_WP:	0.062	Y_WP:	1.239	Y_WP:	0.750	X:	-0.002	Y:	-0.004	Z:	0.492	yaw:	0.937	yaw rate:	85.790	Roll:	14.209	Pitch:	-30.000	Yaw:	-10.007	Thrust:	58.394
Time:	1.207	Roll Set Point:	-0.009	Pitch Set Point:	1.240	Yaw Set Point:	0.057	X_WP:	0.062	Y_WP:	1.239	Y_WP:	0.750	X:	0.000	Y:	0.000	Z:	0.509	yaw:	-3.284	yaw rate:	422.165	Roll:	30.000	Pitch:	-30.000	Yaw:	-52.305	Thrust:	66.459
Time:	1.222	Roll Set Point:	0.022	Pitch Set Point:	1.227	Yaw Set Point:	0.029	X_WP:	0.062	Y_WP:	1.239	Y_WP:	0.750	X:	0.002	Y:	0.007	Z:	0.525	yaw:	-1.635	yaw rate:	-164.985	Roll:	-30.000	Pitch:	-30.000	Yaw:	22.411	Thrust:	48.445
Time:	1.243	Roll Set Point:	0.023	Pitch Set Point:	1.211	Yaw Set Point:	0.024	X_WP:	0.062	Y_WP:	1.239	Y_WP:	0.750	X:	0.005	Y:	0.015	Z:	0.540	yaw:	-1.393	yaw rate:	-24.192	Roll:	-3.135	Pitch:	-29.386	Yaw:	0.964	Thrust:	61.410
Time:	1.262	Roll Set Point:	0.080	Pitch Set Point:	1.185	Yaw Set Point:	-0.026	X_WP:	0.062	Y_WP:	1.239	Y_WP:	0.750	X:	0.007	Y:	0.026	Z:	0.553	yaw:	1.475	yaw rate:	-286.811	Roll:	-30.000	Pitch:	-22.990	Yaw:	42.088	Thrust:	55.870
Time:	1.283	Roll Set Point:	0.080	Pitch Set Point:	1.163	Yaw Set Point:	-0.032	X_WP:	0.062	Y_WP:	1.239	Y_WP:	0.750	X:	0.010	Y:	0.037	Z:	0.568	yaw:	1.806	yaw rate:	-33.020	Roll:	-5.506	Pitch:	-26.227	Yaw:	6.568	Thrust:	61.927
Time:	1.302	Roll Set Point:	0.153	Pitch Set Point:	1.130	Yaw Set Point:	-0.097	X_WP:	0.062	Y_WP:	1.239	Y_WP:	0.750	X:	0.012	Y:	0.050	Z:	0.580	yaw:	5.582	yaw rate:	-377.581	Roll:	-30.000	Pitch:	-16.831	Yaw:	57.956	Thrust:	62.592
Time:	1.322	Roll Set Point:	0.154	Pitch Set Point:	1.101	Yaw Set Point:	-0.104	X_WP:	0.062	Y_WP:	1.239	Y_WP:	0.750	X:	0.015	Y:	0.064	Z:	0.594	yaw:	5.943	yaw rate:	-36.187	Roll:	-7.840	Pitch:	-21.969	Yaw:	12.911	Thrust:	61.243
Time:	1.343	Roll Set Point:	0.168	Pitch Set Point:	1.065	Yaw Set Point:	-0.120	X_WP:	0.062	Y_WP:	1.239	Y_WP:	0.750	X:	0.017	Y:	0.080	Z:	0.606	yaw:	6.904	yaw rate:	-96.074	Roll:	-18.361	Pitch:	-18.119	Yaw:	21.813	Thrust:	65.660
Time:	1.362	Roll Set Point:	0.084	Pitch Set Point:	1.039	Yaw Set Point:	-0.049	X_WP:	0.062	Y_WP:	1.239	Y_WP:	0.750	X:	0.017	Y:	0.098	Z:	0.619	yaw:	2.801	yaw rate:	410.307	Roll:	30.000	Pitch:	-27.283	Yaw:	-50.069	Thrust:	62.145
Time:	1.382	Roll Set Point:	-0.012	Pitch Set Point:	1.007	Yaw Set Point:	0.033	X_WP:	0.062	Y_WP:	1.239	Y_WP:	0.750	X:	0.019	Y:	0.117	Z:	0.632	yaw:	-1.896	yaw rate:	469.678	Roll:	30.000	Pitch:	-21.051	Yaw:	-65.182	Thrust:	59.159
Time:	1.402	Roll Set Point:	-0.062	Pitch Set Point:	0.966	Yaw Set Point:	0.075	X_WP:	0.062	Y_WP:	1.239	Y_WP:	0.750	X:	0.021	Y:	0.136	Z:	0.647	yaw:	-4.307	yaw rate:	241.140	Roll:	30.000	Pitch:	-14.188	Yaw:	-37.821	Thrust:	48.785
Time:	1.421	Roll Set Point:	-0.079	Pitch Set Point:	0.921	Yaw Set Point:	0.089	X_WP:	0.062	Y_WP:	1.239	Y_WP:	0.750	X:	0.023	Y:	0.159	Z:	0.659	yaw:	-5.083	yaw rate:	77.620	Roll:	14.270	Pitch:	-12.667	Yaw:	-17.731	Thrust:	62.686
Time:	1.444	Roll Set Point:	-0.096	Pitch Set Point:	0.873	Yaw Set Point:	0.101	X_WP:	0.062	Y_WP:	1.239	Y_WP:	0.750	X:	0.026	Y:	0.182	Z:	0.671	yaw:	-5.790	yaw rate:	70.638	Roll:	12.704	Pitch:	-13.137	Yaw:	-16.055	Thrust:	77.506
Time:	1.462	Roll Set Point:	-0.090	Pitch Set Point:	0.823	Yaw Set Point:	0.091	X_WP:	0.062	Y_WP:	1.239	Y_WP:	0.750	X:	0.030	Y:	0.207	Z:	0.683	yaw:	-5.196	yaw rate:	-59.419	Roll:	-7.179	Pitch:	-7.691	Yaw:	1.414	Thrust:	52.094
Time:	1.482	Roll Set Point:	-0.038	Pitch Set Point:	0.773	Yaw Set Point:	0.031	X_WP:	0.062	Y_WP:	1.239	Y_WP:	0.750	X:	0.035	Y:	0.233	Z:	0.694	yaw:	-1.768	yaw rate:	-342.742	Roll:	-30.000	Pitch:	-8.648	Yaw:	42.322	Thrust:	63.429
Time:	1.502	Roll Set Point:	-0.004	Pitch Set Point:	0.716	Yaw Set Point:	-0.013	X_WP:	0.062	Y_WP:	1.239	Y_WP:	0.750	X:	0.040	Y:	0.262	Z:	0.704	yaw:	0.734	yaw rate:	-250.209	Roll:	-30.000	Pitch:	-4.812	Yaw:	33.955	Thrust:	63.070
Time:	1.522	Roll Set Point:	0.012	Pitch Set Point:	0.655	Yaw Set Point:	-0.039	X_WP:	0.062	Y_WP:	1.239	Y_WP:	0.750	X:	0.044	Y:	0.291	Z:	0.715	yaw:	2.260	yaw rate:	-152.638	Roll:	-19.229	Pitch:	-2.216	Yaw:	22.904	Thrust:	62.993
Time:	1.543	Roll Set Point:	0.003	Pitch Set Point:	0.596	Yaw Set Point:	-0.041	X_WP:	0.062	Y_WP:	1.239	Y_WP:	0.750	X:	0.048	Y:	0.321	Z:	0.727	yaw:	2.347	yaw rate:	-8.648	Roll:	2.009	Pitch:	-2.789	Yaw:	4.231	Thrust:	63.812
Time:	1.561	Roll Set Point:	-0.026	Pitch Set Point:	0.536	Yaw Set Point:	-0.020	X_WP:	0.062	Y_WP:	1.239	Y_WP:	0.750	X:	0.053	Y:	0.352	Z:	0.739	yaw:	1.125	yaw rate:	122.225	Roll:	21.874	Pitch:	0.300	Yaw:	-15.661	Thrust:	52.201
Time:	1.581	Roll Set Point:	-0.040	Pitch Set Point:	0.473	Yaw Set Point:	-0.015	X_WP:	0.062	Y_WP:	1.239	Y_WP:	0.750	X:	0.058	Y:	0.383	Z:	0.750	yaw:	0.845	yaw rate:	27.922	Roll:	7.409	Pitch:	1.079	Yaw:	-2.581	Thrust:	59.041
Time:	1.601	Roll Set Point:	-0.086	Pitch Set Point:	0.410	Yaw Set Point:	0.030	X_WP:	0.062	Y_WP:	1.239	Y_WP:	0.750	X:	0.062	Y:	0.415	Z:	0.762	yaw:	-1.692	yaw rate:	253.780	Roll:	30.000	Pitch:	2.087	Yaw:	-35.514	Thrust:	58.792
Time:	1.622	Roll Set Point:	-0.105	Pitch Set Point:	0.344	Yaw Set Point:	0.042	X_WP:	0.062	Y_WP:	1.239	Y_WP:	0.750	X:	0.067	Y:	0.447	Z:	0.774	yaw:	-2.422	yaw rate:	72.917	Roll:	12.798	Pitch:	4.074	Yaw:	-12.891	Thrust:	58.982
Time:	1.644	Roll Set Point:	-0.123	Pitch Set Point:	0.277	Yaw Set Point:	0.052	X_WP:	0.062	Y_WP:	1.239	Y_WP:	0.750	X:	0.073	Y:	0.480	Z:	0.786	yaw:	-2.998	yaw rate:	57.603	Roll:	11.271	Pitch:	4.283	Yaw:	-11.446	Thrust:	62.653
Time:	1.662	Roll Set Point:	-0.127	Pitch Set Point:	0.209	Yaw Set Point:	0.044	X_WP:	0.062	Y_WP:	1.239	Y_WP:	0.750	X:	0.079	Y:	0.515	Z:	0.798	yaw:	-2.533	yaw rate:	-46.426	Roll:	-0.409	Pitch:	11.266	Yaw:	3.211	Thrust:	41.758
Time:	1.681	Roll Set Point:	-0.141	Pitch Set Point:	0.141	Yaw Set Point:	0.048	X_WP:	0.062	Y_WP:	1.239	Y_WP:	0.750	X:	0.085	Y:	0.548	Z:	0.811	yaw:	-2.756	yaw rate:	22.299	Roll:	8.016	Pitch:	7.188	Yaw:	-6.854	Thrust:	57.400
Time:	1.701	Roll Set Point:	-0.151	Pitch Set Point:	0.073	Yaw Set Point:	0.046	X_WP:	0.062	Y_WP:	1.239	Y_WP:	0.750	X:	0.092	Y:	0.582	Z:	0.824	yaw:	-2.644	yaw rate:	-11.241	Roll:	4.729	Pitch:	9.844	Yaw:	-2.381	Thrust:	49.851
Time:	1.721	Roll Set Point:	-0.146	Pitch Set Point:	0.005	Yaw Set Point:	0.022	X_WP:	0.062	Y_WP:	1.239	Y_WP:	0.750	X:	0.097	Y:	0.617	Z:	0.836	yaw:	-1.256	yaw rate:	-138.764	Roll:	-7.792	Pitch:	9.723	Yaw:	16.139	Thrust:	51.537
Time:	1.743	Roll Set Point:	-0.157	Pitch Set Point:	-0.062	Yaw Set Point:	0.021	X_WP:	0.062	Y_WP:	1.239	Y_WP:	0.750	X:	0.103	Y:	0.650	Z:	0.849	yaw:	-1.220	yaw rate:	-3.678	Roll:	5.383	Pitch:	8.762	Yaw:	-1.511	Thrust:	58.987
Time:	1.762	Roll Set Point:	-0.165	Pitch Set Point:	-0.128	Yaw Set Point:	0.017	X_WP:	0.062	Y_WP:	1.239	Y_WP:	0.750	X:	0.109	Y:	0.683	Z:	0.862	yaw:	-0.946	yaw rate:	-27.348	Roll:	3.855	Pitch:	13.660	Yaw:	2.281	Thrust:	39.335
Time:	1.782	Roll Set Point:	-0.149	Pitch Set Point:	-0.194	Yaw Set Point:	-0.032	X_WP:	0.062	Y_WP:	1.239	Y_WP:	0.750	X:	0.114	Y:	0.717	Z:	0.872	yaw:	1.811	yaw rate:	-275.686	Roll:	-16.041	Pitch:	9.637	Yaw:	38.203	Thrust:	58.888
Time:	1.802	Roll Set Point:	-0.189	Pitch Set Point:	-0.260	Yaw Set Point:	0.027	X_WP:	0.062	Y_WP:	1.239	Y_WP:	0.750	X:	0.119	Y:	0.749	Z:	0.885	yaw:	-1.546	yaw rate:	335.698	Roll:	30.000	Pitch:	15.891	Yaw:	-46.149	Thrust:	48.577
Time:	1.821	Roll Set Point:	-0.200	Pitch Set Point:	-0.323	Yaw Set Point:	0.031	X_WP:	0.062	Y_WP:	1.239	Y_WP:	0.750	X:	0.124	Y:	0.780	Z:	0.897	yaw:	-1.791	yaw rate:	24.435	Roll:	7.371	Pitch:	13.019	Yaw:	-6.087	Thrust:	43.553
Time:	1.843	Roll Set Point:	-0.208	Pitch Set Point:	-0.386	Yaw Set Point:	0.032	X_WP:	0.062	Y_WP:	1.239	Y_WP:	0.750	X:	0.129	Y:	0.811	Z:	0.908	yaw:	-1.815	yaw rate:	2.467	Roll:	5.304	Pitch:	11.719	Yaw:	-3.104	Thrust:	57.336
Time:	1.862	Roll Set Point:	-0.216	Pitch Set Point:	-0.448	Yaw Set Point:	0.032	X_WP:	0.062	Y_WP:	1.239	Y_WP:	0.750	X:	0.133	Y:	0.842	Z:	0.919	yaw:	-1.849	yaw rate:	3.403	Roll:	5.645	Pitch:	16.075	Yaw:	-3.303	Thrust:	41.935
Time:	1.882	Roll Set Point:	-0.228	Pitch Set Point:	-0.508	Yaw Set Point:	0.041	X_WP:	0.062	Y_WP:	1.239	Y_WP:	0.750	X:	0.138	Y:	0.872	Z:	0.930	yaw:	-2.349	yaw rate:	49.931	Roll:	8.461	Pitch:	14.100	Yaw:	-9.930	Thrust:	50.474
Time:	1.902	Roll Set Point:	-0.233	Pitch Set Point:	-0.568	Yaw Set Point:	0.037	X_WP:	0.062	Y_WP:	1.239	Y_WP:	0.750	X:	0.142	Y:	0.902	Z:	0.940	yaw:	-2.093	yaw rate:	-25.586	Roll:	3.637	Pitch:	15.734	Yaw:	0.296	Thrust:	43.706
Time:	1.922	Roll Set Point:	-0.247	Pitch Set Point:	-0.626	Yaw Set Point:	0.057	X_WP:	0.062	Y_WP:	1.239	Y_WP:	0.750	X:	0.146	Y:	0.930	Z:	0.951	yaw:	-3.266	yaw rate:	117.351	Roll:	10.772	Pitch:	15.019	Yaw:	-19.519	Thrust:	51.703
Time:	1.944	Roll Set Point:	-0.248	Pitch Set Point:	-0.681	Yaw Set Point:	0.038	X_WP:	0.062	Y_WP:	1.239	Y_WP:	0.750	X:	0.150	Y:	0.958	Z:	0.960	yaw:	-2.169	yaw rate:	-109.744	Roll:	0.212	Pitch:	12.334	Yaw:	10.252	Thrust:	54.159
Time:	1.961	Roll Set Point:	-0.256	Pitch Set Point:	-0.734	Yaw Set Point:	0.046	X_WP:	0.062	Y_WP:	1.239	Y_WP:	0.750	X:	0.154	Y:	0.985	Z:	0.969	yaw:	-2.614	yaw rate:	44.477	Roll:	7.522	Pitch:	17.571	Yaw:	-10.363	Thrust:	39.709
Time:	1.982	Roll Set Point:	-0.315	Pitch Set Point:	-0.823	Yaw Set Point:	0.331	X_WP:	0.062	Y_WP:	1.239	Y_WP:	0.750	X:	0.154	Y:	1.010	Z:	0.984	yaw:	-18.982	yaw rate:	1636.865	Roll:	30.000	Pitch:	30.000	Yaw:	-240.969	Thrust:	33.198
Time:	2.002	Roll Set Point:	-0.312	Pitch Set Point:	-0.872	Yaw Set Point:	0.328	X_WP:	0.062	Y_WP:	1.239	Y_WP:	0.750	X:	0.157	Y:	1.035	Z:	0.992	yaw:	-18.806	yaw rate:	-17.618	Roll:	-0.426	Pitch:	14.180	Yaw:	-24.531	Thrust:	50.149
Time:	2.022	Roll Set Point:	-0.312	Pitch Set Point:	-0.923	Yaw Set Point:	0.352	X_WP:	0.062	Y_WP:	1.239	Y_WP:	0.750	X:	0.159	Y:	1.059	Z:	1.000	yaw:	-20.140	yaw rate:	133.402	Roll:	2.439	Pitch:	18.872	Yaw:	-46.528	Thrust:	45.941
Time:	2.043	Roll Set Point:	-0.309	Pitch Set Point:	-0.970	Yaw Set Point:	0.363	X_WP:	0.062	Y_WP:	1.239	Y_WP:	0.750	X:	0.161	Y:	1.082	Z:	1.007	yaw:	-20.811	yaw rate:	67.094	Roll:	0.483	Pitch:	15.337	Yaw:	-38.195	Thrust:	53.553
Time:	2.068	Roll Set Point:	-0.277	Pitch Set Point:	-0.977	Yaw Set Point:	0.056	X_WP:	0.062	Y_WP:	1.239	Y_WP:	0.750	X:	0.166	Y:	1.105	Z:	1.007	yaw:	-3.195	yaw rate:	-1761.570	Roll:	-21.467	Pitch:	-15.502	Yaw:	178.128	Thrust:	83.125
Time:	2.082	Roll Set Point:	-0.274	Pitch Set Point:	-1.016	Yaw Set Point:	0.013	X_WP:	0.062	Y_WP:	1.239	Y_WP:	0.750	X:	0.167	Y:	1.127	Z:	1.012	yaw:	-0.759	yaw rate:	-243.577	Roll:	-2.268	Pitch:	15.936	Yaw:	42.094	Thrust:	26.082
Time:	2.102	Roll Set Point:	-0.274	Pitch Set Point:	-1.055	Yaw Set Point:	0.003	X_WP:	0.062	Y_WP:	1.239	Y_WP:	0.750	X:	0.168	Y:	1.147	Z:	1.016	yaw:	-0.165	yaw rate:	-59.401	Roll:	2.816	Pitch:	13.747	Yaw:	6.561	Thrust:	47.350
Time:	2.122	Roll Set Point:	-0.274	Pitch Set Point:	-1.092	Yaw Set Point:	-0.013	X_WP:	0.062	Y_WP:	1.239	Y_WP:	0.750	X:	0.169	Y:	1.166	Z:	1.021	yaw:	0.757	yaw rate:	-92.272	Roll:	2.406	Pitch:	11.083	Yaw:	12.154	Thrust:	55.745
Time:	2.142	Roll Set Point:	-0.275	Pitch Set Point:	-1.126	Yaw Set Point:	-0.018	X_WP:	0.062	Y_WP:	1.239	Y_WP:	0.750	X:	0.169	Y:	1.183	Z:	1.025	yaw:	1.022	yaw rate:	-26.425	Roll:	3.544	Pitch:	12.397	Yaw:	4.138	Thrust:	46.293
Time:	2.163	Roll Set Point:	-0.274	Pitch Set Point:	-1.158	Yaw Set Point:	-0.036	X_WP:	0.062	Y_WP:	1.239	Y_WP:	0.750	X:	0.169	Y:	1.200	Z:	1.027	yaw:	2.065	yaw rate:	-104.364	Roll:	2.473	Pitch:	10.770	Yaw:	15.440	Thrust:	54.779
Time:	2.182	Roll Set Point:	-0.274	Pitch Set Point:	-1.189	Yaw Set Point:	-0.038	X_WP:	0.062	Y_WP:	1.239	Y_WP:	0.750	X:	0.168	Y:	1.216	Z:	1.030	yaw:	2.165	yaw rate:	-10.015	Roll:	3.325	Pitch:	11.636	Yaw:	3.359	Thrust:	53.133
Time:	2.202	Roll Set Point:	-0.274	Pitch Set Point:	-1.220	Yaw Set Point:	-0.016	X_WP:	0.062	Y_WP:	1.239	Y_WP:	0.750	X:	0.168	Y:	1.231	Z:	1.032	yaw:	0.921	yaw rate:	124.444	Roll:	3.586	Pitch:	13.482	Yaw:	-16.528	Thrust:	52.489
Time:	2.222	Roll Set Point:	-0.273	Pitch Set Point:	-1.248	Yaw Set Point:	-0.020	X_WP:	0.062	Y_WP:	1.239	Y_WP:	0.750	X:	0.168	Y:	1.245	Z:	1.032	yaw:	1.139	yaw rate:	-21.833	Roll:	2.768	Pitch:	11.438	Yaw:	3.694	Thrust:	52.465
Time:	2.243	Roll Set Point:	-0.272	Pitch Set Point:	-1.273	Yaw Set Point:	-0.024	X_WP:	0.062	Y_WP:	1.239	Y_WP:	0.750	X:	0.167	Y:	1.257	Z:	1.033	yaw:	1.364	yaw rate:	-22.479	Roll:	3.055	Pitch:	9.112	Yaw:	3.627	Thrust:	62.002
Time:	2.261	Roll Set Point:	-0.271	Pitch Set Point:	-1.297	Yaw Set Point:	-0.026	X_WP:	0.062	Y_WP:	1.239	Y_WP:	0.750	X:	0.166	Y:	1.270	Z:	1.032	yaw:	1.493	yaw rate:	-12.858	Roll:	2.510	Pitch:	10.932	Yaw:	3.061	Thrust:	51.553
Time:	2.282	Roll Set Point:	-0.269	Pitch Set Point:	-1.318	Yaw Set Point:	-0.037	X_WP:	0.062	Y_WP:	1.239	Y_WP:	0.750	X:	0.165	Y:	1.281	Z:	1.032	yaw:	2.124	yaw rate:	-63.115	Roll:	2.696	Pitch:	9.062	Yaw:	10.284	Thrust:	54.997
Time:	2.302	Roll Set Point:	-0.267	Pitch Set Point:	-1.338	Yaw Set Point:	-0.033	X_WP:	0.062	Y_WP:	1.239	Y_WP:	0.750	X:	0.164	Y:	1.290	Z:	1.031	yaw:	1.904	yaw rate:	22.012	Roll:	2.275	Pitch:	9.077	Yaw:	-1.074	Thrust:	57.188
Time:	2.322	Roll Set Point:	-0.264	Pitch Set Point:	-1.356	Yaw Set Point:	-0.038	X_WP:	0.062	Y_WP:	1.239	Y_WP:	0.750	X:	0.162	Y:	1.300	Z:	1.030	yaw:	2.189	yaw rate:	-28.510	Roll:	2.213	Pitch:	8.310	Yaw:	5.926	Thrust:	56.334
Time:	2.344	Roll Set Point:	-0.262	Pitch Set Point:	-1.372	Yaw Set Point:	-0.048	X_WP:	0.062	Y_WP:	1.239	Y_WP:	0.750	X:	0.161	Y:	1.308	Z:	1.029	yaw:	2.724	yaw rate:	-53.511	Roll:	2.491	Pitch:	6.876	Yaw:	9.358	Thrust:	61.463
Time:	2.361	Roll Set Point:	-0.256	Pitch Set Point:	-1.389	Yaw Set Point:	-0.016	X_WP:	0.062	Y_WP:	1.239	Y_WP:	0.750	X:	0.159	Y:	1.315	Z:	1.028	yaw:	0.920	yaw rate:	180.374	Roll:	-0.533	Pitch:	11.056	Yaw:	-26.098	Thrust:	47.610
Time:	2.382	Roll Set Point:	-0.255	Pitch Set Point:	-1.400	Yaw Set Point:	-0.036	X_WP:	0.062	Y_WP:	1.239	Y_WP:	0.750	X:	0.157	Y:	1.321	Z:	1.025	yaw:	2.085	yaw rate:	-116.453	Roll:	3.232	Pitch:	5.391	Yaw:	16.837	Thrust:	58.713
Time:	2.402	Roll Set Point:	-0.250	Pitch Set Point:	-1.413	Yaw Set Point:	-0.035	X_WP:	0.062	Y_WP:	1.239	Y_WP:	0.750	X:	0.155	Y:	1.328	Z:	1.024	yaw:	2.019	yaw rate:	6.568	Roll:	0.652	Pitch:	6.981	Yaw:	1.179	Thrust:	57.202
Time:	2.422	Roll Set Point:	-0.248	Pitch Set Point:	-1.420	Yaw Set Point:	-0.062	X_WP:	0.062	Y_WP:	1.239	Y_WP:	0.750	X:	0.152	Y:	1.333	Z:	1.022	yaw:	3.540	yaw rate:	-152.132	Roll:	3.126	Pitch:	4.090	Yaw:	24.852	Thrust:	52.657
Time:	2.443	Roll Set Point:	-0.242	Pitch Set Point:	-1.430	Yaw Set Point:	-0.037	X_WP:	0.062	Y_WP:	1.239	Y_WP:	0.750	X:	0.150	Y:	1.336	Z:	1.020	yaw:	2.095	yaw rate:	144.522	Roll:	-0.832	Pitch:	7.082	Yaw:	-15.666	Thrust:	57.078
Time:	2.461	Roll Set Point:	-0.235	Pitch Set Point:	-1.438	Yaw Set Point:	-0.018	X_WP:	0.062	Y_WP:	1.239	Y_WP:	0.750	X:	0.148	Y:	1.340	Z:	1.019	yaw:	1.038	yaw rate:	105.673	Roll:	-0.865	Pitch:	6.583	Yaw:	-14.321	Thrust:	48.603
Time:	2.482	Roll Set Point:	-0.220	Pitch Set Point:	-1.450	Yaw Set Point:	0.079	X_WP:	0.062	Y_WP:	1.239	Y_WP:	0.750	X:	0.145	Y:	1.341	Z:	1.019	yaw:	-4.506	yaw rate:	554.474	Roll:	-8.059	Pitch:	10.270	Yaw:	-77.677	Thrust:	50.600
Time:	2.502	Roll Set Point:	-0.213	Pitch Set Point:	-1.455	Yaw Set Point:	0.085	X_WP:	0.062	Y_WP:	1.239	Y_WP:	0.750	X:	0.143	Y:	1.344	Z:	1.016	yaw:	-4.882	yaw rate:	37.545	Roll:	-1.078	Pitch:	4.817	Yaw:	-12.345	Thrust:	53.509
Time:	2.522	Roll Set Point:	-0.220	Pitch Set Point:	-1.452	Yaw Set Point:	-0.022	X_WP:	0.062	Y_WP:	1.239	Y_WP:	0.750	X:	0.140	Y:	1.347	Z:	1.011	yaw:	1.246	yaw rate:	-612.809	Roll:	10.126	Pitch:	-2.106	Yaw:	82.840	Thrust:	61.059
Time:	2.542	Roll Set Point:	-0.214	Pitch Set Point:	-1.455	Yaw Set Point:	-0.016	X_WP:	0.062	Y_WP:	1.239	Y_WP:	0.750	X:	0.137	Y:	1.348	Z:	1.007	yaw:	0.893	yaw rate:	35.323	Roll:	-0.460	Pitch:	3.962	Yaw:	-4.240	Thrust:	54.230
Time:	2.563	Roll Set Point:	-0.216	Pitch Set Point:	-1.452	Yaw Set Point:	-0.079	X_WP:	0.062	Y_WP:	1.239	Y_WP:	0.750	X:	0.135	Y:	1.349	Z:	1.003	yaw:	4.528	yaw rate:	-363.497	Roll:	6.386	Pitch:	-1.096	Yaw:	53.257	Thrust:	56.205
Time:	2.583	Roll Set Point:	-0.214	Pitch Set Point:	-1.451	Yaw Set Point:	-0.111	X_WP:	0.062	Y_WP:	1.239	Y_WP:	0.750	X:	0.132	Y:	1.349	Z:	0.999	yaw:	6.366	yaw rate:	-183.853	Roll:	2.870	Pitch:	0.839	Yaw:	30.946	Thrust:	57.220
Time:	2.602	Roll Set Point:	-0.187	Pitch Set Point:	-1.460	Yaw Set Point:	0.082	X_WP:	0.062	Y_WP:	1.239	Y_WP:	0.750	X:	0.129	Y:	1.347	Z:	0.999	yaw:	-4.699	yaw rate:	1106.509	Roll:	-19.278	Pitch:	12.615	Yaw:	-154.839	Thrust:	43.724
Time:	2.622	Roll Set Point:	-0.201	Pitch Set Point:	-1.450	Yaw Set Point:	-0.100	X_WP:	0.062	Y_WP:	1.239	Y_WP:	0.750	X:	0.126	Y:	1.348	Z:	0.992	yaw:	5.733	yaw rate:	-1043.208	Roll:	16.115	Pitch:	-6.629	Yaw:	147.500	Thrust:	63.662
Time:	2.643	Roll Set Point:	-0.193	Pitch Set Point:	-1.450	Yaw Set Point:	-0.078	X_WP:	0.062	Y_WP:	1.239	Y_WP:	0.750	X:	0.123	Y:	1.347	Z:	0.988	yaw:	4.451	yaw rate:	128.229	Roll:	-2.074	Pitch:	2.891	Yaw:	-10.256	Thrust:	58.319
Time:	2.663	Roll Set Point:	-0.192	Pitch Set Point:	-1.444	Yaw Set Point:	-0.116	X_WP:	0.062	Y_WP:	1.239	Y_WP:	0.750	X:	0.121	Y:	1.346	Z:	0.984	yaw:	6.636	yaw rate:	-218.529	Roll:	3.482	Pitch:	-1.485	Yaw:	39.652	Thrust:	51.351
Time:	2.682	Roll Set Point:	-0.190	Pitch Set Point:	-1.439	Yaw Set Point:	-0.115	X_WP:	0.062	Y_WP:	1.239	Y_WP:	0.750	X:	0.120	Y:	1.343	Z:	0.978	yaw:	6.576	yaw rate:	6.075	Roll:	1.148	Pitch:	-0.181	Yaw:	7.777	Thrust:	56.458
Time:	2.701	Roll Set Point:	-0.183	Pitch Set Point:	-1.436	Yaw Set Point:	-0.113	X_WP:	0.062	Y_WP:	1.239	Y_WP:	0.750	X:	0.117	Y:	1.341	Z:	0.973	yaw:	6.461	yaw rate:	11.458	Roll:	-0.876	Pitch:	1.055	Yaw:	6.940	Thrust:	55.827
Time:	2.721	Roll Set Point:	-0.175	Pitch Set Point:	-1.432	Yaw Set Point:	-0.083	X_WP:	0.062	Y_WP:	1.239	Y_WP:	0.750	X:	0.115	Y:	1.338	Z:	0.969	yaw:	4.735	yaw rate:	172.573	Roll:	-2.871	Pitch:	1.437	Yaw:	-17.047	Thrust:	53.701
Time:	2.744	Roll Set Point:	-0.174	Pitch Set Point:	-1.425	Yaw Set Point:	-0.113	X_WP:	0.062	Y_WP:	1.239	Y_WP:	0.750	X:	0.113	Y:	1.335	Z:	0.965	yaw:	6.448	yaw rate:	-171.311	Roll:	2.587	Pitch:	-1.550	Yaw:	28.053	Thrust:	59.710
Time:	2.761	Roll Set Point:	-0.169	Pitch Set Point:	-1.419	Yaw Set Point:	-0.110	X_WP:	0.062	Y_WP:	1.239	Y_WP:	0.750	X:	0.111	Y:	1.332	Z:	0.961	yaw:	6.292	yaw rate:	15.658	Roll:	-0.786	Pitch:	-0.417	Yaw:	6.077	Thrust:	48.245
Time:	2.782	Roll Set Point:	-0.164	Pitch Set Point:	-1.415	Yaw Set Point:	-0.122	X_WP:	0.062	Y_WP:	1.239	Y_WP:	0.750	X:	0.108	Y:	1.330	Z:	0.956	yaw:	7.003	yaw rate:	-71.106	Roll:	-0.124	Pitch:	-0.338	Yaw:	18.757	Thrust:	53.269
Time:	2.802	Roll Set Point:	-0.147	Pitch Set Point:	-1.412	Yaw Set Point:	0.023	X_WP:	0.062	Y_WP:	1.239	Y_WP:	0.750	X:	0.106	Y:	1.325	Z:	0.955	yaw:	-1.323	yaw rate:	832.604	Roll:	-10.735	Pitch:	3.571	Yaw:	-109.010	Thrust:	46.642
Time:	2.822	Roll Set Point:	-0.156	Pitch Set Point:	-1.401	Yaw Set Point:	-0.120	X_WP:	0.062	Y_WP:	1.239	Y_WP:	0.750	X:	0.104	Y:	1.323	Z:	0.947	yaw:	6.876	yaw rate:	-819.863	Roll:	10.247	Pitch:	-5.711	Yaw:	116.983	Thrust:	61.793
Time:	2.843	Roll Set Point:	-0.152	Pitch Set Point:	-1.394	Yaw Set Point:	-0.127	X_WP:	0.062	Y_WP:	1.239	Y_WP:	0.750	X:	0.102	Y:	1.319	Z:	0.942	yaw:	7.287	yaw rate:	-41.113	Roll:	0.055	Pitch:	-1.409	Yaw:	14.958	Thrust:	55.945
Time:	2.861	Roll Set Point:	-0.146	Pitch Set Point:	-1.387	Yaw Set Point:	-0.106	X_WP:	0.062	Y_WP:	1.239	Y_WP:	0.750	X:	0.100	Y:	1.315	Z:	0.938	yaw:	6.084	yaw rate:	120.296	Roll:	-2.176	Pitch:	-1.071	Yaw:	-9.139	Thrust:	48.505
Time:	2.882	Roll Set Point:	-0.140	Pitch Set Point:	-1.380	Yaw Set Point:	-0.094	X_WP:	0.062	Y_WP:	1.239	Y_WP:	0.750	X:	0.098	Y:	1.312	Z:	0.933	yaw:	5.367	yaw rate:	71.700	Roll:	-1.172	Pitch:	-1.129	Yaw:	-1.647	Thrust:	55.879
Time:	2.902	Roll Set Point:	-0.137	Pitch Set Point:	-1.373	Yaw Set Point:	-0.105	X_WP:	0.062	Y_WP:	1.239	Y_WP:	0.750	X:	0.096	Y:	1.308	Z:	0.928	yaw:	6.005	yaw rate:	-63.833	Roll:	-0.017	Pitch:	-1.762	Yaw:	16.697	Thrust:	53.770
Time:	2.921	Roll Set Point:	-0.132	Pitch Set Point:	-1.366	Yaw Set Point:	-0.096	X_WP:	0.062	Y_WP:	1.239	Y_WP:	0.750	X:	0.094	Y:	1.304	Z:	0.923	yaw:	5.473	yaw rate:	53.247	Roll:	-1.130	Pitch:	-1.866	Yaw:	0.272	Thrust:	52.038
Time:	2.944	Roll Set Point:	-0.127	Pitch Set Point:	-1.359	Yaw Set Point:	-0.088	X_WP:	0.062	Y_WP:	1.239	Y_WP:	0.750	X:	0.092	Y:	1.301	Z:	0.917	yaw:	5.027	yaw rate:	44.589	Roll:	-1.094	Pitch:	-1.385	Yaw:	1.676	Thrust:	57.914
Time:	2.963	Roll Set Point:	-0.123	Pitch Set Point:	-1.352	Yaw Set Point:	-0.102	X_WP:	0.062	Y_WP:	1.239	Y_WP:	0.750	X:	0.090	Y:	1.297	Z:	0.911	yaw:	5.864	yaw rate:	-83.745	Roll:	-0.358	Pitch:	-2.062	Yaw:	19.933	Thrust:	54.525
Time:	2.982	Roll Set Point:	-0.118	Pitch Set Point:	-1.345	Yaw Set Point:	-0.071	X_WP:	0.062	Y_WP:	1.239	Y_WP:	0.750	X:	0.088	Y:	1.293	Z:	0.906	yaw:	4.089	yaw rate:	177.515	Roll:	-2.140	Pitch:	-1.567	Yaw:	-17.486	Thrust:	53.407
Time:	3.002	Roll Set Point:	-0.113	Pitch Set Point:	-1.339	Yaw Set Point:	-0.069	X_WP:	0.062	Y_WP:	1.239	Y_WP:	0.750	X:	0.086	Y:	1.290	Z:	0.900	yaw:	3.978	yaw rate:	11.071	Roll:	-1.005	Pitch:	-1.845	Yaw:	4.127	Thrust:	56.648
Time:	3.022	Roll Set Point:	-0.109	Pitch Set Point:	-1.332	Yaw Set Point:	-0.071	X_WP:	0.062	Y_WP:	1.239	Y_WP:	0.750	X:	0.084	Y:	1.287	Z:	0.893	yaw:	4.066	yaw rate:	-8.753	Roll:	-0.957	Pitch:	-2.053	Yaw:	6.878	Thrust:	55.893
Time:	3.042	Roll Set Point:	-0.105	Pitch Set Point:	-1.326	Yaw Set Point:	-0.068	X_WP:	0.062	Y_WP:	1.239	Y_WP:	0.750	X:	0.082	Y:	1.283	Z:	0.887	yaw:	3.912	yaw rate:	15.428	Roll:	-0.990	Pitch:	-1.904	Yaw:	3.517	Thrust:	55.968
Time:	3.061	Roll Set Point:	-0.101	Pitch Set Point:	-1.320	Yaw Set Point:	-0.068	X_WP:	0.062	Y_WP:	1.239	Y_WP:	0.750	X:	0.080	Y:	1.280	Z:	0.880	yaw:	3.876	yaw rate:	3.573	Roll:	-1.010	Pitch:	-2.089	Yaw:	5.020	Thrust:	56.209
Time:	3.082	Roll Set Point:	-0.096	Pitch Set Point:	-1.315	Yaw Set Point:	-0.064	X_WP:	0.062	Y_WP:	1.239	Y_WP:	0.750	X:	0.078	Y:	1.277	Z:	0.873	yaw:	3.677	yaw rate:	19.913	Roll:	-1.314	Pitch:	-1.660	Yaw:	2.730	Thrust:	58.971
Time:	3.101	Roll Set Point:	-0.093	Pitch Set Point:	-1.309	Yaw Set Point:	-0.069	X_WP:	0.062	Y_WP:	1.239	Y_WP:	0.750	X:	0.076	Y:	1.275	Z:	0.866	yaw:	3.941	yaw rate:	-26.474	Roll:	-0.814	Pitch:	-2.027	Yaw:	9.201	Thrust:	57.736
Time:	3.122	Roll Set Point:	-0.088	Pitch Set Point:	-1.304	Yaw Set Point:	-0.056	X_WP:	0.062	Y_WP:	1.239	Y_WP:	0.750	X:	0.074	Y:	1.272	Z:	0.859	yaw:	3.228	yaw rate:	71.319	Roll:	-1.621	Pitch:	-1.673	Yaw:	-4.412	Thrust:	58.619
Time:	3.143	Roll Set Point:	-0.085	Pitch Set Point:	-1.299	Yaw Set Point:	-0.063	X_WP:	0.062	Y_WP:	1.239	Y_WP:	0.750	X:	0.073	Y:	1.269	Z:	0.852	yaw:	3.615	yaw rate:	-38.653	Roll:	-0.853	Pitch:	-1.751	Yaw:	10.290	Thrust:	59.259
Time:	3.162	Roll Set Point:	-0.081	Pitch Set Point:	-1.294	Yaw Set Point:	-0.050	X_WP:	0.062	Y_WP:	1.239	Y_WP:	0.750	X:	0.071	Y:	1.267	Z:	0.844	yaw:	2.889	yaw rate:	72.545	Roll:	-1.536	Pitch:	-1.654	Yaw:	-5.498	Thrust:	57.924
Time:	3.182	Roll Set Point:	-0.076	Pitch Set Point:	-1.291	Yaw Set Point:	-0.036	X_WP:	0.062	Y_WP:	1.239	Y_WP:	0.750	X:	0.069	Y:	1.265	Z:	0.837	yaw:	2.060	yaw rate:	82.978	Roll:	-1.742	Pitch:	-1.369	Yaw:	-7.715	Thrust:	60.496
Time:	3.202	Roll Set Point:	-0.073	Pitch Set Point:	-1.286	Yaw Set Point:	-0.043	X_WP:	0.062	Y_WP:	1.239	Y_WP:	0.750	X:	0.067	Y:	1.263	Z:	0.830	yaw:	2.466	yaw rate:	-40.671	Roll:	-0.650	Pitch:	-1.819	Yaw:	8.877	Thrust:	59.615
Time:	3.222	Roll Set Point:	-0.070	Pitch Set Point:	-1.282	Yaw Set Point:	-0.035	X_WP:	0.062	Y_WP:	1.239	Y_WP:	0.750	X:	0.066	Y:	1.261	Z:	0.822	yaw:	1.992	yaw rate:	47.452	Roll:	-1.342	Pitch:	-1.659	Yaw:	-3.135	Thrust:	59.961
Time:	3.244	Roll Set Point:	-0.067	Pitch Set Point:	-1.279	Yaw Set Point:	-0.039	X_WP:	0.062	Y_WP:	1.239	Y_WP:	0.750	X:	0.064	Y:	1.259	Z:	0.815	yaw:	2.247	yaw rate:	-25.573	Roll:	-0.781	Pitch:	-1.232	Yaw:	6.614	Thrust:	62.196
Time:	3.262	Roll Set Point:	-0.063	Pitch Set Point:	-1.276	Yaw Set Point:	-0.039	X_WP:	0.062	Y_WP:	1.239	Y_WP:	0.750	X:	0.063	Y:	1.258	Z:	0.807	yaw:	2.250	yaw rate:	-0.290	Roll:	-1.395	Pitch:	-1.304	Yaw:	3.462	Thrust:	57.110
Time:	3.282	Roll Set Point:	-0.060	Pitch Set Point:	-1.273	Yaw Set Point:	-0.028	X_WP:	0.062	Y_WP:	1.239	Y_WP:	0.750	X:	0.061	Y:	1.256	Z:	0.800	yaw:	1.608	yaw rate:	64.283	Roll:	-1.146	Pitch:	-1.199	Yaw:	-5.832	Thrust:	61.595
Time:	3.302	Roll Set Point:	-0.057	Pitch Set Point:	-1.271	Yaw Set Point:	-0.029	X_WP:	0.062	Y_WP:	1.239	Y_WP:	0.750	X:	0.060	Y:	1.255	Z:	0.793	yaw:	1.679	yaw rate:	-7.123	Roll:	-1.086	Pitch:	-1.122	Yaw:	3.611	Thrust:	59.726
Time:	3.322	Roll Set Point:	-0.055	Pitch Set Point:	-1.269	Yaw Set Point:	-0.028	X_WP:	0.062	Y_WP:	1.239	Y_WP:	0.750	X:	0.058	Y:	1.254	Z:	0.786	yaw:	1.597	yaw rate:	8.167	Roll:	-1.092	Pitch:	-1.034	Yaw:	1.495	Thrust:	60.075
Time:	3.343	Roll Set Point:	-0.052	Pitch Set Point:	-1.268	Yaw Set Point:	-0.055	X_WP:	0.062	Y_WP:	1.239	Y_WP:	0.750	X:	0.057	Y:	1.253	Z:	0.779	yaw:	3.133	yaw rate:	-153.643	Roll:	-0.686	Pitch:	-0.505	Yaw:	23.789	Thrust:	61.963
Time:	3.362	Roll Set Point:	-0.050	Pitch Set Point:	-1.265	Yaw Set Point:	-0.023	X_WP:	0.062	Y_WP:	1.239	Y_WP:	0.750	X:	0.056	Y:	1.252	Z:	0.773	yaw:	1.325	yaw rate:	180.831	Roll:	-1.349	Pitch:	-1.344	Yaw:	-22.392	Thrust:	58.400
Time:	3.383	Roll Set Point:	-0.048	Pitch Set Point:	-1.264	Yaw Set Point:	-0.024	X_WP:	0.062	Y_WP:	1.239	Y_WP:	0.750	X:	0.055	Y:	1.252	Z:	0.766	yaw:	1.391	yaw rate:	-6.572	Roll:	-0.925	Pitch:	-0.733	Yaw:	3.179	Thrust:	60.073
Time:	3.401	Roll Set Point:	-0.045	Pitch Set Point:	-1.263	Yaw Set Point:	-0.018	X_WP:	0.062	Y_WP:	1.239	Y_WP:	0.750	X:	0.054	Y:	1.251	Z:	0.760	yaw:	1.017	yaw rate:	37.379	Roll:	-0.997	Pitch:	-0.673	Yaw:	-3.296	Thrust:	58.371
Time:	3.422	Roll Set Point:	-0.044	Pitch Set Point:	-1.262	Yaw Set Point:	-0.018	X_WP:	0.062	Y_WP:	1.239	Y_WP:	0.750	X:	0.053	Y:	1.251	Z:	0.754	yaw:	1.031	yaw rate:	-1.395	Roll:	-0.865	Pitch:	-0.472	Yaw:	2.013	Thrust:	58.761
Time:	3.442	Roll Set Point:	-0.042	Pitch Set Point:	-1.262	Yaw Set Point:	-0.023	X_WP:	0.062	Y_WP:	1.239	Y_WP:	0.750	X:	0.052	Y:	1.251	Z:	0.748	yaw:	1.322	yaw rate:	-29.117	Roll:	-0.759	Pitch:	-0.392	Yaw:	5.846	Thrust:	61.986
Time:	3.463	Roll Set Point:	-0.040	Pitch Set Point:	-1.262	Yaw Set Point:	-0.020	X_WP:	0.062	Y_WP:	1.239	Y_WP:	0.750	X:	0.051	Y:	1.250	Z:	0.742	yaw:	1.136	yaw rate:	18.662	Roll:	-0.840	Pitch:	-0.336	Yaw:	-0.553	Thrust:	57.980
Time:	3.482	Roll Set Point:	-0.039	Pitch Set Point:	-1.261	Yaw Set Point:	-0.021	X_WP:	0.062	Y_WP:	1.239	Y_WP:	0.750	X:	0.051	Y:	1.250	Z:	0.736	yaw:	1.206	yaw rate:	-7.039	Roll:	-0.636	Pitch:	-0.392	Yaw:	3.022	Thrust:	60.335
Time:	3.502	Roll Set Point:	-0.038	Pitch Set Point:	-1.262	Yaw Set Point:	-0.036	X_WP:	0.062	Y_WP:	1.239	Y_WP:	0.750	X:	0.050	Y:	1.251	Z:	0.731	yaw:	2.081	yaw rate:	-87.543	Roll:	-0.652	Pitch:	0.241	Yaw:	14.815	Thrust:	60.224
Time:	3.522	Roll Set Point:	-0.036	Pitch Set Point:	-1.262	Yaw Set Point:	-0.017	X_WP:	0.062	Y_WP:	1.239	Y_WP:	0.750	X:	0.049	Y:	1.250	Z:	0.726	yaw:	0.995	yaw rate:	108.652	Roll:	-0.681	Pitch:	-0.613	Yaw:	-12.158	Thrust:	59.419
Time:	3.543	Roll Set Point:	-0.035	Pitch Set Point:	-1.262	Yaw Set Point:	-0.014	X_WP:	0.062	Y_WP:	1.239	Y_WP:	0.750	X:	0.049	Y:	1.250	Z:	0.721	yaw:	0.799	yaw rate:	19.564	Roll:	-0.662	Pitch:	-0.198	Yaw:	-0.806	Thrust:	61.640
Time:	3.562	Roll Set Point:	-0.035	Pitch Set Point:	-1.262	Yaw Set Point:	-0.010	X_WP:	0.062	Y_WP:	1.239	Y_WP:	0.750	X:	0.048	Y:	1.251	Z:	0.716	yaw:	0.567	yaw rate:	23.225	Roll:	-0.565	Pitch:	0.022	Yaw:	-2.080	Thrust:	56.982
Time:	3.582	Roll Set Point:	-0.034	Pitch Set Point:	-1.263	Yaw Set Point:	-0.006	X_WP:	0.062	Y_WP:	1.239	Y_WP:	0.750	X:	0.048	Y:	1.251	Z:	0.711	yaw:	0.345	yaw rate:	22.231	Roll:	-0.512	Pitch:	-0.122	Yaw:	-1.953	Thrust:	59.857
Time:	3.602	Roll Set Point:	-0.034	Pitch Set Point:	-1.264	Yaw Set Point:	-0.029	X_WP:	0.062	Y_WP:	1.239	Y_WP:	0.750	X:	0.048	Y:	1.252	Z:	0.706	yaw:	1.645	yaw rate:	-130.044	Roll:	-0.200	Pitch:	0.602	Yaw:	19.894	Thrust:	60.410
Time:	3.622	Roll Set Point:	-0.033	Pitch Set Point:	-1.264	Yaw Set Point:	-0.007	X_WP:	0.062	Y_WP:	1.239	Y_WP:	0.750	X:	0.048	Y:	1.252	Z:	0.701	yaw:	0.400	yaw rate:	124.489	Roll:	-0.528	Pitch:	-0.383	Yaw:	-15.084	Thrust:	59.263
Time:	3.644	Roll Set Point:	-0.033	Pitch Set Point:	-1.265	Yaw Set Point:	-0.005	X_WP:	0.062	Y_WP:	1.239	Y_WP:	0.750	X:	0.048	Y:	1.252	Z:	0.697	yaw:	0.266	yaw rate:	13.469	Roll:	-0.289	Pitch:	0.114	Yaw:	-0.731	Thrust:	62.109
Time:	3.662	Roll Set Point:	-0.033	Pitch Set Point:	-1.266	Yaw Set Point:	-0.002	X_WP:	0.062	Y_WP:	1.239	Y_WP:	0.750	X:	0.048	Y:	1.252	Z:	0.692	yaw:	0.087	yaw rate:	17.859	Roll:	-0.320	Pitch:	0.126	Yaw:	-2.069	Thrust:	57.084
Time:	3.682	Roll Set Point:	-0.033	Pitch Set Point:	-1.267	Yaw Set Point:	-0.002	X_WP:	0.062	Y_WP:	1.239	Y_WP:	0.750	X:	0.048	Y:	1.253	Z:	0.688	yaw:	0.114	yaw rate:	-2.737	Roll:	-0.193	Pitch:	0.232	Yaw:	0.997	Thrust:	60.161
Time:	3.702	Roll Set Point:	-0.033	Pitch Set Point:	-1.268	Yaw Set Point:	-0.002	X_WP:	0.062	Y_WP:	1.239	Y_WP:	0.750	X:	0.048	Y:	1.253	Z:	0.684	yaw:	0.105	yaw rate:	0.930	Roll:	-0.135	Pitch:	0.285	Yaw:	0.526	Thrust:	61.381
Time:	3.721	Roll Set Point:	-0.029	Pitch Set Point:	-1.266	Yaw Set Point:	0.144	X_WP:	0.062	Y_WP:	1.239	Y_WP:	0.750	X:	0.046	Y:	1.254	Z:	0.685	yaw:	-8.251	yaw rate:	835.595	Roll:	-3.050	Pitch:	-1.981	Yaw:	-128.739	Thrust:	45.656
Time:	3.743	Roll Set Point:	-0.026	Pitch Set Point:	-1.269	Yaw Set Point:	0.159	X_WP:	0.062	Y_WP:	1.239	Y_WP:	0.750	X:	0.046	Y:	1.255	Z:	0.682	yaw:	-9.103	yaw rate:	85.212	Roll:	-1.426	Pitch:	0.641	Yaw:	-22.544	Thrust:	61.032
Time:	3.762	Roll Set Point:	-0.027	Pitch Set Point:	-1.269	Yaw Set Point:	0.162	X_WP:	0.062	Y_WP:	1.239	Y_WP:	0.750	X:	0.046	Y:	1.256	Z:	0.679	yaw:	-9.277	yaw rate:	17.418	Roll:	-0.182	Pitch:	0.230	Yaw:	-15.027	Thrust:	57.493
Time:	3.782	Roll Set Point:	-0.029	Pitch Set Point:	-1.271	Yaw Set Point:	0.132	X_WP:	0.062	Y_WP:	1.239	Y_WP:	0.750	X:	0.047	Y:	1.256	Z:	0.675	yaw:	-7.591	yaw rate:	-168.606	Roll:	0.716	Pitch:	0.898	Yaw:	11.621	Thrust:	60.452
Time:	3.802	Roll Set Point:	-0.030	Pitch Set Point:	-1.272	Yaw Set Point:	0.132	X_WP:	0.062	Y_WP:	1.239	Y_WP:	0.750	X:	0.047	Y:	1.257	Z:	0.671	yaw:	-7.565	yaw rate:	-2.568	Roll:	0.102	Pitch:	0.307	Yaw:	-9.985	Thrust:	60.245
Time:	3.823	Roll Set Point:	-0.031	Pitch Set Point:	-1.273	Yaw Set Point:	0.132	X_WP:	0.062	Y_WP:	1.239	Y_WP:	0.750	X:	0.048	Y:	1.257	Z:	0.668	yaw:	-7.553	yaw rate:	-1.207	Roll:	0.052	Pitch:	0.386	Yaw:	-10.199	Thrust:	62.168
Time:	3.845	Roll Set Point:	-0.032	Pitch Set Point:	-1.274	Yaw Set Point:	0.134	X_WP:	0.062	Y_WP:	1.239	Y_WP:	0.750	X:	0.048	Y:	1.258	Z:	0.664	yaw:	-7.652	yaw rate:	9.822	Roll:	0.235	Pitch:	0.200	Yaw:	-11.661	Thrust:	66.295
Time:	3.863	Roll Set Point:	-0.033	Pitch Set Point:	-1.275	Yaw Set Point:	0.133	X_WP:	0.062	Y_WP:	1.239	Y_WP:	0.750	X:	0.049	Y:	1.258	Z:	0.660	yaw:	-7.610	yaw rate:	-4.161	Roll:	0.188	Pitch:	0.501	Yaw:	-9.948	Thrust:	59.140
Time:	3.883	Roll Set Point:	-0.035	Pitch Set Point:	-1.276	Yaw Set Point:	0.128	X_WP:	0.062	Y_WP:	1.239	Y_WP:	0.750	X:	0.050	Y:	1.259	Z:	0.656	yaw:	-7.325	yaw rate:	-28.475	Roll:	0.518	Pitch:	0.431	Yaw:	-6.492	Thrust:	61.149
Time:	3.902	Roll Set Point:	-0.036	Pitch Set Point:	-1.277	Yaw Set Point:	0.132	X_WP:	0.062	Y_WP:	1.239	Y_WP:	0.750	X:	0.050	Y:	1.259	Z:	0.653	yaw:	-7.574	yaw rate:	24.827	Roll:	0.264	Pitch:	0.284	Yaw:	-14.086	Thrust:	60.691
Time:	3.922	Roll Set Point:	-0.038	Pitch Set Point:	-1.277	Yaw Set Point:	0.130	X_WP:	0.062	Y_WP:	1.239	Y_WP:	0.750	X:	0.051	Y:	1.259	Z:	0.650	yaw:	-7.445	yaw rate:	-12.817	Roll:	0.501	Pitch:	0.304	Yaw:	-8.810	Thrust:	62.523
Time:	3.944	Roll Set Point:	-0.039	Pitch Set Point:	-1.278	Yaw Set Point:	0.131	X_WP:	0.062	Y_WP:	1.239	Y_WP:	0.750	X:	0.052	Y:	1.259	Z:	0.647	yaw:	-7.491	yaw rate:	4.598	Roll:	0.501	Pitch:	0.247	Yaw:	-11.151	Thrust:	65.933
Time:	3.961	Roll Set Point:	-0.041	Pitch Set Point:	-1.279	Yaw Set Point:	0.129	X_WP:	0.062	Y_WP:	1.239	Y_WP:	0.750	X:	0.053	Y:	1.260	Z:	0.644	yaw:	-7.370	yaw rate:	-12.179	Roll:	0.690	Pitch:	0.390	Yaw:	-8.661	Thrust:	57.250
Time:	3.981	Roll Set Point:	-0.043	Pitch Set Point:	-1.279	Yaw Set Point:	0.127	X_WP:	0.062	Y_WP:	1.239	Y_WP:	0.750	X:	0.054	Y:	1.260	Z:	0.641	yaw:	-7.281	yaw rate:	-8.894	Roll:	0.619	Pitch:	0.292	Yaw:	-9.240	Thrust:	62.356
Time:	4.002	Roll Set Point:	-0.045	Pitch Set Point:	-1.279	Yaw Set Point:	0.124	X_WP:	0.062	Y_WP:	1.239	Y_WP:	0.750	X:	0.055	Y:	1.260	Z:	0.639	yaw:	-7.128	yaw rate:	-15.277	Roll:	0.754	Pitch:	0.234	Yaw:	-8.247	Thrust:	62.224
Time:	4.023	Roll Set Point:	-0.047	Pitch Set Point:	-1.280	Yaw Set Point:	0.121	X_WP:	0.062	Y_WP:	1.239	Y_WP:	0.750	X:	0.056	Y:	1.260	Z:	0.636	yaw:	-6.956	yaw rate:	-17.138	Roll:	0.755	Pitch:	0.150	Yaw:	-8.006	Thrust:	65.570
Time:	4.043	Roll Set Point:	-0.049	Pitch Set Point:	-1.280	Yaw Set Point:	0.124	X_WP:	0.062	Y_WP:	1.239	Y_WP:	0.750	X:	0.057	Y:	1.260	Z:	0.634	yaw:	-7.120	yaw rate:	16.374	Roll:	0.788	Pitch:	0.082	Yaw:	-12.478	Thrust:	61.402
Time:	4.061	Roll Set Point:	-0.051	Pitch Set Point:	-1.280	Yaw Set Point:	0.127	X_WP:	0.062	Y_WP:	1.239	Y_WP:	0.750	X:	0.058	Y:	1.260	Z:	0.633	yaw:	-7.250	yaw rate:	12.976	Roll:	0.820	Pitch:	0.177	Yaw:	-12.368	Thrust:	57.675
Time:	4.082	Roll Set Point:	-0.053	Pitch Set Point:	-1.280	Yaw Set Point:	0.113	X_WP:	0.062	Y_WP:	1.239	Y_WP:	0.750	X:	0.059	Y:	1.260	Z:	0.631	yaw:	-6.478	yaw rate:	-77.160	Roll:	1.043	Pitch:	0.028	Yaw:	0.442	Thrust:	62.453
Time:	4.103	Roll Set Point:	-0.055	Pitch Set Point:	-1.280	Yaw Set Point:	0.121	X_WP:	0.062	Y_WP:	1.239	Y_WP:	0.750	X:	0.060	Y:	1.260	Z:	0.630	yaw:	-6.951	yaw rate:	47.215	Roll:	0.778	Pitch:	0.060	Yaw:	-16.119	Thrust:	60.842
Time:	4.122	Roll Set Point:	-0.057	Pitch Set Point:	-1.280	Yaw Set Point:	0.122	X_WP:	0.062	Y_WP:	1.239	Y_WP:	0.750	X:	0.061	Y:	1.260	Z:	0.629	yaw:	-6.977	yaw rate:	2.660	Roll:	0.997	Pitch:	-0.004	Yaw:	-10.654	Thrust:	61.461
Time:	4.143	Roll Set Point:	-0.059	Pitch Set Point:	-1.279	Yaw Set Point:	0.121	X_WP:	0.062	Y_WP:	1.239	Y_WP:	0.750	X:	0.062	Y:	1.259	Z:	0.628	yaw:	-6.937	yaw rate:	-3.991	Roll:	1.016	Pitch:	-0.064	Yaw:	-9.814	Thrust:	61.931
Time:	4.162	Roll Set Point:	-0.061	Pitch Set Point:	-1.279	Yaw Set Point:	0.118	X_WP:	0.062	Y_WP:	1.239	Y_WP:	0.750	X:	0.063	Y:	1.259	Z:	0.627	yaw:	-6.770	yaw rate:	-16.750	Roll:	0.989	Pitch:	-0.075	Yaw:	-7.896	Thrust:	60.087
Time:	4.182	Roll Set Point:	-0.063	Pitch Set Point:	-1.278	Yaw Set Point:	0.120	X_WP:	0.062	Y_WP:	1.239	Y_WP:	0.750	X:	0.064	Y:	1.259	Z:	0.627	yaw:	-6.897	yaw rate:	12.779	Roll:	0.930	Pitch:	-0.210	Yaw:	-12.046	Thrust:	59.255
Time:	4.201	Roll Set Point:	-0.065	Pitch Set Point:	-1.278	Yaw Set Point:	0.119	X_WP:	0.062	Y_WP:	1.239	Y_WP:	0.750	X:	0.065	Y:	1.258	Z:	0.627	yaw:	-6.802	yaw rate:	-9.503	Roll:	0.992	Pitch:	-0.193	Yaw:	-8.995	Thrust:	59.779
Time:	4.222	Roll Set Point:	-0.067	Pitch Set Point:	-1.277	Yaw Set Point:	0.118	X_WP:	0.062	Y_WP:	1.239	Y_WP:	0.750	X:	0.066	Y:	1.258	Z:	0.627	yaw:	-6.738	yaw rate:	-6.434	Roll:	1.117	Pitch:	-0.238	Yaw:	-9.400	Thrust:	61.185
Time:	4.242	Roll Set Point:	-0.072	Pitch Set Point:	-1.277	Yaw Set Point:	-0.063	X_WP:	0.062	Y_WP:	1.239	Y_WP:	0.750	X:	0.067	Y:	1.259	Z:	0.621	yaw:	3.582	yaw rate:	-1032.006	Roll:	4.178	Pitch:	0.031	Yaw:	135.542	Thrust:	73.627
Time:	4.262	Roll Set Point:	-0.075	Pitch Set Point:	-1.276	Yaw Set Point:	-0.081	X_WP:	0.062	Y_WP:	1.239	Y_WP:	0.750	X:	0.068	Y:	1.258	Z:	0.622	yaw:	4.657	yaw rate:	-107.456	Roll:	1.588	Pitch:	-0.631	Yaw:	20.029	Thrust:	59.796
Time:	4.282	Roll Set Point:	-0.077	Pitch Set Point:	-1.276	Yaw Set Point:	-0.102	X_WP:	0.062	Y_WP:	1.239	Y_WP:	0.750	X:	0.069	Y:	1.258	Z:	0.622	yaw:	5.847	yaw rate:	-119.077	Roll:	1.465	Pitch:	-0.345	Yaw:	22.900	Thrust:	60.555
Time:	4.302	Roll Set Point:	-0.078	Pitch Set Point:	-1.274	Yaw Set Point:	-0.098	X_WP:	0.062	Y_WP:	1.239	Y_WP:	0.750	X:	0.069	Y:	1.257	Z:	0.622	yaw:	5.626	yaw rate:	22.097	Roll:	0.975	Pitch:	-0.729	Yaw:	4.207	Thrust:	60.822
Time:	4.322	Roll Set Point:	-0.079	Pitch Set Point:	-1.273	Yaw Set Point:	-0.070	X_WP:	0.062	Y_WP:	1.239	Y_WP:	0.750	X:	0.070	Y:	1.256	Z:	0.623	yaw:	4.009	yaw rate:	161.737	Roll:	0.572	Pitch:	-0.621	Yaw:	-16.237	Thrust:	60.298
Time:	4.343	Roll Set Point:	-0.081	Pitch Set Point:	-1.272	Yaw Set Point:	-0.098	X_WP:	0.062	Y_WP:	1.239	Y_WP:	0.750	X:	0.071	Y:	1.256	Z:	0.625	yaw:	5.590	yaw rate:	-158.098	Roll:	1.353	Pitch:	-0.530	Yaw:	27.154	Thrust:	61.240
Time:	4.361	Roll Set Point:	-0.081	Pitch Set Point:	-1.271	Yaw Set Point:	-0.091	X_WP:	0.062	Y_WP:	1.239	Y_WP:	0.750	X:	0.071	Y:	1.255	Z:	0.626	yaw:	5.196	yaw rate:	39.438	Roll:	0.594	Pitch:	-0.498	Yaw:	1.117	Thrust:	54.478
Time:	4.382	Roll Set Point:	-0.080	Pitch Set Point:	-1.270	Yaw Set Point:	-0.064	X_WP:	0.062	Y_WP:	1.239	Y_WP:	0.750	X:	0.071	Y:	1.255	Z:	0.628	yaw:	3.667	yaw rate:	152.829	Roll:	0.062	Pitch:	-0.427	Yaw:	-15.436	Thrust:	59.234
Time:	4.401	Roll Set Point:	-0.082	Pitch Set Point:	-1.268	Yaw Set Point:	-0.075	X_WP:	0.062	Y_WP:	1.239	Y_WP:	0.750	X:	0.072	Y:	1.254	Z:	0.630	yaw:	4.302	yaw rate:	-63.519	Roll:	1.152	Pitch:	-1.147	Yaw:	13.690	Thrust:	59.323
Time:	4.422	Roll Set Point:	-0.083	Pitch Set Point:	-1.266	Yaw Set Point:	-0.083	X_WP:	0.062	Y_WP:	1.239	Y_WP:	0.750	X:	0.072	Y:	1.253	Z:	0.632	yaw:	4.757	yaw rate:	-45.494	Roll:	0.919	Pitch:	-0.837	Yaw:	12.016	Thrust:	58.226
Time:	4.443	Roll Set Point:	-0.083	Pitch Set Point:	-1.264	Yaw Set Point:	-0.083	X_WP:	0.062	Y_WP:	1.239	Y_WP:	0.750	X:	0.072	Y:	1.252	Z:	0.634	yaw:	4.784	yaw rate:	-2.637	Roll:	0.696	Pitch:	-0.846	Yaw:	6.445	Thrust:	62.149
Time:	4.461	Roll Set Point:	-0.084	Pitch Set Point:	-1.263	Yaw Set Point:	-0.081	X_WP:	0.062	Y_WP:	1.239	Y_WP:	0.750	X:	0.073	Y:	1.252	Z:	0.636	yaw:	4.643	yaw rate:	14.077	Roll:	0.585	Pitch:	-0.845	Yaw:	4.023	Thrust:	53.469
Time:	4.482	Roll Set Point:	-0.084	Pitch Set Point:	-1.262	Yaw Set Point:	-0.080	X_WP:	0.062	Y_WP:	1.239	Y_WP:	0.750	X:	0.073	Y:	1.251	Z:	0.638	yaw:	4.582	yaw rate:	6.112	Roll:	0.633	Pitch:	-0.830	Yaw:	5.143	Thrust:	61.006
Time:	4.502	Roll Set Point:	-0.084	Pitch Set Point:	-1.260	Yaw Set Point:	-0.071	X_WP:	0.062	Y_WP:	1.239	Y_WP:	0.750	X:	0.073	Y:	1.250	Z:	0.640	yaw:	4.084	yaw rate:	49.810	Roll:	0.469	Pitch:	-0.860	Yaw:	-1.235	Thrust:	59.042
Time:	4.522	Roll Set Point:	-0.084	Pitch Set Point:	-1.259	Yaw Set Point:	-0.077	X_WP:	0.062	Y_WP:	1.239	Y_WP:	0.750	X:	0.073	Y:	1.249	Z:	0.642	yaw:	4.422	yaw rate:	-33.841	Roll:	0.541	Pitch:	-0.756	Yaw:	10.048	Thrust:	60.364
Time:	4.543	Roll Set Point:	-0.084	Pitch Set Point:	-1.257	Yaw Set Point:	-0.071	X_WP:	0.062	Y_WP:	1.239	Y_WP:	0.750	X:	0.073	Y:	1.249	Z:	0.644	yaw:	4.065	yaw rate:	35.740	Roll:	0.491	Pitch:	-0.952	Yaw:	0.553	Thrust:	58.281
Time:	4.562	Roll Set Point:	-0.083	Pitch Set Point:	-1.256	Yaw Set Point:	-0.053	X_WP:	0.062	Y_WP:	1.239	Y_WP:	0.750	X:	0.072	Y:	1.248	Z:	0.646	yaw:	3.056	yaw rate:	100.925	Roll:	-0.155	Pitch:	-0.621	Yaw:	-9.168	Thrust:	60.158
Time:	4.582	Roll Set Point:	-0.082	Pitch Set Point:	-1.255	Yaw Set Point:	-0.040	X_WP:	0.062	Y_WP:	1.239	Y_WP:	0.750	X:	0.072	Y:	1.247	Z:	0.649	yaw:	2.316	yaw rate:	73.997	Roll:	0.223	Pitch:	-0.740	Yaw:	-6.875	Thrust:	58.153
Time:	4.601	Roll Set Point:	-0.083	Pitch Set Point:	-1.253	Yaw Set Point:	-0.066	X_WP:	0.062	Y_WP:	1.239	Y_WP:	0.750	X:	0.073	Y:	1.247	Z:	0.651	yaw:	3.754	yaw rate:	-143.881	Roll:	1.050	Pitch:	-1.209	Yaw:	24.492	Thrust:	56.714
Time:	4.622	Roll Set Point:	-0.083	Pitch Set Point:	-1.252	Yaw Set Point:	-0.068	X_WP:	0.062	Y_WP:	1.239	Y_WP:	0.750	X:	0.072	Y:	1.246	Z:	0.653	yaw:	3.908	yaw rate:	-15.314	Roll:	0.251	Pitch:	-0.820	Yaw:	7.158	Thrust:	59.736
Time:	4.644	Roll Set Point:	-0.083	Pitch Set Point:	-1.250	Yaw Set Point:	-0.070	X_WP:	0.062	Y_WP:	1.239	Y_WP:	0.750	X:	0.072	Y:	1.245	Z:	0.655	yaw:	4.009	yaw rate:	-10.189	Roll:	0.492	Pitch:	-1.160	Yaw:	6.558	Thrust:	63.774
Time:	4.662	Roll Set Point:	-0.083	Pitch Set Point:	-1.250	Yaw Set Point:	-0.079	X_WP:	0.062	Y_WP:	1.239	Y_WP:	0.750	X:	0.072	Y:	1.245	Z:	0.658	yaw:	4.537	yaw rate:	-52.781	Roll:	0.518	Pitch:	-0.566	Yaw:	13.421	Thrust:	56.212
Time:	4.682	Roll Set Point:	-0.082	Pitch Set Point:	-1.249	Yaw Set Point:	-0.065	X_WP:	0.062	Y_WP:	1.239	Y_WP:	0.750	X:	0.072	Y:	1.244	Z:	0.660	yaw:	3.736	yaw rate:	80.073	Roll:	0.158	Pitch:	-0.938	Yaw:	-5.688	Thrust:	58.470
Time:	4.702	Roll Set Point:	-0.081	Pitch Set Point:	-1.248	Yaw Set Point:	-0.034	X_WP:	0.062	Y_WP:	1.239	Y_WP:	0.750	X:	0.072	Y:	1.244	Z:	0.663	yaw:	1.963	yaw rate:	177.299	Roll:	-0.107	Pitch:	-0.543	Yaw:	-20.844	Thrust:	56.137
Time:	4.723	Roll Set Point:	-0.082	Pitch Set Point:	-1.246	Yaw Set Point:	-0.067	X_WP:	0.062	Y_WP:	1.239	Y_WP:	0.750	X:	0.072	Y:	1.243	Z:	0.665	yaw:	3.837	yaw rate:	-187.331	Roll:	0.957	Pitch:	-1.316	Yaw:	29.415	Thrust:	64.084
Time:	4.744	Roll Set Point:	-0.082	Pitch Set Point:	-1.245	Yaw Set Point:	-0.067	X_WP:	0.062	Y_WP:	1.239	Y_WP:	0.750	X:	0.072	Y:	1.243	Z:	0.667	yaw:	3.816	yaw rate:	2.056	Roll:	0.378	Pitch:	-0.854	Yaw:	4.945	Thrust:	67.739
Time:	4.762	Roll Set Point:	-0.080	Pitch Set Point:	-1.245	Yaw Set Point:	-0.032	X_WP:	0.062	Y_WP:	1.239	Y_WP:	0.750	X:	0.071	Y:	1.242	Z:	0.670	yaw:	1.830	yaw rate:	198.659	Roll:	-0.318	Pitch:	-0.271	Yaw:	-28.858	Thrust:	48.077
Time:	4.785	Roll Set Point:	-0.081	Pitch Set Point:	-1.243	Yaw Set Point:	-0.063	X_WP:	0.062	Y_WP:	1.239	Y_WP:	0.750	X:	0.072	Y:	1.241	Z:	0.672	yaw:	3.635	yaw rate:	-180.555	Roll:	0.896	Pitch:	-1.435	Yaw:	25.048	Thrust:	61.900
Time:	4.802	Roll Set Point:	-0.081	Pitch Set Point:	-1.242	Yaw Set Point:	-0.060	X_WP:	0.062	Y_WP:	1.239	Y_WP:	0.750	X:	0.072	Y:	1.241	Z:	0.674	yaw:	3.431	yaw rate:	20.438	Roll:	0.393	Pitch:	-0.720	Yaw:	1.620	Thrust:	60.007
Time:	4.822	Roll Set Point:	-0.080	Pitch Set Point:	-1.242	Yaw Set Point:	-0.069	X_WP:	0.062	Y_WP:	1.239	Y_WP:	0.750	X:	0.071	Y:	1.241	Z:	0.677	yaw:	3.952	yaw rate:	-52.092	Roll:	0.318	Pitch:	-0.743	Yaw:	12.253	Thrust:	59.471
Time:	4.843	Roll Set Point:	-0.081	Pitch Set Point:	-1.241	Yaw Set Point:	-0.068	X_WP:	0.062	Y_WP:	1.239	Y_WP:	0.750	X:	0.071	Y:	1.240	Z:	0.679	yaw:	3.894	yaw rate:	5.814	Roll:	0.504	Pitch:	-0.997	Yaw:	4.720	Thrust:	63.529
Time:	4.862	Roll Set Point:	-0.080	Pitch Set Point:	-1.240	Yaw Set Point:	-0.066	X_WP:	0.062	Y_WP:	1.239	Y_WP:	0.750	X:	0.071	Y:	1.240	Z:	0.682	yaw:	3.758	yaw rate:	13.531	Roll:	0.384	Pitch:	-0.853	Yaw:	3.291	Thrust:	54.489
Time:	4.883	Roll Set Point:	-0.080	Pitch Set Point:	-1.239	Yaw Set Point:	-0.068	X_WP:	0.062	Y_WP:	1.239	Y_WP:	0.750	X:	0.071	Y:	1.240	Z:	0.684	yaw:	3.905	yaw rate:	-14.655	Roll:	0.414	Pitch:	-0.797	Yaw:	7.317	Thrust:	62.986
Time:	4.903	Roll Set Point:	-0.080	Pitch Set Point:	-1.239	Yaw Set Point:	-0.066	X_WP:	0.062	Y_WP:	1.239	Y_WP:	0.750	X:	0.071	Y:	1.239	Z:	0.687	yaw:	3.765	yaw rate:	13.945	Roll:	0.423	Pitch:	-0.785	Yaw:	3.426	Thrust:	56.649
Time:	4.922	Roll Set Point:	-0.080	Pitch Set Point:	-1.238	Yaw Set Point:	-0.067	X_WP:	0.062	Y_WP:	1.239	Y_WP:	0.750	X:	0.071	Y:	1.239	Z:	0.690	yaw:	3.819	yaw rate:	-5.379	Roll:	0.397	Pitch:	-0.845	Yaw:	6.123	Thrust:	60.096
Time:	4.942	Roll Set Point:	-0.079	Pitch Set Point:	-1.238	Yaw Set Point:	-0.042	X_WP:	0.062	Y_WP:	1.239	Y_WP:	0.750	X:	0.071	Y:	1.239	Z:	0.693	yaw:	2.434	yaw rate:	138.528	Roll:	-0.006	Pitch:	-0.314	Yaw:	-15.027	Thrust:	57.279
Time:	4.962	Roll Set Point:	-0.080	Pitch Set Point:	-1.237	Yaw Set Point:	-0.065	X_WP:	0.062	Y_WP:	1.239	Y_WP:	0.750	X:	0.071	Y:	1.238	Z:	0.695	yaw:	3.708	yaw rate:	-127.378	Roll:	0.845	Pitch:	-1.254	Yaw:	21.645	Thrust:	60.577
Time:	4.982	Roll Set Point:	-0.080	Pitch Set Point:	-1.237	Yaw Set Point:	-0.062	X_WP:	0.062	Y_WP:	1.239	Y_WP:	0.750	X:	0.071	Y:	1.238	Z:	0.698	yaw:	3.524	yaw rate:	18.372	Roll:	0.372	Pitch:	-0.713	Yaw:	2.697	Thrust:	58.907
Time:	5.001	Roll Set Point:	-0.082	Pitch Set Point:	-1.234	Yaw Set Point:	-0.066	X_WP:	0.062	Y_WP:	1.239	Y_WP:	0.750	X:	0.072	Y:	1.237	Z:	0.701	yaw:	3.779	yaw rate:	-25.483	Roll:	1.343	Pitch:	-1.578	Yaw:	8.914	Thrust:	57.147
Time:	5.022	Roll Set Point:	-0.081	Pitch Set Point:	-1.234	Yaw Set Point:	-0.050	X_WP:	0.062	Y_WP:	1.239	Y_WP:	0.750	X:	0.072	Y:	1.237	Z:	0.703	yaw:	2.854	yaw rate:	92.477	Roll:	0.075	Pitch:	-0.516	Yaw:	-8.185	Thrust:	58.076
Time:	5.044	Roll Set Point:	-0.082	Pitch Set Point:	-1.233	Yaw Set Point:	-0.061	X_WP:	0.062	Y_WP:	1.239	Y_WP:	0.750	X:	0.072	Y:	1.237	Z:	0.707	yaw:	3.523	yaw rate:	-66.888	Roll:	0.914	Pitch:	-1.141	Yaw:	12.875	Thrust:	66.661
Time:	5.062	Roll Set Point:	-0.082	Pitch Set Point:	-1.233	Yaw Set Point:	-0.062	X_WP:	0.062	Y_WP:	1.239	Y_WP:	0.750	X:	0.072	Y:	1.236	Z:	0.710	yaw:	3.579	yaw rate:	-5.609	Roll:	0.620	Pitch:	-0.758	Yaw:	6.029	Thrust:	52.825
Time:	5.082	Roll Set Point:	-0.082	Pitch Set Point:	-1.233	Yaw Set Point:	-0.066	X_WP:	0.062	Y_WP:	1.239	Y_WP:	0.750	X:	0.072	Y:	1.236	Z:	0.713	yaw:	3.793	yaw rate:	-21.421	Roll:	0.427	Pitch:	-0.708	Yaw:	8.441	Thrust:	57.133
Time:	5.102	Roll Set Point:	-0.082	Pitch Set Point:	-1.233	Yaw Set Point:	-0.072	X_WP:	0.062	Y_WP:	1.239	Y_WP:	0.750	X:	0.072	Y:	1.236	Z:	0.716	yaw:	4.127	yaw rate:	-33.334	Roll:	0.490	Pitch:	-0.785	Yaw:	10.477	Thrust:	57.692
Time:	5.123	Roll Set Point:	-0.082	Pitch Set Point:	-1.232	Yaw Set Point:	-0.058	X_WP:	0.062	Y_WP:	1.239	Y_WP:	0.750	X:	0.072	Y:	1.236	Z:	0.719	yaw:	3.330	yaw rate:	79.602	Roll:	0.628	Pitch:	-0.673	Yaw:	-4.783	Thrust:	62.427
Time:	5.145	Roll Set Point:	-0.082	Pitch Set Point:	-1.232	Yaw Set Point:	-0.045	X_WP:	0.062	Y_WP:	1.239	Y_WP:	0.750	X:	0.073	Y:	1.236	Z:	0.722	yaw:	2.576	yaw rate:	75.484	Roll:	0.614	Pitch:	-0.747	Yaw:	-5.189	Thrust:	61.413
Time:	5.164	Roll Set Point:	-0.082	Pitch Set Point:	-1.233	Yaw Set Point:	-0.046	X_WP:	0.062	Y_WP:	1.239	Y_WP:	0.750	X:	0.072	Y:	1.236	Z:	0.725	yaw:	2.661	yaw rate:	-8.518	Roll:	0.300	Pitch:	-0.321	Yaw:	5.293	Thrust:	54.128
Time:	5.182	Roll Set Point:	-0.081	Pitch Set Point:	-1.233	Yaw Set Point:	-0.047	X_WP:	0.062	Y_WP:	1.239	Y_WP:	0.750	X:	0.072	Y:	1.236	Z:	0.727	yaw:	2.675	yaw rate:	-1.447	Roll:	0.287	Pitch:	-0.470	Yaw:	4.320	Thrust:	58.198
Time:	5.203	Roll Set Point:	-0.082	Pitch Set Point:	-1.233	Yaw Set Point:	-0.045	X_WP:	0.062	Y_WP:	1.239	Y_WP:	0.750	X:	0.072	Y:	1.236	Z:	0.730	yaw:	2.573	yaw rate:	10.189	Roll:	0.714	Pitch:	-0.625	Yaw:	2.754	Thrust:	57.393
Time:	5.223	Roll Set Point:	-0.083	Pitch Set Point:	-1.232	Yaw Set Point:	-0.046	X_WP:	0.062	Y_WP:	1.239	Y_WP:	0.750	X:	0.073	Y:	1.236	Z:	0.733	yaw:	2.625	yaw rate:	-5.140	Roll:	0.955	Pitch:	-0.951	Yaw:	4.777	Thrust:	60.643
Time:	5.244	Roll Set Point:	-0.083	Pitch Set Point:	-1.232	Yaw Set Point:	-0.050	X_WP:	0.062	Y_WP:	1.239	Y_WP:	0.750	X:	0.073	Y:	1.236	Z:	0.735	yaw:	2.856	yaw rate:	-23.124	Roll:	0.636	Pitch:	-0.680	Yaw:	7.434	Thrust:	59.244
Time:	5.262	Roll Set Point:	-0.084	Pitch Set Point:	-1.232	Yaw Set Point:	-0.047	X_WP:	0.062	Y_WP:	1.239	Y_WP:	0.750	X:	0.073	Y:	1.236	Z:	0.738	yaw:	2.721	yaw rate:	13.547	Roll:	0.686	Pitch:	-0.595	Yaw:	2.303	Thrust:	52.502
Time:	5.283	Roll Set Point:	-0.084	Pitch Set Point:	-1.232	Yaw Set Point:	-0.043	X_WP:	0.062	Y_WP:	1.239	Y_WP:	0.750	X:	0.073	Y:	1.236	Z:	0.740	yaw:	2.474	yaw rate:	24.652	Roll:	0.656	Pitch:	-0.551	Yaw:	0.920	Thrust:	62.118
Time:	5.303	Roll Set Point:	-0.084	Pitch Set Point:	-1.233	Yaw Set Point:	-0.048	X_WP:	0.062	Y_WP:	1.239	Y_WP:	0.750	X:	0.073	Y:	1.236	Z:	0.743	yaw:	2.769	yaw rate:	-29.532	Roll:	0.552	Pitch:	-0.513	Yaw:	8.374	Thrust:	55.994
Time:	5.324	Roll Set Point:	-0.081	Pitch Set Point:	-1.235	Yaw Set Point:	0.110	X_WP:	0.062	Y_WP:	1.239	Y_WP:	0.750	X:	0.072	Y:	1.237	Z:	0.751	yaw:	-6.328	yaw rate:	909.783	Roll:	-0.499	Pitch:	0.812	Yaw:	-118.659	Thrust:	52.400
