Time:	0.049	Roll Set Point:	1.070	Pitch Set Point:	1.744	Yaw Set Point:	-1.088	X_WP:	0.000	Y_WP:	0.000	Y_WP:	0.750	X:	-0.008	Y:	-1.195	Z:	0.044	yaw:	62.314	yaw rate:	0.047	Roll:	-30.000	Pitch:	-15.903	Yaw:	87.006	Thrust:	38.818
Time:	0.068	Roll Set Point:	1.070	Pitch Set Point:	1.744	Yaw Set Point:	-1.087	X_WP:	0.000	Y_WP:	0.000	Y_WP:	0.750	X:	-0.008	Y:	-1.195	Z:	0.044	yaw:	62.308	yaw rate:	0.558	Roll:	-30.000	Pitch:	-16.001	Yaw:	87.350	Thrust:	40.569
Time:	0.088	Roll Set Point:	1.070	Pitch Set Point:	1.744	Yaw Set Point:	-1.087	X_WP:	0.000	Y_WP:	0.000	Y_WP:	0.750	X:	-0.008	Y:	-1.195	Z:	0.044	yaw:	62.282	yaw rate:	2.591	Roll:	-30.000	Pitch:	-16.418	Yaw:	87.496	Thrust:	42.181
Time:	0.108	Roll Set Point:	1.070	Pitch Set Point:	1.744	Yaw Set Point:	-1.087	X_WP:	0.000	Y_WP:	0.000	Y_WP:	0.750	X:	-0.008	Y:	-1.195	Z:	0.044	yaw:	62.307	yaw rate:	-2.479	Roll:	-30.000	Pitch:	-15.571	Yaw:	88.634	Thrust:	43.955
Time:	0.129	Roll Set Point:	1.070	Pitch Set Point:	1.743	Yaw Set Point:	-1.088	X_WP:	0.000	Y_WP:	0.000	Y_WP:	0.750	X:	-0.008	Y:	-1.195	Z:	0.044	yaw:	62.333	yaw rate:	-2.644	Roll:	-30.000	Pitch:	-15.545	Yaw:	89.088	Thrust:	45.464
Time:	0.149	Roll Set Point:	1.070	Pitch Set Point:	1.744	Yaw Set Point:	-1.088	X_WP:	0.000	Y_WP:	0.000	Y_WP:	0.750	X:	-0.008	Y:	-1.195	Z:	0.044	yaw:	62.316	yaw rate:	1.726	Roll:	-30.000	Pitch:	-16.343	Yaw:	88.802	Thrust:	47.351
Time:	0.168	Roll Set Point:	1.070	Pitch Set Point:	1.744	Yaw Set Point:	-1.088	X_WP:	0.000	Y_WP:	0.000	Y_WP:	0.750	X:	-0.008	Y:	-1.195	Z:	0.044	yaw:	62.313	yaw rate:	0.337	Roll:	-30.000	Pitch:	-16.108	Yaw:	88.923	Thrust:	48.820
Time:	0.188	Roll Set Point:	1.070	Pitch Set Point:	1.744	Yaw Set Point:	-1.087	X_WP:	0.000	Y_WP:	0.000	Y_WP:	0.750	X:	-0.008	Y:	-1.195	Z:	0.044	yaw:	62.306	yaw rate:	0.618	Roll:	-30.000	Pitch:	-16.205	Yaw:	88.974	Thrust:	50.968
Time:	0.209	Roll Set Point:	1.070	Pitch Set Point:	1.744	Yaw Set Point:	-1.087	X_WP:	0.000	Y_WP:	0.000	Y_WP:	0.750	X:	-0.008	Y:	-1.195	Z:	0.044	yaw:	62.299	yaw rate:	0.720	Roll:	-30.000	Pitch:	-16.236	Yaw:	88.899	Thrust:	52.446
Time:	0.229	Roll Set Point:	1.070	Pitch Set Point:	1.743	Yaw Set Point:	-1.088	X_WP:	0.000	Y_WP:	0.000	Y_WP:	0.750	X:	-0.008	Y:	-1.195	Z:	0.044	yaw:	62.323	yaw rate:	-2.376	Roll:	-30.000	Pitch:	-15.789	Yaw:	89.350	Thrust:	54.261
Time:	0.249	Roll Set Point:	1.070	Pitch Set Point:	1.743	Yaw Set Point:	-1.088	X_WP:	0.000	Y_WP:	0.000	Y_WP:	0.750	X:	-0.008	Y:	-1.195	Z:	0.044	yaw:	62.325	yaw rate:	-0.230	Roll:	-30.000	Pitch:	-16.108	Yaw:	89.099	Thrust:	55.746
Time:	0.269	Roll Set Point:	1.070	Pitch Set Point:	1.744	Yaw Set Point:	-1.088	X_WP:	0.000	Y_WP:	0.000	Y_WP:	0.750	X:	-0.008	Y:	-1.195	Z:	0.044	yaw:	62.312	yaw rate:	1.333	Roll:	-30.000	Pitch:	-16.436	Yaw:	88.784	Thrust:	57.486
Time:	0.288	Roll Set Point:	1.070	Pitch Set Point:	1.744	Yaw Set Point:	-1.088	X_WP:	0.000	Y_WP:	0.000	Y_WP:	0.750	X:	-0.008	Y:	-1.195	Z:	0.044	yaw:	62.320	yaw rate:	-0.784	Roll:	-30.000	Pitch:	-16.097	Yaw:	89.028	Thrust:	58.193
Time:	0.309	Roll Set Point:	1.070	Pitch Set Point:	1.743	Yaw Set Point:	-1.088	X_WP:	0.000	Y_WP:	0.000	Y_WP:	0.750	X:	-0.008	Y:	-1.195	Z:	0.044	yaw:	62.328	yaw rate:	-0.798	Roll:	-30.000	Pitch:	-16.131	Yaw:	89.166	Thrust:	61.305
Time:	0.328	Roll Set Point:	1.070	Pitch Set Point:	1.743	Yaw Set Point:	-1.088	X_WP:	0.000	Y_WP:	0.000	Y_WP:	0.750	X:	-0.008	Y:	-1.195	Z:	0.044	yaw:	62.321	yaw rate:	0.722	Roll:	-30.000	Pitch:	-16.404	Yaw:	88.927	Thrust:	62.569
Time:	0.348	Roll Set Point:	1.070	Pitch Set Point:	1.744	Yaw Set Point:	-1.087	X_WP:	0.000	Y_WP:	0.000	Y_WP:	0.750	X:	-0.008	Y:	-1.195	Z:	0.044	yaw:	62.292	yaw rate:	2.845	Roll:	-30.000	Pitch:	-16.791	Yaw:	88.611	Thrust:	64.279
Time:	0.368	Roll Set Point:	1.070	Pitch Set Point:	1.744	Yaw Set Point:	-1.088	X_WP:	0.000	Y_WP:	0.000	Y_WP:	0.750	X:	-0.008	Y:	-1.195	Z:	0.044	yaw:	62.318	yaw rate:	-2.618	Roll:	-30.000	Pitch:	-15.901	Yaw:	89.358	Thrust:	66.038
Time:	0.388	Roll Set Point:	1.070	Pitch Set Point:	1.743	Yaw Set Point:	-1.088	X_WP:	0.000	Y_WP:	0.000	Y_WP:	0.750	X:	-0.008	Y:	-1.195	Z:	0.044	yaw:	62.325	yaw rate:	-0.632	Roll:	-30.000	Pitch:	-16.277	Yaw:	89.105	Thrust:	67.561
Time:	0.411	Roll Set Point:	1.070	Pitch Set Point:	1.743	Yaw Set Point:	-1.088	X_WP:	0.000	Y_WP:	0.000	Y_WP:	0.750	X:	-0.008	Y:	-1.195	Z:	0.044	yaw:	62.338	yaw rate:	-1.313	Roll:	-30.000	Pitch:	-16.204	Yaw:	89.386	Thrust:	71.468
Time:	0.431	Roll Set Point:	1.070	Pitch Set Point:	1.743	Yaw Set Point:	-1.088	X_WP:	0.000	Y_WP:	0.000	Y_WP:	0.750	X:	-0.008	Y:	-1.195	Z:	0.044	yaw:	62.346	yaw rate:	-0.833	Roll:	-30.000	Pitch:	-16.306	Yaw:	89.281	Thrust:	73.829
Time:	0.450	Roll Set Point:	1.070	Pitch Set Point:	1.744	Yaw Set Point:	-1.087	X_WP:	0.000	Y_WP:	0.000	Y_WP:	0.750	X:	-0.008	Y:	-1.195	Z:	0.044	yaw:	62.309	yaw rate:	3.720	Roll:	-30.000	Pitch:	-17.070	Yaw:	88.362	Thrust:	69.768
Time:	0.471	Roll Set Point:	1.070	Pitch Set Point:	1.744	Yaw Set Point:	-1.087	X_WP:	0.000	Y_WP:	0.000	Y_WP:	0.750	X:	-0.008	Y:	-1.195	Z:	0.044	yaw:	62.289	yaw rate:	2.029	Roll:	-30.000	Pitch:	-16.821	Yaw:	88.837	Thrust:	75.559
Time:	0.497	Roll Set Point:	1.070	Pitch Set Point:	1.743	Yaw Set Point:	-1.088	X_WP:	0.000	Y_WP:	0.000	Y_WP:	0.750	X:	-0.008	Y:	-1.195	Z:	0.044	yaw:	62.329	yaw rate:	-4.070	Roll:	-30.000	Pitch:	-16.175	Yaw:	90.027	Thrust:	88.000
Time:	0.510	Roll Set Point:	1.070	Pitch Set Point:	1.744	Yaw Set Point:	-1.088	X_WP:	0.000	Y_WP:	0.000	Y_WP:	0.750	X:	-0.008	Y:	-1.195	Z:	0.044	yaw:	62.310	yaw rate:	1.885	Roll:	-30.000	Pitch:	-16.792	Yaw:	87.928	Thrust:	65.156
Time:	0.530	Roll Set Point:	1.070	Pitch Set Point:	1.744	Yaw Set Point:	-1.087	X_WP:	0.000	Y_WP:	0.000	Y_WP:	0.750	X:	-0.008	Y:	-1.195	Z:	0.044	yaw:	62.307	yaw rate:	0.343	Roll:	-30.000	Pitch:	-16.636	Yaw:	88.959	Thrust:	79.624
Time:	0.548	Roll Set Point:	1.070	Pitch Set Point:	1.744	Yaw Set Point:	-1.087	X_WP:	0.000	Y_WP:	0.000	Y_WP:	0.750	X:	-0.008	Y:	-1.195	Z:	0.044	yaw:	62.279	yaw rate:	2.845	Roll:	-30.000	Pitch:	-17.074	Yaw:	88.349	Thrust:	74.937
Time:	0.568	Roll Set Point:	1.070	Pitch Set Point:	1.743	Yaw Set Point:	-1.088	X_WP:	0.000	Y_WP:	0.000	Y_WP:	0.750	X:	-0.008	Y:	-1.195	Z:	0.044	yaw:	62.327	yaw rate:	-4.818	Roll:	-30.000	Pitch:	-15.841	Yaw:	89.627	Thrust:	84.127
Time:	0.589	Roll Set Point:	1.070	Pitch Set Point:	1.743	Yaw Set Point:	-1.088	X_WP:	0.000	Y_WP:	0.000	Y_WP:	0.750	X:	-0.008	Y:	-1.195	Z:	0.044	yaw:	62.331	yaw rate:	-0.451	Roll:	-30.000	Pitch:	-16.571	Yaw:	89.171	Thrust:	85.332
Time:	0.609	Roll Set Point:	1.070	Pitch Set Point:	1.743	Yaw Set Point:	-1.088	X_WP:	0.000	Y_WP:	0.000	Y_WP:	0.750	X:	-0.008	Y:	-1.195	Z:	0.044	yaw:	62.334	yaw rate:	-0.234	Roll:	-30.000	Pitch:	-16.642	Yaw:	89.055	Thrust:	85.965
Time:	0.629	Roll Set Point:	1.070	Pitch Set Point:	1.744	Yaw Set Point:	-1.087	X_WP:	0.000	Y_WP:	0.000	Y_WP:	0.750	X:	-0.008	Y:	-1.195	Z:	0.044	yaw:	62.302	yaw rate:	3.175	Roll:	-30.000	Pitch:	-17.153	Yaw:	88.596	Thrust:	89.652
Time:	0.648	Roll Set Point:	1.070	Pitch Set Point:	1.743	Yaw Set Point:	-1.088	X_WP:	0.000	Y_WP:	0.000	Y_WP:	0.750	X:	-0.008	Y:	-1.195	Z:	0.044	yaw:	62.326	yaw rate:	-2.366	Roll:	-30.000	Pitch:	-16.219	Yaw:	89.261	Thrust:	87.439
Time:	0.667	Roll Set Point:	1.070	Pitch Set Point:	1.744	Yaw Set Point:	-1.087	X_WP:	0.000	Y_WP:	0.000	Y_WP:	0.750	X:	-0.008	Y:	-1.195	Z:	0.044	yaw:	62.307	yaw rate:	1.833	Roll:	-30.000	Pitch:	-16.944	Yaw:	88.660	Thrust:	88.996
Time:	0.688	Roll Set Point:	1.070	Pitch Set Point:	1.743	Yaw Set Point:	-1.088	X_WP:	0.000	Y_WP:	0.000	Y_WP:	0.750	X:	-0.008	Y:	-1.195	Z:	0.044	yaw:	62.321	yaw rate:	-1.363	Roll:	-30.000	Pitch:	-16.415	Yaw:	89.199	Thrust:	93.230
Time:	0.708	Roll Set Point:	1.070	Pitch Set Point:	1.743	Yaw Set Point:	-1.088	X_WP:	0.000	Y_WP:	0.000	Y_WP:	0.750	X:	-0.008	Y:	-1.195	Z:	0.044	yaw:	62.329	yaw rate:	-0.778	Roll:	-30.000	Pitch:	-16.548	Yaw:	89.228	Thrust:	97.606
Time:	0.728	Roll Set Point:	1.070	Pitch Set Point:	1.744	Yaw Set Point:	-1.087	X_WP:	0.000	Y_WP:	0.000	Y_WP:	0.750	X:	-0.008	Y:	-1.195	Z:	0.044	yaw:	62.279	yaw rate:	4.961	Roll:	-30.000	Pitch:	-17.486	Yaw:	88.230	Thrust:	94.692
Time:	0.748	Roll Set Point:	1.070	Pitch Set Point:	1.743	Yaw Set Point:	-1.088	X_WP:	0.000	Y_WP:	0.000	Y_WP:	0.750	X:	-0.008	Y:	-1.195	Z:	0.044	yaw:	62.329	yaw rate:	-4.998	Roll:	-30.000	Pitch:	-15.842	Yaw:	89.694	Thrust:	98.623
Time:	0.767	Roll Set Point:	1.070	Pitch Set Point:	1.743	Yaw Set Point:	-1.088	X_WP:	0.000	Y_WP:	0.000	Y_WP:	0.750	X:	-0.008	Y:	-1.195	Z:	0.044	yaw:	62.336	yaw rate:	-0.684	Roll:	-30.000	Pitch:	-16.486	Yaw:	89.064	Thrust:	97.901
Time:	0.788	Roll Set Point:	1.070	Pitch Set Point:	1.743	Yaw Set Point:	-1.088	X_WP:	0.000	Y_WP:	0.000	Y_WP:	0.750	X:	-0.008	Y:	-1.195	Z:	0.044	yaw:	62.322	yaw rate:	1.417	Roll:	-30.000	Pitch:	-16.903	Yaw:	88.918	Thrust:	100.000
Time:	0.809	Roll Set Point:	1.070	Pitch Set Point:	1.744	Yaw Set Point:	-1.087	X_WP:	0.000	Y_WP:	0.000	Y_WP:	0.750	X:	-0.008	Y:	-1.195	Z:	0.044	yaw:	62.280	yaw rate:	4.210	Roll:	-30.000	Pitch:	-17.361	Yaw:	88.488	Thrust:	100.000
Time:	0.829	Roll Set Point:	1.070	Pitch Set Point:	1.744	Yaw Set Point:	-1.087	X_WP:	0.000	Y_WP:	0.000	Y_WP:	0.750	X:	-0.008	Y:	-1.195	Z:	0.044	yaw:	62.302	yaw rate:	-2.205	Roll:	-30.000	Pitch:	-16.345	Yaw:	89.324	Thrust:	100.000
Time:	0.849	Roll Set Point:	1.070	Pitch Set Point:	1.744	Yaw Set Point:	-1.087	X_WP:	0.000	Y_WP:	0.000	Y_WP:	0.750	X:	-0.008	Y:	-1.195	Z:	0.044	yaw:	62.304	yaw rate:	-0.252	Roll:	-30.000	Pitch:	-16.589	Yaw:	88.990	Thrust:	100.000
Time:	0.868	Roll Set Point:	1.070	Pitch Set Point:	1.743	Yaw Set Point:	-1.088	X_WP:	0.000	Y_WP:	0.000	Y_WP:	0.750	X:	-0.008	Y:	-1.195	Z:	0.044	yaw:	62.330	yaw rate:	-2.599	Roll:	-30.000	Pitch:	-16.257	Yaw:	89.339	Thrust:	100.000
Time:	0.888	Roll Set Point:	1.070	Pitch Set Point:	1.744	Yaw Set Point:	-1.088	X_WP:	0.000	Y_WP:	0.000	Y_WP:	0.750	X:	-0.008	Y:	-1.195	Z:	0.044	yaw:	62.318	yaw rate:	1.173	Roll:	-30.000	Pitch:	-16.826	Yaw:	88.865	Thrust:	100.000
Time:	0.909	Roll Set Point:	1.070	Pitch Set Point:	1.743	Yaw Set Point:	-1.088	X_WP:	0.000	Y_WP:	0.000	Y_WP:	0.750	X:	-0.008	Y:	-1.195	Z:	0.044	yaw:	62.347	yaw rate:	-2.879	Roll:	-30.000	Pitch:	-16.159	Yaw:	89.458	Thrust:	100.000
Time:	0.928	Roll Set Point:	1.070	Pitch Set Point:	1.744	Yaw Set Point:	-1.087	X_WP:	0.000	Y_WP:	0.000	Y_WP:	0.750	X:	-0.008	Y:	-1.195	Z:	0.044	yaw:	62.305	yaw rate:	4.256	Roll:	-30.000	Pitch:	-17.350	Yaw:	88.349	Thrust:	100.000
Time:	0.948	Roll Set Point:	1.070	Pitch Set Point:	1.744	Yaw Set Point:	-1.087	X_WP:	0.000	Y_WP:	0.000	Y_WP:	0.750	X:	-0.008	Y:	-1.195	Z:	0.044	yaw:	62.304	yaw rate:	0.089	Roll:	-30.000	Pitch:	-16.685	Yaw:	88.986	Thrust:	100.000
Time:	0.970	Roll Set Point:	1.070	Pitch Set Point:	1.743	Yaw Set Point:	-1.088	X_WP:	0.000	Y_WP:	0.000	Y_WP:	0.750	X:	-0.008	Y:	-1.195	Z:	0.044	yaw:	62.332	yaw rate:	-2.804	Roll:	-30.000	Pitch:	-16.185	Yaw:	89.497	Thrust:	100.000
Time:	0.990	Roll Set Point:	1.070	Pitch Set Point:	1.743	Yaw Set Point:	-1.088	X_WP:	0.000	Y_WP:	0.000	Y_WP:	0.750	X:	-0.008	Y:	-1.195	Z:	0.044	yaw:	62.322	yaw rate:	0.992	Roll:	-30.000	Pitch:	-16.813	Yaw:	88.903	Thrust:	100.000
Time:	1.009	Roll Set Point:	1.070	Pitch Set Point:	1.744	Yaw Set Point:	-1.087	X_WP:	0.000	Y_WP:	0.000	Y_WP:	0.750	X:	-0.008	Y:	-1.195	Z:	0.044	yaw:	62.307	yaw rate:	1.530	Roll:	-30.000	Pitch:	-16.919	Yaw:	88.785	Thrust:	100.000
Time:	1.030	Roll Set Point:	1.070	Pitch Set Point:	1.743	Yaw Set Point:	-1.088	X_WP:	0.000	Y_WP:	0.000	Y_WP:	0.750	X:	-0.008	Y:	-1.195	Z:	0.044	yaw:	62.325	yaw rate:	-1.860	Roll:	-30.000	Pitch:	-16.367	Yaw:	89.355	Thrust:	100.000
Time:	1.049	Roll Set Point:	1.070	Pitch Set Point:	1.743	Yaw Set Point:	-1.088	X_WP:	0.000	Y_WP:	0.000	Y_WP:	0.750	X:	-0.008	Y:	-1.195	Z:	0.044	yaw:	62.329	yaw rate:	-0.423	Roll:	-30.000	Pitch:	-16.542	Yaw:	88.946	Thrust:	100.000
Time:	1.070	Roll Set Point:	1.070	Pitch Set Point:	1.743	Yaw Set Point:	-1.088	X_WP:	0.000	Y_WP:	0.000	Y_WP:	0.750	X:	-0.008	Y:	-1.195	Z:	0.044	yaw:	62.324	yaw rate:	0.544	Roll:	-30.000	Pitch:	-16.730	Yaw:	89.016	Thrust:	100.000
Time:	1.090	Roll Set Point:	1.070	Pitch Set Point:	1.744	Yaw Set Point:	-1.087	X_WP:	0.000	Y_WP:	0.000	Y_WP:	0.750	X:	-0.008	Y:	-1.195	Z:	0.044	yaw:	62.302	yaw rate:	2.245	Roll:	-30.000	Pitch:	-17.041	Yaw:	88.697	Thrust:	100.000
Time:	1.110	Roll Set Point:	1.070	Pitch Set Point:	1.744	Yaw Set Point:	-1.087	X_WP:	0.000	Y_WP:	0.000	Y_WP:	0.750	X:	-0.008	Y:	-1.195	Z:	0.044	yaw:	62.307	yaw rate:	-0.524	Roll:	-30.000	Pitch:	-16.575	Yaw:	89.043	Thrust:	100.000
Time:	1.129	Roll Set Point:	1.070	Pitch Set Point:	1.744	Yaw Set Point:	-1.087	X_WP:	0.000	Y_WP:	0.000	Y_WP:	0.750	X:	-0.008	Y:	-1.195	Z:	0.044	yaw:	62.296	yaw rate:	1.109	Roll:	-30.000	Pitch:	-16.777	Yaw:	88.806	Thrust:	100.000
Time:	1.148	Roll Set Point:	1.070	Pitch Set Point:	1.744	Yaw Set Point:	-1.088	X_WP:	0.000	Y_WP:	0.000	Y_WP:	0.750	X:	-0.008	Y:	-1.195	Z:	0.044	yaw:	62.314	yaw rate:	-1.860	Roll:	-30.000	Pitch:	-16.403	Yaw:	89.168	Thrust:	100.000
Time:	1.169	Roll Set Point:	1.070	Pitch Set Point:	1.744	Yaw Set Point:	-1.087	X_WP:	0.000	Y_WP:	0.000	Y_WP:	0.750	X:	-0.008	Y:	-1.195	Z:	0.044	yaw:	62.309	yaw rate:	0.549	Roll:	-30.000	Pitch:	-16.725	Yaw:	88.974	Thrust:	100.000
Time:	1.188	Roll Set Point:	1.070	Pitch Set Point:	1.743	Yaw Set Point:	-1.088	X_WP:	0.000	Y_WP:	0.000	Y_WP:	0.750	X:	-0.008	Y:	-1.195	Z:	0.044	yaw:	62.341	yaw rate:	-3.223	Roll:	-30.000	Pitch:	-16.127	Yaw:	89.452	Thrust:	100.000
Time:	1.208	Roll Set Point:	1.070	Pitch Set Point:	1.743	Yaw Set Point:	-1.088	X_WP:	0.000	Y_WP:	0.000	Y_WP:	0.750	X:	-0.008	Y:	-1.195	Z:	0.044	yaw:	62.319	yaw rate:	2.168	Roll:	-30.000	Pitch:	-16.985	Yaw:	88.705	Thrust:	100.000
Time:	1.230	Roll Set Point:	1.070	Pitch Set Point:	1.744	Yaw Set Point:	-1.088	X_WP:	0.000	Y_WP:	0.000	Y_WP:	0.750	X:	-0.008	Y:	-1.195	Z:	0.044	yaw:	62.319	yaw rate:	0.073	Roll:	-30.000	Pitch:	-16.726	Yaw:	89.141	Thrust:	100.000
Time:	1.249	Roll Set Point:	1.070	Pitch Set Point:	1.744	Yaw Set Point:	-1.087	X_WP:	0.000	Y_WP:	0.000	Y_WP:	0.750	X:	-0.008	Y:	-1.195	Z:	0.044	yaw:	62.301	yaw rate:	1.774	Roll:	-30.000	Pitch:	-16.903	Yaw:	88.660	Thrust:	100.000
Time:	1.269	Roll Set Point:	1.070	Pitch Set Point:	1.744	Yaw Set Point:	-1.088	X_WP:	0.000	Y_WP:	0.000	Y_WP:	0.750	X:	-0.008	Y:	-1.195	Z:	0.044	yaw:	62.312	yaw rate:	-1.111	Roll:	-30.000	Pitch:	-16.513	Yaw:	89.138	Thrust:	100.000
Time:	1.289	Roll Set Point:	1.070	Pitch Set Point:	1.744	Yaw Set Point:	-1.087	X_WP:	0.000	Y_WP:	0.000	Y_WP:	0.750	X:	-0.008	Y:	-1.195	Z:	0.044	yaw:	62.292	yaw rate:	1.990	Roll:	-30.000	Pitch:	-16.942	Yaw:	88.722	Thrust:	100.000
Time:	1.309	Roll Set Point:	1.070	Pitch Set Point:	1.744	Yaw Set Point:	-1.088	X_WP:	0.000	Y_WP:	0.000	Y_WP:	0.750	X:	-0.008	Y:	-1.195	Z:	0.044	yaw:	62.312	yaw rate:	-2.008	Roll:	-30.000	Pitch:	-16.391	Yaw:	89.296	Thrust:	100.000
Time:	1.329	Roll Set Point:	1.070	Pitch Set Point:	1.743	Yaw Set Point:	-1.088	X_WP:	0.000	Y_WP:	0.000	Y_WP:	0.750	X:	-0.008	Y:	-1.195	Z:	0.044	yaw:	62.332	yaw rate:	-1.948	Roll:	-30.000	Pitch:	-16.318	Yaw:	89.258	Thrust:	100.000
Time:	1.349	Roll Set Point:	1.070	Pitch Set Point:	1.744	Yaw Set Point:	-1.087	X_WP:	0.000	Y_WP:	0.000	Y_WP:	0.750	X:	-0.008	Y:	-1.195	Z:	0.044	yaw:	62.282	yaw rate:	4.980	Roll:	-30.000	Pitch:	-17.498	Yaw:	88.321	Thrust:	100.000
Time:	1.373	Roll Set Point:	1.070	Pitch Set Point:	1.744	Yaw Set Point:	-1.087	X_WP:	0.000	Y_WP:	0.000	Y_WP:	0.750	X:	-0.008	Y:	-1.195	Z:	0.044	yaw:	62.306	yaw rate:	-2.376	Roll:	-30.000	Pitch:	-16.580	Yaw:	89.724	Thrust:	100.000
Time:	1.389	Roll Set Point:	1.070	Pitch Set Point:	1.743	Yaw Set Point:	-1.088	X_WP:	0.000	Y_WP:	0.000	Y_WP:	0.750	X:	-0.008	Y:	-1.195	Z:	0.044	yaw:	62.341	yaw rate:	-3.560	Roll:	-30.000	Pitch:	-15.622	Yaw:	89.172	Thrust:	100.000
Time:	1.410	Roll Set Point:	1.070	Pitch Set Point:	1.744	Yaw Set Point:	-1.087	X_WP:	0.000	Y_WP:	0.000	Y_WP:	0.750	X:	-0.008	Y:	-1.195	Z:	0.044	yaw:	62.295	yaw rate:	4.622	Roll:	-30.000	Pitch:	-17.409	Yaw:	88.431	Thrust:	100.000
Time:	1.430	Roll Set Point:	1.070	Pitch Set Point:	1.743	Yaw Set Point:	-1.088	X_WP:	0.000	Y_WP:	0.000	Y_WP:	0.750	X:	-0.008	Y:	-1.195	Z:	0.044	yaw:	62.332	yaw rate:	-3.737	Roll:	-30.000	Pitch:	-16.173	Yaw:	89.626	Thrust:	100.000
Time:	1.448	Roll Set Point:	1.070	Pitch Set Point:	1.744	Yaw Set Point:	-1.087	X_WP:	0.000	Y_WP:	0.000	Y_WP:	0.750	X:	-0.008	Y:	-1.195	Z:	0.044	yaw:	62.293	yaw rate:	3.917	Roll:	-30.000	Pitch:	-17.315	Yaw:	88.203	Thrust:	100.000
Time:	1.469	Roll Set Point:	1.070	Pitch Set Point:	1.744	Yaw Set Point:	-1.088	X_WP:	0.000	Y_WP:	0.000	Y_WP:	0.750	X:	-0.008	Y:	-1.195	Z:	0.044	yaw:	62.319	yaw rate:	-2.609	Roll:	-30.000	Pitch:	-16.151	Yaw:	89.377	Thrust:	100.000
Time:	1.489	Roll Set Point:	1.070	Pitch Set Point:	1.743	Yaw Set Point:	-1.088	X_WP:	0.000	Y_WP:	0.000	Y_WP:	0.750	X:	-0.008	Y:	-1.195	Z:	0.044	yaw:	62.321	yaw rate:	-0.222	Roll:	-30.000	Pitch:	-16.632	Yaw:	89.048	Thrust:	100.000
Time:	1.509	Roll Set Point:	1.070	Pitch Set Point:	1.744	Yaw Set Point:	-1.087	X_WP:	0.000	Y_WP:	0.000	Y_WP:	0.750	X:	-0.008	Y:	-1.195	Z:	0.044	yaw:	62.301	yaw rate:	2.048	Roll:	-30.000	Pitch:	-16.985	Yaw:	88.660	Thrust:	100.000
Time:	1.528	Roll Set Point:	1.070	Pitch Set Point:	1.743	Yaw Set Point:	-1.088	X_WP:	0.000	Y_WP:	0.000	Y_WP:	0.750	X:	-0.008	Y:	-1.195	Z:	0.044	yaw:	62.335	yaw rate:	-3.408	Roll:	-30.000	Pitch:	-16.122	Yaw:	89.508	Thrust:	100.000
Time:	1.548	Roll Set Point:	1.070	Pitch Set Point:	1.744	Yaw Set Point:	-1.088	X_WP:	0.000	Y_WP:	0.000	Y_WP:	0.750	X:	-0.008	Y:	-1.195	Z:	0.044	yaw:	62.311	yaw rate:	2.421	Roll:	-30.000	Pitch:	-17.034	Yaw:	88.691	Thrust:	100.000
Time:	1.569	Roll Set Point:	1.070	Pitch Set Point:	1.744	Yaw Set Point:	-1.088	X_WP:	0.000	Y_WP:	0.000	Y_WP:	0.750	X:	-0.008	Y:	-1.195	Z:	0.044	yaw:	62.312	yaw rate:	-0.090	Roll:	-30.000	Pitch:	-16.618	Yaw:	89.041	Thrust:	100.000
Time:	1.589	Roll Set Point:	1.070	Pitch Set Point:	1.744	Yaw Set Point:	-1.088	X_WP:	0.000	Y_WP:	0.000	Y_WP:	0.750	X:	-0.008	Y:	-1.195	Z:	0.044	yaw:	62.316	yaw rate:	-0.406	Roll:	-30.000	Pitch:	-16.630	Yaw:	89.026	Thrust:	100.000
Time:	1.609	Roll Set Point:	1.070	Pitch Set Point:	1.744	Yaw Set Point:	-1.087	X_WP:	0.000	Y_WP:	0.000	Y_WP:	0.750	X:	-0.008	Y:	-1.195	Z:	0.044	yaw:	62.307	yaw rate:	0.833	Roll:	-30.000	Pitch:	-16.754	Yaw:	88.935	Thrust:	100.000
Time:	1.630	Roll Set Point:	1.070	Pitch Set Point:	1.743	Yaw Set Point:	-1.088	X_WP:	0.000	Y_WP:	0.000	Y_WP:	0.750	X:	-0.008	Y:	-1.195	Z:	0.044	yaw:	62.322	yaw rate:	-1.479	Roll:	-30.000	Pitch:	-16.525	Yaw:	89.342	Thrust:	100.000
Time:	1.649	Roll Set Point:	1.070	Pitch Set Point:	1.743	Yaw Set Point:	-1.088	X_WP:	0.000	Y_WP:	0.000	Y_WP:	0.750	X:	-0.008	Y:	-1.195	Z:	0.044	yaw:	62.322	yaw rate:	0.052	Roll:	-30.000	Pitch:	-16.559	Yaw:	88.845	Thrust:	100.000
Time:	1.669	Roll Set Point:	1.070	Pitch Set Point:	1.743	Yaw Set Point:	-1.088	X_WP:	0.000	Y_WP:	0.000	Y_WP:	0.750	X:	-0.008	Y:	-1.195	Z:	0.044	yaw:	62.332	yaw rate:	-0.979	Roll:	-30.000	Pitch:	-16.497	Yaw:	89.133	Thrust:	100.000
Time:	1.688	Roll Set Point:	1.070	Pitch Set Point:	1.744	Yaw Set Point:	-1.087	X_WP:	0.000	Y_WP:	0.000	Y_WP:	0.750	X:	-0.008	Y:	-1.195	Z:	0.044	yaw:	62.305	yaw rate:	2.629	Roll:	-30.000	Pitch:	-17.058	Yaw:	88.538	Thrust:	100.000
Time:	1.709	Roll Set Point:	1.070	Pitch Set Point:	1.743	Yaw Set Point:	-1.088	X_WP:	0.000	Y_WP:	0.000	Y_WP:	0.750	X:	-0.008	Y:	-1.195	Z:	0.044	yaw:	62.320	yaw rate:	-1.495	Roll:	-30.000	Pitch:	-16.472	Yaw:	89.319	Thrust:	100.000
Time:	1.728	Roll Set Point:	1.070	Pitch Set Point:	1.744	Yaw Set Point:	-1.088	X_WP:	0.000	Y_WP:	0.000	Y_WP:	0.750	X:	-0.008	Y:	-1.195	Z:	0.044	yaw:	62.315	yaw rate:	0.549	Roll:	-30.000	Pitch:	-16.734	Yaw:	88.899	Thrust:	100.000
Time:	1.748	Roll Set Point:	1.070	Pitch Set Point:	1.744	Yaw Set Point:	-1.088	X_WP:	0.000	Y_WP:	0.000	Y_WP:	0.750	X:	-0.008	Y:	-1.195	Z:	0.044	yaw:	62.315	yaw rate:	-0.075	Roll:	-30.000	Pitch:	-16.610	Yaw:	89.028	Thrust:	100.000
Time:	1.768	Roll Set Point:	1.070	Pitch Set Point:	1.743	Yaw Set Point:	-1.088	X_WP:	0.000	Y_WP:	0.000	Y_WP:	0.750	X:	-0.008	Y:	-1.195	Z:	0.044	yaw:	62.334	yaw rate:	-1.901	Roll:	-30.000	Pitch:	-16.303	Yaw:	89.270	Thrust:	100.000
Time:	1.789	Roll Set Point:	1.070	Pitch Set Point:	1.744	Yaw Set Point:	-1.087	X_WP:	0.000	Y_WP:	0.000	Y_WP:	0.750	X:	-0.008	Y:	-1.195	Z:	0.044	yaw:	62.276	yaw rate:	5.871	Roll:	-30.000	Pitch:	-17.635	Yaw:	88.274	Thrust:	100.000
Time:	1.808	Roll Set Point:	1.070	Pitch Set Point:	1.744	Yaw Set Point:	-1.087	X_WP:	0.000	Y_WP:	0.000	Y_WP:	0.750	X:	-0.008	Y:	-1.195	Z:	0.044	yaw:	62.304	yaw rate:	-2.819	Roll:	-30.000	Pitch:	-16.197	Yaw:	89.320	Thrust:	100.000
Time:	1.829	Roll Set Point:	1.070	Pitch Set Point:	1.744	Yaw Set Point:	-1.088	X_WP:	0.000	Y_WP:	0.000	Y_WP:	0.750	X:	-0.008	Y:	-1.195	Z:	0.044	yaw:	62.315	yaw rate:	-1.119	Roll:	-30.000	Pitch:	-16.463	Yaw:	89.243	Thrust:	100.000
Time:	1.849	Roll Set Point:	1.070	Pitch Set Point:	1.744	Yaw Set Point:	-1.088	X_WP:	0.000	Y_WP:	0.000	Y_WP:	0.750	X:	-0.008	Y:	-1.195	Z:	0.044	yaw:	62.312	yaw rate:	0.331	Roll:	-30.000	Pitch:	-16.713	Yaw:	88.928	Thrust:	100.000
Time:	1.869	Roll Set Point:	1.070	Pitch Set Point:	1.744	Yaw Set Point:	-1.088	X_WP:	0.000	Y_WP:	0.000	Y_WP:	0.750	X:	-0.008	Y:	-1.195	Z:	0.044	yaw:	62.321	yaw rate:	-0.948	Roll:	-30.000	Pitch:	-16.492	Yaw:	89.158	Thrust:	100.000
Time:	1.889	Roll Set Point:	1.070	Pitch Set Point:	1.743	Yaw Set Point:	-1.088	X_WP:	0.000	Y_WP:	0.000	Y_WP:	0.750	X:	-0.008	Y:	-1.195	Z:	0.044	yaw:	62.326	yaw rate:	-0.507	Roll:	-30.000	Pitch:	-16.570	Yaw:	89.096	Thrust:	100.000
Time:	1.910	Roll Set Point:	1.070	Pitch Set Point:	1.743	Yaw Set Point:	-1.088	X_WP:	0.000	Y_WP:	0.000	Y_WP:	0.750	X:	-0.008	Y:	-1.195	Z:	0.044	yaw:	62.347	yaw rate:	-2.087	Roll:	-30.000	Pitch:	-16.344	Yaw:	89.360	Thrust:	100.000
Time:	1.929	Roll Set Point:	1.070	Pitch Set Point:	1.743	Yaw Set Point:	-1.088	X_WP:	0.000	Y_WP:	0.000	Y_WP:	0.750	X:	-0.008	Y:	-1.195	Z:	0.044	yaw:	62.338	yaw rate:	0.890	Roll:	-30.000	Pitch:	-16.729	Yaw:	88.851	Thrust:	100.000
Time:	1.948	Roll Set Point:	1.070	Pitch Set Point:	1.744	Yaw Set Point:	-1.087	X_WP:	0.000	Y_WP:	0.000	Y_WP:	0.750	X:	-0.008	Y:	-1.195	Z:	0.044	yaw:	62.299	yaw rate:	3.945	Roll:	-30.000	Pitch:	-17.299	Yaw:	88.345	Thrust:	100.000
Time:	1.968	Roll Set Point:	1.070	Pitch Set Point:	1.744	Yaw Set Point:	-1.088	X_WP:	0.000	Y_WP:	0.000	Y_WP:	0.750	X:	-0.008	Y:	-1.195	Z:	0.044	yaw:	62.313	yaw rate:	-1.405	Roll:	-30.000	Pitch:	-16.405	Yaw:	89.206	Thrust:	100.000
Time:	1.988	Roll Set Point:	1.070	Pitch Set Point:	1.743	Yaw Set Point:	-1.088	X_WP:	0.000	Y_WP:	0.000	Y_WP:	0.750	X:	-0.008	Y:	-1.195	Z:	0.044	yaw:	62.323	yaw rate:	-1.039	Roll:	-30.000	Pitch:	-16.478	Yaw:	89.174	Thrust:	100.000
Time:	2.009	Roll Set Point:	1.070	Pitch Set Point:	1.743	Yaw Set Point:	-1.088	X_WP:	0.000	Y_WP:	0.000	Y_WP:	0.750	X:	-0.008	Y:	-1.195	Z:	0.044	yaw:	62.328	yaw rate:	-0.512	Roll:	-30.000	Pitch:	-16.606	Yaw:	89.086	Thrust:	100.000
Time:	2.029	Roll Set Point:	1.070	Pitch Set Point:	1.744	Yaw Set Point:	-1.088	X_WP:	0.000	Y_WP:	0.000	Y_WP:	0.750	X:	-0.008	Y:	-1.195	Z:	0.044	yaw:	62.321	yaw rate:	0.739	Roll:	-30.000	Pitch:	-16.801	Yaw:	89.029	Thrust:	100.000
Time:	2.050	Roll Set Point:	1.070	Pitch Set Point:	1.743	Yaw Set Point:	-1.088	X_WP:	0.000	Y_WP:	0.000	Y_WP:	0.750	X:	-0.008	Y:	-1.195	Z:	0.044	yaw:	62.324	yaw rate:	-0.333	Roll:	-30.000	Pitch:	-16.560	Yaw:	89.143	Thrust:	100.000
Time:	2.069	Roll Set Point:	1.070	Pitch Set Point:	1.743	Yaw Set Point:	-1.088	X_WP:	0.000	Y_WP:	0.000	Y_WP:	0.750	X:	-0.008	Y:	-1.195	Z:	0.044	yaw:	62.343	yaw rate:	-1.809	Roll:	-30.000	Pitch:	-16.369	Yaw:	89.226	Thrust:	100.000
Time:	2.089	Roll Set Point:	1.070	Pitch Set Point:	1.743	Yaw Set Point:	-1.088	X_WP:	0.000	Y_WP:	0.000	Y_WP:	0.750	X:	-0.008	Y:	-1.195	Z:	0.044	yaw:	62.326	yaw rate:	1.702	Roll:	-30.000	Pitch:	-16.955	Yaw:	88.806	Thrust:	100.000
Time:	2.110	Roll Set Point:	1.070	Pitch Set Point:	1.743	Yaw Set Point:	-1.088	X_WP:	0.000	Y_WP:	0.000	Y_WP:	0.750	X:	-0.008	Y:	-1.195	Z:	0.044	yaw:	62.321	yaw rate:	0.457	Roll:	-30.000	Pitch:	-16.696	Yaw:	89.004	Thrust:	100.000
Time:	2.129	Roll Set Point:	1.070	Pitch Set Point:	1.743	Yaw Set Point:	-1.088	X_WP:	0.000	Y_WP:	0.000	Y_WP:	0.750	X:	-0.008	Y:	-1.195	Z:	0.044	yaw:	62.347	yaw rate:	-2.577	Roll:	-30.000	Pitch:	-16.159	Yaw:	89.356	Thrust:	100.000
Time:	2.148	Roll Set Point:	1.070	Pitch Set Point:	1.744	Yaw Set Point:	-1.088	X_WP:	0.000	Y_WP:	0.000	Y_WP:	0.750	X:	-0.008	Y:	-1.195	Z:	0.044	yaw:	62.317	yaw rate:	2.940	Roll:	-30.000	Pitch:	-17.152	Yaw:	88.512	Thrust:	100.000
Time:	2.169	Roll Set Point:	1.070	Pitch Set Point:	1.743	Yaw Set Point:	-1.088	X_WP:	0.000	Y_WP:	0.000	Y_WP:	0.750	X:	-0.008	Y:	-1.195	Z:	0.044	yaw:	62.333	yaw rate:	-1.547	Roll:	-30.000	Pitch:	-16.374	Yaw:	89.274	Thrust:	100.000
Time:	2.189	Roll Set Point:	1.070	Pitch Set Point:	1.743	Yaw Set Point:	-1.088	X_WP:	0.000	Y_WP:	0.000	Y_WP:	0.750	X:	-0.008	Y:	-1.195	Z:	0.044	yaw:	62.330	yaw rate:	0.265	Roll:	-30.000	Pitch:	-16.663	Yaw:	88.964	Thrust:	100.000
Time:	2.209	Roll Set Point:	1.070	Pitch Set Point:	1.744	Yaw Set Point:	-1.088	X_WP:	0.000	Y_WP:	0.000	Y_WP:	0.750	X:	-0.008	Y:	-1.195	Z:	0.044	yaw:	62.314	yaw rate:	1.570	Roll:	-30.000	Pitch:	-16.924	Yaw:	88.824	Thrust:	100.000
Time:	2.230	Roll Set Point:	1.070	Pitch Set Point:	1.743	Yaw Set Point:	-1.088	X_WP:	0.000	Y_WP:	0.000	Y_WP:	0.750	X:	-0.008	Y:	-1.195	Z:	0.044	yaw:	62.324	yaw rate:	-0.949	Roll:	-30.000	Pitch:	-16.532	Yaw:	89.263	Thrust:	100.000
Time:	2.248	Roll Set Point:	1.070	Pitch Set Point:	1.743	Yaw Set Point:	-1.088	X_WP:	0.000	Y_WP:	0.000	Y_WP:	0.750	X:	-0.008	Y:	-1.195	Z:	0.044	yaw:	62.321	yaw rate:	0.258	Roll:	-30.000	Pitch:	-16.635	Yaw:	88.789	Thrust:	100.000
Time:	2.269	Roll Set Point:	1.070	Pitch Set Point:	1.744	Yaw Set Point:	-1.088	X_WP:	0.000	Y_WP:	0.000	Y_WP:	0.750	X:	-0.008	Y:	-1.195	Z:	0.044	yaw:	62.314	yaw rate:	0.760	Roll:	-30.000	Pitch:	-16.796	Yaw:	88.872	Thrust:	100.000
Time:	2.290	Roll Set Point:	1.070	Pitch Set Point:	1.744	Yaw Set Point:	-1.087	X_WP:	0.000	Y_WP:	0.000	Y_WP:	0.750	X:	-0.008	Y:	-1.195	Z:	0.044	yaw:	62.306	yaw rate:	0.816	Roll:	-30.000	Pitch:	-16.803	Yaw:	89.104	Thrust:	100.000
Time:	2.313	Roll Set Point:	1.070	Pitch Set Point:	1.744	Yaw Set Point:	-1.088	X_WP:	0.000	Y_WP:	0.000	Y_WP:	0.750	X:	-0.008	Y:	-1.195	Z:	0.044	yaw:	62.310	yaw rate:	-0.444	Roll:	-30.000	Pitch:	-16.743	Yaw:	89.414	Thrust:	100.000
Time:	2.329	Roll Set Point:	1.070	Pitch Set Point:	1.743	Yaw Set Point:	-1.088	X_WP:	0.000	Y_WP:	0.000	Y_WP:	0.750	X:	-0.008	Y:	-1.195	Z:	0.044	yaw:	62.324	yaw rate:	-1.410	Roll:	-30.000	Pitch:	-16.238	Yaw:	88.813	Thrust:	100.000
Time:	2.353	Roll Set Point:	1.070	Pitch Set Point:	1.744	Yaw Set Point:	-1.087	X_WP:	0.000	Y_WP:	0.000	Y_WP:	0.750	X:	-0.008	Y:	-1.195	Z:	0.044	yaw:	62.303	yaw rate:	2.098	Roll:	-30.000	Pitch:	-17.098	Yaw:	89.170	Thrust:	100.000
Time:	2.369	Roll Set Point:	1.070	Pitch Set Point:	1.744	Yaw Set Point:	-1.087	X_WP:	0.000	Y_WP:	0.000	Y_WP:	0.750	X:	-0.008	Y:	-1.195	Z:	0.044	yaw:	62.304	yaw rate:	-0.053	Roll:	-30.000	Pitch:	-16.483	Yaw:	88.550	Thrust:	100.000
Time:	2.389	Roll Set Point:	1.070	Pitch Set Point:	1.743	Yaw Set Point:	-1.088	X_WP:	0.000	Y_WP:	0.000	Y_WP:	0.750	X:	-0.008	Y:	-1.195	Z:	0.044	yaw:	62.322	yaw rate:	-1.797	Roll:	-30.000	Pitch:	-16.326	Yaw:	89.213	Thrust:	100.000
Time:	2.409	Roll Set Point:	1.070	Pitch Set Point:	1.743	Yaw Set Point:	-1.088	X_WP:	0.000	Y_WP:	0.000	Y_WP:	0.750	X:	-0.008	Y:	-1.195	Z:	0.044	yaw:	62.322	yaw rate:	0.001	Roll:	-30.000	Pitch:	-16.644	Yaw:	89.068	Thrust:	100.000
Time:	2.430	Roll Set Point:	1.070	Pitch Set Point:	1.743	Yaw Set Point:	-1.088	X_WP:	0.000	Y_WP:	0.000	Y_WP:	0.750	X:	-0.008	Y:	-1.195	Z:	0.044	yaw:	62.329	yaw rate:	-0.734	Roll:	-30.000	Pitch:	-16.575	Yaw:	89.270	Thrust:	100.000
Time:	2.448	Roll Set Point:	1.070	Pitch Set Point:	1.744	Yaw Set Point:	-1.088	X_WP:	0.000	Y_WP:	0.000	Y_WP:	0.750	X:	-0.008	Y:	-1.195	Z:	0.044	yaw:	62.320	yaw rate:	0.892	Roll:	-30.000	Pitch:	-16.781	Yaw:	88.711	Thrust:	100.000
Time:	2.469	Roll Set Point:	1.070	Pitch Set Point:	1.744	Yaw Set Point:	-1.087	X_WP:	0.000	Y_WP:	0.000	Y_WP:	0.750	X:	-0.008	Y:	-1.195	Z:	0.044	yaw:	62.290	yaw rate:	3.035	Roll:	-30.000	Pitch:	-17.149	Yaw:	88.525	Thrust:	100.000
Time:	2.489	Roll Set Point:	1.070	Pitch Set Point:	1.743	Yaw Set Point:	-1.088	X_WP:	0.000	Y_WP:	0.000	Y_WP:	0.750	X:	-0.008	Y:	-1.195	Z:	0.044	yaw:	62.321	yaw rate:	-3.094	Roll:	-30.000	Pitch:	-16.140	Yaw:	89.427	Thrust:	100.000
Time:	2.508	Roll Set Point:	1.070	Pitch Set Point:	1.744	Yaw Set Point:	-1.087	X_WP:	0.000	Y_WP:	0.000	Y_WP:	0.750	X:	-0.008	Y:	-1.195	Z:	0.044	yaw:	62.282	yaw rate:	3.831	Roll:	-30.000	Pitch:	-17.313	Yaw:	88.498	Thrust:	100.000
Time:	2.529	Roll Set Point:	1.070	Pitch Set Point:	1.744	Yaw Set Point:	-1.087	X_WP:	0.000	Y_WP:	0.000	Y_WP:	0.750	X:	-0.008	Y:	-1.195	Z:	0.044	yaw:	62.303	yaw rate:	-2.037	Roll:	-30.000	Pitch:	-16.311	Yaw:	89.279	Thrust:	100.000
Time:	2.549	Roll Set Point:	1.070	Pitch Set Point:	1.744	Yaw Set Point:	-1.087	X_WP:	0.000	Y_WP:	0.000	Y_WP:	0.750	X:	-0.008	Y:	-1.195	Z:	0.044	yaw:	62.293	yaw rate:	0.945	Roll:	-30.000	Pitch:	-16.794	Yaw:	88.857	Thrust:	100.000
Time:	2.568	Roll Set Point:	1.070	Pitch Set Point:	1.743	Yaw Set Point:	-1.088	X_WP:	0.000	Y_WP:	0.000	Y_WP:	0.750	X:	-0.008	Y:	-1.195	Z:	0.044	yaw:	62.337	yaw rate:	-4.349	Roll:	-30.000	Pitch:	-15.995	Yaw:	89.577	Thrust:	100.000
Time:	2.589	Roll Set Point:	1.070	Pitch Set Point:	1.744	Yaw Set Point:	-1.087	X_WP:	0.000	Y_WP:	0.000	Y_WP:	0.750	X:	-0.008	Y:	-1.195	Z:	0.044	yaw:	62.288	yaw rate:	4.914	Roll:	-30.000	Pitch:	-17.479	Yaw:	88.433	Thrust:	100.000
Time:	2.609	Roll Set Point:	1.070	Pitch Set Point:	1.743	Yaw Set Point:	-1.088	X_WP:	0.000	Y_WP:	0.000	Y_WP:	0.750	X:	-0.008	Y:	-1.195	Z:	0.044	yaw:	62.330	yaw rate:	-4.275	Roll:	-30.000	Pitch:	-15.924	Yaw:	89.567	Thrust:	100.000
Time:	2.630	Roll Set Point:	1.070	Pitch Set Point:	1.743	Yaw Set Point:	-1.088	X_WP:	0.000	Y_WP:	0.000	Y_WP:	0.750	X:	-0.008	Y:	-1.195	Z:	0.044	yaw:	62.331	yaw rate:	-0.087	Roll:	-30.000	Pitch:	-16.644	Yaw:	89.133	Thrust:	100.000
Time:	2.649	Roll Set Point:	1.070	Pitch Set Point:	1.743	Yaw Set Point:	-1.088	X_WP:	0.000	Y_WP:	0.000	Y_WP:	0.750	X:	-0.008	Y:	-1.195	Z:	0.044	yaw:	62.344	yaw rate:	-1.266	Roll:	-30.000	Pitch:	-16.404	Yaw:	89.080	Thrust:	100.000
Time:	2.668	Roll Set Point:	1.070	Pitch Set Point:	1.743	Yaw Set Point:	-1.088	X_WP:	0.000	Y_WP:	0.000	Y_WP:	0.750	X:	-0.008	Y:	-1.195	Z:	0.044	yaw:	62.330	yaw rate:	1.396	Roll:	-30.000	Pitch:	-16.865	Yaw:	88.844	Thrust:	100.000
Time:	2.688	Roll Set Point:	1.070	Pitch Set Point:	1.743	Yaw Set Point:	-1.088	X_WP:	0.000	Y_WP:	0.000	Y_WP:	0.750	X:	-0.008	Y:	-1.195	Z:	0.044	yaw:	62.325	yaw rate:	0.517	Roll:	-30.000	Pitch:	-16.738	Yaw:	88.960	Thrust:	100.000
Time:	2.708	Roll Set Point:	1.070	Pitch Set Point:	1.744	Yaw Set Point:	-1.088	X_WP:	0.000	Y_WP:	0.000	Y_WP:	0.750	X:	-0.008	Y:	-1.195	Z:	0.044	yaw:	62.317	yaw rate:	0.735	Roll:	-30.000	Pitch:	-16.772	Yaw:	88.929	Thrust:	100.000
Time:	2.730	Roll Set Point:	1.070	Pitch Set Point:	1.744	Yaw Set Point:	-1.087	X_WP:	0.000	Y_WP:	0.000	Y_WP:	0.750	X:	-0.008	Y:	-1.195	Z:	0.044	yaw:	62.298	yaw rate:	1.890	Roll:	-30.000	Pitch:	-16.968	Yaw:	88.824	Thrust:	100.000
Time:	2.749	Roll Set Point:	1.070	Pitch Set Point:	1.743	Yaw Set Point:	-1.088	X_WP:	0.000	Y_WP:	0.000	Y_WP:	0.750	X:	-0.008	Y:	-1.195	Z:	0.044	yaw:	62.334	yaw rate:	-3.563	Roll:	-30.000	Pitch:	-16.089	Yaw:	89.503	Thrust:	100.000
Time:	2.768	Roll Set Point:	1.070	Pitch Set Point:	1.743	Yaw Set Point:	-1.088	X_WP:	0.000	Y_WP:	0.000	Y_WP:	0.750	X:	-0.008	Y:	-1.195	Z:	0.044	yaw:	62.324	yaw rate:	0.967	Roll:	-30.000	Pitch:	-16.748	Yaw:	88.784	Thrust:	100.000
Time:	2.788	Roll Set Point:	1.070	Pitch Set Point:	1.744	Yaw Set Point:	-1.087	X_WP:	0.000	Y_WP:	0.000	Y_WP:	0.750	X:	-0.008	Y:	-1.195	Z:	0.044	yaw:	62.309	yaw rate:	1.579	Roll:	-30.000	Pitch:	-16.907	Yaw:	88.837	Thrust:	100.000
Time:	2.809	Roll Set Point:	1.070	Pitch Set Point:	1.744	Yaw Set Point:	-1.087	X_WP:	0.000	Y_WP:	0.000	Y_WP:	0.750	X:	-0.008	Y:	-1.195	Z:	0.044	yaw:	62.301	yaw rate:	0.763	Roll:	-30.000	Pitch:	-16.779	Yaw:	88.856	Thrust:	100.000
Time:	2.831	Roll Set Point:	1.070	Pitch Set Point:	1.743	Yaw Set Point:	-1.088	X_WP:	0.000	Y_WP:	0.000	Y_WP:	0.750	X:	-0.008	Y:	-1.195	Z:	0.044	yaw:	62.333	yaw rate:	-3.220	Roll:	-30.000	Pitch:	-16.265	Yaw:	89.643	Thrust:	100.000
Time:	2.849	Roll Set Point:	1.070	Pitch Set Point:	1.743	Yaw Set Point:	-1.088	X_WP:	0.000	Y_WP:	0.000	Y_WP:	0.750	X:	-0.008	Y:	-1.195	Z:	0.044	yaw:	62.321	yaw rate:	1.211	Roll:	-30.000	Pitch:	-16.760	Yaw:	88.659	Thrust:	100.000
Time:	2.868	Roll Set Point:	1.070	Pitch Set Point:	1.743	Yaw Set Point:	-1.088	X_WP:	0.000	Y_WP:	0.000	Y_WP:	0.750	X:	-0.008	Y:	-1.195	Z:	0.044	yaw:	62.332	yaw rate:	-1.080	Roll:	-30.000	Pitch:	-16.486	Yaw:	89.156	Thrust:	100.000
Time:	2.891	Roll Set Point:	1.070	Pitch Set Point:	1.744	Yaw Set Point:	-1.087	X_WP:	0.000	Y_WP:	0.000	Y_WP:	0.750	X:	-0.008	Y:	-1.195	Z:	0.044	yaw:	62.298	yaw rate:	3.412	Roll:	-30.000	Pitch:	-17.233	Yaw:	88.670	Thrust:	100.000
Time:	2.911	Roll Set Point:	1.070	Pitch Set Point:	1.744	Yaw Set Point:	-1.087	X_WP:	0.000	Y_WP:	0.000	Y_WP:	0.750	X:	-0.008	Y:	-1.195	Z:	0.044	yaw:	62.306	yaw rate:	-0.807	Roll:	-30.000	Pitch:	-16.530	Yaw:	89.205	Thrust:	100.000
Time:	2.931	Roll Set Point:	1.070	Pitch Set Point:	1.743	Yaw Set Point:	-1.088	X_WP:	0.000	Y_WP:	0.000	Y_WP:	0.750	X:	-0.008	Y:	-1.195	Z:	0.044	yaw:	62.328	yaw rate:	-2.167	Roll:	-30.000	Pitch:	-16.312	Yaw:	89.349	Thrust:	100.000
Time:	2.950	Roll Set Point:	1.070	Pitch Set Point:	1.743	Yaw Set Point:	-1.088	X_WP:	0.000	Y_WP:	0.000	Y_WP:	0.750	X:	-0.008	Y:	-1.195	Z:	0.044	yaw:	62.342	yaw rate:	-1.402	Roll:	-30.000	Pitch:	-16.380	Yaw:	89.144	Thrust:	100.000
Time:	2.971	Roll Set Point:	1.070	Pitch Set Point:	1.744	Yaw Set Point:	-1.088	X_WP:	0.000	Y_WP:	0.000	Y_WP:	0.750	X:	-0.008	Y:	-1.195	Z:	0.044	yaw:	62.311	yaw rate:	3.066	Roll:	-30.000	Pitch:	-17.150	Yaw:	88.573	Thrust:	100.000
Time:	2.989	Roll Set Point:	1.070	Pitch Set Point:	1.743	Yaw Set Point:	-1.088	X_WP:	0.000	Y_WP:	0.000	Y_WP:	0.750	X:	-0.008	Y:	-1.195	Z:	0.044	yaw:	62.321	yaw rate:	-1.011	Roll:	-30.000	Pitch:	-16.417	Yaw:	89.007	Thrust:	100.000
Time:	3.009	Roll Set Point:	1.070	Pitch Set Point:	1.744	Yaw Set Point:	-1.088	X_WP:	0.000	Y_WP:	0.000	Y_WP:	0.750	X:	-0.008	Y:	-1.195	Z:	0.044	yaw:	62.312	yaw rate:	0.924	Roll:	-30.000	Pitch:	-16.821	Yaw:	88.995	Thrust:	100.000
Time:	3.029	Roll Set Point:	1.070	Pitch Set Point:	1.744	Yaw Set Point:	-1.087	X_WP:	0.000	Y_WP:	0.000	Y_WP:	0.750	X:	-0.008	Y:	-1.195	Z:	0.044	yaw:	62.300	yaw rate:	1.225	Roll:	-30.000	Pitch:	-16.831	Yaw:	88.784	Thrust:	100.000
Time:	3.050	Roll Set Point:	1.070	Pitch Set Point:	1.744	Yaw Set Point:	-1.088	X_WP:	0.000	Y_WP:	0.000	Y_WP:	0.750	X:	-0.008	Y:	-1.195	Z:	0.044	yaw:	62.313	yaw rate:	-1.396	Roll:	-30.000	Pitch:	-16.449	Yaw:	89.196	Thrust:	100.000
Time:	3.070	Roll Set Point:	1.070	Pitch Set Point:	1.744	Yaw Set Point:	-1.087	X_WP:	0.000	Y_WP:	0.000	Y_WP:	0.750	X:	-0.008	Y:	-1.195	Z:	0.044	yaw:	62.277	yaw rate:	3.650	Roll:	-30.000	Pitch:	-17.259	Yaw:	88.575	Thrust:	100.000
Time:	3.090	Roll Set Point:	1.070	Pitch Set Point:	1.744	Yaw Set Point:	-1.088	X_WP:	0.000	Y_WP:	0.000	Y_WP:	0.750	X:	-0.008	Y:	-1.195	Z:	0.044	yaw:	62.310	yaw rate:	-3.333	Roll:	-30.000	Pitch:	-16.147	Yaw:	89.442	Thrust:	100.000
Time:	3.110	Roll Set Point:	1.070	Pitch Set Point:	1.743	Yaw Set Point:	-1.088	X_WP:	0.000	Y_WP:	0.000	Y_WP:	0.750	X:	-0.008	Y:	-1.195	Z:	0.044	yaw:	62.333	yaw rate:	-2.225	Roll:	-30.000	Pitch:	-16.267	Yaw:	89.278	Thrust:	100.000
Time:	3.131	Roll Set Point:	1.070	Pitch Set Point:	1.743	Yaw Set Point:	-1.088	X_WP:	0.000	Y_WP:	0.000	Y_WP:	0.750	X:	-0.008	Y:	-1.195	Z:	0.044	yaw:	62.320	yaw rate:	1.251	Roll:	-30.000	Pitch:	-16.858	Yaw:	89.007	Thrust:	100.000
Time:	3.150	Roll Set Point:	1.070	Pitch Set Point:	1.743	Yaw Set Point:	-1.088	X_WP:	0.000	Y_WP:	0.000	Y_WP:	0.750	X:	-0.008	Y:	-1.195	Z:	0.044	yaw:	62.323	yaw rate:	-0.331	Roll:	-30.000	Pitch:	-16.572	Yaw:	88.971	Thrust:	100.000
Time:	3.171	Roll Set Point:	1.070	Pitch Set Point:	1.744	Yaw Set Point:	-1.088	X_WP:	0.000	Y_WP:	0.000	Y_WP:	0.750	X:	-0.008	Y:	-1.195	Z:	0.044	yaw:	62.314	yaw rate:	0.906	Roll:	-30.000	Pitch:	-16.846	Yaw:	88.909	Thrust:	100.000
Time:	3.189	Roll Set Point:	1.070	Pitch Set Point:	1.744	Yaw Set Point:	-1.088	X_WP:	0.000	Y_WP:	0.000	Y_WP:	0.750	X:	-0.008	Y:	-1.195	Z:	0.044	yaw:	62.310	yaw rate:	0.419	Roll:	-30.000	Pitch:	-16.634	Yaw:	88.811	Thrust:	100.000
Time:	3.208	Roll Set Point:	1.070	Pitch Set Point:	1.743	Yaw Set Point:	-1.088	X_WP:	0.000	Y_WP:	0.000	Y_WP:	0.750	X:	-0.008	Y:	-1.195	Z:	0.044	yaw:	62.339	yaw rate:	-2.911	Roll:	-30.000	Pitch:	-16.168	Yaw:	89.358	Thrust:	100.000
Time:	3.231	Roll Set Point:	1.070	Pitch Set Point:	1.744	Yaw Set Point:	-1.088	X_WP:	0.000	Y_WP:	0.000	Y_WP:	0.750	X:	-0.008	Y:	-1.195	Z:	0.044	yaw:	62.312	yaw rate:	2.681	Roll:	-30.000	Pitch:	-17.119	Yaw:	88.909	Thrust:	100.000
Time:	3.252	Roll Set Point:	1.070	Pitch Set Point:	1.744	Yaw Set Point:	-1.087	X_WP:	0.000	Y_WP:	0.000	Y_WP:	0.750	X:	-0.008	Y:	-1.195	Z:	0.044	yaw:	62.301	yaw rate:	1.118	Roll:	-30.000	Pitch:	-16.899	Yaw:	89.010	Thrust:	100.000
Time:	3.269	Roll Set Point:	1.070	Pitch Set Point:	1.743	Yaw Set Point:	-1.088	X_WP:	0.000	Y_WP:	0.000	Y_WP:	0.750	X:	-0.008	Y:	-1.195	Z:	0.044	yaw:	62.323	yaw rate:	-2.129	Roll:	-30.000	Pitch:	-16.065	Yaw:	88.955	Thrust:	100.000
Time:	3.289	Roll Set Point:	1.070	Pitch Set Point:	1.743	Yaw Set Point:	-1.088	X_WP:	0.000	Y_WP:	0.000	Y_WP:	0.750	X:	-0.008	Y:	-1.195	Z:	0.044	yaw:	62.334	yaw rate:	-1.178	Roll:	-30.000	Pitch:	-16.514	Yaw:	89.287	Thrust:	100.000
Time:	3.309	Roll Set Point:	1.070	Pitch Set Point:	1.743	Yaw Set Point:	-1.088	X_WP:	0.000	Y_WP:	0.000	Y_WP:	0.750	X:	-0.008	Y:	-1.195	Z:	0.044	yaw:	62.336	yaw rate:	-0.127	Roll:	-30.000	Pitch:	-16.613	Yaw:	89.092	Thrust:	100.000
Time:	3.328	Roll Set Point:	1.070	Pitch Set Point:	1.744	Yaw Set Point:	-1.087	X_WP:	0.000	Y_WP:	0.000	Y_WP:	0.750	X:	-0.008	Y:	-1.195	Z:	0.044	yaw:	62.299	yaw rate:	3.684	Roll:	-30.000	Pitch:	-17.262	Yaw:	88.404	Thrust:	100.000
Time:	3.350	Roll Set Point:	1.070	Pitch Set Point:	1.743	Yaw Set Point:	-1.088	X_WP:	0.000	Y_WP:	0.000	Y_WP:	0.750	X:	-0.008	Y:	-1.195	Z:	0.044	yaw:	62.331	yaw rate:	-3.183	Roll:	-30.000	Pitch:	-16.159	Yaw:	89.614	Thrust:	100.000
Time:	3.369	Roll Set Point:	1.070	Pitch Set Point:	1.743	Yaw Set Point:	-1.088	X_WP:	0.000	Y_WP:	0.000	Y_WP:	0.750	X:	-0.008	Y:	-1.195	Z:	0.044	yaw:	62.328	yaw rate:	0.207	Roll:	-30.000	Pitch:	-16.667	Yaw:	88.845	Thrust:	100.000
Time:	3.389	Roll Set Point:	1.070	Pitch Set Point:	1.744	Yaw Set Point:	-1.088	X_WP:	0.000	Y_WP:	0.000	Y_WP:	0.750	X:	-0.008	Y:	-1.195	Z:	0.044	yaw:	62.315	yaw rate:	1.301	Roll:	-30.000	Pitch:	-16.863	Yaw:	88.855	Thrust:	100.000
Time:	3.409	Roll Set Point:	1.070	Pitch Set Point:	1.744	Yaw Set Point:	-1.087	X_WP:	0.000	Y_WP:	0.000	Y_WP:	0.750	X:	-0.008	Y:	-1.195	Z:	0.044	yaw:	62.308	yaw rate:	0.745	Roll:	-30.000	Pitch:	-16.788	Yaw:	88.878	Thrust:	100.000
Time:	3.432	Roll Set Point:	1.070	Pitch Set Point:	1.743	Yaw Set Point:	-1.088	X_WP:	0.000	Y_WP:	0.000	Y_WP:	0.750	X:	-0.008	Y:	-1.195	Z:	0.044	yaw:	62.332	yaw rate:	-2.356	Roll:	-30.000	Pitch:	-16.397	Yaw:	89.627	Thrust:	100.000
Time:	3.449	Roll Set Point:	1.069	Pitch Set Point:	1.745	Yaw Set Point:	-1.087	X_WP:	0.000	Y_WP:	0.000	Y_WP:	0.750	X:	-0.008	Y:	-1.195	Z:	0.044	yaw:	62.266	yaw rate:	6.510	Roll:	-30.000	Pitch:	-17.795	Yaw:	87.613	Thrust:	100.000
Time:	3.469	Roll Set Point:	1.070	Pitch Set Point:	1.743	Yaw Set Point:	-1.088	X_WP:	0.000	Y_WP:	0.000	Y_WP:	0.750	X:	-0.008	Y:	-1.195	Z:	0.044	yaw:	62.322	yaw rate:	-5.558	Roll:	-30.000	Pitch:	-15.760	Yaw:	89.721	Thrust:	100.000
Time:	3.489	Roll Set Point:	1.070	Pitch Set Point:	1.743	Yaw Set Point:	-1.088	X_WP:	0.000	Y_WP:	0.000	Y_WP:	0.750	X:	-0.008	Y:	-1.195	Z:	0.044	yaw:	62.335	yaw rate:	-1.309	Roll:	-30.000	Pitch:	-16.429	Yaw:	89.212	Thrust:	100.000
Time:	3.509	Roll Set Point:	1.070	Pitch Set Point:	1.744	Yaw Set Point:	-1.087	X_WP:	0.000	Y_WP:	0.000	Y_WP:	0.750	X:	-0.008	Y:	-1.195	Z:	0.044	yaw:	62.292	yaw rate:	4.333	Roll:	-30.000	Pitch:	-17.376	Yaw:	88.413	Thrust:	100.000
Time:	3.531	Roll Set Point:	1.070	Pitch Set Point:	1.743	Yaw Set Point:	-1.088	X_WP:	0.000	Y_WP:	0.000	Y_WP:	0.750	X:	-0.008	Y:	-1.195	Z:	0.044	yaw:	62.335	yaw rate:	-4.334	Roll:	-30.000	Pitch:	-16.080	Yaw:	89.720	Thrust:	100.000
Time:	3.550	Roll Set Point:	1.070	Pitch Set Point:	1.744	Yaw Set Point:	-1.087	X_WP:	0.000	Y_WP:	0.000	Y_WP:	0.750	X:	-0.008	Y:	-1.195	Z:	0.044	yaw:	62.305	yaw rate:	3.040	Roll:	-30.000	Pitch:	-17.144	Yaw:	88.481	Thrust:	100.000
Time:	3.572	Roll Set Point:	1.070	Pitch Set Point:	1.744	Yaw Set Point:	-1.088	X_WP:	0.000	Y_WP:	0.000	Y_WP:	0.750	X:	-0.008	Y:	-1.195	Z:	0.044	yaw:	62.314	yaw rate:	-0.949	Roll:	-30.000	Pitch:	-16.519	Yaw:	89.321	Thrust:	100.000
Time:	3.589	Roll Set Point:	1.070	Pitch Set Point:	1.743	Yaw Set Point:	-1.088	X_WP:	0.000	Y_WP:	0.000	Y_WP:	0.750	X:	-0.008	Y:	-1.195	Z:	0.044	yaw:	62.329	yaw rate:	-1.447	Roll:	-30.000	Pitch:	-16.342	Yaw:	89.005	Thrust:	100.000
Time:	3.610	Roll Set Point:	1.070	Pitch Set Point:	1.743	Yaw Set Point:	-1.088	X_WP:	0.000	Y_WP:	0.000	Y_WP:	0.750	X:	-0.008	Y:	-1.195	Z:	0.044	yaw:	62.336	yaw rate:	-0.714	Roll:	-30.000	Pitch:	-16.549	Yaw:	89.182	Thrust:	100.000
Time:	3.631	Roll Set Point:	1.070	Pitch Set Point:	1.744	Yaw Set Point:	-1.087	X_WP:	0.000	Y_WP:	0.000	Y_WP:	0.750	X:	-0.008	Y:	-1.195	Z:	0.044	yaw:	62.304	yaw rate:	3.228	Roll:	-30.000	Pitch:	-17.169	Yaw:	88.781	Thrust:	100.000
Time:	3.649	Roll Set Point:	1.070	Pitch Set Point:	1.743	Yaw Set Point:	-1.088	X_WP:	0.000	Y_WP:	0.000	Y_WP:	0.750	X:	-0.008	Y:	-1.195	Z:	0.044	yaw:	62.332	yaw rate:	-2.839	Roll:	-30.000	Pitch:	-16.064	Yaw:	89.213	Thrust:	100.000
Time:	3.668	Roll Set Point:	1.070	Pitch Set Point:	1.744	Yaw Set Point:	-1.087	X_WP:	0.000	Y_WP:	0.000	Y_WP:	0.750	X:	-0.008	Y:	-1.195	Z:	0.044	yaw:	62.305	yaw rate:	2.698	Roll:	-30.000	Pitch:	-17.121	Yaw:	88.478	Thrust:	100.000
Time:	3.688	Roll Set Point:	1.070	Pitch Set Point:	1.743	Yaw Set Point:	-1.088	X_WP:	0.000	Y_WP:	0.000	Y_WP:	0.750	X:	-0.008	Y:	-1.195	Z:	0.044	yaw:	62.327	yaw rate:	-2.167	Roll:	-30.000	Pitch:	-16.277	Yaw:	89.402	Thrust:	100.000
Time:	3.709	Roll Set Point:	1.070	Pitch Set Point:	1.744	Yaw Set Point:	-1.088	X_WP:	0.000	Y_WP:	0.000	Y_WP:	0.750	X:	-0.008	Y:	-1.195	Z:	0.044	yaw:	62.317	yaw rate:	0.965	Roll:	-30.000	Pitch:	-16.821	Yaw:	88.905	Thrust:	100.000
Time:	3.730	Roll Set Point:	1.070	Pitch Set Point:	1.744	Yaw Set Point:	-1.088	X_WP:	0.000	Y_WP:	0.000	Y_WP:	0.750	X:	-0.008	Y:	-1.195	Z:	0.044	yaw:	62.315	yaw rate:	0.247	Roll:	-30.000	Pitch:	-16.755	Yaw:	89.048	Thrust:	100.000
Time:	3.749	Roll Set Point:	1.070	Pitch Set Point:	1.744	Yaw Set Point:	-1.087	X_WP:	0.000	Y_WP:	0.000	Y_WP:	0.750	X:	-0.008	Y:	-1.195	Z:	0.044	yaw:	62.291	yaw rate:	2.317	Roll:	-30.000	Pitch:	-17.037	Yaw:	88.678	Thrust:	100.000
Time:	3.771	Roll Set Point:	1.070	Pitch Set Point:	1.743	Yaw Set Point:	-1.088	X_WP:	0.000	Y_WP:	0.000	Y_WP:	0.750	X:	-0.008	Y:	-1.195	Z:	0.044	yaw:	62.334	yaw rate:	-4.301	Roll:	-30.000	Pitch:	-15.944	Yaw:	89.615	Thrust:	100.000
Time:	3.788	Roll Set Point:	1.070	Pitch Set Point:	1.743	Yaw Set Point:	-1.088	X_WP:	0.000	Y_WP:	0.000	Y_WP:	0.750	X:	-0.008	Y:	-1.195	Z:	0.044	yaw:	62.324	yaw rate:	1.088	Roll:	-30.000	Pitch:	-16.809	Yaw:	88.679	Thrust:	100.000
Time:	3.808	Roll Set Point:	1.070	Pitch Set Point:	1.744	Yaw Set Point:	-1.087	X_WP:	0.000	Y_WP:	0.000	Y_WP:	0.750	X:	-0.008	Y:	-1.195	Z:	0.044	yaw:	62.306	yaw rate:	1.740	Roll:	-30.000	Pitch:	-16.928	Yaw:	88.770	Thrust:	100.000
Time:	3.829	Roll Set Point:	1.070	Pitch Set Point:	1.744	Yaw Set Point:	-1.087	X_WP:	0.000	Y_WP:	0.000	Y_WP:	0.750	X:	-0.008	Y:	-1.195	Z:	0.044	yaw:	62.300	yaw rate:	0.585	Roll:	-30.000	Pitch:	-16.812	Yaw:	89.078	Thrust:	100.000
Time:	3.849	Roll Set Point:	1.070	Pitch Set Point:	1.744	Yaw Set Point:	-1.088	X_WP:	0.000	Y_WP:	0.000	Y_WP:	0.750	X:	-0.008	Y:	-1.195	Z:	0.044	yaw:	62.318	yaw rate:	-1.783	Roll:	-30.000	Pitch:	-16.278	Yaw:	89.162	Thrust:	100.000
Time:	3.868	Roll Set Point:	1.070	Pitch Set Point:	1.744	Yaw Set Point:	-1.087	X_WP:	0.000	Y_WP:	0.000	Y_WP:	0.750	X:	-0.008	Y:	-1.195	Z:	0.044	yaw:	62.288	yaw rate:	3.017	Roll:	-30.000	Pitch:	-17.146	Yaw:	88.475	Thrust:	100.000
Time:	3.888	Roll Set Point:	1.070	Pitch Set Point:	1.744	Yaw Set Point:	-1.088	X_WP:	0.000	Y_WP:	0.000	Y_WP:	0.750	X:	-0.008	Y:	-1.195	Z:	0.044	yaw:	62.317	yaw rate:	-2.901	Roll:	-30.000	Pitch:	-16.178	Yaw:	89.395	Thrust:	100.000
Time:	3.909	Roll Set Point:	1.070	Pitch Set Point:	1.744	Yaw Set Point:	-1.088	X_WP:	0.000	Y_WP:	0.000	Y_WP:	0.750	X:	-0.008	Y:	-1.195	Z:	0.044	yaw:	62.318	yaw rate:	-0.110	Roll:	-30.000	Pitch:	-16.672	Yaw:	89.121	Thrust:	100.000
Time:	3.929	Roll Set Point:	1.070	Pitch Set Point:	1.743	Yaw Set Point:	-1.088	X_WP:	0.000	Y_WP:	0.000	Y_WP:	0.750	X:	-0.008	Y:	-1.195	Z:	0.044	yaw:	62.334	yaw rate:	-1.588	Roll:	-30.000	Pitch:	-16.377	Yaw:	89.249	Thrust:	100.000
Time:	3.950	Roll Set Point:	1.070	Pitch Set Point:	1.744	Yaw Set Point:	-1.087	X_WP:	0.000	Y_WP:	0.000	Y_WP:	0.750	X:	-0.008	Y:	-1.195	Z:	0.044	yaw:	62.297	yaw rate:	3.653	Roll:	-30.000	Pitch:	-17.286	Yaw:	88.517	Thrust:	100.000
Time:	3.968	Roll Set Point:	1.070	Pitch Set Point:	1.743	Yaw Set Point:	-1.088	X_WP:	0.000	Y_WP:	0.000	Y_WP:	0.750	X:	-0.008	Y:	-1.195	Z:	0.044	yaw:	62.354	yaw rate:	-5.662	Roll:	-30.000	Pitch:	-15.654	Yaw:	89.778	Thrust:	100.000
Time:	3.989	Roll Set Point:	1.070	Pitch Set Point:	1.744	Yaw Set Point:	-1.087	X_WP:	0.000	Y_WP:	0.000	Y_WP:	0.750	X:	-0.008	Y:	-1.195	Z:	0.044	yaw:	62.288	yaw rate:	6.557	Roll:	-30.000	Pitch:	-17.738	Yaw:	88.211	Thrust:	100.000
Time:	4.008	Roll Set Point:	1.070	Pitch Set Point:	1.743	Yaw Set Point:	-1.088	X_WP:	0.000	Y_WP:	0.000	Y_WP:	0.750	X:	-0.008	Y:	-1.195	Z:	0.044	yaw:	62.327	yaw rate:	-3.890	Roll:	-30.000	Pitch:	-15.935	Yaw:	89.478	Thrust:	100.000
Time:	4.030	Roll Set Point:	1.070	Pitch Set Point:	1.743	Yaw Set Point:	-1.088	X_WP:	0.000	Y_WP:	0.000	Y_WP:	0.750	X:	-0.008	Y:	-1.195	Z:	0.044	yaw:	62.329	yaw rate:	-0.208	Roll:	-30.000	Pitch:	-16.706	Yaw:	89.244	Thrust:	100.000
Time:	4.048	Roll Set Point:	1.070	Pitch Set Point:	1.744	Yaw Set Point:	-1.088	X_WP:	0.000	Y_WP:	0.000	Y_WP:	0.750	X:	-0.008	Y:	-1.195	Z:	0.044	yaw:	62.317	yaw rate:	1.263	Roll:	-30.000	Pitch:	-16.783	Yaw:	88.650	Thrust:	100.000
Time:	4.069	Roll Set Point:	1.070	Pitch Set Point:	1.744	Yaw Set Point:	-1.087	X_WP:	0.000	Y_WP:	0.000	Y_WP:	0.750	X:	-0.008	Y:	-1.195	Z:	0.044	yaw:	62.297	yaw rate:	1.944	Roll:	-30.000	Pitch:	-16.982	Yaw:	88.628	Thrust:	100.000
Time:	4.089	Roll Set Point:	1.070	Pitch Set Point:	1.744	Yaw Set Point:	-1.087	X_WP:	0.000	Y_WP:	0.000	Y_WP:	0.750	X:	-0.008	Y:	-1.195	Z:	0.044	yaw:	62.305	yaw rate:	-0.789	Roll:	-30.000	Pitch:	-16.522	Yaw:	89.198	Thrust:	100.000
Time:	4.108	Roll Set Point:	1.070	Pitch Set Point:	1.743	Yaw Set Point:	-1.088	X_WP:	0.000	Y_WP:	0.000	Y_WP:	0.750	X:	-0.008	Y:	-1.195	Z:	0.044	yaw:	62.325	yaw rate:	-1.930	Roll:	-30.000	Pitch:	-16.375	Yaw:	89.249	Thrust:	100.000
Time:	4.128	Roll Set Point:	1.070	Pitch Set Point:	1.743	Yaw Set Point:	-1.088	X_WP:	0.000	Y_WP:	0.000	Y_WP:	0.750	X:	-0.008	Y:	-1.195	Z:	0.044	yaw:	62.323	yaw rate:	0.169	Roll:	-30.000	Pitch:	-16.650	Yaw:	88.930	Thrust:	100.000
Time:	4.148	Roll Set Point:	1.070	Pitch Set Point:	1.743	Yaw Set Point:	-1.088	X_WP:	0.000	Y_WP:	0.000	Y_WP:	0.750	X:	-0.008	Y:	-1.195	Z:	0.044	yaw:	62.323	yaw rate:	-0.037	Roll:	-30.000	Pitch:	-16.621	Yaw:	89.037	Thrust:	100.000
Time:	4.168	Roll Set Point:	1.070	Pitch Set Point:	1.744	Yaw Set Point:	-1.088	X_WP:	0.000	Y_WP:	0.000	Y_WP:	0.750	X:	-0.008	Y:	-1.195	Z:	0.044	yaw:	62.313	yaw rate:	1.020	Roll:	-30.000	Pitch:	-16.854	Yaw:	88.936	Thrust:	100.000
Time:	4.189	Roll Set Point:	1.070	Pitch Set Point:	1.744	Yaw Set Point:	-1.087	X_WP:	0.000	Y_WP:	0.000	Y_WP:	0.750	X:	-0.008	Y:	-1.195	Z:	0.044	yaw:	62.309	yaw rate:	0.419	Roll:	-30.000	Pitch:	-16.719	Yaw:	88.908	Thrust:	100.000
Time:	4.209	Roll Set Point:	1.070	Pitch Set Point:	1.743	Yaw Set Point:	-1.088	X_WP:	0.000	Y_WP:	0.000	Y_WP:	0.750	X:	-0.008	Y:	-1.195	Z:	0.044	yaw:	62.320	yaw rate:	-1.141	Roll:	-30.000	Pitch:	-16.483	Yaw:	89.264	Thrust:	100.000
Time:	4.231	Roll Set Point:	1.070	Pitch Set Point:	1.743	Yaw Set Point:	-1.088	X_WP:	0.000	Y_WP:	0.000	Y_WP:	0.750	X:	-0.008	Y:	-1.195	Z:	0.044	yaw:	62.324	yaw rate:	-0.394	Roll:	-30.000	Pitch:	-16.642	Yaw:	89.236	Thrust:	100.000
Time:	4.248	Roll Set Point:	1.070	Pitch Set Point:	1.744	Yaw Set Point:	-1.088	X_WP:	0.000	Y_WP:	0.000	Y_WP:	0.750	X:	-0.008	Y:	-1.195	Z:	0.044	yaw:	62.319	yaw rate:	0.519	Roll:	-30.000	Pitch:	-16.713	Yaw:	88.640	Thrust:	100.000
Time:	4.268	Roll Set Point:	1.070	Pitch Set Point:	1.744	Yaw Set Point:	-1.088	X_WP:	0.000	Y_WP:	0.000	Y_WP:	0.750	X:	-0.008	Y:	-1.195	Z:	0.044	yaw:	62.315	yaw rate:	0.367	Roll:	-30.000	Pitch:	-16.640	Yaw:	88.896	Thrust:	100.000
Time:	4.287	Roll Set Point:	1.070	Pitch Set Point:	1.743	Yaw Set Point:	-1.088	X_WP:	0.000	Y_WP:	0.000	Y_WP:	0.750	X:	-0.008	Y:	-1.195	Z:	0.044	yaw:	62.334	yaw rate:	-1.902	Roll:	-30.000	Pitch:	-16.337	Yaw:	89.289	Thrust:	100.000
Time:	4.307	Roll Set Point:	1.070	Pitch Set Point:	1.744	Yaw Set Point:	-1.087	X_WP:	0.000	Y_WP:	0.000	Y_WP:	0.750	X:	-0.008	Y:	-1.195	Z:	0.044	yaw:	62.279	yaw rate:	5.530	Roll:	-30.000	Pitch:	-17.574	Yaw:	88.233	Thrust:	100.000
Time:	4.328	Roll Set Point:	1.070	Pitch Set Point:	1.743	Yaw Set Point:	-1.088	X_WP:	0.000	Y_WP:	0.000	Y_WP:	0.750	X:	-0.008	Y:	-1.195	Z:	0.044	yaw:	62.328	yaw rate:	-4.945	Roll:	-30.000	Pitch:	-15.859	Yaw:	89.712	Thrust:	100.000
Time:	4.347	Roll Set Point:	1.070	Pitch Set Point:	1.744	Yaw Set Point:	-1.087	X_WP:	0.000	Y_WP:	0.000	Y_WP:	0.750	X:	-0.008	Y:	-1.195	Z:	0.044	yaw:	62.298	yaw rate:	3.078	Roll:	-30.000	Pitch:	-17.128	Yaw:	88.522	Thrust:	100.000
Time:	4.368	Roll Set Point:	1.070	Pitch Set Point:	1.744	Yaw Set Point:	-1.087	X_WP:	0.000	Y_WP:	0.000	Y_WP:	0.750	X:	-0.008	Y:	-1.195	Z:	0.044	yaw:	62.285	yaw rate:	1.320	Roll:	-30.000	Pitch:	-16.890	Yaw:	88.705	Thrust:	100.000
Time:	4.389	Roll Set Point:	1.070	Pitch Set Point:	1.743	Yaw Set Point:	-1.088	X_WP:	0.000	Y_WP:	0.000	Y_WP:	0.750	X:	-0.008	Y:	-1.195	Z:	0.044	yaw:	62.322	yaw rate:	-3.721	Roll:	-30.000	Pitch:	-16.138	Yaw:	89.668	Thrust:	100.000
Time:	4.408	Roll Set Point:	1.070	Pitch Set Point:	1.744	Yaw Set Point:	-1.088	X_WP:	0.000	Y_WP:	0.000	Y_WP:	0.750	X:	-0.008	Y:	-1.195	Z:	0.044	yaw:	62.313	yaw rate:	0.909	Roll:	-30.000	Pitch:	-16.794	Yaw:	88.803	Thrust:	100.000
Time:	4.430	Roll Set Point:	1.070	Pitch Set Point:	1.743	Yaw Set Point:	-1.088	X_WP:	0.000	Y_WP:	0.000	Y_WP:	0.750	X:	-0.008	Y:	-1.195	Z:	0.044	yaw:	62.330	yaw rate:	-1.759	Roll:	-30.000	Pitch:	-16.450	Yaw:	89.465	Thrust:	100.000
Time:	4.448	Roll Set Point:	1.070	Pitch Set Point:	1.744	Yaw Set Point:	-1.087	X_WP:	0.000	Y_WP:	0.000	Y_WP:	0.750	X:	-0.008	Y:	-1.195	Z:	0.044	yaw:	62.291	yaw rate:	3.956	Roll:	-30.000	Pitch:	-17.285	Yaw:	88.216	Thrust:	100.000
Time:	4.467	Roll Set Point:	1.070	Pitch Set Point:	1.744	Yaw Set Point:	-1.087	X_WP:	0.000	Y_WP:	0.000	Y_WP:	0.750	X:	-0.008	Y:	-1.195	Z:	0.044	yaw:	62.305	yaw rate:	-1.393	Roll:	-30.000	Pitch:	-16.393	Yaw:	89.036	Thrust:	100.000
Time:	4.488	Roll Set Point:	1.070	Pitch Set Point:	1.743	Yaw Set Point:	-1.088	X_WP:	0.000	Y_WP:	0.000	Y_WP:	0.750	X:	-0.008	Y:	-1.195	Z:	0.044	yaw:	62.332	yaw rate:	-2.736	Roll:	-30.000	Pitch:	-16.254	Yaw:	89.478	Thrust:	100.000
Time:	4.507	Roll Set Point:	1.070	Pitch Set Point:	1.743	Yaw Set Point:	-1.088	X_WP:	0.000	Y_WP:	0.000	Y_WP:	0.750	X:	-0.008	Y:	-1.195	Z:	0.044	yaw:	62.324	yaw rate:	0.764	Roll:	-30.000	Pitch:	-16.771	Yaw:	88.850	Thrust:	100.000
Time:	4.528	Roll Set Point:	1.070	Pitch Set Point:	1.744	Yaw Set Point:	-1.087	X_WP:	0.000	Y_WP:	0.000	Y_WP:	0.750	X:	-0.008	Y:	-1.195	Z:	0.044	yaw:	62.304	yaw rate:	2.056	Roll:	-30.000	Pitch:	-16.976	Yaw:	88.815	Thrust:	100.000
Time:	4.547	Roll Set Point:	1.070	Pitch Set Point:	1.743	Yaw Set Point:	-1.088	X_WP:	0.000	Y_WP:	0.000	Y_WP:	0.750	X:	-0.008	Y:	-1.195	Z:	0.044	yaw:	62.344	yaw rate:	-4.004	Roll:	-30.000	Pitch:	-15.983	Yaw:	89.536	Thrust:	100.000
Time:	4.569	Roll Set Point:	1.070	Pitch Set Point:	1.744	Yaw Set Point:	-1.087	X_WP:	0.000	Y_WP:	0.000	Y_WP:	0.750	X:	-0.008	Y:	-1.195	Z:	0.044	yaw:	62.302	yaw rate:	4.158	Roll:	-30.000	Pitch:	-17.352	Yaw:	88.622	Thrust:	100.000
Time:	4.590	Roll Set Point:	1.070	Pitch Set Point:	1.744	Yaw Set Point:	-1.087	X_WP:	0.000	Y_WP:	0.000	Y_WP:	0.750	X:	-0.008	Y:	-1.195	Z:	0.044	yaw:	62.291	yaw rate:	1.170	Roll:	-30.000	Pitch:	-16.903	Yaw:	88.900	Thrust:	100.000
Time:	4.609	Roll Set Point:	1.070	Pitch Set Point:	1.744	Yaw Set Point:	-1.088	X_WP:	0.000	Y_WP:	0.000	Y_WP:	0.750	X:	-0.008	Y:	-1.195	Z:	0.044	yaw:	62.313	yaw rate:	-2.242	Roll:	-30.000	Pitch:	-16.216	Yaw:	89.262	Thrust:	100.000
Time:	4.631	Roll Set Point:	1.070	Pitch Set Point:	1.743	Yaw Set Point:	-1.088	X_WP:	0.000	Y_WP:	0.000	Y_WP:	0.750	X:	-0.008	Y:	-1.195	Z:	0.044	yaw:	62.322	yaw rate:	-0.954	Roll:	-30.000	Pitch:	-16.549	Yaw:	89.312	Thrust:	100.000
Time:	4.649	Roll Set Point:	1.070	Pitch Set Point:	1.744	Yaw Set Point:	-1.087	X_WP:	0.000	Y_WP:	0.000	Y_WP:	0.750	X:	-0.008	Y:	-1.195	Z:	0.044	yaw:	62.298	yaw rate:	2.423	Roll:	-30.000	Pitch:	-17.052	Yaw:	88.435	Thrust:	100.000
Time:	4.669	Roll Set Point:	1.070	Pitch Set Point:	1.743	Yaw Set Point:	-1.088	X_WP:	0.000	Y_WP:	0.000	Y_WP:	0.750	X:	-0.008	Y:	-1.195	Z:	0.044	yaw:	62.331	yaw rate:	-3.289	Roll:	-30.000	Pitch:	-16.134	Yaw:	89.431	Thrust:	100.000
Time:	4.689	Roll Set Point:	1.070	Pitch Set Point:	1.744	Yaw Set Point:	-1.088	X_WP:	0.000	Y_WP:	0.000	Y_WP:	0.750	X:	-0.008	Y:	-1.195	Z:	0.044	yaw:	62.317	yaw rate:	1.441	Roll:	-30.000	Pitch:	-16.886	Yaw:	88.828	Thrust:	100.000
Time:	4.709	Roll Set Point:	1.070	Pitch Set Point:	1.744	Yaw Set Point:	-1.088	X_WP:	0.000	Y_WP:	0.000	Y_WP:	0.750	X:	-0.008	Y:	-1.195	Z:	0.044	yaw:	62.312	yaw rate:	0.502	Roll:	-30.000	Pitch:	-16.682	Yaw:	89.007	Thrust:	100.000
Time:	4.729	Roll Set Point:	1.070	Pitch Set Point:	1.744	Yaw Set Point:	-1.088	X_WP:	0.000	Y_WP:	0.000	Y_WP:	0.750	X:	-0.008	Y:	-1.195	Z:	0.044	yaw:	62.318	yaw rate:	-0.593	Roll:	-30.000	Pitch:	-16.607	Yaw:	89.101	Thrust:	100.000
Time:	4.749	Roll Set Point:	1.070	Pitch Set Point:	1.743	Yaw Set Point:	-1.088	X_WP:	0.000	Y_WP:	0.000	Y_WP:	0.750	X:	-0.008	Y:	-1.195	Z:	0.044	yaw:	62.331	yaw rate:	-1.368	Roll:	-30.000	Pitch:	-16.430	Yaw:	89.215	Thrust:	100.000
Time:	4.773	Roll Set Point:	1.070	Pitch Set Point:	1.743	Yaw Set Point:	-1.088	X_WP:	0.000	Y_WP:	0.000	Y_WP:	0.750	X:	-0.008	Y:	-1.195	Z:	0.044	yaw:	62.325	yaw rate:	0.582	Roll:	-30.000	Pitch:	-16.721	Yaw:	89.360	Thrust:	100.000
Time:	4.789	Roll Set Point:	1.070	Pitch Set Point:	1.743	Yaw Set Point:	-1.088	X_WP:	0.000	Y_WP:	0.000	Y_WP:	0.750	X:	-0.008	Y:	-1.195	Z:	0.044	yaw:	62.320	yaw rate:	0.551	Roll:	-30.000	Pitch:	-16.726	Yaw:	88.487	Thrust:	100.000
Time:	4.810	Roll Set Point:	1.070	Pitch Set Point:	1.744	Yaw Set Point:	-1.088	X_WP:	0.000	Y_WP:	0.000	Y_WP:	0.750	X:	-0.008	Y:	-1.195	Z:	0.044	yaw:	62.315	yaw rate:	0.484	Roll:	-30.000	Pitch:	-16.771	Yaw:	89.014	Thrust:	100.000
Time:	4.830	Roll Set Point:	1.070	Pitch Set Point:	1.743	Yaw Set Point:	-1.088	X_WP:	0.000	Y_WP:	0.000	Y_WP:	0.750	X:	-0.008	Y:	-1.195	Z:	0.044	yaw:	62.329	yaw rate:	-1.376	Roll:	-30.000	Pitch:	-16.417	Yaw:	89.228	Thrust:	100.000
Time:	4.849	Roll Set Point:	1.070	Pitch Set Point:	1.744	Yaw Set Point:	-1.088	X_WP:	0.000	Y_WP:	0.000	Y_WP:	0.750	X:	-0.008	Y:	-1.195	Z:	0.044	yaw:	62.311	yaw rate:	1.793	Roll:	-30.000	Pitch:	-16.916	Yaw:	88.603	Thrust:	100.000
Time:	4.869	Roll Set Point:	1.070	Pitch Set Point:	1.744	Yaw Set Point:	-1.088	X_WP:	0.000	Y_WP:	0.000	Y_WP:	0.750	X:	-0.008	Y:	-1.195	Z:	0.044	yaw:	62.310	yaw rate:	0.115	Roll:	-30.000	Pitch:	-16.691	Yaw:	88.994	Thrust:	100.000
Time:	4.890	Roll Set Point:	1.070	Pitch Set Point:	1.743	Yaw Set Point:	-1.088	X_WP:	0.000	Y_WP:	0.000	Y_WP:	0.750	X:	-0.008	Y:	-1.195	Z:	0.044	yaw:	62.332	yaw rate:	-2.175	Roll:	-30.000	Pitch:	-16.301	Yaw:	89.317	Thrust:	100.000
Time:	4.909	Roll Set Point:	1.070	Pitch Set Point:	1.744	Yaw Set Point:	-1.087	X_WP:	0.000	Y_WP:	0.000	Y_WP:	0.750	X:	-0.008	Y:	-1.195	Z:	0.044	yaw:	62.306	yaw rate:	2.522	Roll:	-30.000	Pitch:	-17.049	Yaw:	88.624	Thrust:	100.000
Time:	4.929	Roll Set Point:	1.070	Pitch Set Point:	1.744	Yaw Set Point:	-1.088	X_WP:	0.000	Y_WP:	0.000	Y_WP:	0.750	X:	-0.008	Y:	-1.195	Z:	0.044	yaw:	62.313	yaw rate:	-0.669	Roll:	-30.000	Pitch:	-16.566	Yaw:	89.181	Thrust:	100.000
Time:	4.949	Roll Set Point:	1.070	Pitch Set Point:	1.744	Yaw Set Point:	-1.088	X_WP:	0.000	Y_WP:	0.000	Y_WP:	0.750	X:	-0.008	Y:	-1.195	Z:	0.044	yaw:	62.320	yaw rate:	-0.705	Roll:	-30.000	Pitch:	-16.545	Yaw:	89.116	Thrust:	100.000
Time:	4.969	Roll Set Point:	1.070	Pitch Set Point:	1.744	Yaw Set Point:	-1.087	X_WP:	0.000	Y_WP:	0.000	Y_WP:	0.750	X:	-0.008	Y:	-1.195	Z:	0.044	yaw:	62.308	yaw rate:	1.189	Roll:	-30.000	Pitch:	-16.776	Yaw:	88.777	Thrust:	100.000
Time:	4.989	Roll Set Point:	1.070	Pitch Set Point:	1.743	Yaw Set Point:	-1.088	X_WP:	0.000	Y_WP:	0.000	Y_WP:	0.750	X:	-0.008	Y:	-1.195	Z:	0.044	yaw:	62.336	yaw rate:	-2.742	Roll:	-30.000	Pitch:	-16.231	Yaw:	89.402	Thrust:	100.000
Time:	5.010	Roll Set Point:	1.070	Pitch Set Point:	1.744	Yaw Set Point:	-1.087	X_WP:	0.000	Y_WP:	0.000	Y_WP:	0.750	X:	-0.008	Y:	-1.195	Z:	0.044	yaw:	62.308	yaw rate:	2.793	Roll:	-30.000	Pitch:	-17.159	Yaw:	88.728	Thrust:	100.000
Time:	5.031	Roll Set Point:	1.070	Pitch Set Point:	1.744	Yaw Set Point:	-1.087	X_WP:	0.000	Y_WP:	0.000	Y_WP:	0.750	X:	-0.008	Y:	-1.195	Z:	0.044	yaw:	62.304	yaw rate:	0.408	Roll:	-30.000	Pitch:	-16.713	Yaw:	88.968	Thrust:	100.000
Time:	5.049	Roll Set Point:	1.070	Pitch Set Point:	1.743	Yaw Set Point:	-1.088	X_WP:	0.000	Y_WP:	0.000	Y_WP:	0.750	X:	-0.008	Y:	-1.195	Z:	0.044	yaw:	62.325	yaw rate:	-2.101	Roll:	-30.000	Pitch:	-16.239	Yaw:	89.175	Thrust:	100.000
Time:	5.068	Roll Set Point:	1.070	Pitch Set Point:	1.744	Yaw Set Point:	-1.088	X_WP:	0.000	Y_WP:	0.000	Y_WP:	0.750	X:	-0.008	Y:	-1.195	Z:	0.044	yaw:	62.319	yaw rate:	0.546	Roll:	-30.000	Pitch:	-16.780	Yaw:	88.943	Thrust:	100.000
Time:	5.088	Roll Set Point:	1.070	Pitch Set Point:	1.744	Yaw Set Point:	-1.087	X_WP:	0.000	Y_WP:	0.000	Y_WP:	0.750	X:	-0.008	Y:	-1.195	Z:	0.044	yaw:	62.295	yaw rate:	2.419	Roll:	-30.000	Pitch:	-17.058	Yaw:	88.667	Thrust:	100.000
Time:	5.109	Roll Set Point:	1.070	Pitch Set Point:	1.744	Yaw Set Point:	-1.088	X_WP:	0.000	Y_WP:	0.000	Y_WP:	0.750	X:	-0.008	Y:	-1.195	Z:	0.044	yaw:	62.319	yaw rate:	-2.396	Roll:	-30.000	Pitch:	-16.184	Yaw:	89.347	Thrust:	100.000
Time:	5.129	Roll Set Point:	1.070	Pitch Set Point:	1.743	Yaw Set Point:	-1.088	X_WP:	0.000	Y_WP:	0.000	Y_WP:	0.750	X:	-0.008	Y:	-1.195	Z:	0.044	yaw:	62.331	yaw rate:	-1.199	Roll:	-30.000	Pitch:	-16.521	Yaw:	89.173	Thrust:	100.000
Time:	5.149	Roll Set Point:	1.070	Pitch Set Point:	1.743	Yaw Set Point:	-1.088	X_WP:	0.000	Y_WP:	0.000	Y_WP:	0.750	X:	-0.008	Y:	-1.195	Z:	0.044	yaw:	62.331	yaw rate:	0.036	Roll:	-30.000	Pitch:	-16.586	Yaw:	89.030	Thrust:	100.000
Time:	5.170	Roll Set Point:	1.070	Pitch Set Point:	1.744	Yaw Set Point:	-1.087	X_WP:	0.000	Y_WP:	0.000	Y_WP:	0.750	X:	-0.008	Y:	-1.195	Z:	0.044	yaw:	62.300	yaw rate:	3.047	Roll:	-30.000	Pitch:	-17.178	Yaw:	88.712	Thrust:	100.000
Time:	5.190	Roll Set Point:	1.070	Pitch Set Point:	1.744	Yaw Set Point:	-1.087	X_WP:	0.000	Y_WP:	0.000	Y_WP:	0.750	X:	-0.008	Y:	-1.195	Z:	0.044	yaw:	62.296	yaw rate:	0.418	Roll:	-30.000	Pitch:	-16.739	Yaw:	88.939	Thrust:	100.000
Time:	5.212	Roll Set Point:	1.070	Pitch Set Point:	1.743	Yaw Set Point:	-1.088	X_WP:	0.000	Y_WP:	0.000	Y_WP:	0.750	X:	-0.008	Y:	-1.195	Z:	0.044	yaw:	62.345	yaw rate:	-4.905	Roll:	-30.000	Pitch:	-15.889	Yaw:	89.783	Thrust:	100.000
Time:	5.232	Roll Set Point:	1.070	Pitch Set Point:	1.743	Yaw Set Point:	-1.088	X_WP:	0.000	Y_WP:	0.000	Y_WP:	0.750	X:	-0.008	Y:	-1.195	Z:	0.044	yaw:	62.336	yaw rate:	0.861	Roll:	-30.000	Pitch:	-16.831	Yaw:	88.975	Thrust:	100.000
Time:	5.250	Roll Set Point:	1.070	Pitch Set Point:	1.744	Yaw Set Point:	-1.087	X_WP:	0.000	Y_WP:	0.000	Y_WP:	0.750	X:	-0.008	Y:	-1.195	Z:	0.044	yaw:	62.295	yaw rate:	4.175	Roll:	-30.000	Pitch:	-17.361	Yaw:	88.168	Thrust:	100.000
