Time:	0.047	Roll Set Point:	-1.253	Pitch Set Point:	-0.072	Yaw Set Point:	0.051	X_WP:	0.000	Y_WP:	0.000	Y_WP:	0.750	X:	0.627	Y:	0.020	Z:	1.152	yaw:	-2.949	yaw rate:	-42.612	Roll:	18.140	Pitch:	1.516	Yaw:	-4.117	Thrust:	0.000
Time:	0.062	Roll Set Point:	-1.252	Pitch Set Point:	-0.076	Yaw Set Point:	0.058	X_WP:	0.000	Y_WP:	0.000	Y_WP:	0.750	X:	0.627	Y:	0.020	Z:	1.152	yaw:	-3.307	yaw rate:	35.830	Roll:	17.548	Pitch:	5.502	Yaw:	-10.481	Thrust:	0.000
Time:	0.082	Roll Set Point:	-1.251	Pitch Set Point:	-0.078	Yaw Set Point:	0.062	X_WP:	0.000	Y_WP:	0.000	Y_WP:	0.750	X:	0.627	Y:	0.020	Z:	1.152	yaw:	-3.553	yaw rate:	24.529	Roll:	17.690	Pitch:	3.806	Yaw:	-8.200	Thrust:	0.000
Time:	0.102	Roll Set Point:	-1.252	Pitch Set Point:	-0.073	Yaw Set Point:	0.055	X_WP:	0.000	Y_WP:	0.000	Y_WP:	0.750	X:	0.627	Y:	0.019	Z:	1.152	yaw:	-3.148	yaw rate:	-40.428	Roll:	18.701	Pitch:	-2.439	Yaw:	0.911	Thrust:	0.000
Time:	0.122	Roll Set Point:	-1.251	Pitch Set Point:	-0.074	Yaw Set Point:	0.056	X_WP:	0.000	Y_WP:	0.000	Y_WP:	0.750	X:	0.627	Y:	0.019	Z:	1.151	yaw:	-3.223	yaw rate:	7.447	Roll:	17.931	Pitch:	2.104	Yaw:	-5.571	Thrust:	0.000
Time:	0.142	Roll Set Point:	-1.251	Pitch Set Point:	-0.073	Yaw Set Point:	0.057	X_WP:	0.000	Y_WP:	0.000	Y_WP:	0.750	X:	0.626	Y:	0.019	Z:	1.151	yaw:	-3.287	yaw rate:	6.450	Roll:	17.970	Pitch:	1.806	Yaw:	-5.536	Thrust:	0.000
Time:	0.162	Roll Set Point:	-1.250	Pitch Set Point:	-0.074	Yaw Set Point:	0.060	X_WP:	0.000	Y_WP:	0.000	Y_WP:	0.750	X:	0.626	Y:	0.018	Z:	1.151	yaw:	-3.409	yaw rate:	12.210	Roll:	17.988	Pitch:	2.476	Yaw:	-6.500	Thrust:	0.000
Time:	0.182	Roll Set Point:	-1.249	Pitch Set Point:	-0.075	Yaw Set Point:	0.062	X_WP:	0.000	Y_WP:	0.000	Y_WP:	0.750	X:	0.626	Y:	0.018	Z:	1.150	yaw:	-3.545	yaw rate:	13.574	Roll:	17.960	Pitch:	2.849	Yaw:	-6.883	Thrust:	0.000
Time:	0.202	Roll Set Point:	-1.249	Pitch Set Point:	-0.074	Yaw Set Point:	0.060	X_WP:	0.000	Y_WP:	0.000	Y_WP:	0.750	X:	0.626	Y:	0.018	Z:	1.150	yaw:	-3.430	yaw rate:	-11.551	Roll:	18.214	Pitch:	0.465	Yaw:	-3.428	Thrust:	0.000
Time:	0.222	Roll Set Point:	-1.249	Pitch Set Point:	-0.073	Yaw Set Point:	0.058	X_WP:	0.000	Y_WP:	0.000	Y_WP:	0.750	X:	0.625	Y:	0.018	Z:	1.150	yaw:	-3.324	yaw rate:	-10.522	Roll:	18.245	Pitch:	0.640	Yaw:	-3.498	Thrust:	0.000
Time:	0.242	Roll Set Point:	-1.247	Pitch Set Point:	-0.079	Yaw Set Point:	0.069	X_WP:	0.000	Y_WP:	0.000	Y_WP:	0.750	X:	0.625	Y:	0.018	Z:	1.150	yaw:	-3.929	yaw rate:	60.426	Roll:	17.492	Pitch:	7.261	Yaw:	-13.682	Thrust:	0.000
Time:	0.262	Roll Set Point:	-1.244	Pitch Set Point:	-0.094	Yaw Set Point:	0.091	X_WP:	0.000	Y_WP:	0.000	Y_WP:	0.750	X:	0.624	Y:	0.018	Z:	1.150	yaw:	-5.218	yaw rate:	128.989	Roll:	16.498	Pitch:	14.441	Yaw:	-24.162	Thrust:	0.000
Time:	0.282	Roll Set Point:	-1.244	Pitch Set Point:	-0.095	Yaw Set Point:	0.093	X_WP:	0.000	Y_WP:	0.000	Y_WP:	0.750	X:	0.624	Y:	0.018	Z:	1.150	yaw:	-5.338	yaw rate:	11.953	Roll:	18.093	Pitch:	3.218	Yaw:	-9.310	Thrust:	0.000
Time:	0.303	Roll Set Point:	-1.246	Pitch Set Point:	-0.080	Yaw Set Point:	0.071	X_WP:	0.000	Y_WP:	0.000	Y_WP:	0.750	X:	0.624	Y:	0.018	Z:	1.150	yaw:	-4.086	yaw rate:	-125.184	Roll:	19.937	Pitch:	-9.616	Yaw:	9.708	Thrust:	0.000
Time:	0.322	Roll Set Point:	-1.246	Pitch Set Point:	-0.079	Yaw Set Point:	0.069	X_WP:	0.000	Y_WP:	0.000	Y_WP:	0.750	X:	0.624	Y:	0.018	Z:	1.150	yaw:	-3.978	yaw rate:	-10.811	Roll:	18.500	Pitch:	0.713	Yaw:	-4.400	Thrust:	0.000
Time:	0.342	Roll Set Point:	-1.246	Pitch Set Point:	-0.079	Yaw Set Point:	0.070	X_WP:	0.000	Y_WP:	0.000	Y_WP:	0.750	X:	0.624	Y:	0.018	Z:	1.150	yaw:	-3.994	yaw rate:	1.547	Roll:	18.382	Pitch:	1.942	Yaw:	-6.167	Thrust:	0.000
Time:	0.362	Roll Set Point:	-1.246	Pitch Set Point:	-0.079	Yaw Set Point:	0.068	X_WP:	0.000	Y_WP:	0.000	Y_WP:	0.750	X:	0.624	Y:	0.018	Z:	1.150	yaw:	-3.924	yaw rate:	-6.948	Roll:	18.602	Pitch:	1.257	Yaw:	-5.007	Thrust:	0.000
Time:	0.383	Roll Set Point:	-1.245	Pitch Set Point:	-0.081	Yaw Set Point:	0.072	X_WP:	0.000	Y_WP:	0.000	Y_WP:	0.750	X:	0.624	Y:	0.018	Z:	1.150	yaw:	-4.127	yaw rate:	20.327	Roll:	18.158	Pitch:	3.741	Yaw:	-8.839	Thrust:	0.000
Time:	0.402	Roll Set Point:	-1.245	Pitch Set Point:	-0.081	Yaw Set Point:	0.072	X_WP:	0.000	Y_WP:	0.000	Y_WP:	0.750	X:	0.624	Y:	0.018	Z:	1.150	yaw:	-4.133	yaw rate:	0.574	Roll:	18.353	Pitch:	1.918	Yaw:	-6.310	Thrust:	0.000
Time:	0.423	Roll Set Point:	-1.245	Pitch Set Point:	-0.080	Yaw Set Point:	0.071	X_WP:	0.000	Y_WP:	0.000	Y_WP:	0.750	X:	0.624	Y:	0.018	Z:	1.150	yaw:	-4.052	yaw rate:	-8.114	Roll:	18.627	Pitch:	1.179	Yaw:	-5.124	Thrust:	0.000
Time:	0.442	Roll Set Point:	-1.244	Pitch Set Point:	-0.080	Yaw Set Point:	0.071	X_WP:	0.000	Y_WP:	0.000	Y_WP:	0.750	X:	0.624	Y:	0.018	Z:	1.150	yaw:	-4.048	yaw rate:	-0.379	Roll:	18.383	Pitch:	1.833	Yaw:	-6.128	Thrust:	0.000
Time:	0.462	Roll Set Point:	-1.243	Pitch Set Point:	-0.082	Yaw Set Point:	0.074	X_WP:	0.000	Y_WP:	0.000	Y_WP:	0.750	X:	0.623	Y:	0.018	Z:	1.150	yaw:	-4.224	yaw rate:	17.554	Roll:	18.184	Pitch:	3.427	Yaw:	-8.773	Thrust:	0.000
Time:	0.482	Roll Set Point:	-1.243	Pitch Set Point:	-0.080	Yaw Set Point:	0.071	X_WP:	0.000	Y_WP:	0.000	Y_WP:	0.750	X:	0.623	Y:	0.018	Z:	1.149	yaw:	-4.069	yaw rate:	-15.502	Roll:	18.564	Pitch:	0.462	Yaw:	-4.273	Thrust:	0.000
Time:	0.502	Roll Set Point:	-1.244	Pitch Set Point:	-0.075	Yaw Set Point:	0.063	X_WP:	0.000	Y_WP:	0.000	Y_WP:	0.750	X:	0.623	Y:	0.018	Z:	1.150	yaw:	-3.608	yaw rate:	-46.073	Roll:	19.237	Pitch:	-2.659	Yaw:	0.477	Thrust:	0.000
Time:	0.524	Roll Set Point:	-1.243	Pitch Set Point:	-0.075	Yaw Set Point:	0.064	X_WP:	0.000	Y_WP:	0.000	Y_WP:	0.750	X:	0.623	Y:	0.018	Z:	1.149	yaw:	-3.640	yaw rate:	3.246	Roll:	18.730	Pitch:	2.003	Yaw:	-6.175	Thrust:	0.000
Time:	0.543	Roll Set Point:	-1.243	Pitch Set Point:	-0.076	Yaw Set Point:	0.064	X_WP:	0.000	Y_WP:	0.000	Y_WP:	0.750	X:	0.623	Y:	0.018	Z:	1.149	yaw:	-3.663	yaw rate:	2.228	Roll:	18.634	Pitch:	2.093	Yaw:	-6.032	Thrust:	0.000
Time:	0.563	Roll Set Point:	-1.242	Pitch Set Point:	-0.084	Yaw Set Point:	0.076	X_WP:	0.000	Y_WP:	0.000	Y_WP:	0.750	X:	0.623	Y:	0.018	Z:	1.149	yaw:	-4.352	yaw rate:	68.982	Roll:	17.972	Pitch:	7.993	Yaw:	-15.188	Thrust:	0.000
Time:	0.583	Roll Set Point:	-1.243	Pitch Set Point:	-0.079	Yaw Set Point:	0.066	X_WP:	0.000	Y_WP:	0.000	Y_WP:	0.750	X:	0.623	Y:	0.019	Z:	1.148	yaw:	-3.808	yaw rate:	-54.463	Roll:	19.187	Pitch:	-2.931	Yaw:	1.268	Thrust:	0.000
Time:	0.603	Roll Set Point:	-1.243	Pitch Set Point:	-0.081	Yaw Set Point:	0.070	X_WP:	0.000	Y_WP:	0.000	Y_WP:	0.750	X:	0.623	Y:	0.019	Z:	1.148	yaw:	-4.037	yaw rate:	22.895	Roll:	18.848	Pitch:	4.270	Yaw:	-9.425	Thrust:	0.000
Time:	0.622	Roll Set Point:	-1.244	Pitch Set Point:	-0.080	Yaw Set Point:	0.068	X_WP:	0.000	Y_WP:	0.000	Y_WP:	0.750	X:	0.623	Y:	0.019	Z:	1.148	yaw:	-3.871	yaw rate:	-16.548	Roll:	19.088	Pitch:	0.560	Yaw:	-3.939	Thrust:	0.000
Time:	0.642	Roll Set Point:	-1.245	Pitch Set Point:	-0.076	Yaw Set Point:	0.060	X_WP:	0.000	Y_WP:	0.000	Y_WP:	0.750	X:	0.624	Y:	0.019	Z:	1.148	yaw:	-3.422	yaw rate:	-44.903	Roll:	19.344	Pitch:	-2.321	Yaw:	0.417	Thrust:	0.000
Time:	0.662	Roll Set Point:	-1.245	Pitch Set Point:	-0.076	Yaw Set Point:	0.060	X_WP:	0.000	Y_WP:	0.000	Y_WP:	0.750	X:	0.623	Y:	0.019	Z:	1.148	yaw:	-3.426	yaw rate:	0.359	Roll:	18.698	Pitch:	1.803	Yaw:	-5.678	Thrust:	0.000
Time:	0.683	Roll Set Point:	-1.244	Pitch Set Point:	-0.075	Yaw Set Point:	0.058	X_WP:	0.000	Y_WP:	0.000	Y_WP:	0.750	X:	0.623	Y:	0.019	Z:	1.147	yaw:	-3.330	yaw rate:	-9.614	Roll:	18.679	Pitch:	0.926	Yaw:	-4.201	Thrust:	0.000
Time:	0.702	Roll Set Point:	-1.244	Pitch Set Point:	-0.075	Yaw Set Point:	0.057	X_WP:	0.000	Y_WP:	0.000	Y_WP:	0.750	X:	0.623	Y:	0.019	Z:	1.147	yaw:	-3.284	yaw rate:	-4.530	Roll:	18.720	Pitch:	1.303	Yaw:	-4.909	Thrust:	0.000
Time:	0.723	Roll Set Point:	-1.244	Pitch Set Point:	-0.075	Yaw Set Point:	0.057	X_WP:	0.000	Y_WP:	0.000	Y_WP:	0.750	X:	0.623	Y:	0.019	Z:	1.147	yaw:	-3.283	yaw rate:	-0.180	Roll:	18.634	Pitch:	1.719	Yaw:	-5.475	Thrust:	0.000
Time:	0.743	Roll Set Point:	-1.243	Pitch Set Point:	-0.077	Yaw Set Point:	0.062	X_WP:	0.000	Y_WP:	0.000	Y_WP:	0.750	X:	0.623	Y:	0.020	Z:	1.147	yaw:	-3.530	yaw rate:	24.746	Roll:	18.214	Pitch:	3.977	Yaw:	-9.030	Thrust:	0.000
Time:	0.762	Roll Set Point:	-1.242	Pitch Set Point:	-0.078	Yaw Set Point:	0.061	X_WP:	0.000	Y_WP:	0.000	Y_WP:	0.750	X:	0.622	Y:	0.020	Z:	1.147	yaw:	-3.519	yaw rate:	-1.064	Roll:	18.338	Pitch:	1.804	Yaw:	-5.674	Thrust:	0.000
Time:	0.784	Roll Set Point:	-1.239	Pitch Set Point:	-0.090	Yaw Set Point:	0.081	X_WP:	0.000	Y_WP:	0.000	Y_WP:	0.750	X:	0.622	Y:	0.020	Z:	1.147	yaw:	-4.615	yaw rate:	109.560	Roll:	17.152	Pitch:	11.819	Yaw:	-20.886	Thrust:	0.000
Time:	0.802	Roll Set Point:	-1.240	Pitch Set Point:	-0.080	Yaw Set Point:	0.064	X_WP:	0.000	Y_WP:	0.000	Y_WP:	0.750	X:	0.621	Y:	0.020	Z:	1.147	yaw:	-3.655	yaw rate:	-96.018	Roll:	19.570	Pitch:	-7.673	Yaw:	7.418	Thrust:	0.000
Time:	0.823	Roll Set Point:	-1.240	Pitch Set Point:	-0.078	Yaw Set Point:	0.060	X_WP:	0.000	Y_WP:	0.000	Y_WP:	0.750	X:	0.621	Y:	0.020	Z:	1.147	yaw:	-3.453	yaw rate:	-20.206	Roll:	18.448	Pitch:	0.129	Yaw:	-3.146	Thrust:	0.000
Time:	0.842	Roll Set Point:	-1.239	Pitch Set Point:	-0.078	Yaw Set Point:	0.060	X_WP:	0.000	Y_WP:	0.000	Y_WP:	0.750	X:	0.621	Y:	0.020	Z:	1.146	yaw:	-3.450	yaw rate:	-0.239	Roll:	18.503	Pitch:	1.708	Yaw:	-5.850	Thrust:	0.000
Time:	0.862	Roll Set Point:	-1.239	Pitch Set Point:	-0.077	Yaw Set Point:	0.059	X_WP:	0.000	Y_WP:	0.000	Y_WP:	0.750	X:	0.620	Y:	0.020	Z:	1.146	yaw:	-3.403	yaw rate:	-4.782	Roll:	18.328	Pitch:	1.361	Yaw:	-5.168	Thrust:	0.000
Time:	0.882	Roll Set Point:	-1.238	Pitch Set Point:	-0.077	Yaw Set Point:	0.060	X_WP:	0.000	Y_WP:	0.000	Y_WP:	0.750	X:	0.620	Y:	0.020	Z:	1.145	yaw:	-3.425	yaw rate:	2.209	Roll:	18.396	Pitch:	1.861	Yaw:	-6.194	Thrust:	0.000
Time:	0.902	Roll Set Point:	-1.236	Pitch Set Point:	-0.084	Yaw Set Point:	0.070	X_WP:	0.000	Y_WP:	0.000	Y_WP:	0.750	X:	0.620	Y:	0.020	Z:	1.144	yaw:	-4.023	yaw rate:	59.876	Roll:	17.699	Pitch:	7.366	Yaw:	-14.634	Thrust:	0.000
Time:	0.922	Roll Set Point:	-1.236	Pitch Set Point:	-0.084	Yaw Set Point:	0.071	X_WP:	0.000	Y_WP:	0.000	Y_WP:	0.750	X:	0.619	Y:	0.020	Z:	1.144	yaw:	-4.094	yaw rate:	7.023	Roll:	18.457	Pitch:	2.434	Yaw:	-7.787	Thrust:	0.000
Time:	0.943	Roll Set Point:	-1.236	Pitch Set Point:	-0.084	Yaw Set Point:	0.071	X_WP:	0.000	Y_WP:	0.000	Y_WP:	0.750	X:	0.619	Y:	0.020	Z:	1.144	yaw:	-4.096	yaw rate:	0.212	Roll:	18.445	Pitch:	2.000	Yaw:	-6.886	Thrust:	0.000
Time:	0.963	Roll Set Point:	-1.235	Pitch Set Point:	-0.084	Yaw Set Point:	0.072	X_WP:	0.000	Y_WP:	0.000	Y_WP:	0.750	X:	0.619	Y:	0.020	Z:	1.144	yaw:	-4.107	yaw rate:	1.131	Roll:	18.544	Pitch:	2.094	Yaw:	-7.148	Thrust:	0.000
Time:	0.983	Roll Set Point:	-1.235	Pitch Set Point:	-0.084	Yaw Set Point:	0.071	X_WP:	0.000	Y_WP:	0.000	Y_WP:	0.750	X:	0.619	Y:	0.020	Z:	1.144	yaw:	-4.079	yaw rate:	-2.790	Roll:	18.588	Pitch:	1.719	Yaw:	-6.574	Thrust:	0.000
Time:	1.002	Roll Set Point:	-1.235	Pitch Set Point:	-0.083	Yaw Set Point:	0.071	X_WP:	0.000	Y_WP:	0.000	Y_WP:	0.750	X:	0.619	Y:	0.020	Z:	1.144	yaw:	-4.066	yaw rate:	-1.298	Roll:	18.591	Pitch:	1.863	Yaw:	-6.760	Thrust:	0.000
Time:	1.023	Roll Set Point:	-1.235	Pitch Set Point:	-0.080	Yaw Set Point:	0.065	X_WP:	0.000	Y_WP:	0.000	Y_WP:	0.750	X:	0.619	Y:	0.020	Z:	1.144	yaw:	-3.713	yaw rate:	-35.360	Roll:	18.775	Pitch:	-1.298	Yaw:	-1.868	Thrust:	0.000
Time:	1.041	Roll Set Point:	-1.235	Pitch Set Point:	-0.078	Yaw Set Point:	0.062	X_WP:	0.000	Y_WP:	0.000	Y_WP:	0.750	X:	0.619	Y:	0.020	Z:	1.144	yaw:	-3.565	yaw rate:	-14.767	Roll:	18.817	Pitch:	0.120	Yaw:	-4.062	Thrust:	0.000
Time:	1.062	Roll Set Point:	-1.235	Pitch Set Point:	-0.079	Yaw Set Point:	0.065	X_WP:	0.000	Y_WP:	0.000	Y_WP:	0.750	X:	0.619	Y:	0.019	Z:	1.145	yaw:	-3.712	yaw rate:	14.657	Roll:	18.492	Pitch:	3.031	Yaw:	-8.418	Thrust:	0.000
Time:	1.084	Roll Set Point:	-1.235	Pitch Set Point:	-0.078	Yaw Set Point:	0.064	X_WP:	0.000	Y_WP:	0.000	Y_WP:	0.750	X:	0.619	Y:	0.019	Z:	1.145	yaw:	-3.651	yaw rate:	-6.011	Roll:	18.635	Pitch:	1.292	Yaw:	-5.695	Thrust:	0.000
Time:	1.102	Roll Set Point:	-1.235	Pitch Set Point:	-0.078	Yaw Set Point:	0.063	X_WP:	0.000	Y_WP:	0.000	Y_WP:	0.750	X:	0.619	Y:	0.019	Z:	1.145	yaw:	-3.608	yaw rate:	-4.292	Roll:	18.654	Pitch:	1.479	Yaw:	-5.838	Thrust:	0.000
Time:	1.122	Roll Set Point:	-1.235	Pitch Set Point:	-0.078	Yaw Set Point:	0.063	X_WP:	0.000	Y_WP:	0.000	Y_WP:	0.750	X:	0.619	Y:	0.019	Z:	1.145	yaw:	-3.601	yaw rate:	-0.699	Roll:	18.710	Pitch:	1.731	Yaw:	-6.369	Thrust:	0.000
Time:	1.143	Roll Set Point:	-1.235	Pitch Set Point:	-0.078	Yaw Set Point:	0.063	X_WP:	0.000	Y_WP:	0.000	Y_WP:	0.750	X:	0.619	Y:	0.019	Z:	1.146	yaw:	-3.596	yaw rate:	-0.506	Roll:	18.644	Pitch:	1.782	Yaw:	-6.430	Thrust:	0.000
Time:	1.162	Roll Set Point:	-1.236	Pitch Set Point:	-0.077	Yaw Set Point:	0.063	X_WP:	0.000	Y_WP:	0.000	Y_WP:	0.750	X:	0.619	Y:	0.019	Z:	1.146	yaw:	-3.582	yaw rate:	-1.423	Roll:	18.714	Pitch:	1.710	Yaw:	-6.269	Thrust:	0.000
Time:	1.192	Roll Set Point:	-1.236	Pitch Set Point:	-0.078	Yaw Set Point:	0.063	X_WP:	0.000	Y_WP:	0.000	Y_WP:	0.750	X:	0.619	Y:	0.019	Z:	1.146	yaw:	-3.620	yaw rate:	3.736	Roll:	19.028	Pitch:	2.143	Yaw:	-7.628	Thrust:	0.000
Time:	1.205	Roll Set Point:	-1.236	Pitch Set Point:	-0.078	Yaw Set Point:	0.063	X_WP:	0.000	Y_WP:	0.000	Y_WP:	0.750	X:	0.619	Y:	0.019	Z:	1.146	yaw:	-3.624	yaw rate:	0.458	Roll:	18.571	Pitch:	1.861	Yaw:	-6.089	Thrust:	0.000
Time:	1.222	Roll Set Point:	-1.237	Pitch Set Point:	-0.077	Yaw Set Point:	0.062	X_WP:	0.000	Y_WP:	0.000	Y_WP:	0.750	X:	0.620	Y:	0.019	Z:	1.146	yaw:	-3.539	yaw rate:	-8.498	Roll:	18.942	Pitch:	0.906	Yaw:	-5.050	Thrust:	0.000
Time:	1.242	Roll Set Point:	-1.237	Pitch Set Point:	-0.078	Yaw Set Point:	0.063	X_WP:	0.000	Y_WP:	0.000	Y_WP:	0.750	X:	0.620	Y:	0.019	Z:	1.146	yaw:	-3.636	yaw rate:	9.638	Roll:	18.854	Pitch:	2.742	Yaw:	-7.906	Thrust:	0.000
Time:	1.262	Roll Set Point:	-1.238	Pitch Set Point:	-0.076	Yaw Set Point:	0.062	X_WP:	0.000	Y_WP:	0.000	Y_WP:	0.750	X:	0.620	Y:	0.019	Z:	1.145	yaw:	-3.529	yaw rate:	-10.636	Roll:	19.170	Pitch:	0.907	Yaw:	-5.160	Thrust:	0.000
Time:	1.282	Roll Set Point:	-1.239	Pitch Set Point:	-0.076	Yaw Set Point:	0.061	X_WP:	0.000	Y_WP:	0.000	Y_WP:	0.750	X:	0.621	Y:	0.019	Z:	1.145	yaw:	-3.515	yaw rate:	-1.379	Roll:	19.141	Pitch:	1.772	Yaw:	-6.319	Thrust:	0.000
Time:	1.302	Roll Set Point:	-1.240	Pitch Set Point:	-0.077	Yaw Set Point:	0.061	X_WP:	0.000	Y_WP:	0.000	Y_WP:	0.750	X:	0.621	Y:	0.019	Z:	1.145	yaw:	-3.475	yaw rate:	-3.992	Roll:	19.090	Pitch:	1.719	Yaw:	-6.029	Thrust:	0.000
Time:	1.322	Roll Set Point:	-1.241	Pitch Set Point:	-0.079	Yaw Set Point:	0.064	X_WP:	0.000	Y_WP:	0.000	Y_WP:	0.750	X:	0.622	Y:	0.020	Z:	1.145	yaw:	-3.676	yaw rate:	20.006	Roll:	18.958	Pitch:	3.858	Yaw:	-9.412	Thrust:	0.000
Time:	1.342	Roll Set Point:	-1.243	Pitch Set Point:	-0.074	Yaw Set Point:	0.057	X_WP:	0.000	Y_WP:	0.000	Y_WP:	0.750	X:	0.622	Y:	0.020	Z:	1.146	yaw:	-3.250	yaw rate:	-42.568	Roll:	19.551	Pitch:	-1.958	Yaw:	-0.617	Thrust:	0.000
Time:	1.362	Roll Set Point:	-1.243	Pitch Set Point:	-0.074	Yaw Set Point:	0.056	X_WP:	0.000	Y_WP:	0.000	Y_WP:	0.750	X:	0.623	Y:	0.020	Z:	1.146	yaw:	-3.234	yaw rate:	-1.624	Roll:	18.937	Pitch:	1.711	Yaw:	-6.028	Thrust:	0.000
Time:	1.383	Roll Set Point:	-1.243	Pitch Set Point:	-0.074	Yaw Set Point:	0.056	X_WP:	0.000	Y_WP:	0.000	Y_WP:	0.750	X:	0.623	Y:	0.020	Z:	1.146	yaw:	-3.223	yaw rate:	-1.065	Roll:	18.878	Pitch:	1.612	Yaw:	-6.118	Thrust:	0.000
Time:	1.403	Roll Set Point:	-1.243	Pitch Set Point:	-0.073	Yaw Set Point:	0.055	X_WP:	0.000	Y_WP:	0.000	Y_WP:	0.750	X:	0.623	Y:	0.019	Z:	1.146	yaw:	-3.138	yaw rate:	-8.511	Roll:	18.878	Pitch:	0.869	Yaw:	-5.071	Thrust:	0.000
Time:	1.422	Roll Set Point:	-1.243	Pitch Set Point:	-0.079	Yaw Set Point:	0.066	X_WP:	0.000	Y_WP:	0.000	Y_WP:	0.750	X:	0.623	Y:	0.019	Z:	1.146	yaw:	-3.776	yaw rate:	63.828	Roll:	18.062	Pitch:	7.728	Yaw:	-15.645	Thrust:	0.000
Time:	1.441	Roll Set Point:	-1.242	Pitch Set Point:	-0.080	Yaw Set Point:	0.068	X_WP:	0.000	Y_WP:	0.000	Y_WP:	0.750	X:	0.622	Y:	0.019	Z:	1.146	yaw:	-3.878	yaw rate:	10.178	Roll:	18.463	Pitch:	2.754	Yaw:	-8.544	Thrust:	0.000
Time:	1.462	Roll Set Point:	-1.242	Pitch Set Point:	-0.080	Yaw Set Point:	0.068	X_WP:	0.000	Y_WP:	0.000	Y_WP:	0.750	X:	0.622	Y:	0.019	Z:	1.147	yaw:	-3.912	yaw rate:	3.389	Roll:	18.527	Pitch:	2.150	Yaw:	-7.798	Thrust:	0.000
Time:	1.483	Roll Set Point:	-1.241	Pitch Set Point:	-0.079	Yaw Set Point:	0.067	X_WP:	0.000	Y_WP:	0.000	Y_WP:	0.750	X:	0.622	Y:	0.019	Z:	1.147	yaw:	-3.841	yaw rate:	-7.104	Roll:	18.622	Pitch:	1.204	Yaw:	-6.258	Thrust:	0.000
Time:	1.503	Roll Set Point:	-1.241	Pitch Set Point:	-0.079	Yaw Set Point:	0.067	X_WP:	0.000	Y_WP:	0.000	Y_WP:	0.750	X:	0.622	Y:	0.019	Z:	1.147	yaw:	-3.827	yaw rate:	-1.359	Roll:	18.649	Pitch:	1.797	Yaw:	-7.136	Thrust:	0.000
Time:	1.522	Roll Set Point:	-1.241	Pitch Set Point:	-0.079	Yaw Set Point:	0.067	X_WP:	0.000	Y_WP:	0.000	Y_WP:	0.750	X:	0.622	Y:	0.019	Z:	1.147	yaw:	-3.857	yaw rate:	3.012	Roll:	18.577	Pitch:	2.245	Yaw:	-7.662	Thrust:	0.000
Time:	1.542	Roll Set Point:	-1.241	Pitch Set Point:	-0.079	Yaw Set Point:	0.068	X_WP:	0.000	Y_WP:	0.000	Y_WP:	0.750	X:	0.622	Y:	0.019	Z:	1.147	yaw:	-3.895	yaw rate:	3.783	Roll:	18.571	Pitch:	2.307	Yaw:	-7.909	Thrust:	0.000
Time:	1.563	Roll Set Point:	-1.241	Pitch Set Point:	-0.080	Yaw Set Point:	0.069	X_WP:	0.000	Y_WP:	0.000	Y_WP:	0.750	X:	0.622	Y:	0.019	Z:	1.147	yaw:	-3.954	yaw rate:	5.899	Roll:	18.634	Pitch:	2.654	Yaw:	-8.253	Thrust:	0.000
Time:	1.582	Roll Set Point:	-1.241	Pitch Set Point:	-0.082	Yaw Set Point:	0.071	X_WP:	0.000	Y_WP:	0.000	Y_WP:	0.750	X:	0.622	Y:	0.019	Z:	1.147	yaw:	-4.051	yaw rate:	9.646	Roll:	18.632	Pitch:	3.061	Yaw:	-8.917	Thrust:	0.000
Time:	1.602	Roll Set Point:	-1.240	Pitch Set Point:	-0.081	Yaw Set Point:	0.070	X_WP:	0.000	Y_WP:	0.000	Y_WP:	0.750	X:	0.622	Y:	0.019	Z:	1.147	yaw:	-4.019	yaw rate:	-3.152	Roll:	18.684	Pitch:	1.874	Yaw:	-7.251	Thrust:	0.000
Time:	1.622	Roll Set Point:	-1.240	Pitch Set Point:	-0.081	Yaw Set Point:	0.070	X_WP:	0.000	Y_WP:	0.000	Y_WP:	0.750	X:	0.622	Y:	0.019	Z:	1.148	yaw:	-3.993	yaw rate:	-2.634	Roll:	18.720	Pitch:	1.868	Yaw:	-7.296	Thrust:	0.000
Time:	1.643	Roll Set Point:	-1.240	Pitch Set Point:	-0.081	Yaw Set Point:	0.068	X_WP:	0.000	Y_WP:	0.000	Y_WP:	0.750	X:	0.622	Y:	0.019	Z:	1.148	yaw:	-3.921	yaw rate:	-7.202	Roll:	18.701	Pitch:	1.313	Yaw:	-6.686	Thrust:	0.000
Time:	1.663	Roll Set Point:	-1.240	Pitch Set Point:	-0.081	Yaw Set Point:	0.070	X_WP:	0.000	Y_WP:	0.000	Y_WP:	0.750	X:	0.621	Y:	0.019	Z:	1.148	yaw:	-4.018	yaw rate:	9.759	Roll:	18.515	Pitch:	2.827	Yaw:	-9.035	Thrust:	0.000
Time:	1.683	Roll Set Point:	-1.240	Pitch Set Point:	-0.082	Yaw Set Point:	0.071	X_WP:	0.000	Y_WP:	0.000	Y_WP:	0.750	X:	0.621	Y:	0.019	Z:	1.147	yaw:	-4.052	yaw rate:	3.418	Roll:	18.515	Pitch:	2.293	Yaw:	-8.179	Thrust:	0.000
Time:	1.702	Roll Set Point:	-1.237	Pitch Set Point:	-0.096	Yaw Set Point:	0.093	X_WP:	0.000	Y_WP:	0.000	Y_WP:	0.750	X:	0.621	Y:	0.019	Z:	1.147	yaw:	-5.314	yaw rate:	126.188	Roll:	16.859	Pitch:	14.197	Yaw:	-26.280	Thrust:	0.000
Time:	1.723	Roll Set Point:	-1.237	Pitch Set Point:	-0.095	Yaw Set Point:	0.091	X_WP:	0.000	Y_WP:	0.000	Y_WP:	0.750	X:	0.621	Y:	0.019	Z:	1.147	yaw:	-5.237	yaw rate:	-7.737	Roll:	18.669	Pitch:	1.698	Yaw:	-8.549	Thrust:	0.000
Time:	1.742	Roll Set Point:	-1.237	Pitch Set Point:	-0.096	Yaw Set Point:	0.093	X_WP:	0.000	Y_WP:	0.000	Y_WP:	0.750	X:	0.621	Y:	0.019	Z:	1.147	yaw:	-5.334	yaw rate:	9.689	Roll:	18.441	Pitch:	3.282	Yaw:	-10.955	Thrust:	0.000
Time:	1.763	Roll Set Point:	-1.239	Pitch Set Point:	-0.083	Yaw Set Point:	0.074	X_WP:	0.000	Y_WP:	0.000	Y_WP:	0.750	X:	0.621	Y:	0.019	Z:	1.147	yaw:	-4.236	yaw rate:	-109.761	Roll:	19.987	Pitch:	-7.750	Yaw:	5.683	Thrust:	0.000
Time:	1.783	Roll Set Point:	-1.240	Pitch Set Point:	-0.076	Yaw Set Point:	0.064	X_WP:	0.000	Y_WP:	0.000	Y_WP:	0.750	X:	0.621	Y:	0.018	Z:	1.147	yaw:	-3.669	yaw rate:	-56.711	Roll:	19.385	Pitch:	-3.202	Yaw:	-0.140	Thrust:	0.000
Time:	1.803	Roll Set Point:	-1.239	Pitch Set Point:	-0.077	Yaw Set Point:	0.065	X_WP:	0.000	Y_WP:	0.000	Y_WP:	0.750	X:	0.621	Y:	0.018	Z:	1.147	yaw:	-3.739	yaw rate:	7.022	Roll:	18.495	Pitch:	2.536	Yaw:	-8.449	Thrust:	0.000
Time:	1.823	Roll Set Point:	-1.239	Pitch Set Point:	-0.078	Yaw Set Point:	0.066	X_WP:	0.000	Y_WP:	0.000	Y_WP:	0.750	X:	0.621	Y:	0.018	Z:	1.146	yaw:	-3.804	yaw rate:	6.427	Roll:	18.514	Pitch:	2.520	Yaw:	-8.522	Thrust:	0.000
Time:	1.847	Roll Set Point:	-1.239	Pitch Set Point:	-0.077	Yaw Set Point:	0.065	X_WP:	0.000	Y_WP:	0.000	Y_WP:	0.750	X:	0.621	Y:	0.018	Z:	1.146	yaw:	-3.730	yaw rate:	-7.389	Roll:	18.898	Pitch:	1.416	Yaw:	-7.194	Thrust:	0.000
Time:	1.864	Roll Set Point:	-1.239	Pitch Set Point:	-0.078	Yaw Set Point:	0.067	X_WP:	0.000	Y_WP:	0.000	Y_WP:	0.750	X:	0.621	Y:	0.018	Z:	1.146	yaw:	-3.823	yaw rate:	9.334	Roll:	18.538	Pitch:	2.939	Yaw:	-8.840	Thrust:	0.000
Time:	1.884	Roll Set Point:	-1.239	Pitch Set Point:	-0.078	Yaw Set Point:	0.066	X_WP:	0.000	Y_WP:	0.000	Y_WP:	0.750	X:	0.621	Y:	0.018	Z:	1.145	yaw:	-3.783	yaw rate:	-4.004	Roll:	18.679	Pitch:	1.681	Yaw:	-7.269	Thrust:	0.000
Time:	1.902	Roll Set Point:	-1.239	Pitch Set Point:	-0.076	Yaw Set Point:	0.064	X_WP:	0.000	Y_WP:	0.000	Y_WP:	0.750	X:	0.621	Y:	0.018	Z:	1.145	yaw:	-3.668	yaw rate:	-11.496	Roll:	18.660	Pitch:	0.787	Yaw:	-5.690	Thrust:	0.000
Time:	1.924	Roll Set Point:	-1.237	Pitch Set Point:	-0.086	Yaw Set Point:	0.079	X_WP:	0.000	Y_WP:	0.000	Y_WP:	0.750	X:	0.620	Y:	0.019	Z:	1.145	yaw:	-4.529	yaw rate:	86.059	Roll:	17.605	Pitch:	9.850	Yaw:	-19.570	Thrust:	0.000
Time:	1.942	Roll Set Point:	-1.237	Pitch Set Point:	-0.086	Yaw Set Point:	0.079	X_WP:	0.000	Y_WP:	0.000	Y_WP:	0.750	X:	0.620	Y:	0.018	Z:	1.144	yaw:	-4.549	yaw rate:	2.046	Roll:	18.498	Pitch:	2.409	Yaw:	-8.978	Thrust:	0.000
Time:	1.962	Roll Set Point:	-1.239	Pitch Set Point:	-0.075	Yaw Set Point:	0.062	X_WP:	0.000	Y_WP:	0.000	Y_WP:	0.750	X:	0.621	Y:	0.018	Z:	1.144	yaw:	-3.569	yaw rate:	-97.984	Roll:	19.904	Pitch:	-7.338	Yaw:	5.041	Thrust:	0.000
Time:	1.982	Roll Set Point:	-1.239	Pitch Set Point:	-0.076	Yaw Set Point:	0.064	X_WP:	0.000	Y_WP:	0.000	Y_WP:	0.750	X:	0.621	Y:	0.018	Z:	1.144	yaw:	-3.682	yaw rate:	11.240	Roll:	18.534	Pitch:	2.974	Yaw:	-9.163	Thrust:	0.000
Time:	2.002	Roll Set Point:	-1.238	Pitch Set Point:	-0.078	Yaw Set Point:	0.067	X_WP:	0.000	Y_WP:	0.000	Y_WP:	0.750	X:	0.620	Y:	0.018	Z:	1.143	yaw:	-3.848	yaw rate:	16.598	Roll:	18.444	Pitch:	3.481	Yaw:	-10.159	Thrust:	0.000
Time:	2.022	Roll Set Point:	-1.238	Pitch Set Point:	-0.079	Yaw Set Point:	0.069	X_WP:	0.000	Y_WP:	0.000	Y_WP:	0.750	X:	0.620	Y:	0.018	Z:	1.143	yaw:	-3.931	yaw rate:	8.355	Roll:	18.542	Pitch:	2.727	Yaw:	-9.214	Thrust:	0.000
Time:	2.043	Roll Set Point:	-1.238	Pitch Set Point:	-0.078	Yaw Set Point:	0.068	X_WP:	0.000	Y_WP:	0.000	Y_WP:	0.750	X:	0.620	Y:	0.018	Z:	1.143	yaw:	-3.912	yaw rate:	-1.898	Roll:	18.647	Pitch:	1.727	Yaw:	-7.977	Thrust:	0.000
Time:	2.063	Roll Set Point:	-1.238	Pitch Set Point:	-0.079	Yaw Set Point:	0.069	X_WP:	0.000	Y_WP:	0.000	Y_WP:	0.750	X:	0.620	Y:	0.018	Z:	1.142	yaw:	-3.970	yaw rate:	5.757	Roll:	18.553	Pitch:	2.538	Yaw:	-9.043	Thrust:	0.000
Time:	2.082	Roll Set Point:	-1.238	Pitch Set Point:	-0.076	Yaw Set Point:	0.066	X_WP:	0.000	Y_WP:	0.000	Y_WP:	0.750	X:	0.620	Y:	0.018	Z:	1.142	yaw:	-3.763	yaw rate:	-20.668	Roll:	18.763	Pitch:	0.077	Yaw:	-4.885	Thrust:	0.000
Time:	2.102	Roll Set Point:	-1.236	Pitch Set Point:	-0.086	Yaw Set Point:	0.081	X_WP:	0.000	Y_WP:	0.000	Y_WP:	0.750	X:	0.620	Y:	0.018	Z:	1.142	yaw:	-4.656	yaw rate:	89.275	Roll:	17.624	Pitch:	10.492	Yaw:	-20.817	Thrust:	0.000
Time:	2.123	Roll Set Point:	-1.237	Pitch Set Point:	-0.086	Yaw Set Point:	0.081	X_WP:	0.000	Y_WP:	0.000	Y_WP:	0.750	X:	0.620	Y:	0.018	Z:	1.141	yaw:	-4.630	yaw rate:	-2.565	Roll:	18.740	Pitch:	2.064	Yaw:	-9.087	Thrust:	0.000
Time:	2.142	Roll Set Point:	-1.239	Pitch Set Point:	-0.075	Yaw Set Point:	0.063	X_WP:	0.000	Y_WP:	0.000	Y_WP:	0.750	X:	0.621	Y:	0.018	Z:	1.141	yaw:	-3.632	yaw rate:	-99.793	Roll:	20.134	Pitch:	-8.215	Yaw:	6.405	Thrust:	0.000
Time:	2.162	Roll Set Point:	-1.239	Pitch Set Point:	-0.074	Yaw Set Point:	0.063	X_WP:	0.000	Y_WP:	0.000	Y_WP:	0.750	X:	0.621	Y:	0.018	Z:	1.141	yaw:	-3.594	yaw rate:	-3.831	Roll:	18.982	Pitch:	1.607	Yaw:	-7.399	Thrust:	0.000
Time:	2.182	Roll Set Point:	-1.240	Pitch Set Point:	-0.074	Yaw Set Point:	0.063	X_WP:	0.000	Y_WP:	0.000	Y_WP:	0.750	X:	0.621	Y:	0.018	Z:	1.141	yaw:	-3.625	yaw rate:	3.061	Roll:	18.921	Pitch:	2.269	Yaw:	-8.293	Thrust:	0.000
Time:	2.203	Roll Set Point:	-1.241	Pitch Set Point:	-0.073	Yaw Set Point:	0.060	X_WP:	0.000	Y_WP:	0.000	Y_WP:	0.750	X:	0.621	Y:	0.018	Z:	1.141	yaw:	-3.458	yaw rate:	-16.645	Roll:	19.106	Pitch:	0.506	Yaw:	-5.553	Thrust:	0.000
Time:	2.222	Roll Set Point:	-1.241	Pitch Set Point:	-0.073	Yaw Set Point:	0.060	X_WP:	0.000	Y_WP:	0.000	Y_WP:	0.750	X:	0.622	Y:	0.018	Z:	1.141	yaw:	-3.425	yaw rate:	-3.304	Roll:	18.964	Pitch:	1.618	Yaw:	-7.314	Thrust:	0.000
Time:	2.243	Roll Set Point:	-1.242	Pitch Set Point:	-0.072	Yaw Set Point:	0.059	X_WP:	0.000	Y_WP:	0.000	Y_WP:	0.750	X:	0.622	Y:	0.018	Z:	1.141	yaw:	-3.384	yaw rate:	-4.131	Roll:	18.913	Pitch:	1.563	Yaw:	-7.164	Thrust:	0.000
Time:	2.263	Roll Set Point:	-1.242	Pitch Set Point:	-0.072	Yaw Set Point:	0.058	X_WP:	0.000	Y_WP:	0.000	Y_WP:	0.750	X:	0.622	Y:	0.018	Z:	1.142	yaw:	-3.321	yaw rate:	-6.242	Roll:	18.978	Pitch:	1.365	Yaw:	-6.833	Thrust:	0.000
Time:	2.284	Roll Set Point:	-1.242	Pitch Set Point:	-0.072	Yaw Set Point:	0.059	X_WP:	0.000	Y_WP:	0.000	Y_WP:	0.750	X:	0.622	Y:	0.018	Z:	1.142	yaw:	-3.403	yaw rate:	8.182	Roll:	18.804	Pitch:	2.619	Yaw:	-8.872	Thrust:	0.000
Time:	2.303	Roll Set Point:	-1.243	Pitch Set Point:	-0.071	Yaw Set Point:	0.058	X_WP:	0.000	Y_WP:	0.000	Y_WP:	0.750	X:	0.622	Y:	0.018	Z:	1.142	yaw:	-3.323	yaw rate:	-8.040	Roll:	18.945	Pitch:	1.049	Yaw:	-6.439	Thrust:	0.000
Time:	2.324	Roll Set Point:	-1.243	Pitch Set Point:	-0.071	Yaw Set Point:	0.057	X_WP:	0.000	Y_WP:	0.000	Y_WP:	0.750	X:	0.623	Y:	0.018	Z:	1.142	yaw:	-3.276	yaw rate:	-4.629	Roll:	19.046	Pitch:	1.444	Yaw:	-7.196	Thrust:	0.000
Time:	2.342	Roll Set Point:	-1.244	Pitch Set Point:	-0.071	Yaw Set Point:	0.057	X_WP:	0.000	Y_WP:	0.000	Y_WP:	0.750	X:	0.623	Y:	0.018	Z:	1.143	yaw:	-3.290	yaw rate:	1.401	Roll:	18.787	Pitch:	1.981	Yaw:	-7.610	Thrust:	0.000
Time:	2.363	Roll Set Point:	-1.244	Pitch Set Point:	-0.069	Yaw Set Point:	0.056	X_WP:	0.000	Y_WP:	0.000	Y_WP:	0.750	X:	0.623	Y:	0.017	Z:	1.143	yaw:	-3.183	yaw rate:	-10.784	Roll:	18.920	Pitch:	0.735	Yaw:	-6.132	Thrust:	0.000
Time:	2.384	Roll Set Point:	-1.244	Pitch Set Point:	-0.069	Yaw Set Point:	0.055	X_WP:	0.000	Y_WP:	0.000	Y_WP:	0.750	X:	0.623	Y:	0.017	Z:	1.143	yaw:	-3.175	yaw rate:	-0.796	Roll:	18.895	Pitch:	1.741	Yaw:	-7.590	Thrust:	0.000
Time:	2.403	Roll Set Point:	-1.244	Pitch Set Point:	-0.069	Yaw Set Point:	0.056	X_WP:	0.000	Y_WP:	0.000	Y_WP:	0.750	X:	0.623	Y:	0.017	Z:	1.143	yaw:	-3.185	yaw rate:	1.038	Roll:	18.758	Pitch:	1.921	Yaw:	-7.565	Thrust:	0.000
Time:	2.423	Roll Set Point:	-1.244	Pitch Set Point:	-0.069	Yaw Set Point:	0.056	X_WP:	0.000	Y_WP:	0.000	Y_WP:	0.750	X:	0.623	Y:	0.017	Z:	1.143	yaw:	-3.201	yaw rate:	1.547	Roll:	18.704	Pitch:	1.970	Yaw:	-7.758	Thrust:	0.000
Time:	2.443	Roll Set Point:	-1.244	Pitch Set Point:	-0.069	Yaw Set Point:	0.055	X_WP:	0.000	Y_WP:	0.000	Y_WP:	0.750	X:	0.623	Y:	0.017	Z:	1.143	yaw:	-3.178	yaw rate:	-2.242	Roll:	18.705	Pitch:	1.609	Yaw:	-7.335	Thrust:	0.000
Time:	2.463	Roll Set Point:	-1.244	Pitch Set Point:	-0.069	Yaw Set Point:	0.056	X_WP:	0.000	Y_WP:	0.000	Y_WP:	0.750	X:	0.623	Y:	0.017	Z:	1.143	yaw:	-3.223	yaw rate:	4.491	Roll:	18.768	Pitch:	2.293	Yaw:	-8.282	Thrust:	0.000
Time:	2.482	Roll Set Point:	-1.244	Pitch Set Point:	-0.070	Yaw Set Point:	0.057	X_WP:	0.000	Y_WP:	0.000	Y_WP:	0.750	X:	0.623	Y:	0.017	Z:	1.143	yaw:	-3.280	yaw rate:	5.736	Roll:	18.604	Pitch:	2.507	Yaw:	-8.450	Thrust:	0.000
Time:	2.503	Roll Set Point:	-1.244	Pitch Set Point:	-0.070	Yaw Set Point:	0.056	X_WP:	0.000	Y_WP:	0.000	Y_WP:	0.750	X:	0.623	Y:	0.017	Z:	1.143	yaw:	-3.229	yaw rate:	-5.186	Roll:	18.756	Pitch:	1.489	Yaw:	-7.199	Thrust:	0.000
Time:	2.523	Roll Set Point:	-1.244	Pitch Set Point:	-0.069	Yaw Set Point:	0.054	X_WP:	0.000	Y_WP:	0.000	Y_WP:	0.750	X:	0.623	Y:	0.018	Z:	1.143	yaw:	-3.105	yaw rate:	-12.365	Roll:	18.834	Pitch:	0.847	Yaw:	-5.958	Thrust:	0.000
Time:	2.542	Roll Set Point:	-1.244	Pitch Set Point:	-0.070	Yaw Set Point:	0.057	X_WP:	0.000	Y_WP:	0.000	Y_WP:	0.750	X:	0.623	Y:	0.017	Z:	1.143	yaw:	-3.271	yaw rate:	16.653	Roll:	18.688	Pitch:	3.390	Yaw:	-10.003	Thrust:	0.000
Time:	2.562	Roll Set Point:	-1.244	Pitch Set Point:	-0.071	Yaw Set Point:	0.058	X_WP:	0.000	Y_WP:	0.000	Y_WP:	0.750	X:	0.623	Y:	0.017	Z:	1.143	yaw:	-3.333	yaw rate:	6.201	Roll:	18.749	Pitch:	2.475	Yaw:	-8.768	Thrust:	0.000
Time:	2.583	Roll Set Point:	-1.244	Pitch Set Point:	-0.072	Yaw Set Point:	0.060	X_WP:	0.000	Y_WP:	0.000	Y_WP:	0.750	X:	0.623	Y:	0.017	Z:	1.142	yaw:	-3.415	yaw rate:	8.143	Roll:	18.671	Pitch:	2.699	Yaw:	-9.201	Thrust:	0.000
Time:	2.602	Roll Set Point:	-1.244	Pitch Set Point:	-0.071	Yaw Set Point:	0.059	X_WP:	0.000	Y_WP:	0.000	Y_WP:	0.750	X:	0.623	Y:	0.017	Z:	1.142	yaw:	-3.362	yaw rate:	-5.246	Roll:	18.818	Pitch:	1.453	Yaw:	-7.151	Thrust:	0.000
Time:	2.622	Roll Set Point:	-1.244	Pitch Set Point:	-0.071	Yaw Set Point:	0.058	X_WP:	0.000	Y_WP:	0.000	Y_WP:	0.750	X:	0.623	Y:	0.017	Z:	1.142	yaw:	-3.326	yaw rate:	-3.616	Roll:	18.833	Pitch:	1.596	Yaw:	-7.634	Thrust:	0.000
Time:	2.642	Roll Set Point:	-1.244	Pitch Set Point:	-0.071	Yaw Set Point:	0.058	X_WP:	0.000	Y_WP:	0.000	Y_WP:	0.750	X:	0.623	Y:	0.017	Z:	1.142	yaw:	-3.329	yaw rate:	0.313	Roll:	18.839	Pitch:	2.045	Yaw:	-8.056	Thrust:	0.000
Time:	2.662	Roll Set Point:	-1.244	Pitch Set Point:	-0.072	Yaw Set Point:	0.060	X_WP:	0.000	Y_WP:	0.000	Y_WP:	0.750	X:	0.623	Y:	0.018	Z:	1.142	yaw:	-3.434	yaw rate:	10.446	Roll:	18.679	Pitch:	2.994	Yaw:	-9.588	Thrust:	0.000
Time:	2.683	Roll Set Point:	-1.244	Pitch Set Point:	-0.072	Yaw Set Point:	0.060	X_WP:	0.000	Y_WP:	0.000	Y_WP:	0.750	X:	0.623	Y:	0.018	Z:	1.141	yaw:	-3.421	yaw rate:	-1.237	Roll:	18.772	Pitch:	1.871	Yaw:	-8.121	Thrust:	0.000
Time:	2.702	Roll Set Point:	-1.244	Pitch Set Point:	-0.072	Yaw Set Point:	0.060	X_WP:	0.000	Y_WP:	0.000	Y_WP:	0.750	X:	0.623	Y:	0.018	Z:	1.141	yaw:	-3.422	yaw rate:	0.089	Roll:	18.831	Pitch:	2.024	Yaw:	-8.112	Thrust:	0.000
Time:	2.724	Roll Set Point:	-1.244	Pitch Set Point:	-0.073	Yaw Set Point:	0.061	X_WP:	0.000	Y_WP:	0.000	Y_WP:	0.750	X:	0.623	Y:	0.017	Z:	1.141	yaw:	-3.470	yaw rate:	4.793	Roll:	18.836	Pitch:	2.388	Yaw:	-9.283	Thrust:	0.000
Time:	2.742	Roll Set Point:	-1.244	Pitch Set Point:	-0.073	Yaw Set Point:	0.061	X_WP:	0.000	Y_WP:	0.000	Y_WP:	0.750	X:	0.623	Y:	0.017	Z:	1.141	yaw:	-3.495	yaw rate:	2.426	Roll:	18.734	Pitch:	2.127	Yaw:	-8.328	Thrust:	0.000
Time:	2.763	Roll Set Point:	-1.245	Pitch Set Point:	-0.072	Yaw Set Point:	0.060	X_WP:	0.000	Y_WP:	0.000	Y_WP:	0.750	X:	0.623	Y:	0.017	Z:	1.141	yaw:	-3.419	yaw rate:	-7.536	Roll:	18.984	Pitch:	1.325	Yaw:	-7.705	Thrust:	0.000
Time:	2.783	Roll Set Point:	-1.243	Pitch Set Point:	-0.083	Yaw Set Point:	0.076	X_WP:	0.000	Y_WP:	0.000	Y_WP:	0.750	X:	0.623	Y:	0.018	Z:	1.141	yaw:	-4.369	yaw rate:	95.017	Roll:	17.643	Pitch:	11.410	Yaw:	-22.190	Thrust:	0.000
Time:	2.802	Roll Set Point:	-1.244	Pitch Set Point:	-0.083	Yaw Set Point:	0.077	X_WP:	0.000	Y_WP:	0.000	Y_WP:	0.750	X:	0.623	Y:	0.018	Z:	1.141	yaw:	-4.399	yaw rate:	2.953	Roll:	18.822	Pitch:	2.561	Yaw:	-9.972	Thrust:	0.000
Time:	2.823	Roll Set Point:	-1.244	Pitch Set Point:	-0.082	Yaw Set Point:	0.076	X_WP:	0.000	Y_WP:	0.000	Y_WP:	0.750	X:	0.624	Y:	0.018	Z:	1.141	yaw:	-4.350	yaw rate:	-4.904	Roll:	18.926	Pitch:	1.756	Yaw:	-9.174	Thrust:	0.000
Time:	2.842	Roll Set Point:	-1.246	Pitch Set Point:	-0.071	Yaw Set Point:	0.059	X_WP:	0.000	Y_WP:	0.000	Y_WP:	0.750	X:	0.624	Y:	0.017	Z:	1.141	yaw:	-3.397	yaw rate:	-95.253	Roll:	20.081	Pitch:	-7.858	Yaw:	4.425	Thrust:	0.000
Time:	2.862	Roll Set Point:	-1.246	Pitch Set Point:	-0.071	Yaw Set Point:	0.059	X_WP:	0.000	Y_WP:	0.000	Y_WP:	0.750	X:	0.624	Y:	0.017	Z:	1.141	yaw:	-3.400	yaw rate:	0.222	Roll:	18.905	Pitch:	1.976	Yaw:	-8.421	Thrust:	0.000
Time:	2.884	Roll Set Point:	-1.247	Pitch Set Point:	-0.070	Yaw Set Point:	0.058	X_WP:	0.000	Y_WP:	0.000	Y_WP:	0.750	X:	0.624	Y:	0.017	Z:	1.142	yaw:	-3.311	yaw rate:	-8.813	Roll:	19.090	Pitch:	1.127	Yaw:	-7.254	Thrust:	0.000
Time:	2.902	Roll Set Point:	-1.247	Pitch Set Point:	-0.070	Yaw Set Point:	0.058	X_WP:	0.000	Y_WP:	0.000	Y_WP:	0.750	X:	0.625	Y:	0.017	Z:	1.142	yaw:	-3.301	yaw rate:	-1.023	Roll:	19.090	Pitch:	1.848	Yaw:	-8.150	Thrust:	0.000
Time:	2.922	Roll Set Point:	-1.248	Pitch Set Point:	-0.070	Yaw Set Point:	0.058	X_WP:	0.000	Y_WP:	0.000	Y_WP:	0.750	X:	0.625	Y:	0.017	Z:	1.142	yaw:	-3.311	yaw rate:	0.940	Roll:	19.132	Pitch:	2.061	Yaw:	-8.451	Thrust:	0.000
Time:	2.942	Roll Set Point:	-1.249	Pitch Set Point:	-0.069	Yaw Set Point:	0.057	X_WP:	0.000	Y_WP:	0.000	Y_WP:	0.750	X:	0.625	Y:	0.017	Z:	1.142	yaw:	-3.239	yaw rate:	-7.153	Roll:	19.256	Pitch:	1.168	Yaw:	-7.338	Thrust:	0.000
Time:	2.962	Roll Set Point:	-1.250	Pitch Set Point:	-0.068	Yaw Set Point:	0.055	X_WP:	0.000	Y_WP:	0.000	Y_WP:	0.750	X:	0.626	Y:	0.017	Z:	1.142	yaw:	-3.159	yaw rate:	-8.012	Roll:	19.144	Pitch:	1.127	Yaw:	-7.196	Thrust:	0.000
Time:	2.982	Roll Set Point:	-1.250	Pitch Set Point:	-0.066	Yaw Set Point:	0.053	X_WP:	0.000	Y_WP:	0.000	Y_WP:	0.750	X:	0.626	Y:	0.017	Z:	1.143	yaw:	-3.053	yaw rate:	-10.638	Roll:	19.207	Pitch:	0.791	Yaw:	-6.614	Thrust:	0.000
Time:	3.003	Roll Set Point:	-1.251	Pitch Set Point:	-0.065	Yaw Set Point:	0.051	X_WP:	0.000	Y_WP:	0.000	Y_WP:	0.750	X:	0.626	Y:	0.016	Z:	1.143	yaw:	-2.916	yaw rate:	-13.626	Roll:	19.189	Pitch:	0.524	Yaw:	-6.339	Thrust:	0.000
Time:	3.022	Roll Set Point:	-1.252	Pitch Set Point:	-0.063	Yaw Set Point:	0.048	X_WP:	0.000	Y_WP:	0.000	Y_WP:	0.750	X:	0.627	Y:	0.016	Z:	1.143	yaw:	-2.744	yaw rate:	-17.237	Roll:	19.253	Pitch:	-0.004	Yaw:	-5.230	Thrust:	0.000
Time:	3.043	Roll Set Point:	-1.251	Pitch Set Point:	-0.073	Yaw Set Point:	0.065	X_WP:	0.000	Y_WP:	0.000	Y_WP:	0.750	X:	0.627	Y:	0.016	Z:	1.143	yaw:	-3.697	yaw rate:	95.335	Roll:	18.079	Pitch:	11.082	Yaw:	-21.318	Thrust:	0.000
Time:	3.063	Roll Set Point:	-1.253	Pitch Set Point:	-0.061	Yaw Set Point:	0.046	X_WP:	0.000	Y_WP:	0.000	Y_WP:	0.750	X:	0.627	Y:	0.016	Z:	1.143	yaw:	-2.620	yaw rate:	-107.677	Roll:	20.393	Pitch:	-8.373	Yaw:	6.568	Thrust:	0.000
Time:	3.083	Roll Set Point:	-1.255	Pitch Set Point:	-0.060	Yaw Set Point:	0.045	X_WP:	0.000	Y_WP:	0.000	Y_WP:	0.750	X:	0.628	Y:	0.016	Z:	1.143	yaw:	-2.599	yaw rate:	-2.145	Roll:	19.397	Pitch:	1.504	Yaw:	-7.033	Thrust:	0.000
Time:	3.102	Roll Set Point:	-1.255	Pitch Set Point:	-0.065	Yaw Set Point:	0.052	X_WP:	0.000	Y_WP:	0.000	Y_WP:	0.750	X:	0.628	Y:	0.016	Z:	1.144	yaw:	-2.972	yaw rate:	37.264	Roll:	19.080	Pitch:	5.341	Yaw:	-12.930	Thrust:	0.000
Time:	3.122	Roll Set Point:	-1.254	Pitch Set Point:	-0.085	Yaw Set Point:	0.082	X_WP:	0.000	Y_WP:	0.000	Y_WP:	0.750	X:	0.629	Y:	0.017	Z:	1.144	yaw:	-4.671	yaw rate:	169.886	Roll:	17.493	Pitch:	19.098	Yaw:	-33.118	Thrust:	0.000
Time:	3.142	Roll Set Point:	-1.254	Pitch Set Point:	-0.088	Yaw Set Point:	0.087	X_WP:	0.000	Y_WP:	0.000	Y_WP:	0.750	X:	0.629	Y:	0.017	Z:	1.144	yaw:	-4.980	yaw rate:	30.972	Roll:	18.945	Pitch:	5.595	Yaw:	-14.997	Thrust:	0.000
Time:	3.162	Roll Set Point:	-1.259	Pitch Set Point:	-0.064	Yaw Set Point:	0.049	X_WP:	0.000	Y_WP:	0.000	Y_WP:	0.750	X:	0.630	Y:	0.016	Z:	1.144	yaw:	-2.819	yaw rate:	-216.136	Roll:	21.848	Pitch:	-17.845	Yaw:	19.095	Thrust:	0.000
Time:	3.183	Roll Set Point:	-1.260	Pitch Set Point:	-0.064	Yaw Set Point:	0.049	X_WP:	0.000	Y_WP:	0.000	Y_WP:	0.750	X:	0.631	Y:	0.016	Z:	1.145	yaw:	-2.813	yaw rate:	-0.556	Roll:	19.271	Pitch:	1.725	Yaw:	-8.055	Thrust:	0.000
Time:	3.203	Roll Set Point:	-1.260	Pitch Set Point:	-0.062	Yaw Set Point:	0.046	X_WP:	0.000	Y_WP:	0.000	Y_WP:	0.750	X:	0.631	Y:	0.016	Z:	1.145	yaw:	-2.640	yaw rate:	-17.342	Roll:	19.409	Pitch:	0.179	Yaw:	-5.239	Thrust:	0.000
Time:	3.222	Roll Set Point:	-1.259	Pitch Set Point:	-0.075	Yaw Set Point:	0.066	X_WP:	0.000	Y_WP:	0.000	Y_WP:	0.750	X:	0.631	Y:	0.017	Z:	1.145	yaw:	-3.786	yaw rate:	114.571	Roll:	17.965	Pitch:	13.313	Yaw:	-24.793	Thrust:	0.000
Time:	3.242	Roll Set Point:	-1.261	Pitch Set Point:	-0.063	Yaw Set Point:	0.049	X_WP:	0.000	Y_WP:	0.000	Y_WP:	0.750	X:	0.631	Y:	0.016	Z:	1.145	yaw:	-2.779	yaw rate:	-100.660	Roll:	20.319	Pitch:	-7.697	Yaw:	4.893	Thrust:	0.000
Time:	3.262	Roll Set Point:	-1.262	Pitch Set Point:	-0.064	Yaw Set Point:	0.049	X_WP:	0.000	Y_WP:	0.000	Y_WP:	0.750	X:	0.632	Y:	0.016	Z:	1.145	yaw:	-2.835	yaw rate:	5.626	Roll:	19.125	Pitch:	2.454	Yaw:	-8.598	Thrust:	0.000
Time:	3.283	Roll Set Point:	-1.262	Pitch Set Point:	-0.065	Yaw Set Point:	0.051	X_WP:	0.000	Y_WP:	0.000	Y_WP:	0.750	X:	0.632	Y:	0.016	Z:	1.146	yaw:	-2.913	yaw rate:	7.752	Roll:	19.219	Pitch:	2.614	Yaw:	-9.196	Thrust:	0.000
Time:	3.302	Roll Set Point:	-1.264	Pitch Set Point:	-0.057	Yaw Set Point:	0.038	X_WP:	0.000	Y_WP:	0.000	Y_WP:	0.750	X:	0.633	Y:	0.016	Z:	1.146	yaw:	-2.194	yaw rate:	-71.911	Roll:	20.130	Pitch:	-5.219	Yaw:	2.496	Thrust:	0.000
Time:	3.322	Roll Set Point:	-1.265	Pitch Set Point:	-0.057	Yaw Set Point:	0.039	X_WP:	0.000	Y_WP:	0.000	Y_WP:	0.750	X:	0.633	Y:	0.016	Z:	1.146	yaw:	-2.219	yaw rate:	2.537	Roll:	19.204	Pitch:	1.978	Yaw:	-7.427	Thrust:	0.000
Time:	3.342	Roll Set Point:	-1.265	Pitch Set Point:	-0.057	Yaw Set Point:	0.038	X_WP:	0.000	Y_WP:	0.000	Y_WP:	0.750	X:	0.633	Y:	0.016	Z:	1.146	yaw:	-2.162	yaw rate:	-5.693	Roll:	19.196	Pitch:	1.179	Yaw:	-6.260	Thrust:	0.000
Time:	3.363	Roll Set Point:	-1.265	Pitch Set Point:	-0.058	Yaw Set Point:	0.040	X_WP:	0.000	Y_WP:	0.000	Y_WP:	0.750	X:	0.633	Y:	0.016	Z:	1.146	yaw:	-2.298	yaw rate:	13.638	Roll:	19.025	Pitch:	3.057	Yaw:	-8.981	Thrust:	0.000
Time:	3.382	Roll Set Point:	-1.265	Pitch Set Point:	-0.059	Yaw Set Point:	0.041	X_WP:	0.000	Y_WP:	0.000	Y_WP:	0.750	X:	0.633	Y:	0.017	Z:	1.146	yaw:	-2.344	yaw rate:	4.528	Roll:	19.048	Pitch:	2.312	Yaw:	-7.921	Thrust:	0.000
Time:	3.402	Roll Set Point:	-1.265	Pitch Set Point:	-0.057	Yaw Set Point:	0.037	X_WP:	0.000	Y_WP:	0.000	Y_WP:	0.750	X:	0.633	Y:	0.017	Z:	1.147	yaw:	-2.143	yaw rate:	-20.042	Roll:	19.189	Pitch:	-0.101	Yaw:	-4.372	Thrust:	0.000
Time:	3.423	Roll Set Point:	-1.265	Pitch Set Point:	-0.057	Yaw Set Point:	0.036	X_WP:	0.000	Y_WP:	0.000	Y_WP:	0.750	X:	0.633	Y:	0.017	Z:	1.147	yaw:	-2.063	yaw rate:	-8.036	Roll:	19.089	Pitch:	1.023	Yaw:	-5.871	Thrust:	0.000
Time:	3.441	Roll Set Point:	-1.264	Pitch Set Point:	-0.057	Yaw Set Point:	0.037	X_WP:	0.000	Y_WP:	0.000	Y_WP:	0.750	X:	0.633	Y:	0.017	Z:	1.147	yaw:	-2.131	yaw rate:	6.819	Roll:	18.865	Pitch:	2.317	Yaw:	-7.693	Thrust:	0.000
Time:	3.462	Roll Set Point:	-1.264	Pitch Set Point:	-0.057	Yaw Set Point:	0.037	X_WP:	0.000	Y_WP:	0.000	Y_WP:	0.750	X:	0.633	Y:	0.017	Z:	1.147	yaw:	-2.107	yaw rate:	-2.386	Roll:	18.977	Pitch:	1.403	Yaw:	-6.675	Thrust:	0.000
Time:	3.482	Roll Set Point:	-1.262	Pitch Set Point:	-0.066	Yaw Set Point:	0.050	X_WP:	0.000	Y_WP:	0.000	Y_WP:	0.750	X:	0.632	Y:	0.017	Z:	1.147	yaw:	-2.883	yaw rate:	77.541	Roll:	17.982	Pitch:	9.061	Yaw:	-17.973	Thrust:	0.000
Time:	3.502	Roll Set Point:	-1.262	Pitch Set Point:	-0.067	Yaw Set Point:	0.051	X_WP:	0.000	Y_WP:	0.000	Y_WP:	0.750	X:	0.632	Y:	0.017	Z:	1.147	yaw:	-2.907	yaw rate:	2.395	Roll:	18.970	Pitch:	2.259	Yaw:	-8.378	Thrust:	0.000
Time:	3.522	Roll Set Point:	-1.262	Pitch Set Point:	-0.067	Yaw Set Point:	0.052	X_WP:	0.000	Y_WP:	0.000	Y_WP:	0.750	X:	0.632	Y:	0.017	Z:	1.148	yaw:	-2.965	yaw rate:	5.831	Roll:	18.876	Pitch:	2.596	Yaw:	-8.822	Thrust:	0.000
Time:	3.542	Roll Set Point:	-1.263	Pitch Set Point:	-0.058	Yaw Set Point:	0.037	X_WP:	0.000	Y_WP:	0.000	Y_WP:	0.750	X:	0.632	Y:	0.017	Z:	1.148	yaw:	-2.097	yaw rate:	-86.817	Roll:	19.960	Pitch:	-6.080	Yaw:	4.187	Thrust:	0.000
Time:	3.563	Roll Set Point:	-1.263	Pitch Set Point:	-0.058	Yaw Set Point:	0.036	X_WP:	0.000	Y_WP:	0.000	Y_WP:	0.750	X:	0.632	Y:	0.018	Z:	1.148	yaw:	-2.069	yaw rate:	-2.788	Roll:	18.978	Pitch:	1.602	Yaw:	-6.682	Thrust:	0.000
Time:	3.584	Roll Set Point:	-1.263	Pitch Set Point:	-0.059	Yaw Set Point:	0.037	X_WP:	0.000	Y_WP:	0.000	Y_WP:	0.750	X:	0.632	Y:	0.018	Z:	1.148	yaw:	-2.126	yaw rate:	5.751	Roll:	18.922	Pitch:	2.403	Yaw:	-7.690	Thrust:	0.000
Time:	3.602	Roll Set Point:	-1.263	Pitch Set Point:	-0.059	Yaw Set Point:	0.037	X_WP:	0.000	Y_WP:	0.000	Y_WP:	0.750	X:	0.632	Y:	0.018	Z:	1.149	yaw:	-2.117	yaw rate:	-0.956	Roll:	18.943	Pitch:	1.787	Yaw:	-6.714	Thrust:	0.000
Time:	3.622	Roll Set Point:	-1.263	Pitch Set Point:	-0.062	Yaw Set Point:	0.040	X_WP:	0.000	Y_WP:	0.000	Y_WP:	0.750	X:	0.632	Y:	0.018	Z:	1.149	yaw:	-2.267	yaw rate:	15.025	Roll:	18.895	Pitch:	3.349	Yaw:	-9.152	Thrust:	0.000
Time:	3.642	Roll Set Point:	-1.263	Pitch Set Point:	-0.062	Yaw Set Point:	0.040	X_WP:	0.000	Y_WP:	0.000	Y_WP:	0.750	X:	0.632	Y:	0.018	Z:	1.149	yaw:	-2.294	yaw rate:	2.685	Roll:	18.986	Pitch:	2.165	Yaw:	-7.498	Thrust:	0.000
Time:	3.662	Roll Set Point:	-1.263	Pitch Set Point:	-0.059	Yaw Set Point:	0.035	X_WP:	0.000	Y_WP:	0.000	Y_WP:	0.750	X:	0.632	Y:	0.019	Z:	1.149	yaw:	-2.018	yaw rate:	-27.641	Roll:	19.238	Pitch:	-0.729	Yaw:	-3.279	Thrust:	0.000
Time:	3.684	Roll Set Point:	-1.261	Pitch Set Point:	-0.068	Yaw Set Point:	0.048	X_WP:	0.000	Y_WP:	0.000	Y_WP:	0.750	X:	0.631	Y:	0.019	Z:	1.149	yaw:	-2.758	yaw rate:	74.049	Roll:	18.199	Pitch:	8.775	Yaw:	-17.221	Thrust:	0.000
Time:	3.702	Roll Set Point:	-1.261	Pitch Set Point:	-0.068	Yaw Set Point:	0.047	X_WP:	0.000	Y_WP:	0.000	Y_WP:	0.750	X:	0.631	Y:	0.019	Z:	1.149	yaw:	-2.687	yaw rate:	-7.100	Roll:	18.852	Pitch:	1.322	Yaw:	-6.498	Thrust:	0.000
Time:	3.722	Roll Set Point:	-1.260	Pitch Set Point:	-0.068	Yaw Set Point:	0.047	X_WP:	0.000	Y_WP:	0.000	Y_WP:	0.750	X:	0.631	Y:	0.019	Z:	1.149	yaw:	-2.714	yaw rate:	2.711	Roll:	18.827	Pitch:	2.177	Yaw:	-8.170	Thrust:	0.000
Time:	3.742	Roll Set Point:	-1.260	Pitch Set Point:	-0.068	Yaw Set Point:	0.048	X_WP:	0.000	Y_WP:	0.000	Y_WP:	0.750	X:	0.631	Y:	0.019	Z:	1.149	yaw:	-2.724	yaw rate:	1.028	Roll:	18.908	Pitch:	2.027	Yaw:	-7.815	Thrust:	0.000
Time:	3.763	Roll Set Point:	-1.260	Pitch Set Point:	-0.068	Yaw Set Point:	0.047	X_WP:	0.000	Y_WP:	0.000	Y_WP:	0.750	X:	0.631	Y:	0.019	Z:	1.148	yaw:	-2.709	yaw rate:	-1.588	Roll:	18.972	Pitch:	1.861	Yaw:	-7.894	Thrust:	0.000
Time:	3.783	Roll Set Point:	-1.260	Pitch Set Point:	-0.067	Yaw Set Point:	0.045	X_WP:	0.000	Y_WP:	0.000	Y_WP:	0.750	X:	0.631	Y:	0.019	Z:	1.148	yaw:	-2.564	yaw rate:	-14.416	Roll:	18.892	Pitch:	0.696	Yaw:	-5.701	Thrust:	0.000
Time:	3.805	Roll Set Point:	-1.260	Pitch Set Point:	-0.068	Yaw Set Point:	0.046	X_WP:	0.000	Y_WP:	0.000	Y_WP:	0.750	X:	0.631	Y:	0.019	Z:	1.148	yaw:	-2.629	yaw rate:	6.490	Roll:	18.967	Pitch:	2.522	Yaw:	-8.767	Thrust:	0.000
Time:	3.824	Roll Set Point:	-1.259	Pitch Set Point:	-0.067	Yaw Set Point:	0.045	X_WP:	0.000	Y_WP:	0.000	Y_WP:	0.750	X:	0.630	Y:	0.020	Z:	1.149	yaw:	-2.564	yaw rate:	-6.512	Roll:	18.843	Pitch:	1.371	Yaw:	-6.373	Thrust:	0.000
Time:	3.843	Roll Set Point:	-1.259	Pitch Set Point:	-0.066	Yaw Set Point:	0.043	X_WP:	0.000	Y_WP:	0.000	Y_WP:	0.750	X:	0.630	Y:	0.020	Z:	1.149	yaw:	-2.445	yaw rate:	-11.875	Roll:	19.031	Pitch:	0.800	Yaw:	-5.876	Thrust:	0.000
Time:	3.863	Roll Set Point:	-1.259	Pitch Set Point:	-0.066	Yaw Set Point:	0.043	X_WP:	0.000	Y_WP:	0.000	Y_WP:	0.750	X:	0.630	Y:	0.020	Z:	1.149	yaw:	-2.438	yaw rate:	-0.753	Roll:	18.991	Pitch:	1.805	Yaw:	-7.238	Thrust:	0.000
Time:	3.885	Roll Set Point:	-1.259	Pitch Set Point:	-0.066	Yaw Set Point:	0.042	X_WP:	0.000	Y_WP:	0.000	Y_WP:	0.750	X:	0.630	Y:	0.020	Z:	1.149	yaw:	-2.406	yaw rate:	-3.216	Roll:	19.037	Pitch:	1.746	Yaw:	-7.395	Thrust:	0.000
Time:	3.904	Roll Set Point:	-1.259	Pitch Set Point:	-0.067	Yaw Set Point:	0.043	X_WP:	0.000	Y_WP:	0.000	Y_WP:	0.750	X:	0.630	Y:	0.020	Z:	1.149	yaw:	-2.440	yaw rate:	3.428	Roll:	18.850	Pitch:	2.363	Yaw:	-7.601	Thrust:	0.000
Time:	3.923	Roll Set Point:	-1.259	Pitch Set Point:	-0.067	Yaw Set Point:	0.043	X_WP:	0.000	Y_WP:	0.000	Y_WP:	0.750	X:	0.630	Y:	0.020	Z:	1.149	yaw:	-2.449	yaw rate:	0.890	Roll:	18.896	Pitch:	2.026	Yaw:	-7.280	Thrust:	0.000
Time:	3.943	Roll Set Point:	-1.259	Pitch Set Point:	-0.066	Yaw Set Point:	0.041	X_WP:	0.000	Y_WP:	0.000	Y_WP:	0.750	X:	0.630	Y:	0.020	Z:	1.149	yaw:	-2.354	yaw rate:	-9.540	Roll:	19.038	Pitch:	1.141	Yaw:	-6.231	Thrust:	0.000
Time:	3.964	Roll Set Point:	-1.259	Pitch Set Point:	-0.067	Yaw Set Point:	0.042	X_WP:	0.000	Y_WP:	0.000	Y_WP:	0.750	X:	0.630	Y:	0.020	Z:	1.149	yaw:	-2.423	yaw rate:	6.942	Roll:	18.915	Pitch:	2.604	Yaw:	-8.267	Thrust:	0.000
Time:	3.983	Roll Set Point:	-1.260	Pitch Set Point:	-0.061	Yaw Set Point:	0.033	X_WP:	0.000	Y_WP:	0.000	Y_WP:	0.750	X:	0.630	Y:	0.020	Z:	1.149	yaw:	-1.888	yaw rate:	-53.518	Roll:	19.529	Pitch:	-3.473	Yaw:	0.640	Thrust:	0.000
Time:	4.003	Roll Set Point:	-1.259	Pitch Set Point:	-0.061	Yaw Set Point:	0.033	X_WP:	0.000	Y_WP:	0.000	Y_WP:	0.750	X:	0.630	Y:	0.020	Z:	1.149	yaw:	-1.906	yaw rate:	1.864	Roll:	18.806	Pitch:	1.958	Yaw:	-7.022	Thrust:	0.000
Time:	4.025	Roll Set Point:	-1.257	Pitch Set Point:	-0.075	Yaw Set Point:	0.054	X_WP:	0.000	Y_WP:	0.000	Y_WP:	0.750	X:	0.630	Y:	0.021	Z:	1.149	yaw:	-3.089	yaw rate:	118.272	Roll:	17.780	Pitch:	12.553	Yaw:	-23.165	Thrust:	0.000
Time:	4.043	Roll Set Point:	-1.259	Pitch Set Point:	-0.063	Yaw Set Point:	0.035	X_WP:	0.000	Y_WP:	0.000	Y_WP:	0.750	X:	0.630	Y:	0.020	Z:	1.149	yaw:	-2.017	yaw rate:	-107.224	Roll:	20.041	Pitch:	-9.410	Yaw:	8.751	Thrust:	0.000
Time:	4.066	Roll Set Point:	-1.259	Pitch Set Point:	-0.063	Yaw Set Point:	0.035	X_WP:	0.000	Y_WP:	0.000	Y_WP:	0.750	X:	0.630	Y:	0.020	Z:	1.150	yaw:	-2.010	yaw rate:	-0.677	Roll:	18.989	Pitch:	1.923	Yaw:	-7.250	Thrust:	0.000
Time:	4.084	Roll Set Point:	-1.258	Pitch Set Point:	-0.062	Yaw Set Point:	0.034	X_WP:	0.000	Y_WP:	0.000	Y_WP:	0.750	X:	0.630	Y:	0.020	Z:	1.150	yaw:	-1.966	yaw rate:	-4.383	Roll:	18.805	Pitch:	1.184	Yaw:	-5.755	Thrust:	0.000
Time:	4.102	Roll Set Point:	-1.258	Pitch Set Point:	-0.062	Yaw Set Point:	0.033	X_WP:	0.000	Y_WP:	0.000	Y_WP:	0.750	X:	0.630	Y:	0.020	Z:	1.150	yaw:	-1.919	yaw rate:	-4.771	Roll:	18.900	Pitch:	1.234	Yaw:	-5.797	Thrust:	0.000
Time:	4.123	Roll Set Point:	-1.258	Pitch Set Point:	-0.062	Yaw Set Point:	0.033	X_WP:	0.000	Y_WP:	0.000	Y_WP:	0.750	X:	0.630	Y:	0.020	Z:	1.150	yaw:	-1.908	yaw rate:	-1.076	Roll:	19.033	Pitch:	1.702	Yaw:	-6.707	Thrust:	0.000
Time:	4.142	Roll Set Point:	-1.258	Pitch Set Point:	-0.062	Yaw Set Point:	0.034	X_WP:	0.000	Y_WP:	0.000	Y_WP:	0.750	X:	0.630	Y:	0.020	Z:	1.150	yaw:	-1.966	yaw rate:	5.848	Roll:	18.927	Pitch:	2.310	Yaw:	-7.314	Thrust:	0.000
Time:	4.162	Roll Set Point:	-1.256	Pitch Set Point:	-0.077	Yaw Set Point:	0.056	X_WP:	0.000	Y_WP:	0.000	Y_WP:	0.750	X:	0.629	Y:	0.021	Z:	1.149	yaw:	-3.236	yaw rate:	126.961	Roll:	17.651	Pitch:	14.476	Yaw:	-25.013	Thrust:	0.000
Time:	4.184	Roll Set Point:	-1.258	Pitch Set Point:	-0.063	Yaw Set Point:	0.035	X_WP:	0.000	Y_WP:	0.000	Y_WP:	0.750	X:	0.630	Y:	0.020	Z:	1.150	yaw:	-1.996	yaw rate:	-123.974	Roll:	20.197	Pitch:	-8.800	Yaw:	7.863	Thrust:	0.000
Time:	4.203	Roll Set Point:	-1.256	Pitch Set Point:	-0.077	Yaw Set Point:	0.057	X_WP:	0.000	Y_WP:	0.000	Y_WP:	0.750	X:	0.629	Y:	0.021	Z:	1.149	yaw:	-3.252	yaw rate:	125.579	Roll:	17.538	Pitch:	15.318	Yaw:	-25.883	Thrust:	0.000
Time:	4.223	Roll Set Point:	-1.256	Pitch Set Point:	-0.077	Yaw Set Point:	0.057	X_WP:	0.000	Y_WP:	0.000	Y_WP:	0.750	X:	0.629	Y:	0.021	Z:	1.149	yaw:	-3.240	yaw rate:	-1.159	Roll:	18.924	Pitch:	2.058	Yaw:	-8.226	Thrust:	0.000
Time:	4.243	Roll Set Point:	-1.258	Pitch Set Point:	-0.062	Yaw Set Point:	0.034	X_WP:	0.000	Y_WP:	0.000	Y_WP:	0.750	X:	0.630	Y:	0.020	Z:	1.149	yaw:	-1.974	yaw rate:	-126.687	Roll:	20.301	Pitch:	-9.976	Yaw:	9.146	Thrust:	0.000
Time:	4.263	Roll Set Point:	-1.258	Pitch Set Point:	-0.062	Yaw Set Point:	0.035	X_WP:	0.000	Y_WP:	0.000	Y_WP:	0.750	X:	0.630	Y:	0.020	Z:	1.149	yaw:	-2.002	yaw rate:	2.826	Roll:	18.940	Pitch:	2.009	Yaw:	-7.139	Thrust:	0.000
Time:	4.284	Roll Set Point:	-1.258	Pitch Set Point:	-0.062	Yaw Set Point:	0.036	X_WP:	0.000	Y_WP:	0.000	Y_WP:	0.750	X:	0.630	Y:	0.020	Z:	1.149	yaw:	-2.042	yaw rate:	4.044	Roll:	18.954	Pitch:	2.094	Yaw:	-7.601	Thrust:	0.000
Time:	4.304	Roll Set Point:	-1.258	Pitch Set Point:	-0.062	Yaw Set Point:	0.035	X_WP:	0.000	Y_WP:	0.000	Y_WP:	0.750	X:	0.630	Y:	0.020	Z:	1.149	yaw:	-2.022	yaw rate:	-2.057	Roll:	18.997	Pitch:	1.556	Yaw:	-6.586	Thrust:	0.000
Time:	4.322	Roll Set Point:	-1.256	Pitch Set Point:	-0.070	Yaw Set Point:	0.049	X_WP:	0.000	Y_WP:	0.000	Y_WP:	0.750	X:	0.629	Y:	0.020	Z:	1.149	yaw:	-2.800	yaw rate:	77.818	Roll:	17.846	Pitch:	9.946	Yaw:	-18.786	Thrust:	0.000
Time:	4.342	Roll Set Point:	-1.257	Pitch Set Point:	-0.069	Yaw Set Point:	0.047	X_WP:	0.000	Y_WP:	0.000	Y_WP:	0.750	X:	0.629	Y:	0.020	Z:	1.149	yaw:	-2.691	yaw rate:	-10.861	Roll:	19.272	Pitch:	0.890	Yaw:	-6.403	Thrust:	0.000
Time:	4.362	Roll Set Point:	-1.257	Pitch Set Point:	-0.068	Yaw Set Point:	0.046	X_WP:	0.000	Y_WP:	0.000	Y_WP:	0.750	X:	0.629	Y:	0.019	Z:	1.149	yaw:	-2.609	yaw rate:	-8.241	Roll:	18.809	Pitch:	1.105	Yaw:	-6.590	Thrust:	0.000
Time:	4.383	Roll Set Point:	-1.256	Pitch Set Point:	-0.067	Yaw Set Point:	0.045	X_WP:	0.000	Y_WP:	0.000	Y_WP:	0.750	X:	0.629	Y:	0.019	Z:	1.149	yaw:	-2.598	yaw rate:	-1.038	Roll:	18.792	Pitch:	1.747	Yaw:	-7.359	Thrust:	0.000
Time:	4.403	Roll Set Point:	-1.256	Pitch Set Point:	-0.064	Yaw Set Point:	0.040	X_WP:	0.000	Y_WP:	0.000	Y_WP:	0.750	X:	0.629	Y:	0.019	Z:	1.149	yaw:	-2.318	yaw rate:	-28.063	Roll:	18.952	Pitch:	-0.591	Yaw:	-3.894	Thrust:	0.000
Time:	4.422	Roll Set Point:	-1.255	Pitch Set Point:	-0.069	Yaw Set Point:	0.050	X_WP:	0.000	Y_WP:	0.000	Y_WP:	0.750	X:	0.628	Y:	0.019	Z:	1.149	yaw:	-2.837	yaw rate:	51.885	Roll:	18.213	Pitch:	6.757	Yaw:	-14.770	Thrust:	0.000
Time:	4.443	Roll Set Point:	-1.256	Pitch Set Point:	-0.063	Yaw Set Point:	0.040	X_WP:	0.000	Y_WP:	0.000	Y_WP:	0.750	X:	0.629	Y:	0.019	Z:	1.149	yaw:	-2.301	yaw rate:	-53.517	Roll:	19.489	Pitch:	-3.489	Yaw:	-0.277	Thrust:	0.000
Time:	4.463	Roll Set Point:	-1.256	Pitch Set Point:	-0.064	Yaw Set Point:	0.041	X_WP:	0.000	Y_WP:	0.000	Y_WP:	0.750	X:	0.628	Y:	0.019	Z:	1.149	yaw:	-2.324	yaw rate:	2.276	Roll:	18.926	Pitch:	2.161	Yaw:	-7.558	Thrust:	0.000
Time:	4.482	Roll Set Point:	-1.255	Pitch Set Point:	-0.070	Yaw Set Point:	0.050	X_WP:	0.000	Y_WP:	0.000	Y_WP:	0.750	X:	0.628	Y:	0.019	Z:	1.149	yaw:	-2.867	yaw rate:	54.315	Roll:	18.364	Pitch:	7.514	Yaw:	-15.332	Thrust:	0.000
Time:	4.503	Roll Set Point:	-1.255	Pitch Set Point:	-0.071	Yaw Set Point:	0.052	X_WP:	0.000	Y_WP:	0.000	Y_WP:	0.750	X:	0.628	Y:	0.019	Z:	1.149	yaw:	-2.978	yaw rate:	11.098	Roll:	18.905	Pitch:	3.218	Yaw:	-9.849	Thrust:	0.000
Time:	4.522	Roll Set Point:	-1.255	Pitch Set Point:	-0.073	Yaw Set Point:	0.054	X_WP:	0.000	Y_WP:	0.000	Y_WP:	0.750	X:	0.628	Y:	0.019	Z:	1.149	yaw:	-3.069	yaw rate:	9.012	Roll:	18.826	Pitch:	3.158	Yaw:	-9.349	Thrust:	0.000
Time:	4.543	Roll Set Point:	-1.255	Pitch Set Point:	-0.071	Yaw Set Point:	0.051	X_WP:	0.000	Y_WP:	0.000	Y_WP:	0.750	X:	0.628	Y:	0.020	Z:	1.149	yaw:	-2.907	yaw rate:	-16.104	Roll:	19.137	Pitch:	0.846	Yaw:	-6.014	Thrust:	0.000
Time:	4.563	Roll Set Point:	-1.255	Pitch Set Point:	-0.072	Yaw Set Point:	0.051	X_WP:	0.000	Y_WP:	0.000	Y_WP:	0.750	X:	0.629	Y:	0.020	Z:	1.149	yaw:	-2.928	yaw rate:	2.036	Roll:	18.959	Pitch:	2.493	Yaw:	-8.334	Thrust:	0.000
Time:	4.583	Roll Set Point:	-1.256	Pitch Set Point:	-0.069	Yaw Set Point:	0.046	X_WP:	0.000	Y_WP:	0.000	Y_WP:	0.750	X:	0.629	Y:	0.020	Z:	1.149	yaw:	-2.636	yaw rate:	-29.217	Roll:	19.256	Pitch:	-0.555	Yaw:	-3.971	Thrust:	0.000
Time:	4.602	Roll Set Point:	-1.256	Pitch Set Point:	-0.067	Yaw Set Point:	0.043	X_WP:	0.000	Y_WP:	0.000	Y_WP:	0.750	X:	0.629	Y:	0.020	Z:	1.149	yaw:	-2.435	yaw rate:	-20.037	Roll:	19.190	Pitch:	0.240	Yaw:	-4.567	Thrust:	0.000
Time:	4.623	Roll Set Point:	-1.256	Pitch Set Point:	-0.068	Yaw Set Point:	0.044	X_WP:	0.000	Y_WP:	0.000	Y_WP:	0.750	X:	0.629	Y:	0.020	Z:	1.149	yaw:	-2.529	yaw rate:	9.384	Roll:	18.936	Pitch:	2.956	Yaw:	-8.870	Thrust:	0.000
Time:	4.643	Roll Set Point:	-1.255	Pitch Set Point:	-0.078	Yaw Set Point:	0.059	X_WP:	0.000	Y_WP:	0.000	Y_WP:	0.750	X:	0.629	Y:	0.021	Z:	1.148	yaw:	-3.371	yaw rate:	84.181	Roll:	17.900	Pitch:	10.397	Yaw:	-19.616	Thrust:	0.000
Time:	4.664	Roll Set Point:	-1.256	Pitch Set Point:	-0.070	Yaw Set Point:	0.047	X_WP:	0.000	Y_WP:	0.000	Y_WP:	0.750	X:	0.629	Y:	0.021	Z:	1.148	yaw:	-2.678	yaw rate:	-69.262	Roll:	19.874	Pitch:	-3.855	Yaw:	0.933	Thrust:	0.000
Time:	4.683	Roll Set Point:	-1.256	Pitch Set Point:	-0.071	Yaw Set Point:	0.047	X_WP:	0.000	Y_WP:	0.000	Y_WP:	0.750	X:	0.629	Y:	0.021	Z:	1.148	yaw:	-2.696	yaw rate:	1.785	Roll:	18.892	Pitch:	2.298	Yaw:	-7.777	Thrust:	0.000
Time:	4.702	Roll Set Point:	-1.256	Pitch Set Point:	-0.072	Yaw Set Point:	0.048	X_WP:	0.000	Y_WP:	0.000	Y_WP:	0.750	X:	0.629	Y:	0.021	Z:	1.148	yaw:	-2.755	yaw rate:	5.933	Roll:	18.885	Pitch:	2.728	Yaw:	-8.555	Thrust:	0.000
Time:	4.723	Roll Set Point:	-1.256	Pitch Set Point:	-0.072	Yaw Set Point:	0.048	X_WP:	0.000	Y_WP:	0.000	Y_WP:	0.750	X:	0.629	Y:	0.021	Z:	1.148	yaw:	-2.761	yaw rate:	0.538	Roll:	18.922	Pitch:	2.207	Yaw:	-8.008	Thrust:	0.000
Time:	4.742	Roll Set Point:	-1.256	Pitch Set Point:	-0.070	Yaw Set Point:	0.046	X_WP:	0.000	Y_WP:	0.000	Y_WP:	0.750	X:	0.629	Y:	0.021	Z:	1.147	yaw:	-2.658	yaw rate:	-10.312	Roll:	18.910	Pitch:	0.951	Yaw:	-6.061	Thrust:	0.000
Time:	4.768	Roll Set Point:	-1.256	Pitch Set Point:	-0.070	Yaw Set Point:	0.046	X_WP:	0.000	Y_WP:	0.000	Y_WP:	0.750	X:	0.629	Y:	0.021	Z:	1.147	yaw:	-2.617	yaw rate:	-4.099	Roll:	18.942	Pitch:	1.707	Yaw:	-8.592	Thrust:	0.000
Time:	4.783	Roll Set Point:	-1.256	Pitch Set Point:	-0.071	Yaw Set Point:	0.047	X_WP:	0.000	Y_WP:	0.000	Y_WP:	0.750	X:	0.629	Y:	0.021	Z:	1.147	yaw:	-2.708	yaw rate:	9.106	Roll:	18.730	Pitch:	2.970	Yaw:	-8.325	Thrust:	0.000
Time:	4.802	Roll Set Point:	-1.255	Pitch Set Point:	-0.071	Yaw Set Point:	0.047	X_WP:	0.000	Y_WP:	0.000	Y_WP:	0.750	X:	0.629	Y:	0.020	Z:	1.146	yaw:	-2.699	yaw rate:	-0.916	Roll:	18.872	Pitch:	1.908	Yaw:	-7.544	Thrust:	0.000
Time:	4.823	Roll Set Point:	-1.255	Pitch Set Point:	-0.071	Yaw Set Point:	0.048	X_WP:	0.000	Y_WP:	0.000	Y_WP:	0.750	X:	0.629	Y:	0.020	Z:	1.146	yaw:	-2.775	yaw rate:	7.648	Roll:	18.842	Pitch:	2.774	Yaw:	-8.918	Thrust:	0.000
Time:	4.842	Roll Set Point:	-1.254	Pitch Set Point:	-0.079	Yaw Set Point:	0.061	X_WP:	0.000	Y_WP:	0.000	Y_WP:	0.750	X:	0.628	Y:	0.020	Z:	1.145	yaw:	-3.512	yaw rate:	73.644	Roll:	18.145	Pitch:	9.162	Yaw:	-18.640	Thrust:	0.000
Time:	4.862	Roll Set Point:	-1.254	Pitch Set Point:	-0.079	Yaw Set Point:	0.061	X_WP:	0.000	Y_WP:	0.000	Y_WP:	0.750	X:	0.628	Y:	0.020	Z:	1.145	yaw:	-3.498	yaw rate:	-1.360	Roll:	19.008	Pitch:	2.246	Yaw:	-8.701	Thrust:	0.000
Time:	4.885	Roll Set Point:	-1.256	Pitch Set Point:	-0.071	Yaw Set Point:	0.049	X_WP:	0.000	Y_WP:	0.000	Y_WP:	0.750	X:	0.629	Y:	0.020	Z:	1.144	yaw:	-2.793	yaw rate:	-70.540	Roll:	19.917	Pitch:	-3.789	Yaw:	-0.167	Thrust:	0.000
Time:	4.904	Roll Set Point:	-1.255	Pitch Set Point:	-0.077	Yaw Set Point:	0.058	X_WP:	0.000	Y_WP:	0.000	Y_WP:	0.750	X:	0.629	Y:	0.020	Z:	1.143	yaw:	-3.338	yaw rate:	54.544	Roll:	18.320	Pitch:	7.702	Yaw:	-15.859	Thrust:	0.000
Time:	4.922	Roll Set Point:	-1.256	Pitch Set Point:	-0.078	Yaw Set Point:	0.060	X_WP:	0.000	Y_WP:	0.000	Y_WP:	0.750	X:	0.629	Y:	0.020	Z:	1.143	yaw:	-3.446	yaw rate:	10.848	Roll:	18.985	Pitch:	3.387	Yaw:	-9.948	Thrust:	0.000
Time:	4.942	Roll Set Point:	-1.257	Pitch Set Point:	-0.070	Yaw Set Point:	0.047	X_WP:	0.000	Y_WP:	0.000	Y_WP:	0.750	X:	0.630	Y:	0.020	Z:	1.143	yaw:	-2.676	yaw rate:	-77.015	Roll:	20.091	Pitch:	-5.432	Yaw:	2.153	Thrust:	0.000
Time:	4.963	Roll Set Point:	-1.258	Pitch Set Point:	-0.071	Yaw Set Point:	0.048	X_WP:	0.000	Y_WP:	0.000	Y_WP:	0.750	X:	0.630	Y:	0.020	Z:	1.142	yaw:	-2.751	yaw rate:	7.479	Roll:	19.157	Pitch:	2.833	Yaw:	-8.831	Thrust:	0.000
Time:	4.982	Roll Set Point:	-1.258	Pitch Set Point:	-0.072	Yaw Set Point:	0.049	X_WP:	0.000	Y_WP:	0.000	Y_WP:	0.750	X:	0.630	Y:	0.020	Z:	1.142	yaw:	-2.818	yaw rate:	6.697	Roll:	19.073	Pitch:	2.906	Yaw:	-8.725	Thrust:	0.000
Time:	5.002	Roll Set Point:	-1.259	Pitch Set Point:	-0.073	Yaw Set Point:	0.052	X_WP:	0.000	Y_WP:	0.000	Y_WP:	0.750	X:	0.630	Y:	0.020	Z:	1.141	yaw:	-2.981	yaw rate:	16.247	Roll:	19.008	Pitch:	3.667	Yaw:	-10.284	Thrust:	0.000
Time:	5.022	Roll Set Point:	-1.259	Pitch Set Point:	-0.073	Yaw Set Point:	0.052	X_WP:	0.000	Y_WP:	0.000	Y_WP:	0.750	X:	0.631	Y:	0.020	Z:	1.141	yaw:	-2.977	yaw rate:	-0.314	Roll:	19.279	Pitch:	2.123	Yaw:	-8.082	Thrust:	0.000
Time:	5.043	Roll Set Point:	-1.260	Pitch Set Point:	-0.072	Yaw Set Point:	0.051	X_WP:	0.000	Y_WP:	0.000	Y_WP:	0.750	X:	0.631	Y:	0.020	Z:	1.140	yaw:	-2.921	yaw rate:	-5.687	Roll:	19.387	Pitch:	1.616	Yaw:	-7.379	Thrust:	0.000
Time:	5.063	Roll Set Point:	-1.261	Pitch Set Point:	-0.071	Yaw Set Point:	0.049	X_WP:	0.000	Y_WP:	0.000	Y_WP:	0.750	X:	0.631	Y:	0.020	Z:	1.139	yaw:	-2.800	yaw rate:	-12.068	Roll:	19.356	Pitch:	0.856	Yaw:	-6.506	Thrust:	0.000
Time:	5.083	Roll Set Point:	-1.261	Pitch Set Point:	-0.077	Yaw Set Point:	0.060	X_WP:	0.000	Y_WP:	0.000	Y_WP:	0.750	X:	0.631	Y:	0.020	Z:	1.139	yaw:	-3.430	yaw rate:	63.048	Roll:	18.718	Pitch:	7.994	Yaw:	-16.903	Thrust:	0.000
Time:	5.106	Roll Set Point:	-1.263	Pitch Set Point:	-0.071	Yaw Set Point:	0.051	X_WP:	0.000	Y_WP:	0.000	Y_WP:	0.750	X:	0.632	Y:	0.019	Z:	1.138	yaw:	-2.912	yaw rate:	-51.792	Roll:	20.146	Pitch:	-2.240	Yaw:	-2.503	Thrust:	0.000
Time:	5.123	Roll Set Point:	-1.264	Pitch Set Point:	-0.072	Yaw Set Point:	0.054	X_WP:	0.000	Y_WP:	0.000	Y_WP:	0.750	X:	0.633	Y:	0.019	Z:	1.137	yaw:	-3.095	yaw rate:	18.224	Roll:	19.275	Pitch:	3.839	Yaw:	-10.533	Thrust:	0.000
Time:	5.145	Roll Set Point:	-1.264	Pitch Set Point:	-0.073	Yaw Set Point:	0.056	X_WP:	0.000	Y_WP:	0.000	Y_WP:	0.750	X:	0.633	Y:	0.019	Z:	1.137	yaw:	-3.198	yaw rate:	10.356	Roll:	19.100	Pitch:	3.041	Yaw:	-10.059	Thrust:	0.000
Time:	5.163	Roll Set Point:	-1.265	Pitch Set Point:	-0.072	Yaw Set Point:	0.056	X_WP:	0.000	Y_WP:	0.000	Y_WP:	0.750	X:	0.633	Y:	0.018	Z:	1.136	yaw:	-3.202	yaw rate:	0.384	Roll:	19.419	Pitch:	1.864	Yaw:	-8.266	Thrust:	0.000
Time:	5.185	Roll Set Point:	-1.263	Pitch Set Point:	-0.084	Yaw Set Point:	0.076	X_WP:	0.000	Y_WP:	0.000	Y_WP:	0.750	X:	0.633	Y:	0.018	Z:	1.136	yaw:	-4.331	yaw rate:	112.875	Roll:	17.977	Pitch:	12.560	Yaw:	-24.508	Thrust:	0.000
Time:	5.203	Roll Set Point:	-1.266	Pitch Set Point:	-0.069	Yaw Set Point:	0.054	X_WP:	0.000	Y_WP:	0.000	Y_WP:	0.750	X:	0.634	Y:	0.017	Z:	1.135	yaw:	-3.069	yaw rate:	-126.229	Roll:	20.846	Pitch:	-11.264	Yaw:	8.429	Thrust:	0.000
Time:	5.223	Roll Set Point:	-1.266	Pitch Set Point:	-0.067	Yaw Set Point:	0.053	X_WP:	0.000	Y_WP:	0.000	Y_WP:	0.750	X:	0.634	Y:	0.017	Z:	1.135	yaw:	-3.053	yaw rate:	-1.526	Roll:	19.318	Pitch:	1.657	Yaw:	-7.987	Thrust:	0.000
Time:	5.243	Roll Set Point:	-1.267	Pitch Set Point:	-0.066	Yaw Set Point:	0.053	X_WP:	0.000	Y_WP:	0.000	Y_WP:	0.750	X:	0.634	Y:	0.016	Z:	1.135	yaw:	-3.032	yaw rate:	-2.100	Roll:	19.300	Pitch:	1.552	Yaw:	-7.761	Thrust:	0.000
Time:	5.263	Roll Set Point:	-1.267	Pitch Set Point:	-0.064	Yaw Set Point:	0.051	X_WP:	0.000	Y_WP:	0.000	Y_WP:	0.750	X:	0.634	Y:	0.016	Z:	1.135	yaw:	-2.923	yaw rate:	-10.902	Roll:	19.351	Pitch:	0.828	Yaw:	-6.910	Thrust:	0.000
Time:	5.284	Roll Set Point:	-1.268	Pitch Set Point:	-0.065	Yaw Set Point:	0.052	X_WP:	0.000	Y_WP:	0.000	Y_WP:	0.750	X:	0.635	Y:	0.016	Z:	1.135	yaw:	-2.988	yaw rate:	6.491	Roll:	19.239	Pitch:	2.557	Yaw:	-9.138	Thrust:	0.000
Time:	5.303	Roll Set Point:	-1.267	Pitch Set Point:	-0.070	Yaw Set Point:	0.061	X_WP:	0.000	Y_WP:	0.000	Y_WP:	0.750	X:	0.635	Y:	0.016	Z:	1.135	yaw:	-3.487	yaw rate:	49.832	Roll:	18.758	Pitch:	6.930	Yaw:	-15.509	Thrust:	0.000
Time:	5.327	Roll Set Point:	-1.268	Pitch Set Point:	-0.070	Yaw Set Point:	0.061	X_WP:	0.000	Y_WP:	0.000	Y_WP:	0.750	X:	0.635	Y:	0.015	Z:	1.136	yaw:	-3.498	yaw rate:	1.127	Roll:	19.440	Pitch:	2.295	Yaw:	-9.697	Thrust:	0.000
Time:	5.349	Roll Set Point:	-1.270	Pitch Set Point:	-0.062	Yaw Set Point:	0.050	X_WP:	0.000	Y_WP:	0.000	Y_WP:	0.750	X:	0.636	Y:	0.015	Z:	1.136	yaw:	-2.849	yaw rate:	-64.927	Roll:	20.340	Pitch:	-4.188	Yaw:	-0.150	Thrust:	0.000
Time:	5.365	Roll Set Point:	-1.271	Pitch Set Point:	-0.064	Yaw Set Point:	0.053	X_WP:	0.000	Y_WP:	0.000	Y_WP:	0.750	X:	0.636	Y:	0.015	Z:	1.136	yaw:	-3.055	yaw rate:	20.681	Roll:	19.445	Pitch:	4.089	Yaw:	-10.847	Thrust:	0.000
