Time:	0.031	Roll Set Point:	-0.118	Pitch Set Point:	0.158	Yaw Set Point:	-0.025	X_WP:	0.000	Y_WP:	0.000	Y_WP:	-0.100	X:	0.060	Y:	-0.078	Z:	0.048	yaw:	1.406	yaw rate:	4.023	Roll:	0.579	Pitch:	-0.796	Yaw:	1.963	Thrust:	0.000
Time:	0.042	Roll Set Point:	-0.118	Pitch Set Point:	0.158	Yaw Set Point:	-0.025	X_WP:	0.000	Y_WP:	0.000	Y_WP:	-0.100	X:	0.060	Y:	-0.078	Z:	0.048	yaw:	1.426	yaw rate:	-2.006	Roll:	0.550	Pitch:	-0.896	Yaw:	2.518	Thrust:	0.000
Time:	0.062	Roll Set Point:	-0.118	Pitch Set Point:	0.158	Yaw Set Point:	-0.025	X_WP:	0.000	Y_WP:	0.000	Y_WP:	-0.100	X:	0.060	Y:	-0.078	Z:	0.048	yaw:	1.416	yaw rate:	0.928	Roll:	0.697	Pitch:	-0.938	Yaw:	1.883	Thrust:	0.000
Time:	0.074	Roll Set Point:	-0.118	Pitch Set Point:	0.158	Yaw Set Point:	-0.025	X_WP:	0.000	Y_WP:	0.000	Y_WP:	-0.100	X:	0.060	Y:	-0.078	Z:	0.048	yaw:	1.451	yaw rate:	-3.349	Roll:	0.626	Pitch:	-0.930	Yaw:	2.818	Thrust:	0.000
Time:	0.085	Roll Set Point:	-0.118	Pitch Set Point:	0.158	Yaw Set Point:	-0.025	X_WP:	0.000	Y_WP:	0.000	Y_WP:	-0.100	X:	0.060	Y:	-0.078	Z:	0.048	yaw:	1.413	yaw rate:	3.724	Roll:	0.689	Pitch:	-0.905	Yaw:	1.138	Thrust:	0.000
Time:	0.097	Roll Set Point:	-0.118	Pitch Set Point:	0.158	Yaw Set Point:	-0.025	X_WP:	0.000	Y_WP:	0.000	Y_WP:	-0.100	X:	0.060	Y:	-0.078	Z:	0.048	yaw:	1.443	yaw rate:	-2.930	Roll:	0.693	Pitch:	-1.013	Yaw:	2.703	Thrust:	0.000
Time:	0.111	Roll Set Point:	-0.118	Pitch Set Point:	0.158	Yaw Set Point:	-0.025	X_WP:	0.000	Y_WP:	0.000	Y_WP:	-0.100	X:	0.060	Y:	-0.078	Z:	0.048	yaw:	1.407	yaw rate:	3.515	Roll:	0.805	Pitch:	-0.993	Yaw:	1.353	Thrust:	0.000
Time:	0.131	Roll Set Point:	-0.118	Pitch Set Point:	0.158	Yaw Set Point:	-0.025	X_WP:	0.000	Y_WP:	0.000	Y_WP:	-0.100	X:	0.060	Y:	-0.078	Z:	0.048	yaw:	1.412	yaw rate:	-0.452	Roll:	0.935	Pitch:	-1.291	Yaw:	2.100	Thrust:	0.000
Time:	0.141	Roll Set Point:	-0.118	Pitch Set Point:	0.158	Yaw Set Point:	-0.025	X_WP:	0.000	Y_WP:	0.000	Y_WP:	-0.100	X:	0.060	Y:	-0.078	Z:	0.048	yaw:	1.421	yaw rate:	-0.882	Roll:	0.771	Pitch:	-1.112	Yaw:	2.254	Thrust:	0.000
Time:	0.151	Roll Set Point:	-0.118	Pitch Set Point:	0.158	Yaw Set Point:	-0.025	X_WP:	0.000	Y_WP:	0.000	Y_WP:	-0.100	X:	0.060	Y:	-0.078	Z:	0.048	yaw:	1.418	yaw rate:	0.307	Roll:	0.843	Pitch:	-1.043	Yaw:	1.950	Thrust:	0.000
Time:	0.163	Roll Set Point:	-0.118	Pitch Set Point:	0.158	Yaw Set Point:	-0.025	X_WP:	0.000	Y_WP:	0.000	Y_WP:	-0.100	X:	0.060	Y:	-0.078	Z:	0.048	yaw:	1.444	yaw rate:	-1.994	Roll:	0.795	Pitch:	-1.226	Yaw:	2.641	Thrust:	0.000
Time:	0.174	Roll Set Point:	-0.118	Pitch Set Point:	0.158	Yaw Set Point:	-0.025	X_WP:	0.000	Y_WP:	0.000	Y_WP:	-0.100	X:	0.060	Y:	-0.078	Z:	0.048	yaw:	1.415	yaw rate:	2.874	Roll:	0.834	Pitch:	-1.144	Yaw:	1.321	Thrust:	0.000
Time:	0.193	Roll Set Point:	-0.118	Pitch Set Point:	0.158	Yaw Set Point:	-0.025	X_WP:	0.000	Y_WP:	0.000	Y_WP:	-0.100	X:	0.060	Y:	-0.078	Z:	0.048	yaw:	1.437	yaw rate:	-2.217	Roll:	1.035	Pitch:	-1.504	Yaw:	2.430	Thrust:	0.000
Time:	0.205	Roll Set Point:	-0.118	Pitch Set Point:	0.158	Yaw Set Point:	-0.025	X_WP:	0.000	Y_WP:	0.000	Y_WP:	-0.100	X:	0.060	Y:	-0.078	Z:	0.048	yaw:	1.431	yaw rate:	0.608	Roll:	1.060	Pitch:	-1.302	Yaw:	1.952	Thrust:	0.000
Time:	0.216	Roll Set Point:	-0.118	Pitch Set Point:	0.158	Yaw Set Point:	-0.025	X_WP:	0.000	Y_WP:	0.000	Y_WP:	-0.100	X:	0.060	Y:	-0.078	Z:	0.048	yaw:	1.415	yaw rate:	1.568	Roll:	0.938	Pitch:	-1.250	Yaw:	1.677	Thrust:	0.000
Time:	0.226	Roll Set Point:	-0.118	Pitch Set Point:	0.158	Yaw Set Point:	-0.025	X_WP:	0.000	Y_WP:	0.000	Y_WP:	-0.100	X:	0.060	Y:	-0.078	Z:	0.048	yaw:	1.422	yaw rate:	-0.649	Roll:	0.916	Pitch:	-1.300	Yaw:	2.225	Thrust:	0.000
Time:	0.238	Roll Set Point:	-0.118	Pitch Set Point:	0.158	Yaw Set Point:	-0.025	X_WP:	0.000	Y_WP:	0.000	Y_WP:	-0.100	X:	0.060	Y:	-0.078	Z:	0.048	yaw:	1.444	yaw rate:	-3.453	Roll:	0.972	Pitch:	-1.468	Yaw:	2.610	Thrust:	0.000
Time:	0.251	Roll Set Point:	-0.118	Pitch Set Point:	0.158	Yaw Set Point:	-0.025	X_WP:	0.000	Y_WP:	0.000	Y_WP:	-0.100	X:	0.060	Y:	-0.078	Z:	0.048	yaw:	1.445	yaw rate:	-0.111	Roll:	1.043	Pitch:	-1.450	Yaw:	2.144	Thrust:	0.000
Time:	0.265	Roll Set Point:	-0.118	Pitch Set Point:	0.158	Yaw Set Point:	-0.025	X_WP:	0.000	Y_WP:	0.000	Y_WP:	-0.100	X:	0.060	Y:	-0.078	Z:	0.048	yaw:	1.436	yaw rate:	0.985	Roll:	1.246	Pitch:	-1.648	Yaw:	1.968	Thrust:	0.000
Time:	0.282	Roll Set Point:	-0.118	Pitch Set Point:	0.158	Yaw Set Point:	-0.025	X_WP:	0.000	Y_WP:	0.000	Y_WP:	-0.100	X:	0.060	Y:	-0.078	Z:	0.048	yaw:	1.423	yaw rate:	1.257	Roll:	1.354	Pitch:	-1.744	Yaw:	1.947	Thrust:	0.000
Time:	0.293	Roll Set Point:	-0.118	Pitch Set Point:	0.158	Yaw Set Point:	-0.025	X_WP:	0.000	Y_WP:	0.000	Y_WP:	-0.100	X:	0.060	Y:	-0.078	Z:	0.048	yaw:	1.410	yaw rate:	1.284	Roll:	1.016	Pitch:	-1.546	Yaw:	1.768	Thrust:	0.000
Time:	0.304	Roll Set Point:	-0.118	Pitch Set Point:	0.158	Yaw Set Point:	-0.025	X_WP:	0.000	Y_WP:	0.000	Y_WP:	-0.100	X:	0.060	Y:	-0.078	Z:	0.048	yaw:	1.408	yaw rate:	0.198	Roll:	1.185	Pitch:	-1.463	Yaw:	2.020	Thrust:	0.000
Time:	0.330	Roll Set Point:	-0.118	Pitch Set Point:	0.158	Yaw Set Point:	-0.025	X_WP:	0.000	Y_WP:	0.000	Y_WP:	-0.100	X:	0.060	Y:	-0.078	Z:	0.048	yaw:	1.432	yaw rate:	-2.371	Roll:	1.334	Pitch:	-2.560	Yaw:	2.523	Thrust:	0.000
Time:	0.340	Roll Set Point:	-0.118	Pitch Set Point:	0.158	Yaw Set Point:	-0.025	X_WP:	0.000	Y_WP:	0.000	Y_WP:	-0.100	X:	0.060	Y:	-0.078	Z:	0.048	yaw:	1.436	yaw rate:	-1.096	Roll:	1.695	Pitch:	-1.752	Yaw:	2.239	Thrust:	0.000
Time:	0.351	Roll Set Point:	-0.118	Pitch Set Point:	0.158	Yaw Set Point:	-0.024	X_WP:	0.000	Y_WP:	0.000	Y_WP:	-0.100	X:	0.060	Y:	-0.078	Z:	0.048	yaw:	1.396	yaw rate:	4.011	Roll:	1.204	Pitch:	-1.463	Yaw:	1.076	Thrust:	0.000
Time:	0.362	Roll Set Point:	-0.118	Pitch Set Point:	0.158	Yaw Set Point:	-0.025	X_WP:	0.000	Y_WP:	0.000	Y_WP:	-0.100	X:	0.060	Y:	-0.078	Z:	0.048	yaw:	1.424	yaw rate:	-2.738	Roll:	1.142	Pitch:	-1.649	Yaw:	2.775	Thrust:	0.000
Time:	0.373	Roll Set Point:	-0.118	Pitch Set Point:	0.158	Yaw Set Point:	-0.025	X_WP:	0.000	Y_WP:	0.000	Y_WP:	-0.100	X:	0.060	Y:	-0.078	Z:	0.048	yaw:	1.424	yaw rate:	-0.049	Roll:	1.334	Pitch:	-1.802	Yaw:	2.143	Thrust:	0.000
Time:	0.392	Roll Set Point:	-0.118	Pitch Set Point:	0.158	Yaw Set Point:	-0.025	X_WP:	0.000	Y_WP:	0.000	Y_WP:	-0.100	X:	0.060	Y:	-0.078	Z:	0.048	yaw:	1.418	yaw rate:	0.570	Roll:	1.409	Pitch:	-1.943	Yaw:	2.153	Thrust:	0.000
Time:	0.405	Roll Set Point:	-0.118	Pitch Set Point:	0.158	Yaw Set Point:	-0.025	X_WP:	0.000	Y_WP:	0.000	Y_WP:	-0.100	X:	0.060	Y:	-0.078	Z:	0.048	yaw:	1.428	yaw rate:	-0.993	Roll:	1.791	Pitch:	-2.448	Yaw:	2.375	Thrust:	0.000
Time:	0.415	Roll Set Point:	-0.118	Pitch Set Point:	0.158	Yaw Set Point:	-0.025	X_WP:	0.000	Y_WP:	0.000	Y_WP:	-0.100	X:	0.060	Y:	-0.078	Z:	0.048	yaw:	1.414	yaw rate:	1.459	Roll:	1.337	Pitch:	-1.677	Yaw:	1.754	Thrust:	0.000
Time:	0.426	Roll Set Point:	-0.118	Pitch Set Point:	0.158	Yaw Set Point:	-0.025	X_WP:	0.000	Y_WP:	0.000	Y_WP:	-0.100	X:	0.060	Y:	-0.078	Z:	0.048	yaw:	1.426	yaw rate:	-1.208	Roll:	1.217	Pitch:	-1.841	Yaw:	2.446	Thrust:	0.000
Time:	0.437	Roll Set Point:	-0.118	Pitch Set Point:	0.158	Yaw Set Point:	-0.025	X_WP:	0.000	Y_WP:	0.000	Y_WP:	-0.100	X:	0.060	Y:	-0.078	Z:	0.048	yaw:	1.439	yaw rate:	-1.285	Roll:	1.338	Pitch:	-1.904	Yaw:	2.490	Thrust:	0.000
Time:	0.449	Roll Set Point:	-0.118	Pitch Set Point:	0.158	Yaw Set Point:	-0.025	X_WP:	0.000	Y_WP:	0.000	Y_WP:	-0.100	X:	0.060	Y:	-0.078	Z:	0.048	yaw:	1.426	yaw rate:	1.265	Roll:	1.562	Pitch:	-2.062	Yaw:	1.946	Thrust:	0.000
Time:	0.464	Roll Set Point:	-0.118	Pitch Set Point:	0.158	Yaw Set Point:	-0.025	X_WP:	0.000	Y_WP:	0.000	Y_WP:	-0.100	X:	0.060	Y:	-0.078	Z:	0.048	yaw:	1.405	yaw rate:	2.139	Roll:	1.780	Pitch:	-2.383	Yaw:	1.836	Thrust:	0.000
Time:	0.476	Roll Set Point:	-0.118	Pitch Set Point:	0.158	Yaw Set Point:	-0.025	X_WP:	0.000	Y_WP:	0.000	Y_WP:	-0.100	X:	0.060	Y:	-0.078	Z:	0.048	yaw:	1.428	yaw rate:	-2.314	Roll:	1.453	Pitch:	-2.107	Yaw:	2.719	Thrust:	0.000
Time:	0.488	Roll Set Point:	-0.118	Pitch Set Point:	0.158	Yaw Set Point:	-0.024	X_WP:	0.000	Y_WP:	0.000	Y_WP:	-0.100	X:	0.060	Y:	-0.078	Z:	0.048	yaw:	1.398	yaw rate:	2.900	Roll:	1.593	Pitch:	-2.091	Yaw:	1.521	Thrust:	0.000
Time:	0.499	Roll Set Point:	-0.118	Pitch Set Point:	0.158	Yaw Set Point:	-0.025	X_WP:	0.000	Y_WP:	0.000	Y_WP:	-0.100	X:	0.060	Y:	-0.078	Z:	0.048	yaw:	1.422	yaw rate:	-2.341	Roll:	1.304	Pitch:	-1.976	Yaw:	2.776	Thrust:	0.000
Time:	0.515	Roll Set Point:	-0.118	Pitch Set Point:	0.158	Yaw Set Point:	-0.025	X_WP:	0.000	Y_WP:	0.000	Y_WP:	-0.100	X:	0.060	Y:	-0.078	Z:	0.048	yaw:	1.423	yaw rate:	-0.155	Roll:	1.674	Pitch:	-2.226	Yaw:	2.283	Thrust:	0.000
Time:	0.540	Roll Set Point:	-0.118	Pitch Set Point:	0.158	Yaw Set Point:	-0.025	X_WP:	0.000	Y_WP:	0.000	Y_WP:	-0.100	X:	0.060	Y:	-0.078	Z:	0.048	yaw:	1.433	yaw rate:	-1.015	Roll:	3.134	Pitch:	-4.469	Yaw:	2.621	Thrust:	0.000
Time:	0.551	Roll Set Point:	-0.118	Pitch Set Point:	0.158	Yaw Set Point:	-0.025	X_WP:	0.000	Y_WP:	0.000	Y_WP:	-0.100	X:	0.060	Y:	-0.078	Z:	0.048	yaw:	1.438	yaw rate:	-0.480	Roll:	1.602	Pitch:	-2.141	Yaw:	2.331	Thrust:	0.000
Time:	0.563	Roll Set Point:	-0.118	Pitch Set Point:	0.158	Yaw Set Point:	-0.025	X_WP:	0.000	Y_WP:	0.000	Y_WP:	-0.100	X:	0.060	Y:	-0.078	Z:	0.048	yaw:	1.422	yaw rate:	0.785	Roll:	1.718	Pitch:	-2.300	Yaw:	1.876	Thrust:	0.000
Time:	0.597	Roll Set Point:	-0.118	Pitch Set Point:	0.158	Yaw Set Point:	-0.025	X_WP:	0.000	Y_WP:	0.000	Y_WP:	-0.100	X:	0.060	Y:	-0.078	Z:	0.048	yaw:	1.405	yaw rate:	1.756	Roll:	3.833	Pitch:	-5.238	Yaw:	2.522	Thrust:	0.000
Time:	0.608	Roll Set Point:	-0.118	Pitch Set Point:	0.158	Yaw Set Point:	-0.025	X_WP:	0.000	Y_WP:	0.000	Y_WP:	-0.100	X:	0.060	Y:	-0.078	Z:	0.048	yaw:	1.427	yaw rate:	-2.231	Roll:	1.740	Pitch:	-2.331	Yaw:	2.742	Thrust:	0.000
Time:	0.619	Roll Set Point:	-0.118	Pitch Set Point:	0.158	Yaw Set Point:	-0.025	X_WP:	0.000	Y_WP:	0.000	Y_WP:	-0.100	X:	0.060	Y:	-0.078	Z:	0.048	yaw:	1.433	yaw rate:	-0.656	Roll:	1.599	Pitch:	-2.261	Yaw:	2.392	Thrust:	0.000
Time:	0.630	Roll Set Point:	-0.118	Pitch Set Point:	0.158	Yaw Set Point:	-0.025	X_WP:	0.000	Y_WP:	0.000	Y_WP:	-0.100	X:	0.060	Y:	-0.078	Z:	0.048	yaw:	1.447	yaw rate:	-1.376	Roll:	1.689	Pitch:	-2.441	Yaw:	2.588	Thrust:	0.000
Time:	0.646	Roll Set Point:	-0.118	Pitch Set Point:	0.158	Yaw Set Point:	-0.025	X_WP:	0.000	Y_WP:	0.000	Y_WP:	-0.100	X:	0.060	Y:	-0.078	Z:	0.048	yaw:	1.422	yaw rate:	2.558	Roll:	2.051	Pitch:	-2.910	Yaw:	1.904	Thrust:	0.000
Time:	0.665	Roll Set Point:	-0.118	Pitch Set Point:	0.158	Yaw Set Point:	-0.025	X_WP:	0.000	Y_WP:	0.000	Y_WP:	-0.100	X:	0.060	Y:	-0.078	Z:	0.048	yaw:	1.440	yaw rate:	-1.793	Roll:	2.697	Pitch:	-3.601	Yaw:	2.692	Thrust:	0.000
Time:	0.675	Roll Set Point:	-0.118	Pitch Set Point:	0.158	Yaw Set Point:	-0.025	X_WP:	0.000	Y_WP:	0.000	Y_WP:	-0.100	X:	0.060	Y:	-0.078	Z:	0.048	yaw:	1.440	yaw rate:	0.771	Roll:	1.877	Pitch:	-2.479	Yaw:	2.267	Thrust:	0.000
Time:	0.687	Roll Set Point:	-0.118	Pitch Set Point:	0.158	Yaw Set Point:	-0.025	X_WP:	0.000	Y_WP:	0.000	Y_WP:	-0.100	X:	0.060	Y:	-0.078	Z:	0.048	yaw:	1.427	yaw rate:	1.287	Roll:	1.780	Pitch:	-2.399	Yaw:	1.950	Thrust:	0.000
Time:	0.697	Roll Set Point:	-0.118	Pitch Set Point:	0.158	Yaw Set Point:	-0.025	X_WP:	0.000	Y_WP:	0.000	Y_WP:	-0.100	X:	0.060	Y:	-0.078	Z:	0.048	yaw:	1.424	yaw rate:	0.275	Roll:	1.818	Pitch:	-2.519	Yaw:	2.178	Thrust:	0.000
Time:	0.710	Roll Set Point:	-0.118	Pitch Set Point:	0.158	Yaw Set Point:	-0.025	X_WP:	0.000	Y_WP:	0.000	Y_WP:	-0.100	X:	0.060	Y:	-0.078	Z:	0.048	yaw:	1.431	yaw rate:	-0.615	Roll:	1.920	Pitch:	-2.716	Yaw:	2.445	Thrust:	0.000
Time:	0.731	Roll Set Point:	-0.118	Pitch Set Point:	0.158	Yaw Set Point:	-0.025	X_WP:	0.000	Y_WP:	0.000	Y_WP:	-0.100	X:	0.060	Y:	-0.078	Z:	0.048	yaw:	1.435	yaw rate:	-0.471	Roll:	3.007	Pitch:	-4.076	Yaw:	2.588	Thrust:	0.000
Time:	0.742	Roll Set Point:	-0.118	Pitch Set Point:	0.158	Yaw Set Point:	-0.025	X_WP:	0.000	Y_WP:	0.000	Y_WP:	-0.100	X:	0.060	Y:	-0.078	Z:	0.048	yaw:	1.445	yaw rate:	-0.934	Roll:	1.989	Pitch:	-2.838	Yaw:	2.523	Thrust:	0.000
Time:	0.753	Roll Set Point:	-0.118	Pitch Set Point:	0.158	Yaw Set Point:	-0.025	X_WP:	0.000	Y_WP:	0.000	Y_WP:	-0.100	X:	0.060	Y:	-0.078	Z:	0.048	yaw:	1.407	yaw rate:	3.781	Roll:	1.989	Pitch:	-2.582	Yaw:	1.411	Thrust:	0.000
Time:	0.764	Roll Set Point:	-0.118	Pitch Set Point:	0.158	Yaw Set Point:	-0.025	X_WP:	0.000	Y_WP:	0.000	Y_WP:	-0.100	X:	0.060	Y:	-0.078	Z:	0.048	yaw:	1.431	yaw rate:	1.936	Roll:	1.947	Pitch:	-2.795	Yaw:	2.859	Thrust:	0.000
Time:	0.775	Roll Set Point:	-0.118	Pitch Set Point:	0.158	Yaw Set Point:	-0.025	X_WP:	0.000	Y_WP:	0.000	Y_WP:	-0.100	X:	0.060	Y:	-0.078	Z:	0.048	yaw:	1.417	yaw rate:	1.326	Roll:	1.879	Pitch:	-2.689	Yaw:	1.937	Thrust:	0.000
Time:	0.793	Roll Set Point:	-0.118	Pitch Set Point:	0.158	Yaw Set Point:	-0.025	X_WP:	0.000	Y_WP:	0.000	Y_WP:	-0.100	X:	0.060	Y:	-0.078	Z:	0.048	yaw:	1.426	yaw rate:	-0.903	Roll:	2.161	Pitch:	-3.635	Yaw:	2.615	Thrust:	0.000
Time:	0.806	Roll Set Point:	-0.118	Pitch Set Point:	0.158	Yaw Set Point:	-0.025	X_WP:	0.000	Y_WP:	0.000	Y_WP:	-0.100	X:	0.060	Y:	-0.078	Z:	0.048	yaw:	1.418	yaw rate:	0.813	Roll:	3.236	Pitch:	-3.636	Yaw:	2.227	Thrust:	0.000
Time:	0.818	Roll Set Point:	-0.118	Pitch Set Point:	0.158	Yaw Set Point:	-0.025	X_WP:	0.000	Y_WP:	0.000	Y_WP:	-0.100	X:	0.060	Y:	-0.078	Z:	0.048	yaw:	1.438	yaw rate:	-1.095	Roll:	2.129	Pitch:	-2.896	Yaw:	2.793	Thrust:	0.000
Time:	0.829	Roll Set Point:	-0.118	Pitch Set Point:	0.158	Yaw Set Point:	-0.025	X_WP:	0.000	Y_WP:	0.000	Y_WP:	-0.100	X:	0.060	Y:	-0.078	Z:	0.048	yaw:	1.439	yaw rate:	-0.108	Roll:	2.016	Pitch:	-2.913	Yaw:	2.346	Thrust:	0.000
Time:	0.843	Roll Set Point:	-0.118	Pitch Set Point:	0.158	Yaw Set Point:	-0.025	X_WP:	0.000	Y_WP:	0.000	Y_WP:	-0.100	X:	0.060	Y:	-0.078	Z:	0.048	yaw:	1.448	yaw rate:	-0.871	Roll:	2.503	Pitch:	-3.499	Yaw:	2.603	Thrust:	0.000
Time:	0.862	Roll Set Point:	-0.118	Pitch Set Point:	0.158	Yaw Set Point:	-0.025	X_WP:	0.000	Y_WP:	0.000	Y_WP:	-0.100	X:	0.060	Y:	-0.078	Z:	0.048	yaw:	1.423	yaw rate:	2.466	Roll:	3.327	Pitch:	-4.571	Yaw:	2.252	Thrust:	0.000
Time:	0.873	Roll Set Point:	-0.118	Pitch Set Point:	0.158	Yaw Set Point:	-0.025	X_WP:	0.000	Y_WP:	0.000	Y_WP:	-0.100	X:	0.060	Y:	-0.078	Z:	0.048	yaw:	1.423	yaw rate:	-1.490	Roll:	2.159	Pitch:	-2.880	Yaw:	2.320	Thrust:	0.000
Time:	0.884	Roll Set Point:	-0.118	Pitch Set Point:	0.158	Yaw Set Point:	-0.025	X_WP:	0.000	Y_WP:	0.000	Y_WP:	-0.100	X:	0.060	Y:	-0.078	Z:	0.048	yaw:	1.424	yaw rate:	-0.045	Roll:	2.211	Pitch:	-2.959	Yaw:	2.337	Thrust:	0.000
Time:	0.895	Roll Set Point:	-0.118	Pitch Set Point:	0.158	Yaw Set Point:	-0.025	X_WP:	0.000	Y_WP:	0.000	Y_WP:	-0.100	X:	0.060	Y:	-0.078	Z:	0.048	yaw:	1.427	yaw rate:	-0.365	Roll:	2.168	Pitch:	-3.025	Yaw:	2.422	Thrust:	0.000
Time:	0.907	Roll Set Point:	-0.118	Pitch Set Point:	0.158	Yaw Set Point:	-0.025	X_WP:	0.000	Y_WP:	0.000	Y_WP:	-0.100	X:	0.060	Y:	-0.078	Z:	0.048	yaw:	1.439	yaw rate:	-1.223	Roll:	2.155	Pitch:	-3.177	Yaw:	2.657	Thrust:	0.000
Time:	0.930	Roll Set Point:	-0.118	Pitch Set Point:	0.158	Yaw Set Point:	-0.025	X_WP:	0.000	Y_WP:	0.000	Y_WP:	-0.100	X:	0.060	Y:	-0.078	Z:	0.048	yaw:	1.433	yaw rate:	0.609	Roll:	4.003	Pitch:	-5.547	Yaw:	2.729	Thrust:	0.000
Time:	0.942	Roll Set Point:	-0.118	Pitch Set Point:	0.158	Yaw Set Point:	-0.025	X_WP:	0.000	Y_WP:	0.000	Y_WP:	-0.100	X:	0.060	Y:	-0.078	Z:	0.048	yaw:	1.442	yaw rate:	-0.894	Roll:	2.549	Pitch:	-3.334	Yaw:	2.587	Thrust:	0.000
Time:	0.952	Roll Set Point:	-0.118	Pitch Set Point:	0.158	Yaw Set Point:	-0.025	X_WP:	0.000	Y_WP:	0.000	Y_WP:	-0.100	X:	0.060	Y:	-0.078	Z:	0.048	yaw:	1.421	yaw rate:	-0.208	Roll:	2.369	Pitch:	-3.280	Yaw:	1.921	Thrust:	0.000
Time:	0.964	Roll Set Point:	-0.118	Pitch Set Point:	0.158	Yaw Set Point:	-0.025	X_WP:	0.000	Y_WP:	0.000	Y_WP:	-0.100	X:	0.060	Y:	-0.078	Z:	0.048	yaw:	1.433	yaw rate:	-1.227	Roll:	2.365	Pitch:	-3.249	Yaw:	2.671	Thrust:	0.000
Time:	0.975	Roll Set Point:	-0.118	Pitch Set Point:	0.158	Yaw Set Point:	-0.025	X_WP:	0.000	Y_WP:	0.000	Y_WP:	-0.100	X:	0.060	Y:	-0.078	Z:	0.048	yaw:	1.442	yaw rate:	-0.845	Roll:	2.258	Pitch:	-3.395	Yaw:	2.607	Thrust:	0.000
Time:	0.993	Roll Set Point:	-0.118	Pitch Set Point:	0.158	Yaw Set Point:	-0.025	X_WP:	0.000	Y_WP:	0.000	Y_WP:	-0.100	X:	0.060	Y:	-0.078	Z:	0.048	yaw:	1.428	yaw rate:	1.364	Roll:	2.694	Pitch:	-4.203	Yaw:	2.365	Thrust:	0.000
Time:	1.006	Roll Set Point:	-0.118	Pitch Set Point:	0.158	Yaw Set Point:	-0.025	X_WP:	0.000	Y_WP:	0.000	Y_WP:	-0.100	X:	0.060	Y:	-0.078	Z:	0.048	yaw:	1.428	yaw rate:	0.013	Roll:	3.685	Pitch:	-4.346	Yaw:	2.477	Thrust:	0.000
Time:	1.017	Roll Set Point:	-0.118	Pitch Set Point:	0.158	Yaw Set Point:	-0.025	X_WP:	0.000	Y_WP:	0.000	Y_WP:	-0.100	X:	0.060	Y:	-0.078	Z:	0.048	yaw:	1.426	yaw rate:	-1.156	Roll:	2.447	Pitch:	-3.367	Yaw:	2.382	Thrust:	0.000
Time:	1.027	Roll Set Point:	-0.118	Pitch Set Point:	0.158	Yaw Set Point:	-0.025	X_WP:	0.000	Y_WP:	0.000	Y_WP:	-0.100	X:	0.060	Y:	-0.078	Z:	0.048	yaw:	1.437	yaw rate:	-1.084	Roll:	2.447	Pitch:	-3.422	Yaw:	2.665	Thrust:	0.000
Time:	1.040	Roll Set Point:	-0.118	Pitch Set Point:	0.158	Yaw Set Point:	-0.025	X_WP:	0.000	Y_WP:	0.000	Y_WP:	-0.100	X:	0.060	Y:	-0.078	Z:	0.048	yaw:	1.428	yaw rate:	0.966	Roll:	2.720	Pitch:	-3.731	Yaw:	2.247	Thrust:	0.000
Time:	1.062	Roll Set Point:	-0.118	Pitch Set Point:	0.158	Yaw Set Point:	-0.025	X_WP:	0.000	Y_WP:	0.000	Y_WP:	-0.100	X:	0.060	Y:	-0.078	Z:	0.048	yaw:	1.431	yaw rate:	-0.350	Roll:	3.410	Pitch:	-5.792	Yaw:	2.875	Thrust:	0.000
Time:	1.073	Roll Set Point:	-0.118	Pitch Set Point:	0.158	Yaw Set Point:	-0.025	X_WP:	0.000	Y_WP:	0.000	Y_WP:	-0.100	X:	0.060	Y:	-0.078	Z:	0.048	yaw:	1.415	yaw rate:	0.428	Roll:	3.585	Pitch:	-3.724	Yaw:	2.036	Thrust:	0.000
Time:	1.084	Roll Set Point:	-0.118	Pitch Set Point:	0.158	Yaw Set Point:	-0.025	X_WP:	0.000	Y_WP:	0.000	Y_WP:	-0.100	X:	0.060	Y:	-0.078	Z:	0.048	yaw:	1.436	yaw rate:	-2.119	Roll:	2.509	Pitch:	-3.602	Yaw:	2.938	Thrust:	0.000
Time:	1.095	Roll Set Point:	-0.118	Pitch Set Point:	0.158	Yaw Set Point:	-0.025	X_WP:	0.000	Y_WP:	0.000	Y_WP:	-0.100	X:	0.060	Y:	-0.078	Z:	0.048	yaw:	1.425	yaw rate:	1.108	Roll:	2.653	Pitch:	-3.625	Yaw:	2.155	Thrust:	0.000
Time:	1.106	Roll Set Point:	-0.118	Pitch Set Point:	0.158	Yaw Set Point:	-0.025	X_WP:	0.000	Y_WP:	0.000	Y_WP:	-0.100	X:	0.060	Y:	-0.078	Z:	0.048	yaw:	1.424	yaw rate:	0.112	Roll:	2.503	Pitch:	-3.349	Yaw:	2.401	Thrust:	0.000
Time:	1.117	Roll Set Point:	-0.118	Pitch Set Point:	0.158	Yaw Set Point:	-0.025	X_WP:	0.000	Y_WP:	0.000	Y_WP:	-0.100	X:	0.060	Y:	-0.078	Z:	0.048	yaw:	1.411	yaw rate:	1.352	Roll:	2.780	Pitch:	-3.768	Yaw:	2.095	Thrust:	0.000
Time:	1.131	Roll Set Point:	-0.118	Pitch Set Point:	0.158	Yaw Set Point:	-0.025	X_WP:	0.000	Y_WP:	0.000	Y_WP:	-0.100	X:	0.060	Y:	-0.078	Z:	0.048	yaw:	1.438	yaw rate:	-2.723	Roll:	3.189	Pitch:	-4.619	Yaw:	3.092	Thrust:	0.000
Time:	1.142	Roll Set Point:	-0.118	Pitch Set Point:	0.158	Yaw Set Point:	-0.025	X_WP:	0.000	Y_WP:	0.000	Y_WP:	-0.100	X:	0.060	Y:	-0.078	Z:	0.048	yaw:	1.415	yaw rate:	2.254	Roll:	2.893	Pitch:	-3.674	Yaw:	1.852	Thrust:	0.000
Time:	1.153	Roll Set Point:	-0.118	Pitch Set Point:	0.158	Yaw Set Point:	-0.025	X_WP:	0.000	Y_WP:	0.000	Y_WP:	-0.100	X:	0.060	Y:	-0.078	Z:	0.048	yaw:	1.414	yaw rate:	0.167	Roll:	2.508	Pitch:	-3.704	Yaw:	2.411	Thrust:	0.000
Time:	1.164	Roll Set Point:	-0.118	Pitch Set Point:	0.158	Yaw Set Point:	-0.025	X_WP:	0.000	Y_WP:	0.000	Y_WP:	-0.100	X:	0.060	Y:	-0.078	Z:	0.048	yaw:	1.435	yaw rate:	-2.182	Roll:	2.793	Pitch:	-3.676	Yaw:	2.992	Thrust:	0.000
Time:	1.179	Roll Set Point:	-0.118	Pitch Set Point:	0.158	Yaw Set Point:	-0.025	X_WP:	0.000	Y_WP:	0.000	Y_WP:	-0.100	X:	0.060	Y:	-0.078	Z:	0.048	yaw:	1.433	yaw rate:	0.213	Roll:	3.294	Pitch:	-4.816	Yaw:	2.609	Thrust:	0.000
Time:	1.197	Roll Set Point:	-0.118	Pitch Set Point:	0.158	Yaw Set Point:	-0.025	X_WP:	0.000	Y_WP:	0.000	Y_WP:	-0.100	X:	0.060	Y:	-0.078	Z:	0.048	yaw:	1.413	yaw rate:	2.018	Roll:	4.612	Pitch:	-6.024	Yaw:	2.493	Thrust:	0.000
Time:	1.208	Roll Set Point:	-0.118	Pitch Set Point:	0.158	Yaw Set Point:	-0.025	X_WP:	0.000	Y_WP:	0.000	Y_WP:	-0.100	X:	0.060	Y:	-0.078	Z:	0.048	yaw:	1.431	yaw rate:	-0.930	Roll:	2.840	Pitch:	-4.031	Yaw:	2.909	Thrust:	0.000
Time:	1.221	Roll Set Point:	-0.118	Pitch Set Point:	0.158	Yaw Set Point:	-0.025	X_WP:	0.000	Y_WP:	0.000	Y_WP:	-0.100	X:	0.060	Y:	-0.078	Z:	0.048	yaw:	1.424	yaw rate:	0.687	Roll:	3.081	Pitch:	-4.242	Yaw:	2.373	Thrust:	0.000
Time:	1.232	Roll Set Point:	-0.118	Pitch Set Point:	0.158	Yaw Set Point:	-0.025	X_WP:	0.000	Y_WP:	0.000	Y_WP:	-0.100	X:	0.060	Y:	-0.078	Z:	0.048	yaw:	1.417	yaw rate:	0.711	Roll:	2.870	Pitch:	-4.086	Yaw:	2.337	Thrust:	0.000
Time:	1.251	Roll Set Point:	-0.118	Pitch Set Point:	0.158	Yaw Set Point:	-0.025	X_WP:	0.000	Y_WP:	0.000	Y_WP:	-0.100	X:	0.060	Y:	-0.078	Z:	0.048	yaw:	1.451	yaw rate:	-3.422	Roll:	4.263	Pitch:	-5.923	Yaw:	3.341	Thrust:	0.000
Time:	1.266	Roll Set Point:	-0.118	Pitch Set Point:	0.158	Yaw Set Point:	-0.025	X_WP:	0.000	Y_WP:	0.000	Y_WP:	-0.100	X:	0.060	Y:	-0.078	Z:	0.048	yaw:	1.431	yaw rate:	-1.783	Roll:	4.086	Pitch:	-5.496	Yaw:	2.364	Thrust:	0.000
Time:	1.278	Roll Set Point:	-0.118	Pitch Set Point:	0.158	Yaw Set Point:	-0.025	X_WP:	0.000	Y_WP:	0.000	Y_WP:	-0.100	X:	0.060	Y:	-0.078	Z:	0.048	yaw:	1.408	yaw rate:	2.242	Roll:	3.089	Pitch:	-4.071	Yaw:	1.953	Thrust:	0.000
Time:	1.291	Roll Set Point:	-0.118	Pitch Set Point:	0.158	Yaw Set Point:	-0.025	X_WP:	0.000	Y_WP:	0.000	Y_WP:	-0.100	X:	0.060	Y:	-0.078	Z:	0.048	yaw:	1.417	yaw rate:	-0.870	Roll:	3.227	Pitch:	-4.668	Yaw:	2.798	Thrust:	0.000
Time:	1.303	Roll Set Point:	-0.118	Pitch Set Point:	0.158	Yaw Set Point:	-0.025	X_WP:	0.000	Y_WP:	0.000	Y_WP:	-0.100	X:	0.060	Y:	-0.078	Z:	0.048	yaw:	1.428	yaw rate:	-1.113	Roll:	3.392	Pitch:	-4.457	Yaw:	2.807	Thrust:	0.000
Time:	1.332	Roll Set Point:	-0.118	Pitch Set Point:	0.158	Yaw Set Point:	-0.025	X_WP:	0.000	Y_WP:	0.000	Y_WP:	-0.100	X:	0.060	Y:	-0.078	Z:	0.048	yaw:	1.430	yaw rate:	-0.210	Roll:	7.131	Pitch:	-9.983	Yaw:	3.426	Thrust:	0.000
Time:	1.344	Roll Set Point:	-0.118	Pitch Set Point:	0.158	Yaw Set Point:	-0.025	X_WP:	0.000	Y_WP:	0.000	Y_WP:	-0.100	X:	0.060	Y:	-0.078	Z:	0.048	yaw:	1.432	yaw rate:	-0.286	Roll:	3.372	Pitch:	-4.525	Yaw:	2.595	Thrust:	0.000
Time:	1.356	Roll Set Point:	-0.118	Pitch Set Point:	0.158	Yaw Set Point:	-0.025	X_WP:	0.000	Y_WP:	0.000	Y_WP:	-0.100	X:	0.060	Y:	-0.078	Z:	0.048	yaw:	1.440	yaw rate:	-0.846	Roll:	3.214	Pitch:	-4.444	Yaw:	2.783	Thrust:	0.000
Time:	1.368	Roll Set Point:	-0.118	Pitch Set Point:	0.158	Yaw Set Point:	-0.025	X_WP:	0.000	Y_WP:	0.000	Y_WP:	-0.100	X:	0.060	Y:	-0.078	Z:	0.048	yaw:	1.421	yaw rate:	1.925	Roll:	3.291	Pitch:	-4.534	Yaw:	2.117	Thrust:	0.000
Time:	1.385	Roll Set Point:	-0.118	Pitch Set Point:	0.158	Yaw Set Point:	-0.025	X_WP:	0.000	Y_WP:	0.000	Y_WP:	-0.100	X:	0.060	Y:	-0.078	Z:	0.048	yaw:	1.412	yaw rate:	0.918	Roll:	4.180	Pitch:	-5.918	Yaw:	2.651	Thrust:	0.000
Time:	1.401	Roll Set Point:	-0.118	Pitch Set Point:	0.158	Yaw Set Point:	-0.025	X_WP:	0.000	Y_WP:	0.000	Y_WP:	-0.100	X:	0.060	Y:	-0.078	Z:	0.048	yaw:	1.440	yaw rate:	-2.800	Roll:	4.635	Pitch:	-6.155	Yaw:	3.288	Thrust:	0.000
Time:	1.412	Roll Set Point:	-0.118	Pitch Set Point:	0.158	Yaw Set Point:	-0.025	X_WP:	0.000	Y_WP:	0.000	Y_WP:	-0.100	X:	0.060	Y:	-0.078	Z:	0.048	yaw:	1.425	yaw rate:	-0.285	Roll:	3.480	Pitch:	-4.582	Yaw:	2.240	Thrust:	0.000
Time:	1.424	Roll Set Point:	-0.118	Pitch Set Point:	0.158	Yaw Set Point:	-0.025	X_WP:	0.000	Y_WP:	0.000	Y_WP:	-0.100	X:	0.060	Y:	-0.078	Z:	0.048	yaw:	1.431	yaw rate:	-0.610	Roll:	3.277	Pitch:	-4.741	Yaw:	2.727	Thrust:	0.000
Time:	1.435	Roll Set Point:	-0.118	Pitch Set Point:	0.158	Yaw Set Point:	-0.025	X_WP:	0.000	Y_WP:	0.000	Y_WP:	-0.100	X:	0.060	Y:	-0.078	Z:	0.048	yaw:	1.427	yaw rate:	0.345	Roll:	3.449	Pitch:	-4.661	Yaw:	2.512	Thrust:	0.000
Time:	1.460	Roll Set Point:	-0.118	Pitch Set Point:	0.158	Yaw Set Point:	-0.025	X_WP:	0.000	Y_WP:	0.000	Y_WP:	-0.100	X:	0.060	Y:	-0.078	Z:	0.048	yaw:	1.423	yaw rate:	0.387	Roll:	6.001	Pitch:	-8.494	Yaw:	3.206	Thrust:	0.000
Time:	1.473	Roll Set Point:	-0.118	Pitch Set Point:	0.158	Yaw Set Point:	-0.025	X_WP:	0.000	Y_WP:	0.000	Y_WP:	-0.100	X:	0.060	Y:	-0.078	Z:	0.048	yaw:	1.429	yaw rate:	-0.580	Roll:	4.060	Pitch:	-5.397	Yaw:	2.800	Thrust:	0.000
Time:	1.484	Roll Set Point:	-0.118	Pitch Set Point:	0.158	Yaw Set Point:	-0.025	X_WP:	0.000	Y_WP:	0.000	Y_WP:	-0.100	X:	0.060	Y:	-0.078	Z:	0.048	yaw:	1.406	yaw rate:	1.904	Roll:	3.538	Pitch:	-4.919	Yaw:	2.058	Thrust:	0.000
Time:	1.495	Roll Set Point:	-0.118	Pitch Set Point:	0.158	Yaw Set Point:	-0.025	X_WP:	0.000	Y_WP:	0.000	Y_WP:	-0.100	X:	0.060	Y:	-0.078	Z:	0.048	yaw:	1.430	yaw rate:	-2.400	Roll:	3.296	Pitch:	-4.409	Yaw:	3.160	Thrust:	0.000
Time:	1.506	Roll Set Point:	-0.118	Pitch Set Point:	0.158	Yaw Set Point:	-0.025	X_WP:	0.000	Y_WP:	0.000	Y_WP:	-0.100	X:	0.060	Y:	-0.078	Z:	0.048	yaw:	1.438	yaw rate:	-0.779	Roll:	3.018	Pitch:	-4.295	Yaw:	2.792	Thrust:	0.000
Time:	1.530	Roll Set Point:	-0.118	Pitch Set Point:	0.158	Yaw Set Point:	-0.025	X_WP:	0.000	Y_WP:	0.000	Y_WP:	-0.100	X:	0.060	Y:	-0.078	Z:	0.048	yaw:	1.407	yaw rate:	3.098	Roll:	6.515	Pitch:	-8.865	Yaw:	2.888	Thrust:	0.000
Time:	1.542	Roll Set Point:	-0.118	Pitch Set Point:	0.158	Yaw Set Point:	-0.025	X_WP:	0.000	Y_WP:	0.000	Y_WP:	-0.100	X:	0.060	Y:	-0.078	Z:	0.048	yaw:	1.430	yaw rate:	-2.252	Roll:	4.177	Pitch:	-5.764	Yaw:	3.167	Thrust:	0.000
Time:	1.554	Roll Set Point:	-0.118	Pitch Set Point:	0.158	Yaw Set Point:	-0.025	X_WP:	0.000	Y_WP:	0.000	Y_WP:	-0.100	X:	0.060	Y:	-0.078	Z:	0.048	yaw:	1.423	yaw rate:	0.635	Roll:	3.477	Pitch:	-5.125	Yaw:	2.520	Thrust:	0.000
Time:	1.565	Roll Set Point:	-0.118	Pitch Set Point:	0.158	Yaw Set Point:	-0.025	X_WP:	0.000	Y_WP:	0.000	Y_WP:	-0.100	X:	0.060	Y:	-0.078	Z:	0.048	yaw:	1.434	yaw rate:	-1.083	Roll:	3.659	Pitch:	-4.973	Yaw:	2.897	Thrust:	0.000
Time:	1.580	Roll Set Point:	-0.118	Pitch Set Point:	0.158	Yaw Set Point:	-0.025	X_WP:	0.000	Y_WP:	0.000	Y_WP:	-0.100	X:	0.060	Y:	-0.078	Z:	0.048	yaw:	1.438	yaw rate:	-0.395	Roll:	3.742	Pitch:	-5.560	Yaw:	2.881	Thrust:	0.000
Time:	1.600	Roll Set Point:	-0.118	Pitch Set Point:	0.158	Yaw Set Point:	-0.025	X_WP:	0.000	Y_WP:	0.000	Y_WP:	-0.100	X:	0.060	Y:	-0.078	Z:	0.048	yaw:	1.424	yaw rate:	1.432	Roll:	6.329	Pitch:	-8.470	Yaw:	2.979	Thrust:	0.000
Time:	1.611	Roll Set Point:	-0.118	Pitch Set Point:	0.158	Yaw Set Point:	-0.025	X_WP:	0.000	Y_WP:	0.000	Y_WP:	-0.100	X:	0.060	Y:	-0.078	Z:	0.048	yaw:	1.422	yaw rate:	1.652	Roll:	3.986	Pitch:	-4.992	Yaw:	2.572	Thrust:	0.000
Time:	1.624	Roll Set Point:	-0.118	Pitch Set Point:	0.158	Yaw Set Point:	-0.025	X_WP:	0.000	Y_WP:	0.000	Y_WP:	-0.100	X:	0.060	Y:	-0.078	Z:	0.048	yaw:	1.421	yaw rate:	0.094	Roll:	3.665	Pitch:	-5.300	Yaw:	2.665	Thrust:	0.000
Time:	1.635	Roll Set Point:	-0.118	Pitch Set Point:	0.158	Yaw Set Point:	-0.025	X_WP:	0.000	Y_WP:	0.000	Y_WP:	-0.100	X:	0.060	Y:	-0.078	Z:	0.048	yaw:	1.429	yaw rate:	-0.764	Roll:	3.842	Pitch:	-5.181	Yaw:	2.846	Thrust:	0.000
Time:	1.658	Roll Set Point:	-0.118	Pitch Set Point:	0.158	Yaw Set Point:	-0.025	X_WP:	0.000	Y_WP:	0.000	Y_WP:	-0.100	X:	0.060	Y:	-0.078	Z:	0.048	yaw:	1.422	yaw rate:	0.669	Roll:	5.025	Pitch:	-7.058	Yaw:	3.248	Thrust:	0.000
Time:	1.671	Roll Set Point:	-0.118	Pitch Set Point:	0.158	Yaw Set Point:	-0.025	X_WP:	0.000	Y_WP:	0.000	Y_WP:	-0.100	X:	0.060	Y:	-0.078	Z:	0.048	yaw:	1.406	yaw rate:	0.982	Roll:	6.110	Pitch:	-8.156	Yaw:	2.492	Thrust:	0.000
Time:	1.682	Roll Set Point:	-0.118	Pitch Set Point:	0.158	Yaw Set Point:	-0.025	X_WP:	0.000	Y_WP:	0.000	Y_WP:	-0.100	X:	0.060	Y:	-0.078	Z:	0.048	yaw:	1.428	yaw rate:	-2.185	Roll:	3.467	Pitch:	-4.901	Yaw:	3.168	Thrust:	0.000
Time:	1.692	Roll Set Point:	-0.118	Pitch Set Point:	0.158	Yaw Set Point:	-0.025	X_WP:	0.000	Y_WP:	0.000	Y_WP:	-0.100	X:	0.060	Y:	-0.078	Z:	0.048	yaw:	1.430	yaw rate:	-0.214	Roll:	3.639	Pitch:	-5.147	Yaw:	2.718	Thrust:	0.000
Time:	1.704	Roll Set Point:	-0.118	Pitch Set Point:	0.158	Yaw Set Point:	-0.024	X_WP:	0.000	Y_WP:	0.000	Y_WP:	-0.100	X:	0.060	Y:	-0.078	Z:	0.048	yaw:	1.401	yaw rate:	2.905	Roll:	3.802	Pitch:	-5.117	Yaw:	2.071	Thrust:	0.000
Time:	1.716	Roll Set Point:	-0.118	Pitch Set Point:	0.158	Yaw Set Point:	-0.025	X_WP:	0.000	Y_WP:	0.000	Y_WP:	-0.100	X:	0.060	Y:	-0.078	Z:	0.048	yaw:	1.408	yaw rate:	-0.661	Roll:	4.075	Pitch:	-5.501	Yaw:	2.828	Thrust:	0.000
Time:	1.730	Roll Set Point:	-0.118	Pitch Set Point:	0.158	Yaw Set Point:	-0.025	X_WP:	0.000	Y_WP:	0.000	Y_WP:	-0.100	X:	0.060	Y:	-0.078	Z:	0.048	yaw:	1.435	yaw rate:	-2.764	Roll:	4.693	Pitch:	-6.813	Yaw:	3.406	Thrust:	0.000
Time:	1.741	Roll Set Point:	-0.118	Pitch Set Point:	0.158	Yaw Set Point:	-0.025	X_WP:	0.000	Y_WP:	0.000	Y_WP:	-0.100	X:	0.060	Y:	-0.078	Z:	0.048	yaw:	1.436	yaw rate:	-0.023	Roll:	3.903	Pitch:	-5.184	Yaw:	2.690	Thrust:	0.000
Time:	1.753	Roll Set Point:	-0.118	Pitch Set Point:	0.158	Yaw Set Point:	-0.025	X_WP:	0.000	Y_WP:	0.000	Y_WP:	-0.100	X:	0.060	Y:	-0.078	Z:	0.048	yaw:	1.440	yaw rate:	-0.401	Roll:	3.893	Pitch:	-5.489	Yaw:	2.835	Thrust:	0.000
Time:	1.764	Roll Set Point:	-0.118	Pitch Set Point:	0.158	Yaw Set Point:	-0.025	X_WP:	0.000	Y_WP:	0.000	Y_WP:	-0.100	X:	0.060	Y:	-0.078	Z:	0.048	yaw:	1.422	yaw rate:	1.725	Roll:	4.096	Pitch:	-5.477	Yaw:	2.329	Thrust:	0.000
Time:	1.782	Roll Set Point:	-0.118	Pitch Set Point:	0.158	Yaw Set Point:	-0.025	X_WP:	0.000	Y_WP:	0.000	Y_WP:	-0.100	X:	0.060	Y:	-0.078	Z:	0.048	yaw:	1.440	yaw rate:	-1.739	Roll:	4.430	Pitch:	-6.132	Yaw:	3.272	Thrust:	0.000
Time:	1.798	Roll Set Point:	-0.118	Pitch Set Point:	0.158	Yaw Set Point:	-0.025	X_WP:	0.000	Y_WP:	0.000	Y_WP:	-0.100	X:	0.060	Y:	-0.078	Z:	0.048	yaw:	1.434	yaw rate:	0.524	Roll:	6.539	Pitch:	-9.108	Yaw:	3.100	Thrust:	0.000
Time:	1.808	Roll Set Point:	-0.118	Pitch Set Point:	0.158	Yaw Set Point:	-0.025	X_WP:	0.000	Y_WP:	0.000	Y_WP:	-0.100	X:	0.060	Y:	-0.078	Z:	0.048	yaw:	1.430	yaw rate:	-1.687	Roll:	3.985	Pitch:	-5.367	Yaw:	2.586	Thrust:	0.000
Time:	1.819	Roll Set Point:	-0.118	Pitch Set Point:	0.158	Yaw Set Point:	-0.025	X_WP:	0.000	Y_WP:	0.000	Y_WP:	-0.100	X:	0.060	Y:	-0.078	Z:	0.048	yaw:	1.426	yaw rate:	0.403	Roll:	3.614	Pitch:	-4.967	Yaw:	2.583	Thrust:	0.000
Time:	1.829	Roll Set Point:	-0.118	Pitch Set Point:	0.158	Yaw Set Point:	-0.025	X_WP:	0.000	Y_WP:	0.000	Y_WP:	-0.100	X:	0.060	Y:	-0.078	Z:	0.048	yaw:	1.422	yaw rate:	0.328	Roll:	4.052	Pitch:	-5.540	Yaw:	2.609	Thrust:	0.000
Time:	1.842	Roll Set Point:	-0.118	Pitch Set Point:	0.158	Yaw Set Point:	-0.025	X_WP:	0.000	Y_WP:	0.000	Y_WP:	-0.100	X:	0.060	Y:	-0.078	Z:	0.048	yaw:	1.425	yaw rate:	-0.259	Roll:	4.307	Pitch:	-5.926	Yaw:	2.911	Thrust:	0.000
Time:	1.862	Roll Set Point:	-0.118	Pitch Set Point:	0.158	Yaw Set Point:	-0.025	X_WP:	0.000	Y_WP:	0.000	Y_WP:	-0.100	X:	0.060	Y:	-0.078	Z:	0.048	yaw:	1.427	yaw rate:	-0.252	Roll:	6.712	Pitch:	-9.455	Yaw:	3.344	Thrust:	0.000
Time:	1.872	Roll Set Point:	-0.118	Pitch Set Point:	0.158	Yaw Set Point:	-0.025	X_WP:	0.000	Y_WP:	0.000	Y_WP:	-0.100	X:	0.060	Y:	-0.078	Z:	0.048	yaw:	1.444	yaw rate:	-3.009	Roll:	3.981	Pitch:	-5.384	Yaw:	3.142	Thrust:	0.000
Time:	1.883	Roll Set Point:	-0.118	Pitch Set Point:	0.158	Yaw Set Point:	-0.025	X_WP:	0.000	Y_WP:	0.000	Y_WP:	-0.100	X:	0.060	Y:	-0.078	Z:	0.048	yaw:	1.431	yaw rate:	1.276	Roll:	3.977	Pitch:	-5.375	Yaw:	2.404	Thrust:	0.000
Time:	1.894	Roll Set Point:	-0.118	Pitch Set Point:	0.158	Yaw Set Point:	-0.025	X_WP:	0.000	Y_WP:	0.000	Y_WP:	-0.100	X:	0.060	Y:	-0.078	Z:	0.048	yaw:	1.427	yaw rate:	0.432	Roll:	4.121	Pitch:	-5.632	Yaw:	2.639	Thrust:	0.000
Time:	1.907	Roll Set Point:	-0.118	Pitch Set Point:	0.158	Yaw Set Point:	-0.025	X_WP:	0.000	Y_WP:	0.000	Y_WP:	-0.100	X:	0.060	Y:	-0.078	Z:	0.048	yaw:	1.427	yaw rate:	-0.037	Roll:	4.087	Pitch:	-6.107	Yaw:	2.867	Thrust:	0.000
Time:	1.929	Roll Set Point:	-0.118	Pitch Set Point:	0.158	Yaw Set Point:	-0.025	X_WP:	0.000	Y_WP:	0.000	Y_WP:	-0.100	X:	0.060	Y:	-0.078	Z:	0.048	yaw:	1.409	yaw rate:	1.853	Roll:	5.056	Pitch:	-9.504	Yaw:	3.265	Thrust:	0.000
Time:	1.942	Roll Set Point:	-0.118	Pitch Set Point:	0.158	Yaw Set Point:	-0.025	X_WP:	0.000	Y_WP:	0.000	Y_WP:	-0.100	X:	0.060	Y:	-0.078	Z:	0.048	yaw:	1.420	yaw rate:	1.672	Roll:	8.014	Pitch:	-7.962	Yaw:	3.093	Thrust:	0.000
Time:	1.953	Roll Set Point:	-0.118	Pitch Set Point:	0.158	Yaw Set Point:	-0.025	X_WP:	0.000	Y_WP:	0.000	Y_WP:	-0.100	X:	0.060	Y:	-0.078	Z:	0.048	yaw:	1.417	yaw rate:	0.296	Roll:	4.297	Pitch:	-6.025	Yaw:	2.734	Thrust:	0.000
Time:	1.964	Roll Set Point:	-0.118	Pitch Set Point:	0.158	Yaw Set Point:	-0.025	X_WP:	0.000	Y_WP:	0.000	Y_WP:	-0.100	X:	0.060	Y:	-0.078	Z:	0.048	yaw:	1.443	yaw rate:	-2.602	Roll:	4.240	Pitch:	-6.050	Yaw:	3.423	Thrust:	0.000
Time:	1.980	Roll Set Point:	-0.118	Pitch Set Point:	0.158	Yaw Set Point:	-0.025	X_WP:	0.000	Y_WP:	0.000	Y_WP:	-0.100	X:	0.060	Y:	-0.078	Z:	0.048	yaw:	1.446	yaw rate:	-0.345	Roll:	4.726	Pitch:	-6.748	Yaw:	3.160	Thrust:	0.000
Time:	1.998	Roll Set Point:	-0.118	Pitch Set Point:	0.158	Yaw Set Point:	-0.025	X_WP:	0.000	Y_WP:	0.000	Y_WP:	-0.100	X:	0.060	Y:	-0.078	Z:	0.048	yaw:	1.428	yaw rate:	1.783	Roll:	7.875	Pitch:	-10.318	Yaw:	3.086	Thrust:	0.000
Time:	2.009	Roll Set Point:	-0.118	Pitch Set Point:	0.158	Yaw Set Point:	-0.025	X_WP:	0.000	Y_WP:	0.000	Y_WP:	-0.100	X:	0.060	Y:	-0.078	Z:	0.048	yaw:	1.418	yaw rate:	0.653	Roll:	4.326	Pitch:	-5.942	Yaw:	2.544	Thrust:	0.000
Time:	2.020	Roll Set Point:	-0.118	Pitch Set Point:	0.158	Yaw Set Point:	-0.025	X_WP:	0.000	Y_WP:	0.000	Y_WP:	-0.100	X:	0.060	Y:	-0.078	Z:	0.048	yaw:	1.424	yaw rate:	-0.619	Roll:	4.179	Pitch:	-5.704	Yaw:	2.939	Thrust:	0.000
Time:	2.031	Roll Set Point:	-0.118	Pitch Set Point:	0.158	Yaw Set Point:	-0.025	X_WP:	0.000	Y_WP:	0.000	Y_WP:	-0.100	X:	0.060	Y:	-0.078	Z:	0.048	yaw:	1.427	yaw rate:	-0.243	Roll:	4.436	Pitch:	-6.210	Yaw:	2.852	Thrust:	0.000
Time:	2.043	Roll Set Point:	-0.118	Pitch Set Point:	0.158	Yaw Set Point:	-0.025	X_WP:	0.000	Y_WP:	0.000	Y_WP:	-0.100	X:	0.060	Y:	-0.078	Z:	0.048	yaw:	1.432	yaw rate:	-0.540	Roll:	4.332	Pitch:	-5.978	Yaw:	3.010	Thrust:	0.000
Time:	2.063	Roll Set Point:	-0.118	Pitch Set Point:	0.158	Yaw Set Point:	-0.025	X_WP:	0.000	Y_WP:	0.000	Y_WP:	-0.100	X:	0.060	Y:	-0.078	Z:	0.048	yaw:	1.447	yaw rate:	-1.514	Roll:	7.708	Pitch:	-10.626	Yaw:	3.715	Thrust:	0.000
Time:	2.074	Roll Set Point:	-0.118	Pitch Set Point:	0.158	Yaw Set Point:	-0.025	X_WP:	0.000	Y_WP:	0.000	Y_WP:	-0.100	X:	0.060	Y:	-0.078	Z:	0.048	yaw:	1.436	yaw rate:	1.118	Roll:	4.455	Pitch:	-6.268	Yaw:	2.561	Thrust:	0.000
Time:	2.085	Roll Set Point:	-0.118	Pitch Set Point:	0.158	Yaw Set Point:	-0.025	X_WP:	0.000	Y_WP:	0.000	Y_WP:	-0.100	X:	0.060	Y:	-0.078	Z:	0.048	yaw:	1.418	yaw rate:	-1.636	Roll:	4.717	Pitch:	-6.139	Yaw:	2.448	Thrust:	0.000
Time:	2.096	Roll Set Point:	-0.118	Pitch Set Point:	0.158	Yaw Set Point:	-0.025	X_WP:	0.000	Y_WP:	0.000	Y_WP:	-0.100	X:	0.060	Y:	-0.078	Z:	0.048	yaw:	1.423	yaw rate:	-0.567	Roll:	4.534	Pitch:	-6.264	Yaw:	2.935	Thrust:	0.000
Time:	2.106	Roll Set Point:	-0.118	Pitch Set Point:	0.158	Yaw Set Point:	-0.025	X_WP:	0.000	Y_WP:	0.000	Y_WP:	-0.100	X:	0.060	Y:	-0.078	Z:	0.048	yaw:	1.411	yaw rate:	1.207	Roll:	4.184	Pitch:	-5.685	Yaw:	2.425	Thrust:	0.000
Time:	2.130	Roll Set Point:	-0.118	Pitch Set Point:	0.158	Yaw Set Point:	-0.025	X_WP:	0.000	Y_WP:	0.000	Y_WP:	-0.100	X:	0.060	Y:	-0.078	Z:	0.048	yaw:	1.423	yaw rate:	-1.144	Roll:	7.773	Pitch:	-11.715	Yaw:	3.970	Thrust:	0.000
Time:	2.141	Roll Set Point:	-0.118	Pitch Set Point:	0.158	Yaw Set Point:	-0.025	X_WP:	0.000	Y_WP:	0.000	Y_WP:	-0.100	X:	0.060	Y:	-0.078	Z:	0.048	yaw:	1.420	yaw rate:	2.019	Roll:	5.980	Pitch:	-7.287	Yaw:	2.785	Thrust:	0.000
Time:	2.152	Roll Set Point:	-0.118	Pitch Set Point:	0.158	Yaw Set Point:	-0.024	X_WP:	0.000	Y_WP:	0.000	Y_WP:	-0.100	X:	0.060	Y:	-0.078	Z:	0.048	yaw:	1.390	yaw rate:	2.989	Roll:	4.348	Pitch:	-5.838	Yaw:	1.970	Thrust:	0.000
Time:	2.163	Roll Set Point:	-0.118	Pitch Set Point:	0.158	Yaw Set Point:	-0.025	X_WP:	0.000	Y_WP:	0.000	Y_WP:	-0.100	X:	0.060	Y:	-0.078	Z:	0.048	yaw:	1.428	yaw rate:	-3.779	Roll:	4.436	Pitch:	-6.393	Yaw:	3.759	Thrust:	0.000
Time:	2.173	Roll Set Point:	-0.118	Pitch Set Point:	0.158	Yaw Set Point:	-0.025	X_WP:	0.000	Y_WP:	0.000	Y_WP:	-0.100	X:	0.060	Y:	-0.078	Z:	0.048	yaw:	1.435	yaw rate:	-0.705	Roll:	4.616	Pitch:	-6.440	Yaw:	3.015	Thrust:	0.000
Time:	2.196	Roll Set Point:	-0.118	Pitch Set Point:	0.158	Yaw Set Point:	-0.025	X_WP:	0.000	Y_WP:	0.000	Y_WP:	-0.100	X:	0.060	Y:	-0.078	Z:	0.048	yaw:	1.409	yaw rate:	2.599	Roll:	5.815	Pitch:	-11.526	Yaw:	3.420	Thrust:	0.000
Time:	2.206	Roll Set Point:	-0.118	Pitch Set Point:	0.158	Yaw Set Point:	-0.025	X_WP:	0.000	Y_WP:	0.000	Y_WP:	-0.100	X:	0.060	Y:	-0.078	Z:	0.048	yaw:	1.434	yaw rate:	-2.500	Roll:	7.784	Pitch:	-6.958	Yaw:	3.478	Thrust:	0.000
Time:	2.218	Roll Set Point:	-0.118	Pitch Set Point:	0.158	Yaw Set Point:	-0.025	X_WP:	0.000	Y_WP:	0.000	Y_WP:	-0.100	X:	0.060	Y:	-0.078	Z:	0.048	yaw:	1.427	yaw rate:	-0.799	Roll:	4.782	Pitch:	-6.525	Yaw:	2.728	Thrust:	0.000
Time:	2.229	Roll Set Point:	-0.118	Pitch Set Point:	0.158	Yaw Set Point:	-0.025	X_WP:	0.000	Y_WP:	0.000	Y_WP:	-0.100	X:	0.060	Y:	-0.078	Z:	0.048	yaw:	1.421	yaw rate:	0.633	Roll:	4.859	Pitch:	-6.718	Yaw:	2.756	Thrust:	0.000
Time:	2.243	Roll Set Point:	-0.118	Pitch Set Point:	0.158	Yaw Set Point:	-0.025	X_WP:	0.000	Y_WP:	0.000	Y_WP:	-0.100	X:	0.060	Y:	-0.078	Z:	0.048	yaw:	1.442	yaw rate:	-2.149	Roll:	5.527	Pitch:	-7.580	Yaw:	3.561	Thrust:	0.000
Time:	2.263	Roll Set Point:	-0.118	Pitch Set Point:	0.158	Yaw Set Point:	-0.025	X_WP:	0.000	Y_WP:	0.000	Y_WP:	-0.100	X:	0.060	Y:	-0.078	Z:	0.048	yaw:	1.428	yaw rate:	1.410	Roll:	8.478	Pitch:	-11.876	Yaw:	3.458	Thrust:	0.000
Time:	2.274	Roll Set Point:	-0.118	Pitch Set Point:	0.158	Yaw Set Point:	-0.025	X_WP:	0.000	Y_WP:	0.000	Y_WP:	-0.100	X:	0.060	Y:	-0.078	Z:	0.048	yaw:	1.418	yaw rate:	1.731	Roll:	4.791	Pitch:	-6.369	Yaw:	2.657	Thrust:	0.000
Time:	2.285	Roll Set Point:	-0.118	Pitch Set Point:	0.158	Yaw Set Point:	-0.025	X_WP:	0.000	Y_WP:	0.000	Y_WP:	-0.100	X:	0.060	Y:	-0.078	Z:	0.048	yaw:	1.414	yaw rate:	0.413	Roll:	4.796	Pitch:	-6.507	Yaw:	2.723	Thrust:	0.000
Time:	2.295	Roll Set Point:	-0.118	Pitch Set Point:	0.158	Yaw Set Point:	-0.025	X_WP:	0.000	Y_WP:	0.000	Y_WP:	-0.100	X:	0.060	Y:	-0.078	Z:	0.048	yaw:	1.447	yaw rate:	-3.318	Roll:	4.608	Pitch:	-6.502	Yaw:	3.727	Thrust:	0.000
Time:	2.307	Roll Set Point:	-0.118	Pitch Set Point:	0.158	Yaw Set Point:	-0.025	X_WP:	0.000	Y_WP:	0.000	Y_WP:	-0.100	X:	0.060	Y:	-0.078	Z:	0.048	yaw:	1.434	yaw rate:	1.361	Roll:	5.316	Pitch:	-7.255	Yaw:	2.718	Thrust:	0.000
Time:	2.327	Roll Set Point:	-0.118	Pitch Set Point:	0.158	Yaw Set Point:	-0.025	X_WP:	0.000	Y_WP:	0.000	Y_WP:	-0.100	X:	0.060	Y:	-0.078	Z:	0.048	yaw:	1.442	yaw rate:	-0.864	Roll:	7.845	Pitch:	-11.423	Yaw:	3.826	Thrust:	0.000
Time:	2.338	Roll Set Point:	-0.118	Pitch Set Point:	0.158	Yaw Set Point:	-0.025	X_WP:	0.000	Y_WP:	0.000	Y_WP:	-0.100	X:	0.060	Y:	-0.078	Z:	0.048	yaw:	1.423	yaw rate:	1.938	Roll:	5.786	Pitch:	-7.358	Yaw:	2.532	Thrust:	0.000
Time:	2.350	Roll Set Point:	-0.118	Pitch Set Point:	0.158	Yaw Set Point:	-0.025	X_WP:	0.000	Y_WP:	0.000	Y_WP:	-0.100	X:	0.060	Y:	-0.078	Z:	0.048	yaw:	1.442	yaw rate:	-1.884	Roll:	4.699	Pitch:	-6.716	Yaw:	3.395	Thrust:	0.000
Time:	2.361	Roll Set Point:	-0.118	Pitch Set Point:	0.158	Yaw Set Point:	-0.025	X_WP:	0.000	Y_WP:	0.000	Y_WP:	-0.100	X:	0.060	Y:	-0.078	Z:	0.048	yaw:	1.433	yaw rate:	0.885	Roll:	5.117	Pitch:	-6.858	Yaw:	2.793	Thrust:	0.000
Time:	2.372	Roll Set Point:	-0.118	Pitch Set Point:	0.158	Yaw Set Point:	-0.025	X_WP:	0.000	Y_WP:	0.000	Y_WP:	-0.100	X:	0.060	Y:	-0.078	Z:	0.048	yaw:	1.431	yaw rate:	0.207	Roll:	5.264	Pitch:	-7.160	Yaw:	2.951	Thrust:	0.000
Time:	2.391	Roll Set Point:	-0.118	Pitch Set Point:	0.158	Yaw Set Point:	-0.025	X_WP:	0.000	Y_WP:	0.000	Y_WP:	-0.100	X:	0.060	Y:	-0.078	Z:	0.048	yaw:	1.411	yaw rate:	2.020	Roll:	7.490	Pitch:	-11.030	Yaw:	3.332	Thrust:	0.000
Time:	2.403	Roll Set Point:	-0.118	Pitch Set Point:	0.158	Yaw Set Point:	-0.025	X_WP:	0.000	Y_WP:	0.000	Y_WP:	-0.100	X:	0.060	Y:	-0.078	Z:	0.048	yaw:	1.421	yaw rate:	2.096	Roll:	6.498	Pitch:	-8.134	Yaw:	3.267	Thrust:	0.000
Time:	2.414	Roll Set Point:	-0.118	Pitch Set Point:	0.158	Yaw Set Point:	-0.025	X_WP:	0.000	Y_WP:	0.000	Y_WP:	-0.100	X:	0.060	Y:	-0.078	Z:	0.048	yaw:	1.437	yaw rate:	-1.588	Roll:	4.548	Pitch:	-6.486	Yaw:	3.330	Thrust:	0.000
Time:	2.424	Roll Set Point:	-0.118	Pitch Set Point:	0.158	Yaw Set Point:	-0.025	X_WP:	0.000	Y_WP:	0.000	Y_WP:	-0.100	X:	0.060	Y:	-0.078	Z:	0.048	yaw:	1.437	yaw rate:	-0.019	Roll:	4.926	Pitch:	-6.745	Yaw:	2.946	Thrust:	0.000
Time:	2.434	Roll Set Point:	-0.118	Pitch Set Point:	0.158	Yaw Set Point:	-0.025	X_WP:	0.000	Y_WP:	0.000	Y_WP:	-0.100	X:	0.060	Y:	-0.078	Z:	0.048	yaw:	1.431	yaw rate:	0.616	Roll:	4.973	Pitch:	-6.796	Yaw:	2.733	Thrust:	0.000
Time:	2.450	Roll Set Point:	-0.118	Pitch Set Point:	0.158	Yaw Set Point:	-0.025	X_WP:	0.000	Y_WP:	0.000	Y_WP:	-0.100	X:	0.060	Y:	-0.078	Z:	0.048	yaw:	1.408	yaw rate:	2.303	Roll:	6.740	Pitch:	-9.123	Yaw:	2.917	Thrust:	0.000
Time:	2.463	Roll Set Point:	-0.118	Pitch Set Point:	0.158	Yaw Set Point:	-0.025	X_WP:	0.000	Y_WP:	0.000	Y_WP:	-0.100	X:	0.060	Y:	-0.078	Z:	0.048	yaw:	1.419	yaw rate:	-1.301	Roll:	6.404	Pitch:	-8.903	Yaw:	3.448	Thrust:	0.000
Time:	2.475	Roll Set Point:	-0.118	Pitch Set Point:	0.158	Yaw Set Point:	-0.025	X_WP:	0.000	Y_WP:	0.000	Y_WP:	-0.100	X:	0.060	Y:	-0.078	Z:	0.048	yaw:	1.452	yaw rate:	-3.332	Roll:	5.141	Pitch:	-7.331	Yaw:	3.820	Thrust:	0.000
Time:	2.485	Roll Set Point:	-0.118	Pitch Set Point:	0.158	Yaw Set Point:	-0.025	X_WP:	0.000	Y_WP:	0.000	Y_WP:	-0.100	X:	0.060	Y:	-0.078	Z:	0.048	yaw:	1.422	yaw rate:	2.991	Roll:	5.169	Pitch:	-6.924	Yaw:	2.209	Thrust:	0.000
Time:	2.496	Roll Set Point:	-0.118	Pitch Set Point:	0.158	Yaw Set Point:	-0.025	X_WP:	0.000	Y_WP:	0.000	Y_WP:	-0.100	X:	0.060	Y:	-0.078	Z:	0.048	yaw:	1.442	yaw rate:	-2.008	Roll:	5.322	Pitch:	-7.262	Yaw:	3.480	Thrust:	0.000
Time:	2.507	Roll Set Point:	-0.118	Pitch Set Point:	0.158	Yaw Set Point:	-0.025	X_WP:	0.000	Y_WP:	0.000	Y_WP:	-0.100	X:	0.060	Y:	-0.078	Z:	0.048	yaw:	1.414	yaw rate:	2.856	Roll:	4.829	Pitch:	-7.258	Yaw:	2.312	Thrust:	0.000
Time:	2.527	Roll Set Point:	-0.118	Pitch Set Point:	0.158	Yaw Set Point:	-0.025	X_WP:	0.000	Y_WP:	0.000	Y_WP:	-0.100	X:	0.060	Y:	-0.078	Z:	0.048	yaw:	1.428	yaw rate:	-1.443	Roll:	8.577	Pitch:	-11.833	Yaw:	4.000	Thrust:	0.000
Time:	2.538	Roll Set Point:	-0.118	Pitch Set Point:	0.158	Yaw Set Point:	-0.025	X_WP:	0.000	Y_WP:	0.000	Y_WP:	-0.100	X:	0.060	Y:	-0.078	Z:	0.048	yaw:	1.428	yaw rate:	-0.558	Roll:	6.654	Pitch:	-8.570	Yaw:	3.109	Thrust:	0.000
Time:	2.549	Roll Set Point:	-0.118	Pitch Set Point:	0.158	Yaw Set Point:	-0.025	X_WP:	0.000	Y_WP:	0.000	Y_WP:	-0.100	X:	0.060	Y:	-0.078	Z:	0.048	yaw:	1.421	yaw rate:	0.648	Roll:	5.200	Pitch:	-7.080	Yaw:	2.809	Thrust:	0.000
Time:	2.560	Roll Set Point:	-0.118	Pitch Set Point:	0.158	Yaw Set Point:	-0.025	X_WP:	0.000	Y_WP:	0.000	Y_WP:	-0.100	X:	0.060	Y:	-0.078	Z:	0.048	yaw:	1.416	yaw rate:	0.508	Roll:	5.316	Pitch:	-7.318	Yaw:	2.928	Thrust:	0.000
Time:	2.573	Roll Set Point:	-0.118	Pitch Set Point:	0.158	Yaw Set Point:	-0.025	X_WP:	0.000	Y_WP:	0.000	Y_WP:	-0.100	X:	0.060	Y:	-0.078	Z:	0.048	yaw:	1.433	yaw rate:	-1.675	Roll:	6.000	Pitch:	-8.619	Yaw:	3.560	Thrust:	0.000
Time:	2.591	Roll Set Point:	-0.118	Pitch Set Point:	0.158	Yaw Set Point:	-0.025	X_WP:	0.000	Y_WP:	0.000	Y_WP:	-0.100	X:	0.060	Y:	-0.078	Z:	0.048	yaw:	1.408	yaw rate:	2.542	Roll:	6.639	Pitch:	-9.597	Yaw:	3.251	Thrust:	0.000
Time:	2.603	Roll Set Point:	-0.118	Pitch Set Point:	0.158	Yaw Set Point:	-0.025	X_WP:	0.000	Y_WP:	0.000	Y_WP:	-0.100	X:	0.060	Y:	-0.078	Z:	0.048	yaw:	1.433	yaw rate:	-2.512	Roll:	8.005	Pitch:	-10.208	Yaw:	3.687	Thrust:	0.000
Time:	2.613	Roll Set Point:	-0.118	Pitch Set Point:	0.158	Yaw Set Point:	-0.025	X_WP:	0.000	Y_WP:	0.000	Y_WP:	-0.100	X:	0.060	Y:	-0.078	Z:	0.048	yaw:	1.410	yaw rate:	2.256	Roll:	5.221	Pitch:	-6.921	Yaw:	2.420	Thrust:	0.000
Time:	2.624	Roll Set Point:	-0.118	Pitch Set Point:	0.158	Yaw Set Point:	-0.025	X_WP:	0.000	Y_WP:	0.000	Y_WP:	-0.100	X:	0.060	Y:	-0.078	Z:	0.048	yaw:	1.419	yaw rate:	-0.861	Roll:	5.202	Pitch:	-7.307	Yaw:	3.211	Thrust:	0.000
Time:	2.634	Roll Set Point:	-0.118	Pitch Set Point:	0.158	Yaw Set Point:	-0.025	X_WP:	0.000	Y_WP:	0.000	Y_WP:	-0.100	X:	0.060	Y:	-0.078	Z:	0.048	yaw:	1.422	yaw rate:	-0.348	Roll:	5.649	Pitch:	-7.766	Yaw:	3.113	Thrust:	0.000
Time:	2.649	Roll Set Point:	-0.118	Pitch Set Point:	0.158	Yaw Set Point:	-0.025	X_WP:	0.000	Y_WP:	0.000	Y_WP:	-0.100	X:	0.060	Y:	-0.078	Z:	0.048	yaw:	1.416	yaw rate:	0.597	Roll:	5.599	Pitch:	-8.908	Yaw:	3.289	Thrust:	0.000
Time:	2.663	Roll Set Point:	-0.118	Pitch Set Point:	0.158	Yaw Set Point:	-0.025	X_WP:	0.000	Y_WP:	0.000	Y_WP:	-0.100	X:	0.060	Y:	-0.078	Z:	0.048	yaw:	1.428	yaw rate:	-1.197	Roll:	8.576	Pitch:	-10.585	Yaw:	3.594	Thrust:	0.000
Time:	2.675	Roll Set Point:	-0.118	Pitch Set Point:	0.158	Yaw Set Point:	-0.025	X_WP:	0.000	Y_WP:	0.000	Y_WP:	-0.100	X:	0.060	Y:	-0.078	Z:	0.048	yaw:	1.430	yaw rate:	-0.699	Roll:	5.803	Pitch:	-8.013	Yaw:	3.208	Thrust:	0.000
Time:	2.685	Roll Set Point:	-0.118	Pitch Set Point:	0.158	Yaw Set Point:	-0.025	X_WP:	0.000	Y_WP:	0.000	Y_WP:	-0.100	X:	0.060	Y:	-0.078	Z:	0.048	yaw:	1.415	yaw rate:	1.527	Roll:	5.465	Pitch:	-7.551	Yaw:	2.650	Thrust:	0.000
Time:	2.696	Roll Set Point:	-0.118	Pitch Set Point:	0.158	Yaw Set Point:	-0.025	X_WP:	0.000	Y_WP:	0.000	Y_WP:	-0.100	X:	0.060	Y:	-0.078	Z:	0.048	yaw:	1.441	yaw rate:	-2.626	Roll:	5.395	Pitch:	-7.572	Yaw:	3.700	Thrust:	0.000
Time:	2.709	Roll Set Point:	-0.118	Pitch Set Point:	0.158	Yaw Set Point:	-0.025	X_WP:	0.000	Y_WP:	0.000	Y_WP:	-0.100	X:	0.060	Y:	-0.078	Z:	0.048	yaw:	1.415	yaw rate:	2.609	Roll:	6.304	Pitch:	-9.118	Yaw:	2.755	Thrust:	0.000
Time:	2.730	Roll Set Point:	-0.118	Pitch Set Point:	0.158	Yaw Set Point:	-0.025	X_WP:	0.000	Y_WP:	0.000	Y_WP:	-0.100	X:	0.060	Y:	-0.078	Z:	0.048	yaw:	1.416	yaw rate:	-0.164	Roll:	10.687	Pitch:	-14.357	Yaw:	4.106	Thrust:	0.000
Time:	2.741	Roll Set Point:	-0.118	Pitch Set Point:	0.158	Yaw Set Point:	-0.025	X_WP:	0.000	Y_WP:	0.000	Y_WP:	-0.100	X:	0.060	Y:	-0.078	Z:	0.048	yaw:	1.407	yaw rate:	2.463	Roll:	5.781	Pitch:	-8.276	Yaw:	2.913	Thrust:	0.000
Time:	2.752	Roll Set Point:	-0.118	Pitch Set Point:	0.158	Yaw Set Point:	-0.025	X_WP:	0.000	Y_WP:	0.000	Y_WP:	-0.100	X:	0.060	Y:	-0.078	Z:	0.048	yaw:	1.424	yaw rate:	-1.705	Roll:	5.967	Pitch:	-7.650	Yaw:	3.462	Thrust:	0.000
Time:	2.763	Roll Set Point:	-0.118	Pitch Set Point:	0.158	Yaw Set Point:	-0.025	X_WP:	0.000	Y_WP:	0.000	Y_WP:	-0.100	X:	0.060	Y:	-0.078	Z:	0.048	yaw:	1.438	yaw rate:	-1.370	Roll:	5.697	Pitch:	-7.909	Yaw:	3.462	Thrust:	0.000
Time:	2.777	Roll Set Point:	-0.118	Pitch Set Point:	0.158	Yaw Set Point:	-0.025	X_WP:	0.000	Y_WP:	0.000	Y_WP:	-0.100	X:	0.060	Y:	-0.078	Z:	0.048	yaw:	1.430	yaw rate:	0.763	Roll:	6.837	Pitch:	-9.680	Yaw:	3.202	Thrust:	0.000
Time:	2.797	Roll Set Point:	-0.118	Pitch Set Point:	0.158	Yaw Set Point:	-0.025	X_WP:	0.000	Y_WP:	0.000	Y_WP:	-0.100	X:	0.060	Y:	-0.078	Z:	0.048	yaw:	1.427	yaw rate:	0.285	Roll:	10.698	Pitch:	-14.397	Yaw:	4.022	Thrust:	0.000
Time:	2.808	Roll Set Point:	-0.118	Pitch Set Point:	0.158	Yaw Set Point:	-0.025	X_WP:	0.000	Y_WP:	0.000	Y_WP:	-0.100	X:	0.060	Y:	-0.078	Z:	0.048	yaw:	1.424	yaw rate:	0.049	Roll:	5.990	Pitch:	-8.262	Yaw:	2.973	Thrust:	0.000
Time:	2.820	Roll Set Point:	-0.118	Pitch Set Point:	0.158	Yaw Set Point:	-0.025	X_WP:	0.000	Y_WP:	0.000	Y_WP:	-0.100	X:	0.060	Y:	-0.078	Z:	0.048	yaw:	1.417	yaw rate:	0.651	Roll:	6.174	Pitch:	-8.412	Yaw:	2.975	Thrust:	0.000
Time:	2.833	Roll Set Point:	-0.118	Pitch Set Point:	0.158	Yaw Set Point:	-0.025	X_WP:	0.000	Y_WP:	0.000	Y_WP:	-0.100	X:	0.060	Y:	-0.078	Z:	0.048	yaw:	1.439	yaw rate:	-2.136	Roll:	7.276	Pitch:	-10.130	Yaw:	3.804	Thrust:	0.000
Time:	2.846	Roll Set Point:	-0.118	Pitch Set Point:	0.158	Yaw Set Point:	-0.025	X_WP:	0.000	Y_WP:	0.000	Y_WP:	-0.100	X:	0.060	Y:	-0.078	Z:	0.048	yaw:	1.409	yaw rate:	2.942	Roll:	5.606	Pitch:	-8.170	Yaw:	2.373	Thrust:	0.000
Time:	2.863	Roll Set Point:	-0.118	Pitch Set Point:	0.158	Yaw Set Point:	-0.025	X_WP:	0.000	Y_WP:	0.000	Y_WP:	-0.100	X:	0.060	Y:	-0.078	Z:	0.048	yaw:	1.439	yaw rate:	-2.985	Roll:	8.851	Pitch:	-12.040	Yaw:	4.249	Thrust:	0.000
Time:	2.874	Roll Set Point:	-0.118	Pitch Set Point:	0.158	Yaw Set Point:	-0.025	X_WP:	0.000	Y_WP:	0.000	Y_WP:	-0.100	X:	0.060	Y:	-0.078	Z:	0.048	yaw:	1.413	yaw rate:	1.762	Roll:	6.828	Pitch:	-8.837	Yaw:	2.460	Thrust:	0.000
Time:	2.884	Roll Set Point:	-0.118	Pitch Set Point:	0.158	Yaw Set Point:	-0.025	X_WP:	0.000	Y_WP:	0.000	Y_WP:	-0.100	X:	0.060	Y:	-0.078	Z:	0.048	yaw:	1.423	yaw rate:	-0.969	Roll:	5.906	Pitch:	-8.256	Yaw:	3.302	Thrust:	0.000
Time:	2.895	Roll Set Point:	-0.118	Pitch Set Point:	0.158	Yaw Set Point:	-0.025	X_WP:	0.000	Y_WP:	0.000	Y_WP:	-0.100	X:	0.060	Y:	-0.078	Z:	0.048	yaw:	1.408	yaw rate:	1.513	Roll:	6.240	Pitch:	-8.410	Yaw:	2.668	Thrust:	0.000
Time:	2.914	Roll Set Point:	-0.118	Pitch Set Point:	0.158	Yaw Set Point:	-0.025	X_WP:	0.000	Y_WP:	0.000	Y_WP:	-0.100	X:	0.060	Y:	-0.078	Z:	0.048	yaw:	1.441	yaw rate:	-3.344	Roll:	9.269	Pitch:	-13.289	Yaw:	4.341	Thrust:	0.000
Time:	2.927	Roll Set Point:	-0.118	Pitch Set Point:	0.158	Yaw Set Point:	-0.025	X_WP:	0.000	Y_WP:	0.000	Y_WP:	-0.100	X:	0.060	Y:	-0.078	Z:	0.048	yaw:	1.410	yaw rate:	3.149	Roll:	7.239	Pitch:	-9.783	Yaw:	2.564	Thrust:	0.000
Time:	2.939	Roll Set Point:	-0.118	Pitch Set Point:	0.158	Yaw Set Point:	-0.025	X_WP:	0.000	Y_WP:	0.000	Y_WP:	-0.100	X:	0.060	Y:	-0.078	Z:	0.048	yaw:	1.411	yaw rate:	-0.154	Roll:	7.099	Pitch:	-9.481	Yaw:	3.251	Thrust:	0.000
Time:	2.949	Roll Set Point:	-0.118	Pitch Set Point:	0.158	Yaw Set Point:	-0.025	X_WP:	0.000	Y_WP:	0.000	Y_WP:	-0.100	X:	0.060	Y:	-0.078	Z:	0.048	yaw:	1.422	yaw rate:	-1.034	Roll:	5.608	Pitch:	-8.103	Yaw:	3.296	Thrust:	0.000
Time:	2.960	Roll Set Point:	-0.118	Pitch Set Point:	0.158	Yaw Set Point:	-0.025	X_WP:	0.000	Y_WP:	0.000	Y_WP:	-0.100	X:	0.060	Y:	-0.078	Z:	0.048	yaw:	1.408	yaw rate:	1.302	Roll:	6.055	Pitch:	-8.137	Yaw:	2.696	Thrust:	0.000
Time:	2.972	Roll Set Point:	-0.118	Pitch Set Point:	0.158	Yaw Set Point:	-0.025	X_WP:	0.000	Y_WP:	0.000	Y_WP:	-0.100	X:	0.060	Y:	-0.078	Z:	0.048	yaw:	1.438	yaw rate:	-2.907	Roll:	6.406	Pitch:	-9.019	Yaw:	3.820	Thrust:	0.000
Time:	2.991	Roll Set Point:	-0.118	Pitch Set Point:	0.158	Yaw Set Point:	-0.025	X_WP:	0.000	Y_WP:	0.000	Y_WP:	-0.100	X:	0.060	Y:	-0.078	Z:	0.048	yaw:	1.421	yaw rate:	-0.170	Roll:	7.904	Pitch:	-11.239	Yaw:	3.355	Thrust:	0.000
Time:	3.003	Roll Set Point:	-0.118	Pitch Set Point:	0.158	Yaw Set Point:	-0.025	X_WP:	0.000	Y_WP:	0.000	Y_WP:	1.000	X:	0.060	Y:	-0.078	Z:	0.048	yaw:	1.430	yaw rate:	-0.873	Roll:	9.710	Pitch:	-12.558	Yaw:	3.660	Thrust:	100.000
Time:	3.013	Roll Set Point:	-0.118	Pitch Set Point:	0.158	Yaw Set Point:	-0.025	X_WP:	0.000	Y_WP:	0.000	Y_WP:	1.000	X:	0.060	Y:	-0.078	Z:	0.048	yaw:	1.425	yaw rate:	0.475	Roll:	5.852	Pitch:	-8.042	Yaw:	2.876	Thrust:	53.016
Time:	3.024	Roll Set Point:	-0.118	Pitch Set Point:	0.158	Yaw Set Point:	-0.025	X_WP:	0.000	Y_WP:	0.000	Y_WP:	1.000	X:	0.060	Y:	-0.078	Z:	0.048	yaw:	1.433	yaw rate:	-0.706	Roll:	5.960	Pitch:	-8.362	Yaw:	3.272	Thrust:	54.635
Time:	3.034	Roll Set Point:	-0.117	Pitch Set Point:	0.158	Yaw Set Point:	-0.031	X_WP:	0.000	Y_WP:	0.000	Y_WP:	1.000	X:	0.060	Y:	-0.078	Z:	0.048	yaw:	1.785	yaw rate:	-35.225	Roll:	4.947	Pitch:	-9.858	Yaw:	12.215	Thrust:	55.283
Time:	3.047	Roll Set Point:	-0.117	Pitch Set Point:	0.159	Yaw Set Point:	-0.040	X_WP:	0.000	Y_WP:	0.000	Y_WP:	1.000	X:	0.060	Y:	-0.078	Z:	0.048	yaw:	2.279	yaw rate:	-49.450	Roll:	4.376	Pitch:	-10.343	Yaw:	15.530	Thrust:	58.427
Time:	3.063	Roll Set Point:	-0.117	Pitch Set Point:	0.159	Yaw Set Point:	-0.039	X_WP:	0.000	Y_WP:	0.000	Y_WP:	1.000	X:	0.060	Y:	-0.078	Z:	0.048	yaw:	2.261	yaw rate:	1.791	Roll:	9.234	Pitch:	-13.058	Yaw:	4.528	Thrust:	60.914
Time:	3.074	Roll Set Point:	-0.117	Pitch Set Point:	0.159	Yaw Set Point:	-0.035	X_WP:	0.000	Y_WP:	0.000	Y_WP:	1.000	X:	0.060	Y:	-0.078	Z:	0.048	yaw:	1.981	yaw rate:	28.025	Roll:	8.431	Pitch:	-8.228	Yaw:	-2.642	Thrust:	60.184
Time:	3.084	Roll Set Point:	-0.117	Pitch Set Point:	0.159	Yaw Set Point:	-0.035	X_WP:	0.000	Y_WP:	0.000	Y_WP:	1.000	X:	0.060	Y:	-0.078	Z:	0.048	yaw:	2.017	yaw rate:	-3.587	Roll:	5.437	Pitch:	-8.438	Yaw:	4.761	Thrust:	59.717
Time:	3.095	Roll Set Point:	-0.117	Pitch Set Point:	0.158	Yaw Set Point:	-0.037	X_WP:	0.000	Y_WP:	0.000	Y_WP:	1.000	X:	0.060	Y:	-0.078	Z:	0.048	yaw:	2.105	yaw rate:	-8.793	Roll:	6.677	Pitch:	-8.947	Yaw:	6.161	Thrust:	62.132
Time:	3.107	Roll Set Point:	-0.118	Pitch Set Point:	0.158	Yaw Set Point:	-0.030	X_WP:	0.000	Y_WP:	0.000	Y_WP:	1.000	X:	0.060	Y:	-0.078	Z:	0.048	yaw:	1.728	yaw rate:	37.671	Roll:	7.672	Pitch:	-8.074	Yaw:	-4.620	Thrust:	62.373
Time:	3.128	Roll Set Point:	-0.117	Pitch Set Point:	0.158	Yaw Set Point:	-0.034	X_WP:	0.000	Y_WP:	0.000	Y_WP:	1.000	X:	0.060	Y:	-0.078	Z:	0.048	yaw:	1.920	yaw rate:	-19.158	Roll:	6.824	Pitch:	-15.977	Yaw:	7.186	Thrust:	76.146
Time:	3.141	Roll Set Point:	-0.117	Pitch Set Point:	0.158	Yaw Set Point:	-0.032	X_WP:	0.000	Y_WP:	0.000	Y_WP:	1.000	X:	0.060	Y:	-0.078	Z:	0.048	yaw:	1.805	yaw rate:	-5.484	Roll:	13.035	Pitch:	-11.801	Yaw:	1.831	Thrust:	69.125
Time:	3.153	Roll Set Point:	-0.117	Pitch Set Point:	0.158	Yaw Set Point:	-0.031	X_WP:	0.000	Y_WP:	0.000	Y_WP:	1.000	X:	0.060	Y:	-0.078	Z:	0.048	yaw:	1.799	yaw rate:	0.658	Roll:	6.602	Pitch:	-8.917	Yaw:	3.527	Thrust:	67.134
Time:	3.164	Roll Set Point:	-0.117	Pitch Set Point:	0.159	Yaw Set Point:	-0.040	X_WP:	0.000	Y_WP:	0.000	Y_WP:	1.000	X:	0.060	Y:	-0.078	Z:	0.048	yaw:	2.270	yaw rate:	-47.151	Roll:	4.750	Pitch:	-10.535	Yaw:	15.555	Thrust:	68.826
Time:	3.199	Roll Set Point:	-0.117	Pitch Set Point:	0.158	Yaw Set Point:	-0.040	X_WP:	0.000	Y_WP:	0.000	Y_WP:	1.000	X:	0.060	Y:	-0.078	Z:	0.048	yaw:	2.298	yaw rate:	-2.763	Roll:	7.240	Pitch:	-10.201	Yaw:	6.891	Thrust:	70.468
Time:	3.209	Roll Set Point:	-0.116	Pitch Set Point:	0.156	Yaw Set Point:	-0.043	X_WP:	0.000	Y_WP:	0.000	Y_WP:	1.000	X:	0.060	Y:	-0.077	Z:	0.052	yaw:	2.446	yaw rate:	30.045	Roll:	18.572	Pitch:	-24.643	Yaw:	8.173	Thrust:	100.000
Time:	3.220	Roll Set Point:	-0.115	Pitch Set Point:	0.155	Yaw Set Point:	-0.053	X_WP:	0.000	Y_WP:	0.000	Y_WP:	1.000	X:	0.060	Y:	-0.076	Z:	0.052	yaw:	3.042	yaw rate:	-59.662	Roll:	3.438	Pitch:	-8.944	Yaw:	20.161	Thrust:	67.269
Time:	3.230	Roll Set Point:	-0.115	Pitch Set Point:	0.154	Yaw Set Point:	-0.049	X_WP:	0.000	Y_WP:	0.000	Y_WP:	1.000	X:	0.060	Y:	-0.076	Z:	0.054	yaw:	2.794	yaw rate:	24.766	Roll:	7.622	Pitch:	-7.201	Yaw:	-1.145	Thrust:	66.715
Time:	3.245	Roll Set Point:	-0.114	Pitch Set Point:	0.153	Yaw Set Point:	-0.055	X_WP:	0.000	Y_WP:	0.000	Y_WP:	1.000	X:	0.059	Y:	-0.075	Z:	0.055	yaw:	3.132	yaw rate:	-33.778	Roll:	4.102	Pitch:	-8.218	Yaw:	12.459	Thrust:	67.706
Time:	3.263	Roll Set Point:	-0.113	Pitch Set Point:	0.153	Yaw Set Point:	-0.064	X_WP:	0.000	Y_WP:	0.000	Y_WP:	1.000	X:	0.059	Y:	-0.075	Z:	0.057	yaw:	3.695	yaw rate:	-56.311	Roll:	9.906	Pitch:	-16.992	Yaw:	14.798	Thrust:	90.620
Time:	3.274	Roll Set Point:	-0.111	Pitch Set Point:	0.149	Yaw Set Point:	-0.067	X_WP:	0.000	Y_WP:	0.000	Y_WP:	1.000	X:	0.058	Y:	-0.073	Z:	0.061	yaw:	3.836	yaw rate:	-14.099	Roll:	5.534	Pitch:	-4.004	Yaw:	9.722	Thrust:	59.141
Time:	3.284	Roll Set Point:	-0.109	Pitch Set Point:	0.147	Yaw Set Point:	-0.081	X_WP:	0.000	Y_WP:	0.000	Y_WP:	1.000	X:	0.057	Y:	-0.071	Z:	0.064	yaw:	4.616	yaw rate:	-77.942	Roll:	2.248	Pitch:	-6.890	Yaw:	26.645	Thrust:	66.694
Time:	3.295	Roll Set Point:	-0.108	Pitch Set Point:	0.143	Yaw Set Point:	-0.069	X_WP:	0.000	Y_WP:	0.000	Y_WP:	1.000	X:	0.056	Y:	-0.070	Z:	0.066	yaw:	3.958	yaw rate:	65.788	Roll:	6.722	Pitch:	-3.205	Yaw:	-10.183	Thrust:	66.763
Time:	3.306	Roll Set Point:	-0.106	Pitch Set Point:	0.140	Yaw Set Point:	-0.075	X_WP:	0.000	Y_WP:	0.000	Y_WP:	1.000	X:	0.055	Y:	-0.068	Z:	0.069	yaw:	4.309	yaw rate:	-35.089	Roll:	2.587	Pitch:	-3.695	Yaw:	15.447	Thrust:	67.774
Time:	3.317	Roll Set Point:	-0.104	Pitch Set Point:	0.135	Yaw Set Point:	-0.071	X_WP:	0.000	Y_WP:	0.000	Y_WP:	1.000	X:	0.054	Y:	-0.066	Z:	0.072	yaw:	4.092	yaw rate:	21.728	Roll:	4.851	Pitch:	-4.099	Yaw:	1.679	Thrust:	66.519
Time:	3.329	Roll Set Point:	-0.101	Pitch Set Point:	0.131	Yaw Set Point:	-0.079	X_WP:	0.000	Y_WP:	0.000	Y_WP:	1.000	X:	0.053	Y:	-0.063	Z:	0.076	yaw:	4.536	yaw rate:	-44.466	Roll:	4.391	Pitch:	-4.919	Yaw:	17.412	Thrust:	72.912
Time:	3.339	Roll Set Point:	-0.096	Pitch Set Point:	0.120	Yaw Set Point:	-0.079	X_WP:	0.000	Y_WP:	0.000	Y_WP:	1.000	X:	0.050	Y:	-0.058	Z:	0.083	yaw:	4.535	yaw rate:	0.082	Roll:	-0.862	Pitch:	8.318	Yaw:	7.314	Thrust:	46.794
Time:	3.351	Roll Set Point:	-0.093	Pitch Set Point:	0.113	Yaw Set Point:	-0.082	X_WP:	0.000	Y_WP:	0.000	Y_WP:	1.000	X:	0.049	Y:	-0.055	Z:	0.087	yaw:	4.710	yaw rate:	-17.496	Roll:	2.184	Pitch:	-1.721	Yaw:	11.587	Thrust:	69.450
Time:	3.363	Roll Set Point:	-0.089	Pitch Set Point:	0.106	Yaw Set Point:	-0.083	X_WP:	0.000	Y_WP:	0.000	Y_WP:	1.000	X:	0.047	Y:	-0.051	Z:	0.091	yaw:	4.739	yaw rate:	-2.900	Roll:	3.565	Pitch:	-0.827	Yaw:	8.441	Thrust:	72.422
Time:	3.379	Roll Set Point:	-0.083	Pitch Set Point:	0.092	Yaw Set Point:	-0.083	X_WP:	0.000	Y_WP:	0.000	Y_WP:	1.000	X:	0.043	Y:	-0.044	Z:	0.100	yaw:	4.748	yaw rate:	3.192	Roll:	0.483	Pitch:	6.474	Yaw:	8.249	Thrust:	63.438
Time:	3.397	Roll Set Point:	-0.079	Pitch Set Point:	0.084	Yaw Set Point:	-0.094	X_WP:	0.000	Y_WP:	0.000	Y_WP:	1.000	X:	0.041	Y:	-0.040	Z:	0.105	yaw:	5.411	yaw rate:	-66.305	Roll:	8.844	Pitch:	-11.492	Yaw:	18.437	Thrust:	100.000
Time:	3.408	Roll Set Point:	-0.072	Pitch Set Point:	0.067	Yaw Set Point:	-0.079	X_WP:	0.000	Y_WP:	0.000	Y_WP:	1.000	X:	0.037	Y:	-0.032	Z:	0.115	yaw:	4.549	yaw rate:	48.453	Roll:	1.926	Pitch:	12.702	Yaw:	-11.242	Thrust:	53.283
Time:	3.420	Roll Set Point:	-0.068	Pitch Set Point:	0.058	Yaw Set Point:	-0.080	X_WP:	0.000	Y_WP:	0.000	Y_WP:	1.000	X:	0.035	Y:	-0.027	Z:	0.120	yaw:	4.610	yaw rate:	-6.104	Roll:	2.659	Pitch:	0.616	Yaw:	8.976	Thrust:	69.991
Time:	3.432	Roll Set Point:	-0.064	Pitch Set Point:	0.048	Yaw Set Point:	-0.090	X_WP:	0.000	Y_WP:	0.000	Y_WP:	1.000	X:	0.033	Y:	-0.023	Z:	0.125	yaw:	5.173	yaw rate:	-56.323	Roll:	1.695	Pitch:	3.184	Yaw:	20.680	Thrust:	66.942
Time:	3.449	Roll Set Point:	-0.059	Pitch Set Point:	0.039	Yaw Set Point:	-0.088	X_WP:	0.000	Y_WP:	0.000	Y_WP:	1.000	X:	0.031	Y:	-0.018	Z:	0.130	yaw:	5.054	yaw rate:	11.902	Roll:	2.685	Pitch:	-0.945	Yaw:	6.833	Thrust:	94.193
Time:	3.465	Roll Set Point:	-0.055	Pitch Set Point:	0.029	Yaw Set Point:	-0.080	X_WP:	0.000	Y_WP:	0.000	Y_WP:	1.000	X:	0.028	Y:	-0.013	Z:	0.136	yaw:	4.560	yaw rate:	49.343	Roll:	9.538	Pitch:	-7.605	Yaw:	0.243	Thrust:	100.000
Time:	3.477	Roll Set Point:	-0.041	Pitch Set Point:	-0.001	Yaw Set Point:	-0.077	X_WP:	0.000	Y_WP:	0.000	Y_WP:	1.000	X:	0.021	Y:	0.001	Z:	0.153	yaw:	4.390	yaw rate:	39.715	Roll:	-7.533	Pitch:	29.081	Yaw:	3.386	Thrust:	31.326
Time:	3.488	Roll Set Point:	-0.036	Pitch Set Point:	-0.011	Yaw Set Point:	-0.076	X_WP:	0.000	Y_WP:	0.000	Y_WP:	1.000	X:	0.018	Y:	0.006	Z:	0.158	yaw:	4.382	yaw rate:	0.800	Roll:	0.644	Pitch:	3.923	Yaw:	7.046	Thrust:	68.797
Time:	3.500	Roll Set Point:	-0.031	Pitch Set Point:	-0.021	Yaw Set Point:	-0.076	X_WP:	0.000	Y_WP:	0.000	Y_WP:	1.000	X:	0.015	Y:	0.011	Z:	0.164	yaw:	4.342	yaw rate:	4.007	Roll:	1.050	Pitch:	4.384	Yaw:	6.241	Thrust:	69.040
Time:	3.515	Roll Set Point:	-0.026	Pitch Set Point:	-0.032	Yaw Set Point:	-0.070	X_WP:	0.000	Y_WP:	0.000	Y_WP:	1.000	X:	0.012	Y:	0.016	Z:	0.171	yaw:	4.038	yaw rate:	30.469	Roll:	1.079	Pitch:	1.479	Yaw:	2.066	Thrust:	88.834
Time:	3.528	Roll Set Point:	-0.021	Pitch Set Point:	-0.042	Yaw Set Point:	-0.070	X_WP:	0.000	Y_WP:	0.000	Y_WP:	1.000	X:	0.010	Y:	0.021	Z:	0.177	yaw:	4.024	yaw rate:	1.391	Roll:	5.399	Pitch:	-2.758	Yaw:	6.752	Thrust:	91.646
Time:	3.540	Roll Set Point:	-0.011	Pitch Set Point:	-0.063	Yaw Set Point:	-0.085	X_WP:	0.000	Y_WP:	0.000	Y_WP:	1.000	X:	0.004	Y:	0.032	Z:	0.190	yaw:	4.861	yaw rate:	-83.700	Roll:	-3.373	Pitch:	19.970	Yaw:	26.205	Thrust:	41.640
Time:	3.552	Roll Set Point:	-0.006	Pitch Set Point:	-0.073	Yaw Set Point:	-0.086	X_WP:	0.000	Y_WP:	0.000	Y_WP:	1.000	X:	0.001	Y:	0.037	Z:	0.196	yaw:	4.947	yaw rate:	-8.603	Roll:	0.619	Pitch:	4.134	Yaw:	10.013	Thrust:	74.181
Time:	3.564	Roll Set Point:	0.000	Pitch Set Point:	-0.084	Yaw Set Point:	-0.083	X_WP:	0.000	Y_WP:	0.000	Y_WP:	1.000	X:	-0.002	Y:	0.042	Z:	0.203	yaw:	4.774	yaw rate:	17.260	Roll:	-0.195	Pitch:	5.036	Yaw:	3.922	Thrust:	70.823
Time:	3.577	Roll Set Point:	0.006	Pitch Set Point:	-0.095	Yaw Set Point:	-0.069	X_WP:	0.000	Y_WP:	0.000	Y_WP:	1.000	X:	-0.005	Y:	0.047	Z:	0.211	yaw:	3.944	yaw rate:	83.037	Roll:	-1.931	Pitch:	6.085	Yaw:	-10.759	Thrust:	73.616
