Time:	0.051	Roll Set Point:	-0.038	Pitch Set Point:	-0.014	Yaw Set Point:	-0.025	X_WP:	0.000	Y_WP:	0.000	Y_WP:	0.500	X:	0.019	Y:	0.007	Z:	0.052	yaw:	1.416	yaw rate:	-2.464	Roll:	0.550	Pitch:	0.194	Yaw:	1.977	Thrust:	24.658
Time:	0.072	Roll Set Point:	-0.038	Pitch Set Point:	-0.014	Yaw Set Point:	-0.024	X_WP:	0.000	Y_WP:	0.000	Y_WP:	0.500	X:	0.019	Y:	0.007	Z:	0.052	yaw:	1.399	yaw rate:	1.639	Roll:	0.546	Pitch:	0.204	Yaw:	1.757	Thrust:	25.729
Time:	0.091	Roll Set Point:	-0.038	Pitch Set Point:	-0.014	Yaw Set Point:	-0.019	X_WP:	0.000	Y_WP:	0.000	Y_WP:	0.500	X:	0.019	Y:	0.007	Z:	0.052	yaw:	1.115	yaw rate:	28.418	Roll:	0.440	Pitch:	0.336	Yaw:	-2.435	Thrust:	26.788
Time:	0.111	Roll Set Point:	-0.038	Pitch Set Point:	-0.014	Yaw Set Point:	-0.036	X_WP:	0.000	Y_WP:	0.000	Y_WP:	0.500	X:	0.019	Y:	0.007	Z:	0.052	yaw:	2.084	yaw rate:	-96.865	Roll:	0.690	Pitch:	-0.122	Yaw:	15.251	Thrust:	27.020
Time:	0.130	Roll Set Point:	-0.038	Pitch Set Point:	-0.014	Yaw Set Point:	-0.024	X_WP:	0.000	Y_WP:	0.000	Y_WP:	0.500	X:	0.019	Y:	0.007	Z:	0.052	yaw:	1.356	yaw rate:	72.817	Roll:	0.411	Pitch:	0.516	Yaw:	-8.036	Thrust:	28.882
Time:	0.152	Roll Set Point:	-0.038	Pitch Set Point:	-0.013	Yaw Set Point:	-0.050	X_WP:	0.000	Y_WP:	0.000	Y_WP:	0.500	X:	0.019	Y:	0.007	Z:	0.052	yaw:	2.838	yaw rate:	-148.263	Roll:	0.926	Pitch:	-0.564	Yaw:	23.365	Thrust:	30.516
Time:	0.174	Roll Set Point:	-0.038	Pitch Set Point:	-0.014	Yaw Set Point:	-0.026	X_WP:	0.000	Y_WP:	0.000	Y_WP:	0.500	X:	0.019	Y:	0.007	Z:	0.052	yaw:	1.492	yaw rate:	134.661	Roll:	0.326	Pitch:	0.653	Yaw:	-12.853	Thrust:	32.228
Time:	0.191	Roll Set Point:	-0.038	Pitch Set Point:	-0.013	Yaw Set Point:	-0.037	X_WP:	0.000	Y_WP:	0.000	Y_WP:	0.500	X:	0.019	Y:	0.007	Z:	0.052	yaw:	2.137	yaw rate:	-64.536	Roll:	0.707	Pitch:	-0.008	Yaw:	13.374	Thrust:	30.186
Time:	0.210	Roll Set Point:	-0.038	Pitch Set Point:	-0.014	Yaw Set Point:	-0.029	X_WP:	0.000	Y_WP:	0.000	Y_WP:	0.500	X:	0.019	Y:	0.007	Z:	0.052	yaw:	1.643	yaw rate:	49.408	Roll:	0.340	Pitch:	0.379	Yaw:	-3.990	Thrust:	33.256
Time:	0.230	Roll Set Point:	-0.038	Pitch Set Point:	-0.014	Yaw Set Point:	-0.032	X_WP:	0.000	Y_WP:	0.000	Y_WP:	0.500	X:	0.019	Y:	0.007	Z:	0.052	yaw:	1.830	yaw rate:	-18.684	Roll:	0.600	Pitch:	0.090	Yaw:	5.193	Thrust:	33.968
Time:	0.250	Roll Set Point:	-0.038	Pitch Set Point:	-0.014	Yaw Set Point:	-0.028	X_WP:	0.000	Y_WP:	0.000	Y_WP:	0.500	X:	0.019	Y:	0.007	Z:	0.052	yaw:	1.620	yaw rate:	20.986	Roll:	0.566	Pitch:	0.310	Yaw:	-0.298	Thrust:	35.988
Time:	0.273	Roll Set Point:	-0.038	Pitch Set Point:	-0.014	Yaw Set Point:	-0.034	X_WP:	0.000	Y_WP:	0.000	Y_WP:	0.500	X:	0.019	Y:	0.008	Z:	0.052	yaw:	1.921	yaw rate:	-30.090	Roll:	0.504	Pitch:	0.404	Yaw:	6.308	Thrust:	37.143
Time:	0.290	Roll Set Point:	-0.038	Pitch Set Point:	-0.014	Yaw Set Point:	-0.039	X_WP:	0.000	Y_WP:	0.000	Y_WP:	0.500	X:	0.019	Y:	0.007	Z:	0.052	yaw:	2.238	yaw rate:	-31.688	Roll:	0.730	Pitch:	-0.281	Yaw:	7.995	Thrust:	36.928
Time:	0.310	Roll Set Point:	-0.038	Pitch Set Point:	-0.013	Yaw Set Point:	-0.039	X_WP:	0.000	Y_WP:	0.000	Y_WP:	0.500	X:	0.019	Y:	0.007	Z:	0.052	yaw:	2.247	yaw rate:	-0.878	Roll:	0.733	Pitch:	-0.091	Yaw:	3.413	Thrust:	38.730
Time:	0.331	Roll Set Point:	-0.038	Pitch Set Point:	-0.014	Yaw Set Point:	-0.046	X_WP:	0.000	Y_WP:	0.000	Y_WP:	0.500	X:	0.019	Y:	0.007	Z:	0.052	yaw:	2.633	yaw rate:	-38.596	Roll:	0.364	Pitch:	0.564	Yaw:	8.710	Thrust:	39.489
Time:	0.351	Roll Set Point:	-0.038	Pitch Set Point:	-0.013	Yaw Set Point:	-0.046	X_WP:	0.000	Y_WP:	0.000	Y_WP:	0.500	X:	0.019	Y:	0.007	Z:	0.052	yaw:	2.640	yaw rate:	-0.791	Roll:	0.813	Pitch:	-0.172	Yaw:	3.985	Thrust:	41.508
Time:	0.376	Roll Set Point:	-0.039	Pitch Set Point:	-0.013	Yaw Set Point:	-0.048	X_WP:	0.000	Y_WP:	0.000	Y_WP:	0.500	X:	0.019	Y:	0.007	Z:	0.052	yaw:	2.762	yaw rate:	-12.136	Roll:	0.660	Pitch:	0.150	Yaw:	5.417	Thrust:	45.244
Time:	0.390	Roll Set Point:	-0.038	Pitch Set Point:	-0.014	Yaw Set Point:	-0.052	X_WP:	0.000	Y_WP:	0.000	Y_WP:	0.500	X:	0.019	Y:	0.007	Z:	0.052	yaw:	2.966	yaw rate:	-20.436	Roll:	0.522	Pitch:	0.607	Yaw:	7.994	Thrust:	37.337
Time:	0.411	Roll Set Point:	-0.039	Pitch Set Point:	-0.013	Yaw Set Point:	-0.044	X_WP:	0.000	Y_WP:	0.000	Y_WP:	0.500	X:	0.019	Y:	0.007	Z:	0.052	yaw:	2.504	yaw rate:	46.235	Roll:	0.916	Pitch:	-0.159	Yaw:	-2.158	Thrust:	44.471
Time:	0.430	Roll Set Point:	-0.040	Pitch Set Point:	-0.013	Yaw Set Point:	-0.050	X_WP:	0.000	Y_WP:	0.000	Y_WP:	0.500	X:	0.020	Y:	0.007	Z:	0.052	yaw:	2.844	yaw rate:	-34.027	Roll:	0.851	Pitch:	-0.035	Yaw:	8.774	Thrust:	45.398
Time:	0.450	Roll Set Point:	-0.040	Pitch Set Point:	-0.013	Yaw Set Point:	-0.050	X_WP:	0.000	Y_WP:	0.000	Y_WP:	0.500	X:	0.020	Y:	0.007	Z:	0.052	yaw:	2.839	yaw rate:	0.554	Roll:	0.893	Pitch:	0.187	Yaw:	4.173	Thrust:	45.183
Time:	0.473	Roll Set Point:	-0.041	Pitch Set Point:	-0.013	Yaw Set Point:	-0.045	X_WP:	0.000	Y_WP:	0.000	Y_WP:	0.500	X:	0.020	Y:	0.007	Z:	0.052	yaw:	2.601	yaw rate:	23.769	Roll:	0.794	Pitch:	0.306	Yaw:	1.302	Thrust:	50.518
Time:	0.493	Roll Set Point:	-0.041	Pitch Set Point:	-0.012	Yaw Set Point:	-0.046	X_WP:	0.000	Y_WP:	0.000	Y_WP:	0.500	X:	0.020	Y:	0.007	Z:	0.052	yaw:	2.617	yaw rate:	-1.585	Roll:	0.679	Pitch:	-0.038	Yaw:	4.194	Thrust:	49.016
Time:	0.511	Roll Set Point:	-0.041	Pitch Set Point:	-0.012	Yaw Set Point:	-0.047	X_WP:	0.000	Y_WP:	0.000	Y_WP:	0.500	X:	0.021	Y:	0.007	Z:	0.052	yaw:	2.688	yaw rate:	-7.159	Roll:	0.741	Pitch:	-0.019	Yaw:	5.126	Thrust:	46.636
Time:	0.530	Roll Set Point:	-0.042	Pitch Set Point:	-0.011	Yaw Set Point:	-0.068	X_WP:	0.000	Y_WP:	0.000	Y_WP:	0.500	X:	0.021	Y:	0.006	Z:	0.052	yaw:	3.872	yaw rate:	-118.334	Roll:	1.017	Pitch:	-0.621	Yaw:	21.954	Thrust:	49.534
Time:	0.551	Roll Set Point:	-0.042	Pitch Set Point:	-0.011	Yaw Set Point:	-0.060	X_WP:	0.000	Y_WP:	0.000	Y_WP:	0.500	X:	0.021	Y:	0.006	Z:	0.052	yaw:	3.416	yaw rate:	45.574	Roll:	0.586	Pitch:	0.249	Yaw:	-0.602	Thrust:	52.334
Time:	0.572	Roll Set Point:	-0.042	Pitch Set Point:	-0.011	Yaw Set Point:	-0.046	X_WP:	0.000	Y_WP:	0.000	Y_WP:	0.500	X:	0.021	Y:	0.006	Z:	0.052	yaw:	2.636	yaw rate:	78.022	Roll:	0.460	Pitch:	0.342	Yaw:	-5.275	Thrust:	55.114
Time:	0.591	Roll Set Point:	-0.042	Pitch Set Point:	-0.011	Yaw Set Point:	-0.046	X_WP:	0.000	Y_WP:	0.000	Y_WP:	0.500	X:	0.021	Y:	0.006	Z:	0.052	yaw:	2.649	yaw rate:	-1.323	Roll:	0.664	Pitch:	0.197	Yaw:	4.289	Thrust:	51.339
Time:	0.611	Roll Set Point:	-0.041	Pitch Set Point:	-0.012	Yaw Set Point:	-0.049	X_WP:	0.000	Y_WP:	0.000	Y_WP:	0.500	X:	0.021	Y:	0.006	Z:	0.052	yaw:	2.824	yaw rate:	-17.535	Roll:	0.497	Pitch:	0.439	Yaw:	6.686	Thrust:	54.570
Time:	0.630	Roll Set Point:	-0.042	Pitch Set Point:	-0.012	Yaw Set Point:	-0.050	X_WP:	0.000	Y_WP:	0.000	Y_WP:	0.500	X:	0.021	Y:	0.007	Z:	0.052	yaw:	2.890	yaw rate:	-6.566	Roll:	0.709	Pitch:	0.284	Yaw:	5.396	Thrust:	54.112
Time:	0.651	Roll Set Point:	-0.042	Pitch Set Point:	-0.012	Yaw Set Point:	-0.066	X_WP:	0.000	Y_WP:	0.000	Y_WP:	0.500	X:	0.021	Y:	0.006	Z:	0.052	yaw:	3.794	yaw rate:	-90.377	Roll:	0.797	Pitch:	-0.185	Yaw:	16.881	Thrust:	58.719
Time:	0.673	Roll Set Point:	-0.042	Pitch Set Point:	-0.012	Yaw Set Point:	-0.057	X_WP:	0.000	Y_WP:	0.000	Y_WP:	0.500	X:	0.021	Y:	0.007	Z:	0.052	yaw:	3.252	yaw rate:	54.224	Roll:	0.508	Pitch:	0.487	Yaw:	-1.694	Thrust:	59.235
Time:	0.690	Roll Set Point:	-0.043	Pitch Set Point:	-0.012	Yaw Set Point:	-0.065	X_WP:	0.000	Y_WP:	0.000	Y_WP:	0.500	X:	0.021	Y:	0.007	Z:	0.053	yaw:	3.708	yaw rate:	-45.651	Roll:	1.139	Pitch:	-0.093	Yaw:	12.462	Thrust:	54.580
Time:	0.711	Roll Set Point:	-0.042	Pitch Set Point:	-0.011	Yaw Set Point:	-0.066	X_WP:	0.000	Y_WP:	0.000	Y_WP:	0.500	X:	0.021	Y:	0.006	Z:	0.053	yaw:	3.755	yaw rate:	-4.723	Roll:	0.591	Pitch:	-0.112	Yaw:	6.429	Thrust:	60.820
Time:	0.731	Roll Set Point:	-0.041	Pitch Set Point:	-0.012	Yaw Set Point:	-0.051	X_WP:	0.000	Y_WP:	0.000	Y_WP:	0.500	X:	0.020	Y:	0.007	Z:	0.055	yaw:	2.938	yaw rate:	81.718	Roll:	0.047	Pitch:	0.664	Yaw:	-6.455	Thrust:	56.131
Time:	0.751	Roll Set Point:	-0.041	Pitch Set Point:	-0.012	Yaw Set Point:	-0.065	X_WP:	0.000	Y_WP:	0.000	Y_WP:	0.500	X:	0.020	Y:	0.007	Z:	0.056	yaw:	3.712	yaw rate:	-77.410	Roll:	0.436	Pitch:	0.094	Yaw:	15.667	Thrust:	59.424
Time:	0.773	Roll Set Point:	-0.040	Pitch Set Point:	-0.012	Yaw Set Point:	-0.035	X_WP:	0.000	Y_WP:	0.000	Y_WP:	0.500	X:	0.020	Y:	0.006	Z:	0.058	yaw:	1.985	yaw rate:	172.756	Roll:	0.319	Pitch:	0.280	Yaw:	-17.342	Thrust:	62.513
Time:	0.791	Roll Set Point:	-0.040	Pitch Set Point:	-0.011	Yaw Set Point:	-0.053	X_WP:	0.000	Y_WP:	0.000	Y_WP:	0.500	X:	0.020	Y:	0.006	Z:	0.061	yaw:	3.063	yaw rate:	-107.793	Roll:	0.470	Pitch:	-0.278	Yaw:	20.500	Thrust:	52.767
Time:	0.811	Roll Set Point:	-0.039	Pitch Set Point:	-0.011	Yaw Set Point:	-0.037	X_WP:	0.000	Y_WP:	0.000	Y_WP:	0.500	X:	0.019	Y:	0.006	Z:	0.064	yaw:	2.149	yaw rate:	91.400	Roll:	0.180	Pitch:	0.037	Yaw:	-8.250	Thrust:	56.761
Time:	0.830	Roll Set Point:	-0.038	Pitch Set Point:	-0.009	Yaw Set Point:	-0.011	X_WP:	0.000	Y_WP:	0.000	Y_WP:	0.500	X:	0.019	Y:	0.005	Z:	0.068	yaw:	0.641	yaw rate:	150.706	Roll:	0.300	Pitch:	-0.099	Yaw:	-18.540	Thrust:	58.251
Time:	0.851	Roll Set Point:	-0.037	Pitch Set Point:	-0.008	Yaw Set Point:	-0.022	X_WP:	0.000	Y_WP:	0.000	Y_WP:	0.500	X:	0.019	Y:	0.004	Z:	0.072	yaw:	1.278	yaw rate:	-63.684	Roll:	0.222	Pitch:	-0.388	Yaw:	10.695	Thrust:	57.659
Time:	0.873	Roll Set Point:	-0.036	Pitch Set Point:	-0.007	Yaw Set Point:	-0.006	X_WP:	0.000	Y_WP:	0.000	Y_WP:	0.500	X:	0.018	Y:	0.003	Z:	0.076	yaw:	0.366	yaw rate:	91.232	Roll:	0.193	Pitch:	-0.406	Yaw:	-9.514	Thrust:	62.799
Time:	0.890	Roll Set Point:	-0.036	Pitch Set Point:	-0.004	Yaw Set Point:	0.004	X_WP:	0.000	Y_WP:	0.000	Y_WP:	0.500	X:	0.018	Y:	0.002	Z:	0.081	yaw:	-0.224	yaw rate:	59.047	Roll:	0.328	Pitch:	-0.983	Yaw:	-8.503	Thrust:	51.025
Time:	0.911	Roll Set Point:	-0.035	Pitch Set Point:	-0.002	Yaw Set Point:	0.003	X_WP:	0.000	Y_WP:	0.000	Y_WP:	0.500	X:	0.018	Y:	0.001	Z:	0.086	yaw:	-0.168	yaw rate:	-5.666	Roll:	0.308	Pitch:	-0.789	Yaw:	1.213	Thrust:	59.749
Time:	0.930	Roll Set Point:	-0.034	Pitch Set Point:	0.000	Yaw Set Point:	0.007	X_WP:	0.000	Y_WP:	0.000	Y_WP:	0.500	X:	0.017	Y:	-0.000	Z:	0.091	yaw:	-0.411	yaw rate:	24.358	Roll:	0.118	Pitch:	-1.121	Yaw:	-3.140	Thrust:	56.521
Time:	0.950	Roll Set Point:	-0.034	Pitch Set Point:	0.003	Yaw Set Point:	0.013	X_WP:	0.000	Y_WP:	0.000	Y_WP:	0.500	X:	0.017	Y:	-0.002	Z:	0.096	yaw:	-0.729	yaw rate:	31.747	Roll:	0.363	Pitch:	-1.207	Yaw:	-4.520	Thrust:	56.945
Time:	0.973	Roll Set Point:	-0.033	Pitch Set Point:	0.006	Yaw Set Point:	0.018	X_WP:	0.000	Y_WP:	0.000	Y_WP:	0.500	X:	0.016	Y:	-0.003	Z:	0.102	yaw:	-1.033	yaw rate:	30.414	Roll:	0.062	Pitch:	-0.974	Yaw:	-4.090	Thrust:	65.155
Time:	0.990	Roll Set Point:	-0.032	Pitch Set Point:	0.009	Yaw Set Point:	0.034	X_WP:	0.000	Y_WP:	0.000	Y_WP:	0.500	X:	0.016	Y:	-0.005	Z:	0.108	yaw:	-1.971	yaw rate:	93.752	Roll:	0.252	Pitch:	-1.380	Yaw:	-16.845	Thrust:	49.241
Time:	1.012	Roll Set Point:	-0.031	Pitch Set Point:	0.012	Yaw Set Point:	0.026	X_WP:	0.000	Y_WP:	0.000	Y_WP:	0.500	X:	0.015	Y:	-0.006	Z:	0.114	yaw:	-1.467	yaw rate:	-50.372	Roll:	0.165	Pitch:	-1.643	Yaw:	4.737	Thrust:	63.807
Time:	1.030	Roll Set Point:	-0.031	Pitch Set Point:	0.015	Yaw Set Point:	0.023	X_WP:	0.000	Y_WP:	0.000	Y_WP:	0.500	X:	0.015	Y:	-0.008	Z:	0.120	yaw:	-1.297	yaw rate:	-16.930	Roll:	0.277	Pitch:	-1.746	Yaw:	1.216	Thrust:	53.848
Time:	1.050	Roll Set Point:	-0.030	Pitch Set Point:	0.019	Yaw Set Point:	0.026	X_WP:	0.000	Y_WP:	0.000	Y_WP:	0.500	X:	0.015	Y:	-0.010	Z:	0.127	yaw:	-1.489	yaw rate:	19.200	Roll:	0.110	Pitch:	-1.752	Yaw:	-3.930	Thrust:	58.776
Time:	1.072	Roll Set Point:	-0.029	Pitch Set Point:	0.023	Yaw Set Point:	0.029	X_WP:	0.000	Y_WP:	0.000	Y_WP:	0.500	X:	0.014	Y:	-0.012	Z:	0.132	yaw:	-1.687	yaw rate:	19.761	Roll:	0.329	Pitch:	-1.995	Yaw:	-4.009	Thrust:	66.957
Time:	1.091	Roll Set Point:	-0.029	Pitch Set Point:	0.027	Yaw Set Point:	0.037	X_WP:	0.000	Y_WP:	0.000	Y_WP:	0.500	X:	0.014	Y:	-0.014	Z:	0.139	yaw:	-2.096	yaw rate:	40.923	Roll:	0.264	Pitch:	-1.931	Yaw:	-8.301	Thrust:	53.149
Time:	1.111	Roll Set Point:	-0.028	Pitch Set Point:	0.031	Yaw Set Point:	0.039	X_WP:	0.000	Y_WP:	0.000	Y_WP:	0.500	X:	0.014	Y:	-0.016	Z:	0.145	yaw:	-2.213	yaw rate:	11.713	Roll:	0.362	Pitch:	-2.283	Yaw:	-3.968	Thrust:	62.478
Time:	1.130	Roll Set Point:	-0.027	Pitch Set Point:	0.035	Yaw Set Point:	0.032	X_WP:	0.000	Y_WP:	0.000	Y_WP:	0.500	X:	0.013	Y:	-0.018	Z:	0.151	yaw:	-1.850	yaw rate:	-36.309	Roll:	0.086	Pitch:	-2.315	Yaw:	2.883	Thrust:	59.956
Time:	1.152	Roll Set Point:	-0.027	Pitch Set Point:	0.039	Yaw Set Point:	0.024	X_WP:	0.000	Y_WP:	0.000	Y_WP:	0.500	X:	0.013	Y:	-0.020	Z:	0.157	yaw:	-1.366	yaw rate:	-48.455	Roll:	0.139	Pitch:	-2.085	Yaw:	4.463	Thrust:	68.170
Time:	1.173	Roll Set Point:	-0.026	Pitch Set Point:	0.043	Yaw Set Point:	0.024	X_WP:	0.000	Y_WP:	0.000	Y_WP:	0.500	X:	0.013	Y:	-0.022	Z:	0.163	yaw:	-1.398	yaw rate:	3.192	Roll:	0.217	Pitch:	-2.426	Yaw:	-1.752	Thrust:	66.455
Time:	1.190	Roll Set Point:	-0.026	Pitch Set Point:	0.048	Yaw Set Point:	0.024	X_WP:	0.000	Y_WP:	0.000	Y_WP:	0.500	X:	0.012	Y:	-0.024	Z:	0.169	yaw:	-1.396	yaw rate:	-0.169	Roll:	0.148	Pitch:	-2.751	Yaw:	-1.422	Thrust:	53.275
Time:	1.211	Roll Set Point:	-0.025	Pitch Set Point:	0.051	Yaw Set Point:	0.028	X_WP:	0.000	Y_WP:	0.000	Y_WP:	0.500	X:	0.012	Y:	-0.026	Z:	0.176	yaw:	-1.593	yaw rate:	19.723	Roll:	0.259	Pitch:	-2.254	Yaw:	-4.154	Thrust:	62.214
Time:	1.231	Roll Set Point:	-0.024	Pitch Set Point:	0.056	Yaw Set Point:	0.023	X_WP:	0.000	Y_WP:	0.000	Y_WP:	0.500	X:	0.012	Y:	-0.028	Z:	0.183	yaw:	-1.290	yaw rate:	-30.356	Roll:	0.137	Pitch:	-2.724	Yaw:	2.802	Thrust:	62.021
Time:	1.253	Roll Set Point:	-0.024	Pitch Set Point:	0.060	Yaw Set Point:	0.017	X_WP:	0.000	Y_WP:	0.000	Y_WP:	0.500	X:	0.012	Y:	-0.030	Z:	0.191	yaw:	-0.972	yaw rate:	-31.820	Roll:	0.208	Pitch:	-2.306	Yaw:	2.960	Thrust:	70.567
Time:	1.273	Roll Set Point:	-0.023	Pitch Set Point:	0.063	Yaw Set Point:	0.031	X_WP:	0.000	Y_WP:	0.000	Y_WP:	0.500	X:	0.011	Y:	-0.032	Z:	0.199	yaw:	-1.750	yaw rate:	77.802	Roll:	0.350	Pitch:	-2.346	Yaw:	-12.507	Thrust:	56.764
Time:	1.290	Roll Set Point:	-0.023	Pitch Set Point:	0.067	Yaw Set Point:	0.028	X_WP:	0.000	Y_WP:	0.000	Y_WP:	0.500	X:	0.011	Y:	-0.034	Z:	0.207	yaw:	-1.586	yaw rate:	-16.368	Roll:	0.215	Pitch:	-3.008	Yaw:	0.690	Thrust:	51.030
Time:	1.318	Roll Set Point:	-0.022	Pitch Set Point:	0.070	Yaw Set Point:	0.026	X_WP:	0.000	Y_WP:	0.000	Y_WP:	0.500	X:	0.011	Y:	-0.035	Z:	0.215	yaw:	-1.471	yaw rate:	-11.515	Roll:	0.217	Pitch:	-2.012	Yaw:	-0.259	Thrust:	91.450
Time:	1.340	Roll Set Point:	-0.022	Pitch Set Point:	0.074	Yaw Set Point:	0.019	X_WP:	0.000	Y_WP:	0.000	Y_WP:	0.500	X:	0.011	Y:	-0.037	Z:	0.224	yaw:	-1.086	yaw rate:	-38.509	Roll:	0.176	Pitch:	-2.454	Yaw:	3.681	Thrust:	66.039
Time:	1.352	Roll Set Point:	-0.021	Pitch Set Point:	0.077	Yaw Set Point:	0.020	X_WP:	0.000	Y_WP:	0.000	Y_WP:	0.500	X:	0.010	Y:	-0.039	Z:	0.234	yaw:	-1.123	yaw rate:	3.767	Roll:	-0.008	Pitch:	-3.472	Yaw:	-2.126	Thrust:	15.275
Time:	1.379	Roll Set Point:	-0.021	Pitch Set Point:	0.080	Yaw Set Point:	0.026	X_WP:	0.000	Y_WP:	0.000	Y_WP:	0.500	X:	0.010	Y:	-0.040	Z:	0.243	yaw:	-1.512	yaw rate:	38.874	Roll:	0.414	Pitch:	-1.948	Yaw:	-5.136	Thrust:	88.252
Time:	1.398	Roll Set Point:	-0.021	Pitch Set Point:	0.083	Yaw Set Point:	0.024	X_WP:	0.000	Y_WP:	0.000	Y_WP:	0.500	X:	0.010	Y:	-0.041	Z:	0.253	yaw:	-1.353	yaw rate:	-15.918	Roll:	0.078	Pitch:	-2.544	Yaw:	0.781	Thrust:	50.896
Time:	1.412	Roll Set Point:	-0.020	Pitch Set Point:	0.085	Yaw Set Point:	0.022	X_WP:	0.000	Y_WP:	0.000	Y_WP:	0.500	X:	0.010	Y:	-0.043	Z:	0.264	yaw:	-1.232	yaw rate:	-12.035	Roll:	0.025	Pitch:	-2.737	Yaw:	0.846	Thrust:	22.614
Time:	1.440	Roll Set Point:	-0.020	Pitch Set Point:	0.088	Yaw Set Point:	0.023	X_WP:	0.000	Y_WP:	0.000	Y_WP:	0.500	X:	0.009	Y:	-0.044	Z:	0.275	yaw:	-1.302	yaw rate:	6.958	Roll:	0.300	Pitch:	-2.026	Yaw:	-1.818	Thrust:	90.295
Time:	1.461	Roll Set Point:	-0.019	Pitch Set Point:	0.090	Yaw Set Point:	0.021	X_WP:	0.000	Y_WP:	0.000	Y_WP:	0.500	X:	0.009	Y:	-0.045	Z:	0.288	yaw:	-1.195	yaw rate:	-10.680	Roll:	0.077	Pitch:	-2.211	Yaw:	0.152	Thrust:	54.389
Time:	1.481	Roll Set Point:	-0.018	Pitch Set Point:	0.092	Yaw Set Point:	0.009	X_WP:	0.000	Y_WP:	0.000	Y_WP:	0.500	X:	0.009	Y:	-0.046	Z:	0.300	yaw:	-0.532	yaw rate:	-66.320	Roll:	-0.290	Pitch:	-2.240	Yaw:	8.542	Thrust:	48.341
Time:	1.498	Roll Set Point:	-0.018	Pitch Set Point:	0.093	Yaw Set Point:	0.023	X_WP:	0.000	Y_WP:	0.000	Y_WP:	0.500	X:	0.009	Y:	-0.047	Z:	0.313	yaw:	-1.339	yaw rate:	80.661	Roll:	0.728	Pitch:	-2.190	Yaw:	-13.537	Thrust:	36.770
Time:	1.520	Roll Set Point:	-0.018	Pitch Set Point:	0.095	Yaw Set Point:	0.021	X_WP:	0.000	Y_WP:	0.000	Y_WP:	0.500	X:	0.008	Y:	-0.047	Z:	0.327	yaw:	-1.216	yaw rate:	-12.249	Roll:	0.093	Pitch:	-1.928	Yaw:	0.227	Thrust:	58.185
Time:	1.543	Roll Set Point:	-0.017	Pitch Set Point:	0.096	Yaw Set Point:	0.018	X_WP:	0.000	Y_WP:	0.000	Y_WP:	0.500	X:	0.008	Y:	-0.048	Z:	0.341	yaw:	-1.038	yaw rate:	-17.807	Roll:	0.113	Pitch:	-1.918	Yaw:	1.117	Thrust:	56.415
Time:	1.558	Roll Set Point:	-0.016	Pitch Set Point:	0.098	Yaw Set Point:	0.013	X_WP:	0.000	Y_WP:	0.000	Y_WP:	0.500	X:	0.008	Y:	-0.049	Z:	0.355	yaw:	-0.722	yaw rate:	-31.608	Roll:	-0.289	Pitch:	-2.322	Yaw:	4.481	Thrust:	24.323
Time:	1.579	Roll Set Point:	-0.016	Pitch Set Point:	0.098	Yaw Set Point:	0.025	X_WP:	0.000	Y_WP:	0.000	Y_WP:	0.500	X:	0.008	Y:	-0.049	Z:	0.370	yaw:	-1.405	yaw rate:	68.306	Roll:	0.521	Pitch:	-1.592	Yaw:	-10.224	Thrust:	47.462
Time:	1.603	Roll Set Point:	-0.015	Pitch Set Point:	0.099	Yaw Set Point:	0.011	X_WP:	0.000	Y_WP:	0.000	Y_WP:	0.500	X:	0.007	Y:	-0.049	Z:	0.384	yaw:	-0.619	yaw rate:	-78.653	Roll:	-0.393	Pitch:	-1.773	Yaw:	8.162	Thrust:	60.012
Time:	1.621	Roll Set Point:	-0.015	Pitch Set Point:	0.099	Yaw Set Point:	0.014	X_WP:	0.000	Y_WP:	0.000	Y_WP:	0.500	X:	0.007	Y:	-0.050	Z:	0.398	yaw:	-0.804	yaw rate:	18.512	Roll:	0.201	Pitch:	-1.647	Yaw:	-3.538	Thrust:	37.615
Time:	1.641	Roll Set Point:	-0.015	Pitch Set Point:	0.100	Yaw Set Point:	0.002	X_WP:	0.000	Y_WP:	0.000	Y_WP:	0.500	X:	0.007	Y:	-0.050	Z:	0.411	yaw:	-0.096	yaw rate:	-70.780	Roll:	-0.054	Pitch:	-1.770	Yaw:	9.215	Thrust:	49.012
Time:	1.659	Roll Set Point:	-0.014	Pitch Set Point:	0.100	Yaw Set Point:	0.009	X_WP:	0.000	Y_WP:	0.000	Y_WP:	0.500	X:	0.007	Y:	-0.050	Z:	0.423	yaw:	-0.525	yaw rate:	42.889	Roll:	0.255	Pitch:	-1.479	Yaw:	-6.790	Thrust:	36.334
Time:	1.680	Roll Set Point:	-0.013	Pitch Set Point:	0.100	Yaw Set Point:	-0.006	X_WP:	0.000	Y_WP:	0.000	Y_WP:	0.500	X:	0.007	Y:	-0.050	Z:	0.434	yaw:	0.346	yaw rate:	-87.050	Roll:	-0.386	Pitch:	-1.623	Yaw:	11.692	Thrust:	54.959
Time:	1.691	Roll Set Point:	-0.013	Pitch Set Point:	0.100	Yaw Set Point:	-0.000	X_WP:	0.000	Y_WP:	0.000	Y_WP:	0.500	X:	0.007	Y:	-0.050	Z:	0.444	yaw:	0.006	yaw rate:	33.980	Roll:	0.367	Pitch:	-1.037	Yaw:	-7.845	Thrust:	0.023
Time:	1.713	Roll Set Point:	-0.013	Pitch Set Point:	0.098	Yaw Set Point:	0.027	X_WP:	0.000	Y_WP:	0.000	Y_WP:	0.500	X:	0.006	Y:	-0.049	Z:	0.453	yaw:	-1.544	yaw rate:	155.007	Roll:	0.768	Pitch:	-0.991	Yaw:	-20.088	Thrust:	64.096
Time:	1.741	Roll Set Point:	-0.013	Pitch Set Point:	0.099	Yaw Set Point:	0.007	X_WP:	0.000	Y_WP:	0.000	Y_WP:	0.500	X:	0.006	Y:	-0.049	Z:	0.461	yaw:	-0.380	yaw rate:	-116.447	Roll:	-0.087	Pitch:	-1.612	Yaw:	10.771	Thrust:	90.606
Time:	1.752	Roll Set Point:	-0.012	Pitch Set Point:	0.099	Yaw Set Point:	-0.013	X_WP:	0.000	Y_WP:	0.000	Y_WP:	0.500	X:	0.006	Y:	-0.049	Z:	0.467	yaw:	0.725	yaw rate:	-110.505	Roll:	-1.094	Pitch:	-1.406	Yaw:	28.677	Thrust:	13.250
Time:	1.774	Roll Set Point:	-0.013	Pitch Set Point:	0.098	Yaw Set Point:	0.016	X_WP:	0.000	Y_WP:	0.000	Y_WP:	0.500	X:	0.006	Y:	-0.049	Z:	0.472	yaw:	-0.929	yaw rate:	165.462	Roll:	0.961	Pitch:	-1.338	Yaw:	-20.228	Thrust:	72.698
Time:	1.792	Roll Set Point:	-0.012	Pitch Set Point:	0.097	Yaw Set Point:	0.002	X_WP:	0.000	Y_WP:	0.000	Y_WP:	0.500	X:	0.006	Y:	-0.048	Z:	0.475	yaw:	-0.097	yaw rate:	-83.216	Roll:	-0.337	Pitch:	-0.712	Yaw:	12.512	Thrust:	54.120
Time:	1.812	Roll Set Point:	-0.012	Pitch Set Point:	0.096	Yaw Set Point:	0.002	X_WP:	0.000	Y_WP:	0.000	Y_WP:	0.500	X:	0.006	Y:	-0.048	Z:	0.477	yaw:	-0.142	yaw rate:	4.515	Roll:	0.015	Pitch:	-1.083	Yaw:	-0.442	Thrust:	69.128
Time:	1.831	Roll Set Point:	-0.012	Pitch Set Point:	0.095	Yaw Set Point:	0.020	X_WP:	0.000	Y_WP:	0.000	Y_WP:	0.500	X:	0.005	Y:	-0.048	Z:	0.477	yaw:	-1.129	yaw rate:	98.698	Roll:	0.705	Pitch:	-1.014	Yaw:	-14.229	Thrust:	71.539
Time:	1.852	Roll Set Point:	-0.012	Pitch Set Point:	0.094	Yaw Set Point:	0.015	X_WP:	0.000	Y_WP:	0.000	Y_WP:	0.500	X:	0.005	Y:	-0.047	Z:	0.477	yaw:	-0.833	yaw rate:	-29.618	Roll:	0.034	Pitch:	-1.162	Yaw:	2.919	Thrust:	77.848
Time:	1.873	Roll Set Point:	-0.012	Pitch Set Point:	0.093	Yaw Set Point:	0.021	X_WP:	0.000	Y_WP:	0.000	Y_WP:	0.500	X:	0.005	Y:	-0.047	Z:	0.476	yaw:	-1.199	yaw rate:	36.637	Roll:	0.437	Pitch:	-0.995	Yaw:	-5.816	Thrust:	79.521
Time:	1.892	Roll Set Point:	-0.012	Pitch Set Point:	0.092	Yaw Set Point:	0.020	X_WP:	0.000	Y_WP:	0.000	Y_WP:	0.500	X:	0.006	Y:	-0.046	Z:	0.475	yaw:	-1.168	yaw rate:	-3.138	Roll:	0.336	Pitch:	-0.970	Yaw:	-0.867	Thrust:	69.759
Time:	1.914	Roll Set Point:	-0.012	Pitch Set Point:	0.091	Yaw Set Point:	0.026	X_WP:	0.000	Y_WP:	0.000	Y_WP:	0.500	X:	0.005	Y:	-0.045	Z:	0.474	yaw:	-1.487	yaw rate:	31.892	Roll:	0.418	Pitch:	-0.703	Yaw:	-5.583	Thrust:	80.699
Time:	1.930	Roll Set Point:	-0.013	Pitch Set Point:	0.089	Yaw Set Point:	0.027	X_WP:	0.000	Y_WP:	0.000	Y_WP:	0.500	X:	0.006	Y:	-0.045	Z:	0.474	yaw:	-1.546	yaw rate:	5.942	Roll:	0.487	Pitch:	-0.797	Yaw:	-2.819	Thrust:	63.899
Time:	1.951	Roll Set Point:	-0.013	Pitch Set Point:	0.088	Yaw Set Point:	0.028	X_WP:	0.000	Y_WP:	0.000	Y_WP:	0.500	X:	0.006	Y:	-0.044	Z:	0.475	yaw:	-1.610	yaw rate:	6.396	Roll:	0.541	Pitch:	-0.931	Yaw:	-2.709	Thrust:	75.961
Time:	1.974	Roll Set Point:	-0.013	Pitch Set Point:	0.088	Yaw Set Point:	0.024	X_WP:	0.000	Y_WP:	0.000	Y_WP:	0.500	X:	0.006	Y:	-0.044	Z:	0.477	yaw:	-1.400	yaw rate:	-21.074	Roll:	0.354	Pitch:	-1.187	Yaw:	0.801	Thrust:	78.157
Time:	1.991	Roll Set Point:	-0.014	Pitch Set Point:	0.087	Yaw Set Point:	0.029	X_WP:	0.000	Y_WP:	0.000	Y_WP:	0.500	X:	0.007	Y:	-0.043	Z:	0.480	yaw:	-1.656	yaw rate:	25.601	Roll:	0.764	Pitch:	-0.652	Yaw:	-5.991	Thrust:	57.413
Time:	2.012	Roll Set Point:	-0.015	Pitch Set Point:	0.085	Yaw Set Point:	0.038	X_WP:	0.000	Y_WP:	0.000	Y_WP:	0.500	X:	0.007	Y:	-0.043	Z:	0.484	yaw:	-2.156	yaw rate:	49.999	Roll:	0.796	Pitch:	-0.801	Yaw:	-8.925	Thrust:	68.566
Time:	2.036	Roll Set Point:	-0.016	Pitch Set Point:	0.084	Yaw Set Point:	0.029	X_WP:	0.000	Y_WP:	0.000	Y_WP:	0.500	X:	0.007	Y:	-0.042	Z:	0.489	yaw:	-1.667	yaw rate:	-48.837	Roll:	0.438	Pitch:	-0.997	Yaw:	3.309	Thrust:	78.193
Time:	2.057	Roll Set Point:	-0.017	Pitch Set Point:	0.083	Yaw Set Point:	0.031	X_WP:	0.000	Y_WP:	0.000	Y_WP:	0.500	X:	0.008	Y:	-0.042	Z:	0.495	yaw:	-1.787	yaw rate:	11.976	Roll:	0.749	Pitch:	-0.868	Yaw:	-3.791	Thrust:	58.782
Time:	2.076	Roll Set Point:	-0.018	Pitch Set Point:	0.083	Yaw Set Point:	0.033	X_WP:	0.000	Y_WP:	0.000	Y_WP:	0.500	X:	0.008	Y:	-0.041	Z:	0.503	yaw:	-1.919	yaw rate:	13.239	Roll:	0.832	Pitch:	-0.938	Yaw:	-4.206	Thrust:	52.041
Time:	2.090	Roll Set Point:	-0.018	Pitch Set Point:	0.082	Yaw Set Point:	0.030	X_WP:	0.000	Y_WP:	0.000	Y_WP:	0.500	X:	0.009	Y:	-0.041	Z:	0.511	yaw:	-1.744	yaw rate:	-17.554	Roll:	0.606	Pitch:	-0.790	Yaw:	1.005	Thrust:	25.819
Time:	2.116	Roll Set Point:	-0.020	Pitch Set Point:	0.081	Yaw Set Point:	0.037	X_WP:	0.000	Y_WP:	0.000	Y_WP:	0.500	X:	0.009	Y:	-0.041	Z:	0.521	yaw:	-2.142	yaw rate:	39.812	Roll:	0.904	Pitch:	-0.960	Yaw:	-6.702	Thrust:	74.637
Time:	2.131	Roll Set Point:	-0.020	Pitch Set Point:	0.081	Yaw Set Point:	0.028	X_WP:	0.000	Y_WP:	0.000	Y_WP:	0.500	X:	0.009	Y:	-0.040	Z:	0.531	yaw:	-1.602	yaw rate:	-53.998	Roll:	0.389	Pitch:	-1.035	Yaw:	7.346	Thrust:	24.849
Time:	2.151	Roll Set Point:	-0.021	Pitch Set Point:	0.080	Yaw Set Point:	0.028	X_WP:	0.000	Y_WP:	0.000	Y_WP:	0.500	X:	0.010	Y:	-0.040	Z:	0.542	yaw:	-1.581	yaw rate:	-2.095	Roll:	0.746	Pitch:	-0.905	Yaw:	-1.740	Thrust:	45.262
Time:	2.176	Roll Set Point:	-0.022	Pitch Set Point:	0.079	Yaw Set Point:	0.030	X_WP:	0.000	Y_WP:	0.000	Y_WP:	0.500	X:	0.010	Y:	-0.040	Z:	0.553	yaw:	-1.715	yaw rate:	13.426	Roll:	0.814	Pitch:	-0.952	Yaw:	-3.643	Thrust:	62.463
Time:	2.191	Roll Set Point:	-0.023	Pitch Set Point:	0.078	Yaw Set Point:	0.029	X_WP:	0.000	Y_WP:	0.000	Y_WP:	0.500	X:	0.011	Y:	-0.039	Z:	0.565	yaw:	-1.673	yaw rate:	-4.249	Roll:	0.750	Pitch:	-0.901	Yaw:	-1.489	Thrust:	20.876
Time:	2.214	Roll Set Point:	-0.023	Pitch Set Point:	0.078	Yaw Set Point:	0.022	X_WP:	0.000	Y_WP:	0.000	Y_WP:	0.500	X:	0.011	Y:	-0.039	Z:	0.575	yaw:	-1.243	yaw rate:	-43.028	Roll:	0.536	Pitch:	-1.154	Yaw:	3.322	Thrust:	58.230
Time:	2.230	Roll Set Point:	-0.024	Pitch Set Point:	0.077	Yaw Set Point:	0.030	X_WP:	0.000	Y_WP:	0.000	Y_WP:	0.500	X:	0.011	Y:	-0.039	Z:	0.586	yaw:	-1.693	yaw rate:	45.035	Roll:	1.097	Pitch:	-0.646	Yaw:	-9.441	Thrust:	24.766
Time:	2.251	Roll Set Point:	-0.025	Pitch Set Point:	0.076	Yaw Set Point:	0.027	X_WP:	0.000	Y_WP:	0.000	Y_WP:	0.500	X:	0.012	Y:	-0.038	Z:	0.596	yaw:	-1.566	yaw rate:	-12.677	Roll:	0.629	Pitch:	-0.916	Yaw:	-0.465	Thrust:	46.657
Time:	2.276	Roll Set Point:	-0.025	Pitch Set Point:	0.076	Yaw Set Point:	0.024	X_WP:	0.000	Y_WP:	0.000	Y_WP:	0.500	X:	0.012	Y:	-0.038	Z:	0.605	yaw:	-1.365	yaw rate:	-20.079	Roll:	0.590	Pitch:	-1.104	Yaw:	0.431	Thrust:	65.188
Time:	2.295	Roll Set Point:	-0.026	Pitch Set Point:	0.075	Yaw Set Point:	0.025	X_WP:	0.000	Y_WP:	0.000	Y_WP:	0.500	X:	0.012	Y:	-0.037	Z:	0.613	yaw:	-1.430	yaw rate:	6.482	Roll:	0.729	Pitch:	-0.646	Yaw:	-2.748	Thrust:	44.748
Time:	2.316	Roll Set Point:	-0.026	Pitch Set Point:	0.074	Yaw Set Point:	0.021	X_WP:	0.000	Y_WP:	0.000	Y_WP:	0.500	X:	0.013	Y:	-0.037	Z:	0.620	yaw:	-1.226	yaw rate:	-20.377	Roll:	0.723	Pitch:	-1.058	Yaw:	0.992	Thrust:	48.940
Time:	2.337	Roll Set Point:	-0.027	Pitch Set Point:	0.074	Yaw Set Point:	0.018	X_WP:	0.000	Y_WP:	0.000	Y_WP:	0.500	X:	0.013	Y:	-0.037	Z:	0.626	yaw:	-1.039	yaw rate:	-18.764	Roll:	0.680	Pitch:	-0.965	Yaw:	0.935	Thrust:	59.310
Time:	2.352	Roll Set Point:	-0.028	Pitch Set Point:	0.073	Yaw Set Point:	0.020	X_WP:	0.000	Y_WP:	0.000	Y_WP:	0.500	X:	0.013	Y:	-0.036	Z:	0.630	yaw:	-1.128	yaw rate:	8.915	Roll:	0.778	Pitch:	-0.522	Yaw:	-3.155	Thrust:	28.688
Time:	2.373	Roll Set Point:	-0.029	Pitch Set Point:	0.073	Yaw Set Point:	0.010	X_WP:	0.000	Y_WP:	0.000	Y_WP:	0.500	X:	0.014	Y:	-0.036	Z:	0.634	yaw:	-0.590	yaw rate:	-53.766	Roll:	0.841	Pitch:	-1.297	Yaw:	5.796	Thrust:	60.818
Time:	2.391	Roll Set Point:	-0.029	Pitch Set Point:	0.071	Yaw Set Point:	0.021	X_WP:	0.000	Y_WP:	0.000	Y_WP:	0.500	X:	0.014	Y:	-0.036	Z:	0.636	yaw:	-1.206	yaw rate:	61.611	Roll:	0.699	Pitch:	-0.274	Yaw:	-10.721	Thrust:	48.037
Time:	2.412	Roll Set Point:	-0.029	Pitch Set Point:	0.071	Yaw Set Point:	0.010	X_WP:	0.000	Y_WP:	0.000	Y_WP:	0.500	X:	0.014	Y:	-0.035	Z:	0.637	yaw:	-0.587	yaw rate:	-61.898	Roll:	0.459	Pitch:	-1.012	Yaw:	6.952	Thrust:	62.703
Time:	2.432	Roll Set Point:	-0.030	Pitch Set Point:	0.070	Yaw Set Point:	-0.015	X_WP:	0.000	Y_WP:	0.000	Y_WP:	0.500	X:	0.015	Y:	-0.035	Z:	0.638	yaw:	0.867	yaw rate:	-145.386	Roll:	0.465	Pitch:	-0.985	Yaw:	20.804	Thrust:	57.259
Time:	2.452	Roll Set Point:	-0.030	Pitch Set Point:	0.069	Yaw Set Point:	0.010	X_WP:	0.000	Y_WP:	0.000	Y_WP:	0.500	X:	0.015	Y:	-0.035	Z:	0.637	yaw:	-0.570	yaw rate:	143.655	Roll:	1.011	Pitch:	-0.532	Yaw:	-19.092	Thrust:	64.979
Time:	2.476	Roll Set Point:	-0.031	Pitch Set Point:	0.068	Yaw Set Point:	-0.006	X_WP:	0.000	Y_WP:	0.000	Y_WP:	0.500	X:	0.015	Y:	-0.034	Z:	0.636	yaw:	0.342	yaw rate:	-91.181	Roll:	0.592	Pitch:	-0.951	Yaw:	10.456	Thrust:	77.406
Time:	2.491	Roll Set Point:	-0.032	Pitch Set Point:	0.068	Yaw Set Point:	-0.002	X_WP:	0.000	Y_WP:	0.000	Y_WP:	0.500	X:	0.016	Y:	-0.034	Z:	0.634	yaw:	0.110	yaw rate:	23.227	Roll:	1.388	Pitch:	-0.708	Yaw:	-3.879	Thrust:	46.385
Time:	2.515	Roll Set Point:	-0.033	Pitch Set Point:	0.066	Yaw Set Point:	0.006	X_WP:	0.000	Y_WP:	0.000	Y_WP:	0.500	X:	0.016	Y:	-0.033	Z:	0.632	yaw:	-0.369	yaw rate:	47.855	Roll:	0.950	Pitch:	-0.621	Yaw:	-5.619	Thrust:	80.509
Time:	2.532	Roll Set Point:	-0.033	Pitch Set Point:	0.066	Yaw Set Point:	-0.001	X_WP:	0.000	Y_WP:	0.000	Y_WP:	0.500	X:	0.017	Y:	-0.033	Z:	0.630	yaw:	0.084	yaw rate:	-45.268	Roll:	0.647	Pitch:	-0.886	Yaw:	7.120	Thrust:	53.810
Time:	2.553	Roll Set Point:	-0.033	Pitch Set Point:	0.064	Yaw Set Point:	-0.001	X_WP:	0.000	Y_WP:	0.000	Y_WP:	0.500	X:	0.016	Y:	-0.032	Z:	0.627	yaw:	0.084	yaw rate:	-0.017	Roll:	0.436	Pitch:	-0.346	Yaw:	0.195	Thrust:	73.038
Time:	2.577	Roll Set Point:	-0.034	Pitch Set Point:	0.063	Yaw Set Point:	-0.011	X_WP:	0.000	Y_WP:	0.000	Y_WP:	0.500	X:	0.017	Y:	-0.032	Z:	0.625	yaw:	0.613	yaw rate:	-52.886	Roll:	0.696	Pitch:	-0.946	Yaw:	6.804	Thrust:	73.696
Time:	2.590	Roll Set Point:	-0.034	Pitch Set Point:	0.062	Yaw Set Point:	0.005	X_WP:	0.000	Y_WP:	0.000	Y_WP:	0.500	X:	0.017	Y:	-0.031	Z:	0.624	yaw:	-0.274	yaw rate:	88.630	Roll:	1.148	Pitch:	0.162	Yaw:	-18.134	Thrust:	42.932
Time:	2.613	Roll Set Point:	-0.034	Pitch Set Point:	0.061	Yaw Set Point:	-0.001	X_WP:	0.000	Y_WP:	0.000	Y_WP:	0.500	X:	0.017	Y:	-0.030	Z:	0.623	yaw:	0.075	yaw rate:	-34.872	Roll:	0.638	Pitch:	-0.738	Yaw:	4.127	Thrust:	69.981
Time:	2.630	Roll Set Point:	-0.036	Pitch Set Point:	0.061	Yaw Set Point:	-0.001	X_WP:	0.000	Y_WP:	0.000	Y_WP:	0.500	X:	0.018	Y:	-0.031	Z:	0.623	yaw:	0.043	yaw rate:	3.194	Roll:	1.422	Pitch:	-1.142	Yaw:	-0.369	Thrust:	50.111
Time:	2.652	Roll Set Point:	-0.035	Pitch Set Point:	0.060	Yaw Set Point:	0.006	X_WP:	0.000	Y_WP:	0.000	Y_WP:	0.500	X:	0.017	Y:	-0.030	Z:	0.623	yaw:	-0.341	yaw rate:	38.372	Roll:	0.223	Pitch:	-0.454	Yaw:	-4.905	Thrust:	66.865
Time:	2.675	Roll Set Point:	-0.035	Pitch Set Point:	0.059	Yaw Set Point:	0.014	X_WP:	0.000	Y_WP:	0.000	Y_WP:	0.500	X:	0.017	Y:	-0.030	Z:	0.624	yaw:	-0.804	yaw rate:	46.329	Roll:	0.963	Pitch:	-0.614	Yaw:	-6.504	Thrust:	62.830
Time:	2.692	Roll Set Point:	-0.036	Pitch Set Point:	0.059	Yaw Set Point:	0.012	X_WP:	0.000	Y_WP:	0.000	Y_WP:	0.500	X:	0.018	Y:	-0.029	Z:	0.626	yaw:	-0.670	yaw rate:	-13.426	Roll:	0.783	Pitch:	-0.854	Yaw:	1.185	Thrust:	43.427
Time:	2.714	Roll Set Point:	-0.036	Pitch Set Point:	0.058	Yaw Set Point:	0.007	X_WP:	0.000	Y_WP:	0.000	Y_WP:	0.500	X:	0.018	Y:	-0.029	Z:	0.627	yaw:	-0.373	yaw rate:	-29.654	Roll:	0.533	Pitch:	-0.691	Yaw:	3.060	Thrust:	62.934
Time:	2.739	Roll Set Point:	-0.035	Pitch Set Point:	0.057	Yaw Set Point:	0.012	X_WP:	0.000	Y_WP:	0.000	Y_WP:	0.500	X:	0.017	Y:	-0.028	Z:	0.629	yaw:	-0.703	yaw rate:	33.040	Roll:	0.585	Pitch:	-0.558	Yaw:	-4.428	Thrust:	68.339
Time:	2.754	Roll Set Point:	-0.036	Pitch Set Point:	0.056	Yaw Set Point:	0.026	X_WP:	0.000	Y_WP:	0.000	Y_WP:	0.500	X:	0.018	Y:	-0.028	Z:	0.632	yaw:	-1.472	yaw rate:	76.871	Roll:	1.399	Pitch:	-0.613	Yaw:	-14.547	Thrust:	36.918
Time:	2.775	Roll Set Point:	-0.037	Pitch Set Point:	0.057	Yaw Set Point:	-0.001	X_WP:	0.000	Y_WP:	0.000	Y_WP:	0.500	X:	0.019	Y:	-0.029	Z:	0.634	yaw:	0.053	yaw rate:	-152.531	Roll:	0.679	Pitch:	-1.570	Yaw:	19.481	Thrust:	53.460
Time:	2.790	Roll Set Point:	-0.037	Pitch Set Point:	0.056	Yaw Set Point:	0.001	X_WP:	0.000	Y_WP:	0.000	Y_WP:	0.500	X:	0.018	Y:	-0.028	Z:	0.637	yaw:	-0.074	yaw rate:	12.752	Roll:	0.283	Pitch:	-0.437	Yaw:	-2.288	Thrust:	29.961
Time:	2.813	Roll Set Point:	-0.036	Pitch Set Point:	0.055	Yaw Set Point:	0.007	X_WP:	0.000	Y_WP:	0.000	Y_WP:	0.500	X:	0.018	Y:	-0.028	Z:	0.639	yaw:	-0.429	yaw rate:	35.468	Roll:	0.357	Pitch:	-0.430	Yaw:	-4.669	Thrust:	58.503
Time:	2.831	Roll Set Point:	-0.036	Pitch Set Point:	0.054	Yaw Set Point:	0.002	X_WP:	0.000	Y_WP:	0.000	Y_WP:	0.500	X:	0.018	Y:	-0.027	Z:	0.642	yaw:	-0.112	yaw rate:	-31.726	Roll:	0.471	Pitch:	-0.668	Yaw:	4.307	Thrust:	47.614
Time:	2.852	Roll Set Point:	-0.037	Pitch Set Point:	0.055	Yaw Set Point:	-0.001	X_WP:	0.000	Y_WP:	0.000	Y_WP:	0.500	X:	0.018	Y:	-0.027	Z:	0.643	yaw:	0.037	yaw rate:	-14.918	Roll:	1.124	Pitch:	-1.224	Yaw:	2.036	Thrust:	52.123
Time:	2.874	Roll Set Point:	-0.037	Pitch Set Point:	0.054	Yaw Set Point:	0.002	X_WP:	0.000	Y_WP:	0.000	Y_WP:	0.500	X:	0.018	Y:	-0.027	Z:	0.643	yaw:	-0.123	yaw rate:	15.993	Roll:	0.644	Pitch:	-0.646	Yaw:	-1.960	Thrust:	61.774
Time:	2.891	Roll Set Point:	-0.037	Pitch Set Point:	0.054	Yaw Set Point:	0.002	X_WP:	0.000	Y_WP:	0.000	Y_WP:	0.500	X:	0.018	Y:	-0.027	Z:	0.643	yaw:	-0.105	yaw rate:	-1.705	Roll:	0.616	Pitch:	-0.835	Yaw:	0.148	Thrust:	45.910
Time:	2.921	Roll Set Point:	-0.035	Pitch Set Point:	0.053	Yaw Set Point:	-0.008	X_WP:	0.000	Y_WP:	0.000	Y_WP:	0.500	X:	0.018	Y:	-0.027	Z:	0.642	yaw:	0.432	yaw rate:	-53.709	Roll:	0.205	Pitch:	-0.837	Yaw:	5.387	Thrust:	85.485
Time:	2.941	Roll Set Point:	-0.035	Pitch Set Point:	0.053	Yaw Set Point:	-0.005	X_WP:	0.000	Y_WP:	0.000	Y_WP:	0.500	X:	0.018	Y:	-0.026	Z:	0.640	yaw:	0.261	yaw rate:	17.055	Roll:	0.632	Pitch:	-0.774	Yaw:	-1.794	Thrust:	58.504
Time:	2.954	Roll Set Point:	-0.035	Pitch Set Point:	0.053	Yaw Set Point:	-0.007	X_WP:	0.000	Y_WP:	0.000	Y_WP:	0.500	X:	0.018	Y:	-0.026	Z:	0.637	yaw:	0.408	yaw rate:	-14.737	Roll:	0.276	Pitch:	-0.597	Yaw:	3.757	Thrust:	38.739
Time:	2.977	Roll Set Point:	-0.035	Pitch Set Point:	0.052	Yaw Set Point:	-0.018	X_WP:	0.000	Y_WP:	0.000	Y_WP:	0.500	X:	0.018	Y:	-0.026	Z:	0.635	yaw:	1.044	yaw rate:	-63.572	Roll:	0.465	Pitch:	-0.683	Yaw:	8.775	Thrust:	66.716
Time:	2.992	Roll Set Point:	-0.034	Pitch Set Point:	0.051	Yaw Set Point:	-0.006	X_WP:	0.000	Y_WP:	0.000	Y_WP:	0.500	X:	0.017	Y:	-0.026	Z:	0.631	yaw:	0.333	yaw rate:	71.085	Roll:	0.508	Pitch:	-0.662	Yaw:	-11.867	Thrust:	49.241
Time:	3.020	Roll Set Point:	-0.034	Pitch Set Point:	0.051	Yaw Set Point:	0.001	X_WP:	0.000	Y_WP:	0.000	Y_WP:	0.500	X:	0.017	Y:	-0.025	Z:	0.628	yaw:	-0.050	yaw rate:	38.343	Roll:	0.603	Pitch:	-0.703	Yaw:	-3.487	Thrust:	83.513
Time:	3.042	Roll Set Point:	-0.034	Pitch Set Point:	0.051	Yaw Set Point:	-0.008	X_WP:	0.000	Y_WP:	0.000	Y_WP:	0.500	X:	0.017	Y:	-0.025	Z:	0.624	yaw:	0.444	yaw rate:	-49.442	Roll:	0.291	Pitch:	-0.921	Yaw:	6.573	Thrust:	66.451
Time:	3.053	Roll Set Point:	-0.033	Pitch Set Point:	0.050	Yaw Set Point:	-0.003	X_WP:	0.000	Y_WP:	0.000	Y_WP:	0.500	X:	0.017	Y:	-0.025	Z:	0.620	yaw:	0.200	yaw rate:	24.423	Roll:	0.521	Pitch:	-0.466	Yaw:	-5.643	Thrust:	40.193
Time:	3.080	Roll Set Point:	-0.033	Pitch Set Point:	0.049	Yaw Set Point:	0.017	X_WP:	0.000	Y_WP:	0.000	Y_WP:	0.500	X:	0.016	Y:	-0.024	Z:	0.616	yaw:	-0.977	yaw rate:	117.685	Roll:	0.558	Pitch:	-0.320	Yaw:	-12.611	Thrust:	79.900
Time:	3.091	Roll Set Point:	-0.033	Pitch Set Point:	0.049	Yaw Set Point:	0.001	X_WP:	0.000	Y_WP:	0.000	Y_WP:	0.500	X:	0.016	Y:	-0.025	Z:	0.612	yaw:	-0.085	yaw rate:	-89.140	Roll:	0.262	Pitch:	-1.306	Yaw:	21.056	Thrust:	43.449
Time:	3.114	Roll Set Point:	-0.032	Pitch Set Point:	0.048	Yaw Set Point:	-0.000	X_WP:	0.000	Y_WP:	0.000	Y_WP:	0.500	X:	0.016	Y:	-0.024	Z:	0.607	yaw:	0.026	yaw rate:	-11.129	Roll:	0.397	Pitch:	-0.734	Yaw:	1.354	Thrust:	70.200
Time:	3.131	Roll Set Point:	-0.032	Pitch Set Point:	0.048	Yaw Set Point:	0.001	X_WP:	0.000	Y_WP:	0.000	Y_WP:	0.500	X:	0.016	Y:	-0.024	Z:	0.603	yaw:	-0.045	yaw rate:	7.056	Roll:	0.448	Pitch:	-0.720	Yaw:	-1.106	Thrust:	52.165
Time:	3.154	Roll Set Point:	-0.032	Pitch Set Point:	0.048	Yaw Set Point:	-0.004	X_WP:	0.000	Y_WP:	0.000	Y_WP:	0.500	X:	0.016	Y:	-0.024	Z:	0.599	yaw:	0.222	yaw rate:	-26.625	Roll:	0.386	Pitch:	-0.778	Yaw:	3.435	Thrust:	69.491
Time:	3.175	Roll Set Point:	-0.031	Pitch Set Point:	0.047	Yaw Set Point:	-0.004	X_WP:	0.000	Y_WP:	0.000	Y_WP:	0.500	X:	0.016	Y:	-0.024	Z:	0.595	yaw:	0.227	yaw rate:	-0.514	Roll:	0.484	Pitch:	-0.697	Yaw:	0.438	Thrust:	65.611
Time:	3.194	Roll Set Point:	-0.031	Pitch Set Point:	0.047	Yaw Set Point:	-0.001	X_WP:	0.000	Y_WP:	0.000	Y_WP:	0.500	X:	0.016	Y:	-0.024	Z:	0.591	yaw:	0.061	yaw rate:	16.524	Roll:	0.531	Pitch:	-0.746	Yaw:	-2.233	Thrust:	54.657
Time:	3.212	Roll Set Point:	-0.031	Pitch Set Point:	0.047	Yaw Set Point:	-0.010	X_WP:	0.000	Y_WP:	0.000	Y_WP:	0.500	X:	0.015	Y:	-0.023	Z:	0.587	yaw:	0.551	yaw rate:	-48.952	Roll:	0.238	Pitch:	-0.769	Yaw:	7.718	Thrust:	60.360
Time:	3.232	Roll Set Point:	-0.031	Pitch Set Point:	0.047	Yaw Set Point:	-0.011	X_WP:	0.000	Y_WP:	0.000	Y_WP:	0.500	X:	0.015	Y:	-0.023	Z:	0.583	yaw:	0.632	yaw rate:	-8.137	Roll:	0.465	Pitch:	-0.705	Yaw:	2.029	Thrust:	59.675
Time:	3.255	Roll Set Point:	-0.031	Pitch Set Point:	0.046	Yaw Set Point:	-0.023	X_WP:	0.000	Y_WP:	0.000	Y_WP:	0.500	X:	0.016	Y:	-0.023	Z:	0.580	yaw:	1.342	yaw rate:	-71.006	Roll:	0.520	Pitch:	-0.826	Yaw:	9.917	Thrust:	66.949
Time:	3.271	Roll Set Point:	-0.031	Pitch Set Point:	0.046	Yaw Set Point:	-0.029	X_WP:	0.000	Y_WP:	0.000	Y_WP:	0.500	X:	0.016	Y:	-0.023	Z:	0.577	yaw:	1.649	yaw rate:	-30.636	Roll:	0.406	Pitch:	-0.752	Yaw:	7.552	Thrust:	50.302
Time:	3.292	Roll Set Point:	-0.031	Pitch Set Point:	0.046	Yaw Set Point:	-0.029	X_WP:	0.000	Y_WP:	0.000	Y_WP:	0.500	X:	0.016	Y:	-0.023	Z:	0.574	yaw:	1.661	yaw rate:	-1.172	Roll:	0.781	Pitch:	-0.985	Yaw:	2.554	Thrust:	61.959
Time:	3.313	Roll Set Point:	-0.031	Pitch Set Point:	0.046	Yaw Set Point:	-0.027	X_WP:	0.000	Y_WP:	0.000	Y_WP:	0.500	X:	0.016	Y:	-0.023	Z:	0.570	yaw:	1.570	yaw rate:	9.076	Roll:	0.511	Pitch:	-0.673	Yaw:	1.197	Thrust:	62.339
Time:	3.333	Roll Set Point:	-0.030	Pitch Set Point:	0.045	Yaw Set Point:	-0.009	X_WP:	0.000	Y_WP:	0.000	Y_WP:	0.500	X:	0.015	Y:	-0.022	Z:	0.567	yaw:	0.525	yaw rate:	104.495	Roll:	0.563	Pitch:	-0.264	Yaw:	-13.154	Thrust:	59.950
Time:	3.352	Roll Set Point:	-0.030	Pitch Set Point:	0.044	Yaw Set Point:	-0.007	X_WP:	0.000	Y_WP:	0.000	Y_WP:	0.500	X:	0.015	Y:	-0.022	Z:	0.564	yaw:	0.386	yaw rate:	13.917	Roll:	0.538	Pitch:	-0.418	Yaw:	-1.267	Thrust:	55.994
Time:	3.376	Roll Set Point:	-0.030	Pitch Set Point:	0.045	Yaw Set Point:	-0.034	X_WP:	0.000	Y_WP:	0.000	Y_WP:	0.500	X:	0.015	Y:	-0.022	Z:	0.561	yaw:	1.936	yaw rate:	-155.035	Roll:	0.159	Pitch:	-1.298	Yaw:	19.644	Thrust:	69.888
Time:	3.390	Roll Set Point:	-0.030	Pitch Set Point:	0.044	Yaw Set Point:	-0.032	X_WP:	0.000	Y_WP:	0.000	Y_WP:	0.500	X:	0.015	Y:	-0.022	Z:	0.559	yaw:	1.842	yaw rate:	9.447	Roll:	0.412	Pitch:	-0.508	Yaw:	0.896	Thrust:	42.678
Time:	3.414	Roll Set Point:	-0.030	Pitch Set Point:	0.044	Yaw Set Point:	-0.028	X_WP:	0.000	Y_WP:	0.000	Y_WP:	0.500	X:	0.015	Y:	-0.022	Z:	0.556	yaw:	1.622	yaw rate:	21.990	Roll:	0.754	Pitch:	-0.797	Yaw:	0.058	Thrust:	68.472
Time:	3.430	Roll Set Point:	-0.029	Pitch Set Point:	0.043	Yaw Set Point:	-0.028	X_WP:	0.000	Y_WP:	0.000	Y_WP:	0.500	X:	0.015	Y:	-0.021	Z:	0.554	yaw:	1.619	yaw rate:	0.304	Roll:	0.197	Pitch:	-0.389	Yaw:	2.333	Thrust:	46.035
Time:	3.455	Roll Set Point:	-0.029	Pitch Set Point:	0.043	Yaw Set Point:	-0.029	X_WP:	0.000	Y_WP:	0.000	Y_WP:	0.500	X:	0.015	Y:	-0.021	Z:	0.552	yaw:	1.665	yaw rate:	-4.624	Roll:	0.510	Pitch:	-0.844	Yaw:	3.018	Thrust:	72.095
Time:	3.472	Roll Set Point:	-0.029	Pitch Set Point:	0.042	Yaw Set Point:	-0.026	X_WP:	0.000	Y_WP:	0.000	Y_WP:	0.500	X:	0.015	Y:	-0.021	Z:	0.549	yaw:	1.482	yaw rate:	18.260	Roll:	0.421	Pitch:	-0.282	Yaw:	-0.637	Thrust:	49.077
Time:	3.491	Roll Set Point:	-0.029	Pitch Set Point:	0.042	Yaw Set Point:	-0.019	X_WP:	0.000	Y_WP:	0.000	Y_WP:	0.500	X:	0.015	Y:	-0.021	Z:	0.547	yaw:	1.114	yaw rate:	36.856	Roll:	0.540	Pitch:	-0.442	Yaw:	-3.293	Thrust:	56.903
Time:	3.512	Roll Set Point:	-0.029	Pitch Set Point:	0.042	Yaw Set Point:	-0.030	X_WP:	0.000	Y_WP:	0.000	Y_WP:	0.500	X:	0.015	Y:	-0.021	Z:	0.543	yaw:	1.738	yaw rate:	-62.410	Roll:	0.682	Pitch:	-1.061	Yaw:	10.209	Thrust:	63.720
Time:	3.542	Roll Set Point:	-0.029	Pitch Set Point:	0.041	Yaw Set Point:	-0.019	X_WP:	0.000	Y_WP:	0.000	Y_WP:	0.500	X:	0.014	Y:	-0.020	Z:	0.540	yaw:	1.071	yaw rate:	66.713	Roll:	0.430	Pitch:	-0.454	Yaw:	-4.132	Thrust:	83.323
Time:	3.555	Roll Set Point:	-0.028	Pitch Set Point:	0.041	Yaw Set Point:	-0.025	X_WP:	0.000	Y_WP:	0.000	Y_WP:	0.500	X:	0.014	Y:	-0.020	Z:	0.536	yaw:	1.418	yaw rate:	-34.753	Roll:	0.298	Pitch:	-0.758	Yaw:	9.353	Thrust:	44.586
Time:	3.577	Roll Set Point:	-0.028	Pitch Set Point:	0.040	Yaw Set Point:	-0.029	X_WP:	0.000	Y_WP:	0.000	Y_WP:	0.500	X:	0.014	Y:	-0.020	Z:	0.532	yaw:	1.668	yaw rate:	-24.969	Roll:	0.383	Pitch:	-0.679	Yaw:	5.508	Thrust:	67.781
Time:	3.591	Roll Set Point:	-0.028	Pitch Set Point:	0.040	Yaw Set Point:	-0.022	X_WP:	0.000	Y_WP:	0.000	Y_WP:	0.500	X:	0.014	Y:	-0.020	Z:	0.529	yaw:	1.247	yaw rate:	42.034	Roll:	0.526	Pitch:	-0.249	Yaw:	-5.657	Thrust:	48.869
Time:	3.613	Roll Set Point:	-0.028	Pitch Set Point:	0.039	Yaw Set Point:	-0.023	X_WP:	0.000	Y_WP:	0.000	Y_WP:	0.500	X:	0.014	Y:	-0.019	Z:	0.526	yaw:	1.324	yaw rate:	-7.691	Roll:	0.429	Pitch:	-0.547	Yaw:	3.044	Thrust:	64.195
Time:	3.630	Roll Set Point:	-0.028	Pitch Set Point:	0.039	Yaw Set Point:	-0.023	X_WP:	0.000	Y_WP:	0.000	Y_WP:	0.500	X:	0.014	Y:	-0.019	Z:	0.522	yaw:	1.331	yaw rate:	-0.635	Roll:	0.421	Pitch:	-0.554	Yaw:	2.174	Thrust:	54.604
Time:	3.656	Roll Set Point:	-0.027	Pitch Set Point:	0.038	Yaw Set Point:	-0.022	X_WP:	0.000	Y_WP:	0.000	Y_WP:	0.500	X:	0.014	Y:	-0.019	Z:	0.519	yaw:	1.287	yaw rate:	4.326	Roll:	0.521	Pitch:	-0.671	Yaw:	1.674	Thrust:	72.676
Time:	3.671	Roll Set Point:	-0.027	Pitch Set Point:	0.038	Yaw Set Point:	-0.022	X_WP:	0.000	Y_WP:	0.000	Y_WP:	0.500	X:	0.014	Y:	-0.019	Z:	0.516	yaw:	1.241	yaw rate:	4.624	Roll:	0.391	Pitch:	-0.431	Yaw:	1.134	Thrust:	49.239
Time:	3.691	Roll Set Point:	-0.027	Pitch Set Point:	0.037	Yaw Set Point:	-0.017	X_WP:	0.000	Y_WP:	0.000	Y_WP:	0.500	X:	0.014	Y:	-0.019	Z:	0.513	yaw:	0.946	yaw rate:	29.490	Roll:	0.598	Pitch:	-0.588	Yaw:	-2.136	Thrust:	61.598
Time:	3.710	Roll Set Point:	-0.027	Pitch Set Point:	0.037	Yaw Set Point:	-0.016	X_WP:	0.000	Y_WP:	0.000	Y_WP:	0.500	X:	0.014	Y:	-0.018	Z:	0.510	yaw:	0.889	yaw rate:	5.784	Roll:	0.382	Pitch:	-0.393	Yaw:	0.691	Thrust:	56.719
Time:	3.731	Roll Set Point:	-0.027	Pitch Set Point:	0.035	Yaw Set Point:	0.010	X_WP:	0.000	Y_WP:	0.000	Y_WP:	0.500	X:	0.013	Y:	-0.018	Z:	0.507	yaw:	-0.552	yaw rate:	144.075	Roll:	0.581	Pitch:	-0.057	Yaw:	-18.308	Thrust:	63.098
Time:	3.754	Roll Set Point:	-0.027	Pitch Set Point:	0.036	Yaw Set Point:	-0.019	X_WP:	0.000	Y_WP:	0.000	Y_WP:	0.500	X:	0.013	Y:	-0.018	Z:	0.505	yaw:	1.101	yaw rate:	-165.350	Roll:	0.324	Pitch:	-1.082	Yaw:	20.624	Thrust:	66.992
Time:	3.771	Roll Set Point:	-0.027	Pitch Set Point:	0.036	Yaw Set Point:	-0.019	X_WP:	0.000	Y_WP:	0.000	Y_WP:	0.500	X:	0.014	Y:	-0.018	Z:	0.503	yaw:	1.097	yaw rate:	0.425	Roll:	0.928	Pitch:	-0.838	Yaw:	1.719	Thrust:	50.979
Time:	3.792	Roll Set Point:	-0.026	Pitch Set Point:	0.035	Yaw Set Point:	-0.020	X_WP:	0.000	Y_WP:	0.000	Y_WP:	0.500	X:	0.013	Y:	-0.017	Z:	0.500	yaw:	1.132	yaw rate:	-3.464	Roll:	0.123	Pitch:	-0.237	Yaw:	2.330	Thrust:	63.440
Time:	3.814	Roll Set Point:	-0.026	Pitch Set Point:	0.035	Yaw Set Point:	-0.028	X_WP:	0.000	Y_WP:	0.000	Y_WP:	0.500	X:	0.013	Y:	-0.017	Z:	0.497	yaw:	1.583	yaw rate:	-45.137	Roll:	0.457	Pitch:	-0.776	Yaw:	7.905	Thrust:	64.794
Time:	3.831	Roll Set Point:	-0.026	Pitch Set Point:	0.034	Yaw Set Point:	-0.026	X_WP:	0.000	Y_WP:	0.000	Y_WP:	0.500	X:	0.013	Y:	-0.017	Z:	0.495	yaw:	1.472	yaw rate:	11.061	Roll:	0.485	Pitch:	-0.486	Yaw:	0.591	Thrust:	50.163
Time:	3.854	Roll Set Point:	-0.026	Pitch Set Point:	0.034	Yaw Set Point:	-0.017	X_WP:	0.000	Y_WP:	0.000	Y_WP:	0.500	X:	0.013	Y:	-0.017	Z:	0.494	yaw:	0.996	yaw rate:	47.596	Roll:	0.573	Pitch:	-0.364	Yaw:	-3.618	Thrust:	65.802
Time:	3.874	Roll Set Point:	-0.026	Pitch Set Point:	0.034	Yaw Set Point:	-0.022	X_WP:	0.000	Y_WP:	0.000	Y_WP:	0.500	X:	0.013	Y:	-0.017	Z:	0.492	yaw:	1.260	yaw rate:	-26.325	Roll:	0.490	Pitch:	-0.769	Yaw:	5.528	Thrust:	58.103
Time:	3.891	Roll Set Point:	-0.026	Pitch Set Point:	0.033	Yaw Set Point:	-0.023	X_WP:	0.000	Y_WP:	0.000	Y_WP:	0.500	X:	0.013	Y:	-0.017	Z:	0.491	yaw:	1.291	yaw rate:	-3.124	Roll:	0.525	Pitch:	-0.537	Yaw:	2.579	Thrust:	49.052
Time:	3.912	Roll Set Point:	-0.026	Pitch Set Point:	0.033	Yaw Set Point:	-0.024	X_WP:	0.000	Y_WP:	0.000	Y_WP:	0.500	X:	0.013	Y:	-0.016	Z:	0.491	yaw:	1.347	yaw rate:	-5.590	Roll:	0.502	Pitch:	-0.510	Yaw:	2.949	Thrust:	59.782
Time:	3.932	Roll Set Point:	-0.026	Pitch Set Point:	0.032	Yaw Set Point:	-0.023	X_WP:	0.000	Y_WP:	0.000	Y_WP:	0.500	X:	0.013	Y:	-0.016	Z:	0.490	yaw:	1.308	yaw rate:	3.860	Roll:	0.522	Pitch:	-0.468	Yaw:	1.676	Thrust:	55.283
Time:	3.957	Roll Set Point:	-0.026	Pitch Set Point:	0.032	Yaw Set Point:	-0.023	X_WP:	0.000	Y_WP:	0.000	Y_WP:	0.500	X:	0.013	Y:	-0.016	Z:	0.489	yaw:	1.341	yaw rate:	-3.237	Roll:	0.568	Pitch:	-0.631	Yaw:	2.683	Thrust:	70.307
Time:	3.979	Roll Set Point:	-0.026	Pitch Set Point:	0.032	Yaw Set Point:	-0.026	X_WP:	0.000	Y_WP:	0.000	Y_WP:	0.500	X:	0.013	Y:	-0.016	Z:	0.489	yaw:	1.466	yaw rate:	-12.531	Roll:	0.504	Pitch:	-0.552	Yaw:	4.000	Thrust:	58.307
Time:	3.992	Roll Set Point:	-0.026	Pitch Set Point:	0.031	Yaw Set Point:	-0.023	X_WP:	0.000	Y_WP:	0.000	Y_WP:	0.500	X:	0.013	Y:	-0.015	Z:	0.488	yaw:	1.290	yaw rate:	17.550	Roll:	0.505	Pitch:	-0.329	Yaw:	-1.465	Thrust:	40.290
Time:	4.011	Roll Set Point:	-0.026	Pitch Set Point:	0.031	Yaw Set Point:	0.005	X_WP:	0.000	Y_WP:	0.000	Y_WP:	0.500	X:	0.013	Y:	-0.015	Z:	0.487	yaw:	-0.281	yaw rate:	157.182	Roll:	0.461	Pitch:	-0.231	Yaw:	-21.644	Thrust:	55.242
Time:	4.035	Roll Set Point:	-0.026	Pitch Set Point:	0.030	Yaw Set Point:	0.004	X_WP:	0.000	Y_WP:	0.000	Y_WP:	0.500	X:	0.013	Y:	-0.015	Z:	0.486	yaw:	-0.203	yaw rate:	-7.873	Roll:	0.513	Pitch:	-0.597	Yaw:	1.059	Thrust:	66.964
Time:	4.052	Roll Set Point:	-0.026	Pitch Set Point:	0.030	Yaw Set Point:	0.004	X_WP:	0.000	Y_WP:	0.000	Y_WP:	0.500	X:	0.013	Y:	-0.015	Z:	0.486	yaw:	-0.222	yaw rate:	1.963	Roll:	0.607	Pitch:	-0.504	Yaw:	-0.268	Thrust:	48.273
Time:	4.073	Roll Set Point:	-0.026	Pitch Set Point:	0.030	Yaw Set Point:	-0.002	X_WP:	0.000	Y_WP:	0.000	Y_WP:	0.500	X:	0.013	Y:	-0.015	Z:	0.485	yaw:	0.141	yaw rate:	-36.348	Roll:	0.496	Pitch:	-0.484	Yaw:	5.100	Thrust:	59.466
Time:	4.091	Roll Set Point:	-0.026	Pitch Set Point:	0.029	Yaw Set Point:	0.005	X_WP:	0.000	Y_WP:	0.000	Y_WP:	0.500	X:	0.013	Y:	-0.015	Z:	0.485	yaw:	-0.309	yaw rate:	45.042	Roll:	0.740	Pitch:	-0.388	Yaw:	-6.809	Thrust:	49.361
Time:	4.112	Roll Set Point:	-0.027	Pitch Set Point:	0.028	Yaw Set Point:	-0.013	X_WP:	0.000	Y_WP:	0.000	Y_WP:	0.500	X:	0.013	Y:	-0.014	Z:	0.485	yaw:	0.719	yaw rate:	-102.797	Roll:	0.522	Pitch:	-0.334	Yaw:	14.334	Thrust:	57.715
Time:	4.131	Roll Set Point:	-0.027	Pitch Set Point:	0.028	Yaw Set Point:	-0.020	X_WP:	0.000	Y_WP:	0.000	Y_WP:	0.500	X:	0.014	Y:	-0.014	Z:	0.484	yaw:	1.141	yaw rate:	-42.270	Roll:	0.567	Pitch:	-0.779	Yaw:	7.628	Thrust:	55.542
Time:	4.153	Roll Set Point:	-0.027	Pitch Set Point:	0.028	Yaw Set Point:	-0.013	X_WP:	0.000	Y_WP:	0.000	Y_WP:	0.500	X:	0.014	Y:	-0.014	Z:	0.483	yaw:	0.764	yaw rate:	37.730	Roll:	0.690	Pitch:	-0.391	Yaw:	-3.037	Thrust:	61.592
Time:	4.176	Roll Set Point:	-0.027	Pitch Set Point:	0.028	Yaw Set Point:	-0.023	X_WP:	0.000	Y_WP:	0.000	Y_WP:	0.500	X:	0.014	Y:	-0.014	Z:	0.482	yaw:	1.316	yaw rate:	-55.227	Roll:	0.630	Pitch:	-0.727	Yaw:	8.636	Thrust:	66.157
Time:	4.192	Roll Set Point:	-0.027	Pitch Set Point:	0.027	Yaw Set Point:	-0.012	X_WP:	0.000	Y_WP:	0.000	Y_WP:	0.500	X:	0.014	Y:	-0.014	Z:	0.481	yaw:	0.700	yaw rate:	61.650	Roll:	0.604	Pitch:	-0.153	Yaw:	-8.742	Thrust:	48.810
Time:	4.214	Roll Set Point:	-0.028	Pitch Set Point:	0.027	Yaw Set Point:	-0.014	X_WP:	0.000	Y_WP:	0.000	Y_WP:	0.500	X:	0.014	Y:	-0.013	Z:	0.479	yaw:	0.822	yaw rate:	-12.206	Roll:	0.801	Pitch:	-0.623	Yaw:	3.071	Thrust:	64.812
Time:	4.245	Roll Set Point:	-0.028	Pitch Set Point:	0.027	Yaw Set Point:	-0.013	X_WP:	0.000	Y_WP:	0.000	Y_WP:	0.500	X:	0.014	Y:	-0.013	Z:	0.477	yaw:	0.749	yaw rate:	7.338	Roll:	0.712	Pitch:	-0.653	Yaw:	1.096	Thrust:	87.169
Time:	4.256	Roll Set Point:	-0.028	Pitch Set Point:	0.027	Yaw Set Point:	-0.017	X_WP:	0.000	Y_WP:	0.000	Y_WP:	0.500	X:	0.014	Y:	-0.013	Z:	0.475	yaw:	0.989	yaw rate:	-24.027	Roll:	0.656	Pitch:	-0.356	Yaw:	7.333	Thrust:	40.695
Time:	4.278	Roll Set Point:	-0.028	Pitch Set Point:	0.026	Yaw Set Point:	0.003	X_WP:	0.000	Y_WP:	0.000	Y_WP:	0.500	X:	0.014	Y:	-0.013	Z:	0.473	yaw:	-0.165	yaw rate:	115.358	Roll:	0.626	Pitch:	-0.264	Yaw:	-13.585	Thrust:	65.884
Time:	4.292	Roll Set Point:	-0.029	Pitch Set Point:	0.026	Yaw Set Point:	0.005	X_WP:	0.000	Y_WP:	0.000	Y_WP:	0.500	X:	0.014	Y:	-0.013	Z:	0.470	yaw:	-0.294	yaw rate:	12.949	Roll:	0.707	Pitch:	-0.292	Yaw:	-2.515	Thrust:	47.155
Time:	4.313	Roll Set Point:	-0.029	Pitch Set Point:	0.026	Yaw Set Point:	-0.016	X_WP:	0.000	Y_WP:	0.000	Y_WP:	0.500	X:	0.015	Y:	-0.013	Z:	0.468	yaw:	0.902	yaw rate:	-119.655	Roll:	0.684	Pitch:	-0.731	Yaw:	16.314	Thrust:	65.199
Time:	4.334	Roll Set Point:	-0.029	Pitch Set Point:	0.025	Yaw Set Point:	-0.009	X_WP:	0.000	Y_WP:	0.000	Y_WP:	0.500	X:	0.015	Y:	-0.012	Z:	0.466	yaw:	0.495	yaw rate:	40.695	Roll:	0.711	Pitch:	-0.292	Yaw:	-3.856	Thrust:	65.422
Time:	4.352	Roll Set Point:	-0.030	Pitch Set Point:	0.025	Yaw Set Point:	-0.020	X_WP:	0.000	Y_WP:	0.000	Y_WP:	0.500	X:	0.015	Y:	-0.012	Z:	0.463	yaw:	1.123	yaw rate:	-62.787	Roll:	0.723	Pitch:	-0.690	Yaw:	11.474	Thrust:	57.878
Time:	4.377	Roll Set Point:	-0.030	Pitch Set Point:	0.024	Yaw Set Point:	-0.008	X_WP:	0.000	Y_WP:	0.000	Y_WP:	0.500	X:	0.015	Y:	-0.012	Z:	0.460	yaw:	0.474	yaw rate:	64.936	Roll:	0.807	Pitch:	-0.299	Yaw:	-5.554	Thrust:	76.544
Time:	4.392	Roll Set Point:	-0.030	Pitch Set Point:	0.024	Yaw Set Point:	-0.010	X_WP:	0.000	Y_WP:	0.000	Y_WP:	0.500	X:	0.015	Y:	-0.012	Z:	0.456	yaw:	0.583	yaw rate:	-10.960	Roll:	0.667	Pitch:	-0.336	Yaw:	3.023	Thrust:	55.543
Time:	4.415	Roll Set Point:	-0.031	Pitch Set Point:	0.023	Yaw Set Point:	-0.010	X_WP:	0.000	Y_WP:	0.000	Y_WP:	0.500	X:	0.015	Y:	-0.012	Z:	0.453	yaw:	0.564	yaw rate:	1.986	Roll:	0.713	Pitch:	-0.461	Yaw:	1.106	Thrust:	73.110
Time:	4.433	Roll Set Point:	-0.031	Pitch Set Point:	0.023	Yaw Set Point:	-0.007	X_WP:	0.000	Y_WP:	0.000	Y_WP:	0.500	X:	0.016	Y:	-0.011	Z:	0.449	yaw:	0.413	yaw rate:	15.020	Roll:	0.765	Pitch:	-0.354	Yaw:	-1.326	Thrust:	59.017
Time:	4.454	Roll Set Point:	-0.031	Pitch Set Point:	0.023	Yaw Set Point:	-0.014	X_WP:	0.000	Y_WP:	0.000	Y_WP:	0.500	X:	0.016	Y:	-0.011	Z:	0.446	yaw:	0.803	yaw rate:	-39.001	Roll:	0.776	Pitch:	-0.552	Yaw:	6.366	Thrust:	69.113
Time:	4.472	Roll Set Point:	-0.032	Pitch Set Point:	0.023	Yaw Set Point:	-0.015	X_WP:	0.000	Y_WP:	0.000	Y_WP:	0.500	X:	0.016	Y:	-0.011	Z:	0.443	yaw:	0.875	yaw rate:	-7.157	Roll:	0.800	Pitch:	-0.582	Yaw:	2.677	Thrust:	62.733
Time:	4.493	Roll Set Point:	-0.032	Pitch Set Point:	0.022	Yaw Set Point:	-0.008	X_WP:	0.000	Y_WP:	0.000	Y_WP:	0.500	X:	0.016	Y:	-0.011	Z:	0.441	yaw:	0.449	yaw rate:	42.640	Roll:	0.638	Pitch:	-0.226	Yaw:	-4.764	Thrust:	62.740
Time:	4.514	Roll Set Point:	-0.032	Pitch Set Point:	0.022	Yaw Set Point:	-0.005	X_WP:	0.000	Y_WP:	0.000	Y_WP:	0.500	X:	0.016	Y:	-0.011	Z:	0.438	yaw:	0.277	yaw rate:	17.166	Roll:	0.805	Pitch:	-0.420	Yaw:	-1.072	Thrust:	70.655
Time:	4.532	Roll Set Point:	-0.033	Pitch Set Point:	0.022	Yaw Set Point:	-0.009	X_WP:	0.000	Y_WP:	0.000	Y_WP:	0.500	X:	0.016	Y:	-0.011	Z:	0.436	yaw:	0.530	yaw rate:	-25.271	Roll:	0.776	Pitch:	-0.440	Yaw:	4.847	Thrust:	58.996
Time:	4.551	Roll Set Point:	-0.033	Pitch Set Point:	0.021	Yaw Set Point:	-0.004	X_WP:	0.000	Y_WP:	0.000	Y_WP:	0.500	X:	0.016	Y:	-0.011	Z:	0.434	yaw:	0.245	yaw rate:	28.472	Roll:	0.744	Pitch:	-0.365	Yaw:	-3.090	Thrust:	62.483
Time:	4.574	Roll Set Point:	-0.033	Pitch Set Point:	0.022	Yaw Set Point:	-0.019	X_WP:	0.000	Y_WP:	0.000	Y_WP:	0.500	X:	0.017	Y:	-0.011	Z:	0.433	yaw:	1.069	yaw rate:	-82.445	Roll:	0.737	Pitch:	-0.770	Yaw:	11.395	Thrust:	71.789
Time:	4.592	Roll Set Point:	-0.033	Pitch Set Point:	0.021	Yaw Set Point:	-0.004	X_WP:	0.000	Y_WP:	0.000	Y_WP:	0.500	X:	0.017	Y:	-0.010	Z:	0.431	yaw:	0.201	yaw rate:	86.878	Roll:	0.681	Pitch:	-0.033	Yaw:	-11.856	Thrust:	58.366
Time:	4.614	Roll Set Point:	-0.034	Pitch Set Point:	0.021	Yaw Set Point:	-0.009	X_WP:	0.000	Y_WP:	0.000	Y_WP:	0.500	X:	0.017	Y:	-0.011	Z:	0.430	yaw:	0.542	yaw rate:	-34.167	Roll:	0.814	Pitch:	-0.752	Yaw:	5.372	Thrust:	68.799
Time:	4.631	Roll Set Point:	-0.033	Pitch Set Point:	0.021	Yaw Set Point:	-0.003	X_WP:	0.000	Y_WP:	0.000	Y_WP:	0.500	X:	0.017	Y:	-0.010	Z:	0.430	yaw:	0.188	yaw rate:	35.399	Roll:	0.629	Pitch:	-0.314	Yaw:	-4.767	Thrust:	53.602
Time:	4.655	Roll Set Point:	-0.034	Pitch Set Point:	0.021	Yaw Set Point:	-0.012	X_WP:	0.000	Y_WP:	0.000	Y_WP:	0.500	X:	0.017	Y:	-0.011	Z:	0.429	yaw:	0.702	yaw rate:	-51.387	Roll:	0.783	Pitch:	-0.780	Yaw:	7.202	Thrust:	72.921
Time:	4.676	Roll Set Point:	-0.034	Pitch Set Point:	0.021	Yaw Set Point:	-0.006	X_WP:	0.000	Y_WP:	0.000	Y_WP:	0.500	X:	0.017	Y:	-0.010	Z:	0.430	yaw:	0.366	yaw rate:	33.634	Roll:	0.683	Pitch:	-0.370	Yaw:	-3.225	Thrust:	62.070
Time:	4.690	Roll Set Point:	-0.034	Pitch Set Point:	0.021	Yaw Set Point:	-0.004	X_WP:	0.000	Y_WP:	0.000	Y_WP:	0.500	X:	0.017	Y:	-0.010	Z:	0.430	yaw:	0.208	yaw rate:	15.785	Roll:	0.689	Pitch:	-0.419	Yaw:	-2.174	Thrust:	43.826
Time:	4.712	Roll Set Point:	-0.035	Pitch Set Point:	0.022	Yaw Set Point:	-0.015	X_WP:	0.000	Y_WP:	0.000	Y_WP:	0.500	X:	0.018	Y:	-0.011	Z:	0.431	yaw:	0.841	yaw rate:	-63.349	Roll:	1.083	Pitch:	-1.048	Yaw:	9.284	Thrust:	66.306
Time:	4.731	Roll Set Point:	-0.034	Pitch Set Point:	0.021	Yaw Set Point:	0.010	X_WP:	0.000	Y_WP:	0.000	Y_WP:	0.500	X:	0.017	Y:	-0.011	Z:	0.432	yaw:	-0.577	yaw rate:	141.846	Roll:	0.433	Pitch:	-0.050	Yaw:	-20.179	Thrust:	54.458
Time:	4.753	Roll Set Point:	-0.034	Pitch Set Point:	0.021	Yaw Set Point:	0.020	X_WP:	0.000	Y_WP:	0.000	Y_WP:	0.500	X:	0.017	Y:	-0.011	Z:	0.434	yaw:	-1.156	yaw rate:	57.876	Roll:	0.844	Pitch:	-0.582	Yaw:	-7.826	Thrust:	65.413
Time:	4.780	Roll Set Point:	-0.035	Pitch Set Point:	0.022	Yaw Set Point:	0.014	X_WP:	0.000	Y_WP:	0.000	Y_WP:	0.500	X:	0.017	Y:	-0.011	Z:	0.435	yaw:	-0.813	yaw rate:	-34.272	Roll:	0.684	Pitch:	-0.797	Yaw:	2.932	Thrust:	62.759
Time:	4.791	Roll Set Point:	-0.035	Pitch Set Point:	0.022	Yaw Set Point:	0.012	X_WP:	0.000	Y_WP:	0.000	Y_WP:	0.500	X:	0.017	Y:	-0.011	Z:	0.437	yaw:	-0.715	yaw rate:	-9.792	Roll:	0.833	Pitch:	-0.455	Yaw:	1.607	Thrust:	46.445
Time:	4.814	Roll Set Point:	-0.035	Pitch Set Point:	0.022	Yaw Set Point:	-0.004	X_WP:	0.000	Y_WP:	0.000	Y_WP:	0.500	X:	0.018	Y:	-0.011	Z:	0.438	yaw:	0.202	yaw rate:	-91.708	Roll:	0.846	Pitch:	-0.827	Yaw:	11.243	Thrust:	67.606
Time:	4.843	Roll Set Point:	-0.036	Pitch Set Point:	0.022	Yaw Set Point:	-0.002	X_WP:	0.000	Y_WP:	0.000	Y_WP:	0.500	X:	0.018	Y:	-0.011	Z:	0.440	yaw:	0.102	yaw rate:	9.962	Roll:	0.839	Pitch:	-0.725	Yaw:	-0.022	Thrust:	83.974
Time:	4.855	Roll Set Point:	-0.036	Pitch Set Point:	0.023	Yaw Set Point:	-0.005	X_WP:	0.000	Y_WP:	0.000	Y_WP:	0.500	X:	0.018	Y:	-0.011	Z:	0.442	yaw:	0.295	yaw rate:	-19.261	Roll:	0.813	Pitch:	-0.748	Yaw:	5.087	Thrust:	32.417
Time:	4.877	Roll Set Point:	-0.036	Pitch Set Point:	0.023	Yaw Set Point:	-0.006	X_WP:	0.000	Y_WP:	0.000	Y_WP:	0.500	X:	0.018	Y:	-0.011	Z:	0.443	yaw:	0.327	yaw rate:	-3.242	Roll:	0.738	Pitch:	-0.632	Yaw:	1.401	Thrust:	63.326
Time:	4.901	Roll Set Point:	-0.036	Pitch Set Point:	0.023	Yaw Set Point:	-0.002	X_WP:	0.000	Y_WP:	0.000	Y_WP:	0.500	X:	0.018	Y:	-0.011	Z:	0.445	yaw:	0.131	yaw rate:	19.617	Roll:	0.876	Pitch:	-0.703	Yaw:	-1.295	Thrust:	71.654
Time:	4.912	Roll Set Point:	-0.037	Pitch Set Point:	0.023	Yaw Set Point:	0.000	X_WP:	0.000	Y_WP:	0.000	Y_WP:	0.500	X:	0.018	Y:	-0.012	Z:	0.447	yaw:	-0.022	yaw rate:	15.281	Roll:	0.800	Pitch:	-0.822	Yaw:	-3.176	Thrust:	29.638
Time:	4.932	Roll Set Point:	-0.037	Pitch Set Point:	0.024	Yaw Set Point:	-0.011	X_WP:	0.000	Y_WP:	0.000	Y_WP:	0.500	X:	0.019	Y:	-0.012	Z:	0.448	yaw:	0.634	yaw rate:	-65.591	Roll:	0.814	Pitch:	-1.046	Yaw:	10.154	Thrust:	57.879
Time:	4.951	Roll Set Point:	-0.036	Pitch Set Point:	0.023	Yaw Set Point:	0.012	X_WP:	0.000	Y_WP:	0.000	Y_WP:	0.500	X:	0.018	Y:	-0.012	Z:	0.450	yaw:	-0.716	yaw rate:	135.020	Roll:	0.446	Pitch:	0.238	Yaw:	-19.042	Thrust:	55.969
Time:	4.982	Roll Set Point:	-0.036	Pitch Set Point:	0.023	Yaw Set Point:	0.028	X_WP:	0.000	Y_WP:	0.000	Y_WP:	0.500	X:	0.018	Y:	-0.012	Z:	0.450	yaw:	-1.596	yaw rate:	88.049	Roll:	0.816	Pitch:	-0.656	Yaw:	-9.131	Thrust:	91.552
Time:	4.994	Roll Set Point:	-0.036	Pitch Set Point:	0.023	Yaw Set Point:	0.027	X_WP:	0.000	Y_WP:	0.000	Y_WP:	0.500	X:	0.018	Y:	-0.012	Z:	0.450	yaw:	-1.553	yaw rate:	-4.305	Roll:	0.726	Pitch:	-0.604	Yaw:	-0.926	Thrust:	38.176
Time:	5.012	Roll Set Point:	-0.036	Pitch Set Point:	0.023	Yaw Set Point:	0.028	X_WP:	0.000	Y_WP:	0.000	Y_WP:	0.500	X:	0.018	Y:	-0.012	Z:	0.450	yaw:	-1.627	yaw rate:	7.352	Roll:	0.903	Pitch:	-0.680	Yaw:	-2.814	Thrust:	61.221
Time:	5.031	Roll Set Point:	-0.037	Pitch Set Point:	0.024	Yaw Set Point:	0.008	X_WP:	0.000	Y_WP:	0.000	Y_WP:	0.500	X:	0.018	Y:	-0.012	Z:	0.449	yaw:	-0.437	yaw rate:	-118.992	Roll:	0.838	Pitch:	-1.001	Yaw:	16.638	Thrust:	60.072
Time:	5.056	Roll Set Point:	-0.037	Pitch Set Point:	0.024	Yaw Set Point:	0.026	X_WP:	0.000	Y_WP:	0.000	Y_WP:	0.500	X:	0.018	Y:	-0.012	Z:	0.447	yaw:	-1.495	yaw rate:	105.789	Roll:	0.870	Pitch:	-0.589	Yaw:	-12.581	Thrust:	79.381
Time:	5.075	Roll Set Point:	-0.037	Pitch Set Point:	0.024	Yaw Set Point:	0.028	X_WP:	0.000	Y_WP:	0.000	Y_WP:	0.500	X:	0.018	Y:	-0.012	Z:	0.445	yaw:	-1.598	yaw rate:	10.335	Roll:	0.770	Pitch:	-0.599	Yaw:	-3.156	Thrust:	64.936
Time:	5.092	Roll Set Point:	-0.038	Pitch Set Point:	0.024	Yaw Set Point:	0.028	X_WP:	0.000	Y_WP:	0.000	Y_WP:	0.500	X:	0.019	Y:	-0.013	Z:	0.443	yaw:	-1.632	yaw rate:	3.332	Roll:	0.920	Pitch:	-0.700	Yaw:	-2.401	Thrust:	61.270
Time:	5.117	Roll Set Point:	-0.038	Pitch Set Point:	0.025	Yaw Set Point:	0.025	X_WP:	0.000	Y_WP:	0.000	Y_WP:	0.500	X:	0.019	Y:	-0.013	Z:	0.441	yaw:	-1.445	yaw rate:	-18.641	Roll:	0.812	Pitch:	-0.819	Yaw:	0.538	Thrust:	80.638
Time:	5.130	Roll Set Point:	-0.038	Pitch Set Point:	0.025	Yaw Set Point:	0.027	X_WP:	0.000	Y_WP:	0.000	Y_WP:	0.500	X:	0.019	Y:	-0.013	Z:	0.439	yaw:	-1.535	yaw rate:	8.981	Roll:	0.817	Pitch:	-0.508	Yaw:	-3.514	Thrust:	54.555
Time:	5.153	Roll Set Point:	-0.038	Pitch Set Point:	0.025	Yaw Set Point:	0.025	X_WP:	0.000	Y_WP:	0.000	Y_WP:	0.500	X:	0.019	Y:	-0.013	Z:	0.436	yaw:	-1.436	yaw rate:	-9.890	Roll:	0.896	Pitch:	-0.707	Yaw:	-0.378	Thrust:	75.961
Time:	5.175	Roll Set Point:	-0.039	Pitch Set Point:	0.026	Yaw Set Point:	0.029	X_WP:	0.000	Y_WP:	0.000	Y_WP:	0.500	X:	0.019	Y:	-0.013	Z:	0.434	yaw:	-1.648	yaw rate:	21.167	Roll:	1.002	Pitch:	-0.851	Yaw:	-4.385	Thrust:	72.982
Time:	5.194	Roll Set Point:	-0.039	Pitch Set Point:	0.025	Yaw Set Point:	0.029	X_WP:	0.000	Y_WP:	0.000	Y_WP:	0.500	X:	0.019	Y:	-0.013	Z:	0.432	yaw:	-1.678	yaw rate:	3.051	Roll:	0.830	Pitch:	-0.537	Yaw:	-2.375	Thrust:	67.918
Time:	5.210	Roll Set Point:	-0.039	Pitch Set Point:	0.026	Yaw Set Point:	0.028	X_WP:	0.000	Y_WP:	0.000	Y_WP:	0.500	X:	0.020	Y:	-0.013	Z:	0.431	yaw:	-1.602	yaw rate:	-7.667	Roll:	0.975	Pitch:	-0.819	Yaw:	-0.702	Thrust:	57.662
Time:	5.233	Roll Set Point:	-0.040	Pitch Set Point:	0.026	Yaw Set Point:	0.027	X_WP:	0.000	Y_WP:	0.000	Y_WP:	0.500	X:	0.020	Y:	-0.013	Z:	0.429	yaw:	-1.532	yaw rate:	-6.988	Roll:	0.981	Pitch:	-0.728	Yaw:	-0.884	Thrust:	71.780
Time:	5.252	Roll Set Point:	-0.040	Pitch Set Point:	0.026	Yaw Set Point:	0.027	X_WP:	0.000	Y_WP:	0.000	Y_WP:	0.500	X:	0.020	Y:	-0.013	Z:	0.428	yaw:	-1.546	yaw rate:	1.482	Roll:	0.825	Pitch:	-0.665	Yaw:	-2.014	Thrust:	67.688
Time:	5.280	Roll Set Point:	-0.041	Pitch Set Point:	0.027	Yaw Set Point:	0.013	X_WP:	0.000	Y_WP:	0.000	Y_WP:	0.500	X:	0.020	Y:	-0.014	Z:	0.428	yaw:	-0.730	yaw rate:	-81.687	Roll:	1.170	Pitch:	-1.212	Yaw:	7.138	Thrust:	88.214
Time:	5.292	Roll Set Point:	-0.041	Pitch Set Point:	0.027	Yaw Set Point:	0.006	X_WP:	0.000	Y_WP:	0.000	Y_WP:	0.500	X:	0.020	Y:	-0.014	Z:	0.428	yaw:	-0.323	yaw rate:	-40.632	Roll:	0.564	Pitch:	-0.648	Yaw:	8.256	Thrust:	43.832
Time:	5.316	Roll Set Point:	-0.041	Pitch Set Point:	0.028	Yaw Set Point:	0.006	X_WP:	0.000	Y_WP:	0.000	Y_WP:	0.500	X:	0.021	Y:	-0.014	Z:	0.428	yaw:	-0.364	yaw rate:	4.025	Roll:	1.037	Pitch:	-0.790	Yaw:	-0.539	Thrust:	78.460
Time:	5.331	Roll Set Point:	-0.042	Pitch Set Point:	0.027	Yaw Set Point:	0.007	X_WP:	0.000	Y_WP:	0.000	Y_WP:	0.500	X:	0.021	Y:	-0.014	Z:	0.429	yaw:	-0.403	yaw rate:	3.910	Roll:	0.835	Pitch:	-0.438	Yaw:	-1.004	Thrust:	47.477
Time:	5.353	Roll Set Point:	-0.042	Pitch Set Point:	0.028	Yaw Set Point:	0.030	X_WP:	0.000	Y_WP:	0.000	Y_WP:	0.500	X:	0.021	Y:	-0.014	Z:	0.430	yaw:	-1.726	yaw rate:	132.371	Roll:	1.080	Pitch:	-0.574	Yaw:	-17.167	Thrust:	73.015
