Time:	0.036	Roll Set Point:	-1.281	Pitch Set Point:	-0.261	Yaw Set Point:	-0.013	X_WP:	0.000	Y_WP:	0.000	Z_WP:	0.500	X:	0.640	Y:	0.134	Z:	0.045	yaw:	0.740	yaw rate:	9.038	Roll:	9.620	Pitch:	1.892	Yaw:	1.033	Thrust:	25.022
Time:	0.055	Roll Set Point:	-1.281	Pitch Set Point:	-0.259	Yaw Set Point:	-0.015	X_WP:	0.000	Y_WP:	0.000	Z_WP:	0.500	X:	0.640	Y:	0.134	Z:	0.045	yaw:	0.857	yaw rate:	-11.727	Roll:	9.803	Pitch:	0.780	Yaw:	2.811	Thrust:	26.300
Time:	0.076	Roll Set Point:	-1.281	Pitch Set Point:	-0.261	Yaw Set Point:	-0.013	X_WP:	0.000	Y_WP:	0.000	Z_WP:	0.500	X:	0.640	Y:	0.134	Z:	0.045	yaw:	0.733	yaw rate:	12.439	Roll:	9.535	Pitch:	2.972	Yaw:	-0.554	Thrust:	27.144
Time:	0.095	Roll Set Point:	-1.281	Pitch Set Point:	-0.260	Yaw Set Point:	-0.014	X_WP:	0.000	Y_WP:	0.000	Z_WP:	0.500	X:	0.640	Y:	0.134	Z:	0.045	yaw:	0.830	yaw rate:	-9.673	Roll:	9.829	Pitch:	1.037	Yaw:	2.466	Thrust:	28.289
Time:	0.115	Roll Set Point:	-1.281	Pitch Set Point:	-0.260	Yaw Set Point:	-0.014	X_WP:	0.000	Y_WP:	0.000	Z_WP:	0.500	X:	0.640	Y:	0.135	Z:	0.045	yaw:	0.829	yaw rate:	0.069	Roll:	9.755	Pitch:	1.939	Yaw:	1.170	Thrust:	29.462
Time:	0.136	Roll Set Point:	-1.281	Pitch Set Point:	-0.260	Yaw Set Point:	-0.013	X_WP:	0.000	Y_WP:	0.000	Z_WP:	0.500	X:	0.640	Y:	0.134	Z:	0.045	yaw:	0.745	yaw rate:	8.359	Roll:	9.695	Pitch:	2.603	Yaw:	-0.012	Thrust:	30.407
Time:	0.156	Roll Set Point:	-1.281	Pitch Set Point:	-0.260	Yaw Set Point:	-0.015	X_WP:	0.000	Y_WP:	0.000	Z_WP:	0.500	X:	0.640	Y:	0.134	Z:	0.045	yaw:	0.837	yaw rate:	-9.179	Roll:	9.906	Pitch:	1.141	Yaw:	2.387	Thrust:	31.833
Time:	0.176	Roll Set Point:	-1.281	Pitch Set Point:	-0.261	Yaw Set Point:	-0.013	X_WP:	0.000	Y_WP:	0.000	Z_WP:	0.500	X:	0.640	Y:	0.134	Z:	0.045	yaw:	0.742	yaw rate:	9.519	Roll:	9.750	Pitch:	2.820	Yaw:	-0.173	Thrust:	32.307
Time:	0.195	Roll Set Point:	-1.281	Pitch Set Point:	-0.260	Yaw Set Point:	-0.013	X_WP:	0.000	Y_WP:	0.000	Z_WP:	0.500	X:	0.640	Y:	0.134	Z:	0.045	yaw:	0.750	yaw rate:	-0.849	Roll:	9.869	Pitch:	1.829	Yaw:	1.205	Thrust:	33.684
Time:	0.215	Roll Set Point:	-1.282	Pitch Set Point:	-0.256	Yaw Set Point:	-0.019	X_WP:	0.000	Y_WP:	0.000	Z_WP:	0.500	X:	0.640	Y:	0.134	Z:	0.045	yaw:	1.086	yaw rate:	-33.585	Roll:	10.602	Pitch:	-1.445	Yaw:	6.008	Thrust:	35.320
Time:	0.236	Roll Set Point:	-1.281	Pitch Set Point:	-0.260	Yaw Set Point:	-0.015	X_WP:	0.000	Y_WP:	0.000	Z_WP:	0.500	X:	0.640	Y:	0.134	Z:	0.045	yaw:	0.837	yaw rate:	24.953	Roll:	9.343	Pitch:	4.452	Yaw:	-2.007	Thrust:	35.623
Time:	0.257	Roll Set Point:	-1.281	Pitch Set Point:	-0.260	Yaw Set Point:	-0.013	X_WP:	0.000	Y_WP:	0.000	Z_WP:	0.500	X:	0.640	Y:	0.134	Z:	0.045	yaw:	0.769	yaw rate:	6.789	Roll:	9.946	Pitch:	2.529	Yaw:	0.315	Thrust:	37.887
Time:	0.276	Roll Set Point:	-1.282	Pitch Set Point:	-0.258	Yaw Set Point:	-0.017	X_WP:	0.000	Y_WP:	0.000	Z_WP:	0.500	X:	0.640	Y:	0.134	Z:	0.045	yaw:	0.955	yaw rate:	-18.650	Roll:	10.514	Pitch:	-0.189	Yaw:	3.921	Thrust:	38.028
Time:	0.296	Roll Set Point:	-1.281	Pitch Set Point:	-0.260	Yaw Set Point:	-0.013	X_WP:	0.000	Y_WP:	0.000	Z_WP:	0.500	X:	0.640	Y:	0.134	Z:	0.045	yaw:	0.741	yaw rate:	21.476	Roll:	9.467	Pitch:	4.173	Yaw:	-1.754	Thrust:	38.688
Time:	0.315	Roll Set Point:	-1.281	Pitch Set Point:	-0.260	Yaw Set Point:	-0.013	X_WP:	0.000	Y_WP:	0.000	Z_WP:	0.500	X:	0.640	Y:	0.134	Z:	0.045	yaw:	0.759	yaw rate:	-1.879	Roll:	10.101	Pitch:	1.828	Yaw:	1.390	Thrust:	39.937
Time:	0.336	Roll Set Point:	-1.281	Pitch Set Point:	-0.259	Yaw Set Point:	-0.015	X_WP:	0.000	Y_WP:	0.000	Z_WP:	0.500	X:	0.640	Y:	0.134	Z:	0.045	yaw:	0.851	yaw rate:	-9.172	Roll:	10.212	Pitch:	1.135	Yaw:	2.471	Thrust:	41.652
Time:	0.357	Roll Set Point:	-1.281	Pitch Set Point:	-0.259	Yaw Set Point:	-0.015	X_WP:	0.000	Y_WP:	0.000	Z_WP:	0.500	X:	0.640	Y:	0.134	Z:	0.045	yaw:	0.856	yaw rate:	-0.465	Roll:	10.144	Pitch:	1.895	Yaw:	1.347	Thrust:	42.597
Time:	0.376	Roll Set Point:	-1.281	Pitch Set Point:	-0.261	Yaw Set Point:	-0.013	X_WP:	0.000	Y_WP:	0.000	Z_WP:	0.500	X:	0.640	Y:	0.134	Z:	0.045	yaw:	0.735	yaw rate:	12.074	Roll:	10.009	Pitch:	3.109	Yaw:	-0.417	Thrust:	43.813
Time:	0.396	Roll Set Point:	-1.281	Pitch Set Point:	-0.261	Yaw Set Point:	-0.013	X_WP:	0.000	Y_WP:	0.000	Z_WP:	0.500	X:	0.640	Y:	0.134	Z:	0.045	yaw:	0.737	yaw rate:	-0.203	Roll:	10.197	Pitch:	1.977	Yaw:	1.157	Thrust:	43.997
Time:	0.415	Roll Set Point:	-1.281	Pitch Set Point:	-0.261	Yaw Set Point:	-0.013	X_WP:	0.000	Y_WP:	0.000	Z_WP:	0.500	X:	0.640	Y:	0.134	Z:	0.045	yaw:	0.728	yaw rate:	0.850	Roll:	10.216	Pitch:	2.063	Yaw:	1.006	Thrust:	45.634
Time:	0.438	Roll Set Point:	-1.282	Pitch Set Point:	-0.257	Yaw Set Point:	-0.019	X_WP:	0.000	Y_WP:	0.000	Z_WP:	0.500	X:	0.640	Y:	0.134	Z:	0.045	yaw:	1.072	yaw rate:	-34.390	Roll:	10.977	Pitch:	-1.106	Yaw:	5.688	Thrust:	49.661
Time:	0.457	Roll Set Point:	-1.281	Pitch Set Point:	-0.261	Yaw Set Point:	-0.012	X_WP:	0.000	Y_WP:	0.000	Z_WP:	0.500	X:	0.640	Y:	0.134	Z:	0.045	yaw:	0.704	yaw rate:	36.818	Roll:	9.467	Pitch:	5.568	Yaw:	-3.746	Thrust:	47.284
Time:	0.477	Roll Set Point:	-1.281	Pitch Set Point:	-0.260	Yaw Set Point:	-0.014	X_WP:	0.000	Y_WP:	0.000	Z_WP:	0.500	X:	0.640	Y:	0.134	Z:	0.045	yaw:	0.807	yaw rate:	-10.255	Roll:	10.493	Pitch:	1.031	Yaw:	2.589	Thrust:	48.096
Time:	0.496	Roll Set Point:	-1.282	Pitch Set Point:	-0.256	Yaw Set Point:	-0.019	X_WP:	0.000	Y_WP:	0.000	Z_WP:	0.500	X:	0.640	Y:	0.134	Z:	0.045	yaw:	1.080	yaw rate:	-27.377	Roll:	10.983	Pitch:	-0.854	Yaw:	5.489	Thrust:	49.931
Time:	0.517	Roll Set Point:	-1.281	Pitch Set Point:	-0.261	Yaw Set Point:	-0.013	X_WP:	0.000	Y_WP:	0.000	Z_WP:	0.500	X:	0.640	Y:	0.134	Z:	0.045	yaw:	0.744	yaw rate:	33.665	Roll:	9.648	Pitch:	5.431	Yaw:	-3.328	Thrust:	50.257
Time:	0.539	Roll Set Point:	-1.281	Pitch Set Point:	-0.260	Yaw Set Point:	-0.015	X_WP:	0.000	Y_WP:	0.000	Z_WP:	0.500	X:	0.640	Y:	0.134	Z:	0.045	yaw:	0.835	yaw rate:	-9.130	Roll:	10.562	Pitch:	1.309	Yaw:	2.387	Thrust:	55.204
Time:	0.556	Roll Set Point:	-1.281	Pitch Set Point:	-0.260	Yaw Set Point:	-0.015	X_WP:	0.000	Y_WP:	0.000	Z_WP:	0.500	X:	0.640	Y:	0.134	Z:	0.045	yaw:	0.846	yaw rate:	-1.098	Roll:	10.324	Pitch:	1.933	Yaw:	1.475	Thrust:	51.480
Time:	0.576	Roll Set Point:	-1.281	Pitch Set Point:	-0.260	Yaw Set Point:	-0.014	X_WP:	0.000	Y_WP:	0.000	Z_WP:	0.500	X:	0.640	Y:	0.134	Z:	0.045	yaw:	0.806	yaw rate:	3.970	Roll:	10.290	Pitch:	2.415	Yaw:	0.761	Thrust:	53.689
Time:	0.596	Roll Set Point:	-1.281	Pitch Set Point:	-0.261	Yaw Set Point:	-0.013	X_WP:	0.000	Y_WP:	0.000	Z_WP:	0.500	X:	0.640	Y:	0.134	Z:	0.045	yaw:	0.719	yaw rate:	8.746	Roll:	10.262	Pitch:	2.814	Yaw:	0.008	Thrust:	55.960
Time:	0.616	Roll Set Point:	-1.282	Pitch Set Point:	-0.258	Yaw Set Point:	-0.016	X_WP:	0.000	Y_WP:	0.000	Z_WP:	0.500	X:	0.640	Y:	0.134	Z:	0.045	yaw:	0.945	yaw rate:	-22.619	Roll:	10.944	Pitch:	-0.245	Yaw:	4.379	Thrust:	56.335
Time:	0.636	Roll Set Point:	-1.281	Pitch Set Point:	-0.260	Yaw Set Point:	-0.013	X_WP:	0.000	Y_WP:	0.000	Z_WP:	0.500	X:	0.640	Y:	0.134	Z:	0.045	yaw:	0.749	yaw rate:	19.582	Roll:	9.861	Pitch:	4.062	Yaw:	-1.413	Thrust:	58.155
Time:	0.656	Roll Set Point:	-1.281	Pitch Set Point:	-0.261	Yaw Set Point:	-0.013	X_WP:	0.000	Y_WP:	0.000	Z_WP:	0.500	X:	0.640	Y:	0.134	Z:	0.045	yaw:	0.740	yaw rate:	0.932	Roll:	10.355	Pitch:	2.165	Yaw:	1.087	Thrust:	58.737
Time:	0.676	Roll Set Point:	-1.281	Pitch Set Point:	-0.260	Yaw Set Point:	-0.013	X_WP:	0.000	Y_WP:	0.000	Z_WP:	0.500	X:	0.640	Y:	0.134	Z:	0.045	yaw:	0.762	yaw rate:	-2.213	Roll:	10.451	Pitch:	1.879	Yaw:	1.536	Thrust:	59.965
Time:	0.696	Roll Set Point:	-1.281	Pitch Set Point:	-0.260	Yaw Set Point:	-0.013	X_WP:	0.000	Y_WP:	0.000	Z_WP:	0.500	X:	0.640	Y:	0.134	Z:	0.045	yaw:	0.755	yaw rate:	0.686	Roll:	10.303	Pitch:	2.197	Yaw:	1.154	Thrust:	61.260
Time:	0.715	Roll Set Point:	-1.281	Pitch Set Point:	-0.261	Yaw Set Point:	-0.013	X_WP:	0.000	Y_WP:	0.000	Z_WP:	0.500	X:	0.640	Y:	0.134	Z:	0.045	yaw:	0.739	yaw rate:	1.677	Roll:	10.355	Pitch:	2.237	Yaw:	0.992	Thrust:	60.969
Time:	0.736	Roll Set Point:	-1.281	Pitch Set Point:	-0.260	Yaw Set Point:	-0.013	X_WP:	0.000	Y_WP:	0.000	Z_WP:	0.500	X:	0.640	Y:	0.134	Z:	0.045	yaw:	0.758	yaw rate:	-1.921	Roll:	10.414	Pitch:	1.932	Yaw:	1.506	Thrust:	64.591
Time:	0.756	Roll Set Point:	-1.282	Pitch Set Point:	-0.256	Yaw Set Point:	-0.019	X_WP:	0.000	Y_WP:	0.000	Z_WP:	0.500	X:	0.640	Y:	0.134	Z:	0.045	yaw:	1.102	yaw rate:	-34.413	Roll:	11.079	Pitch:	-1.198	Yaw:	6.152	Thrust:	65.733
Time:	0.776	Roll Set Point:	-1.281	Pitch Set Point:	-0.260	Yaw Set Point:	-0.013	X_WP:	0.000	Y_WP:	0.000	Z_WP:	0.500	X:	0.640	Y:	0.134	Z:	0.045	yaw:	0.761	yaw rate:	34.123	Roll:	9.670	Pitch:	5.516	Yaw:	-3.309	Thrust:	63.859
Time:	0.798	Roll Set Point:	-1.281	Pitch Set Point:	-0.260	Yaw Set Point:	-0.014	X_WP:	0.000	Y_WP:	0.000	Z_WP:	0.500	X:	0.640	Y:	0.134	Z:	0.045	yaw:	0.828	yaw rate:	-6.734	Roll:	10.505	Pitch:	1.612	Yaw:	2.183	Thrust:	70.938
Time:	0.817	Roll Set Point:	-1.281	Pitch Set Point:	-0.259	Yaw Set Point:	-0.015	X_WP:	0.000	Y_WP:	0.000	Z_WP:	0.500	X:	0.640	Y:	0.134	Z:	0.045	yaw:	0.857	yaw rate:	-2.889	Roll:	10.374	Pitch:	1.804	Yaw:	1.813	Thrust:	65.037
Time:	0.838	Roll Set Point:	-1.281	Pitch Set Point:	-0.260	Yaw Set Point:	-0.013	X_WP:	0.000	Y_WP:	0.000	Z_WP:	0.500	X:	0.640	Y:	0.134	Z:	0.045	yaw:	0.755	yaw rate:	10.160	Roll:	10.261	Pitch:	3.045	Yaw:	0.008	Thrust:	70.157
Time:	0.860	Roll Set Point:	-1.281	Pitch Set Point:	-0.261	Yaw Set Point:	-0.013	X_WP:	0.000	Y_WP:	0.000	Z_WP:	0.500	X:	0.640	Y:	0.134	Z:	0.045	yaw:	0.724	yaw rate:	3.122	Roll:	10.314	Pitch:	2.422	Yaw:	0.876	Thrust:	70.246
Time:	0.877	Roll Set Point:	-1.282	Pitch Set Point:	-0.258	Yaw Set Point:	-0.016	X_WP:	0.000	Y_WP:	0.000	Z_WP:	0.500	X:	0.640	Y:	0.134	Z:	0.045	yaw:	0.924	yaw rate:	-19.980	Roll:	10.918	Pitch:	-0.012	Yaw:	4.361	Thrust:	69.893
Time:	0.897	Roll Set Point:	-1.281	Pitch Set Point:	-0.260	Yaw Set Point:	-0.013	X_WP:	0.000	Y_WP:	0.000	Z_WP:	0.500	X:	0.640	Y:	0.134	Z:	0.045	yaw:	0.764	yaw rate:	15.988	Roll:	9.902	Pitch:	3.976	Yaw:	-0.866	Thrust:	69.948
Time:	0.916	Roll Set Point:	-1.281	Pitch Set Point:	-0.260	Yaw Set Point:	-0.013	X_WP:	0.000	Y_WP:	0.000	Z_WP:	0.500	X:	0.640	Y:	0.134	Z:	0.045	yaw:	0.757	yaw rate:	0.697	Roll:	10.322	Pitch:	2.214	Yaw:	1.213	Thrust:	72.644
Time:	0.936	Roll Set Point:	-1.282	Pitch Set Point:	-0.258	Yaw Set Point:	-0.016	X_WP:	0.000	Y_WP:	0.000	Z_WP:	0.500	X:	0.640	Y:	0.134	Z:	0.045	yaw:	0.939	yaw rate:	-18.188	Roll:	10.910	Pitch:	0.290	Yaw:	3.936	Thrust:	74.783
Time:	0.957	Roll Set Point:	-1.281	Pitch Set Point:	-0.260	Yaw Set Point:	-0.015	X_WP:	0.000	Y_WP:	0.000	Z_WP:	0.500	X:	0.640	Y:	0.134	Z:	0.045	yaw:	0.848	yaw rate:	9.096	Roll:	10.044	Pitch:	3.229	Yaw:	0.303	Thrust:	76.753
Time:	0.976	Roll Set Point:	-1.281	Pitch Set Point:	-0.260	Yaw Set Point:	-0.013	X_WP:	0.000	Y_WP:	0.000	Z_WP:	0.500	X:	0.640	Y:	0.134	Z:	0.045	yaw:	0.749	yaw rate:	9.879	Roll:	10.197	Pitch:	3.094	Yaw:	-0.065	Thrust:	73.460
Time:	0.997	Roll Set Point:	-1.281	Pitch Set Point:	-0.260	Yaw Set Point:	-0.013	X_WP:	0.000	Y_WP:	0.000	Z_WP:	0.500	X:	0.640	Y:	0.134	Z:	0.045	yaw:	0.760	yaw rate:	-1.121	Roll:	10.384	Pitch:	2.077	Yaw:	1.486	Thrust:	79.219
Time:	1.016	Roll Set Point:	-1.281	Pitch Set Point:	-0.260	Yaw Set Point:	-0.014	X_WP:	0.000	Y_WP:	0.000	Z_WP:	0.500	X:	0.640	Y:	0.134	Z:	0.045	yaw:	0.828	yaw rate:	-6.782	Roll:	10.463	Pitch:	1.605	Yaw:	2.331	Thrust:	77.929
Time:	1.037	Roll Set Point:	-1.281	Pitch Set Point:	-0.259	Yaw Set Point:	-0.015	X_WP:	0.000	Y_WP:	0.000	Z_WP:	0.500	X:	0.640	Y:	0.135	Z:	0.045	yaw:	0.855	yaw rate:	-2.674	Roll:	10.388	Pitch:	1.959	Yaw:	1.827	Thrust:	79.182
Time:	1.057	Roll Set Point:	-1.281	Pitch Set Point:	-0.259	Yaw Set Point:	-0.015	X_WP:	0.000	Y_WP:	0.000	Z_WP:	0.500	X:	0.640	Y:	0.134	Z:	0.045	yaw:	0.862	yaw rate:	-0.678	Roll:	10.423	Pitch:	2.107	Yaw:	1.591	Thrust:	81.358
Time:	1.076	Roll Set Point:	-1.281	Pitch Set Point:	-0.261	Yaw Set Point:	-0.013	X_WP:	0.000	Y_WP:	0.000	Z_WP:	0.500	X:	0.640	Y:	0.134	Z:	0.045	yaw:	0.722	yaw rate:	13.978	Roll:	10.173	Pitch:	3.490	Yaw:	-0.673	Thrust:	81.048
Time:	1.096	Roll Set Point:	-1.281	Pitch Set Point:	-0.260	Yaw Set Point:	-0.013	X_WP:	0.000	Y_WP:	0.000	Z_WP:	0.500	X:	0.640	Y:	0.134	Z:	0.045	yaw:	0.759	yaw rate:	-3.734	Roll:	10.420	Pitch:	1.893	Yaw:	1.850	Thrust:	83.063
Time:	1.117	Roll Set Point:	-1.281	Pitch Set Point:	-0.261	Yaw Set Point:	-0.013	X_WP:	0.000	Y_WP:	0.000	Z_WP:	0.500	X:	0.640	Y:	0.134	Z:	0.045	yaw:	0.746	yaw rate:	1.300	Roll:	10.362	Pitch:	2.347	Yaw:	1.169	Thrust:	82.821
Time:	1.137	Roll Set Point:	-1.281	Pitch Set Point:	-0.260	Yaw Set Point:	-0.014	X_WP:	0.000	Y_WP:	0.000	Z_WP:	0.500	X:	0.640	Y:	0.134	Z:	0.045	yaw:	0.825	yaw rate:	-7.881	Roll:	10.465	Pitch:	1.558	Yaw:	2.461	Thrust:	86.957
Time:	1.157	Roll Set Point:	-1.281	Pitch Set Point:	-0.261	Yaw Set Point:	-0.013	X_WP:	0.000	Y_WP:	0.000	Z_WP:	0.500	X:	0.640	Y:	0.134	Z:	0.045	yaw:	0.740	yaw rate:	8.481	Roll:	10.247	Pitch:	2.992	Yaw:	0.189	Thrust:	85.456
Time:	1.177	Roll Set Point:	-1.281	Pitch Set Point:	-0.260	Yaw Set Point:	-0.015	X_WP:	0.000	Y_WP:	0.000	Z_WP:	0.500	X:	0.640	Y:	0.134	Z:	0.045	yaw:	0.844	yaw rate:	-10.415	Roll:	10.496	Pitch:	1.321	Yaw:	2.849	Thrust:	88.296
Time:	1.197	Roll Set Point:	-1.281	Pitch Set Point:	-0.260	Yaw Set Point:	-0.013	X_WP:	0.000	Y_WP:	0.000	Z_WP:	0.500	X:	0.640	Y:	0.134	Z:	0.045	yaw:	0.748	yaw rate:	9.625	Roll:	10.259	Pitch:	3.118	Yaw:	0.138	Thrust:	87.684
Time:	1.218	Roll Set Point:	-1.281	Pitch Set Point:	-0.260	Yaw Set Point:	-0.013	X_WP:	0.000	Y_WP:	0.000	Z_WP:	0.500	X:	0.640	Y:	0.134	Z:	0.045	yaw:	0.744	yaw rate:	0.425	Roll:	10.416	Pitch:	2.307	Yaw:	1.342	Thrust:	92.016
Time:	1.239	Roll Set Point:	-1.281	Pitch Set Point:	-0.259	Yaw Set Point:	-0.015	X_WP:	0.000	Y_WP:	0.000	Z_WP:	0.500	X:	0.640	Y:	0.134	Z:	0.045	yaw:	0.847	yaw rate:	-10.322	Roll:	10.499	Pitch:	1.367	Yaw:	2.870	Thrust:	92.429
Time:	1.260	Roll Set Point:	-1.281	Pitch Set Point:	-0.260	Yaw Set Point:	-0.015	X_WP:	0.000	Y_WP:	0.000	Z_WP:	0.500	X:	0.640	Y:	0.134	Z:	0.045	yaw:	0.833	yaw rate:	1.407	Roll:	10.306	Pitch:	2.399	Yaw:	1.342	Thrust:	95.632
Time:	1.279	Roll Set Point:	-1.281	Pitch Set Point:	-0.259	Yaw Set Point:	-0.015	X_WP:	0.000	Y_WP:	0.000	Z_WP:	0.500	X:	0.640	Y:	0.134	Z:	0.045	yaw:	0.846	yaw rate:	-1.341	Roll:	10.464	Pitch:	2.133	Yaw:	1.712	Thrust:	93.945
Time:	1.300	Roll Set Point:	-1.281	Pitch Set Point:	-0.260	Yaw Set Point:	-0.013	X_WP:	0.000	Y_WP:	0.000	Z_WP:	0.500	X:	0.640	Y:	0.134	Z:	0.045	yaw:	0.760	yaw rate:	8.621	Roll:	10.219	Pitch:	3.058	Yaw:	0.259	Thrust:	90.552
Time:	1.317	Roll Set Point:	-1.281	Pitch Set Point:	-0.259	Yaw Set Point:	-0.015	X_WP:	0.000	Y_WP:	0.000	Z_WP:	0.500	X:	0.640	Y:	0.134	Z:	0.045	yaw:	0.855	yaw rate:	-9.486	Roll:	10.445	Pitch:	1.299	Yaw:	2.966	Thrust:	86.131
Time:	1.337	Roll Set Point:	-1.281	Pitch Set Point:	-0.259	Yaw Set Point:	-0.015	X_WP:	0.000	Y_WP:	0.000	Z_WP:	0.500	X:	0.640	Y:	0.134	Z:	0.045	yaw:	0.844	yaw rate:	1.095	Roll:	10.399	Pitch:	2.380	Yaw:	1.431	Thrust:	99.949
Time:	1.356	Roll Set Point:	-1.281	Pitch Set Point:	-0.261	Yaw Set Point:	-0.013	X_WP:	0.000	Y_WP:	0.000	Z_WP:	0.500	X:	0.640	Y:	0.134	Z:	0.045	yaw:	0.727	yaw rate:	11.718	Roll:	10.187	Pitch:	3.359	Yaw:	-0.192	Thrust:	95.115
Time:	1.377	Roll Set Point:	-1.281	Pitch Set Point:	-0.260	Yaw Set Point:	-0.013	X_WP:	0.000	Y_WP:	0.000	Z_WP:	0.500	X:	0.640	Y:	0.134	Z:	0.045	yaw:	0.771	yaw rate:	-4.369	Roll:	10.455	Pitch:	1.900	Yaw:	2.025	Thrust:	97.297
Time:	1.397	Roll Set Point:	-1.281	Pitch Set Point:	-0.261	Yaw Set Point:	-0.013	X_WP:	0.000	Y_WP:	0.000	Z_WP:	0.500	X:	0.640	Y:	0.134	Z:	0.045	yaw:	0.732	yaw rate:	3.831	Roll:	10.294	Pitch:	2.668	Yaw:	0.897	Thrust:	100.000
Time:	1.417	Roll Set Point:	-1.282	Pitch Set Point:	-0.258	Yaw Set Point:	-0.016	X_WP:	0.000	Y_WP:	0.000	Z_WP:	0.500	X:	0.640	Y:	0.134	Z:	0.045	yaw:	0.940	yaw rate:	-20.756	Roll:	10.927	Pitch:	0.034	Yaw:	4.515	Thrust:	97.791
Time:	1.437	Roll Set Point:	-1.281	Pitch Set Point:	-0.260	Yaw Set Point:	-0.013	X_WP:	0.000	Y_WP:	0.000	Z_WP:	0.500	X:	0.640	Y:	0.134	Z:	0.045	yaw:	0.753	yaw rate:	18.668	Roll:	9.892	Pitch:	4.223	Yaw:	-0.834	Thrust:	100.000
Time:	1.458	Roll Set Point:	-1.281	Pitch Set Point:	-0.260	Yaw Set Point:	-0.013	X_WP:	0.000	Y_WP:	0.000	Z_WP:	0.500	X:	0.640	Y:	0.134	Z:	0.045	yaw:	0.747	yaw rate:	0.638	Roll:	10.368	Pitch:	2.427	Yaw:	1.357	Thrust:	100.000
Time:	1.476	Roll Set Point:	-1.281	Pitch Set Point:	-0.261	Yaw Set Point:	-0.013	X_WP:	0.000	Y_WP:	0.000	Z_WP:	0.500	X:	0.640	Y:	0.134	Z:	0.045	yaw:	0.740	yaw rate:	0.660	Roll:	10.350	Pitch:	2.410	Yaw:	1.350	Thrust:	100.000
Time:	1.497	Roll Set Point:	-1.281	Pitch Set Point:	-0.260	Yaw Set Point:	-0.013	X_WP:	0.000	Y_WP:	0.000	Z_WP:	0.500	X:	0.640	Y:	0.134	Z:	0.045	yaw:	0.745	yaw rate:	-0.523	Roll:	10.373	Pitch:	2.266	Yaw:	1.524	Thrust:	100.000
Time:	1.516	Roll Set Point:	-1.281	Pitch Set Point:	-0.259	Yaw Set Point:	-0.015	X_WP:	0.000	Y_WP:	0.000	Z_WP:	0.500	X:	0.640	Y:	0.134	Z:	0.045	yaw:	0.872	yaw rate:	-12.627	Roll:	10.559	Pitch:	1.226	Yaw:	3.300	Thrust:	100.000
Time:	1.537	Roll Set Point:	-1.281	Pitch Set Point:	-0.260	Yaw Set Point:	-0.013	X_WP:	0.000	Y_WP:	0.000	Z_WP:	0.500	X:	0.640	Y:	0.134	Z:	0.045	yaw:	0.760	yaw rate:	11.194	Roll:	10.227	Pitch:	3.376	Yaw:	0.064	Thrust:	100.000
Time:	1.557	Roll Set Point:	-1.281	Pitch Set Point:	-0.261	Yaw Set Point:	-0.013	X_WP:	0.000	Y_WP:	0.000	Z_WP:	0.500	X:	0.640	Y:	0.134	Z:	0.045	yaw:	0.727	yaw rate:	3.283	Roll:	10.305	Pitch:	2.675	Yaw:	1.038	Thrust:	100.000
Time:	1.578	Roll Set Point:	-1.281	Pitch Set Point:	-0.260	Yaw Set Point:	-0.013	X_WP:	0.000	Y_WP:	0.000	Z_WP:	0.500	X:	0.640	Y:	0.134	Z:	0.045	yaw:	0.760	yaw rate:	-3.262	Roll:	10.447	Pitch:	2.115	Yaw:	1.922	Thrust:	100.000
Time:	1.596	Roll Set Point:	-1.281	Pitch Set Point:	-0.259	Yaw Set Point:	-0.015	X_WP:	0.000	Y_WP:	0.000	Z_WP:	0.500	X:	0.640	Y:	0.135	Z:	0.045	yaw:	0.865	yaw rate:	-10.579	Roll:	10.471	Pitch:	1.350	Yaw:	3.142	Thrust:	100.000
Time:	1.616	Roll Set Point:	-1.281	Pitch Set Point:	-0.260	Yaw Set Point:	-0.015	X_WP:	0.000	Y_WP:	0.000	Z_WP:	0.500	X:	0.640	Y:	0.134	Z:	0.045	yaw:	0.831	yaw rate:	3.410	Roll:	10.353	Pitch:	2.663	Yaw:	1.150	Thrust:	100.000
Time:	1.637	Roll Set Point:	-1.281	Pitch Set Point:	-0.260	Yaw Set Point:	-0.015	X_WP:	0.000	Y_WP:	0.000	Z_WP:	0.500	X:	0.640	Y:	0.134	Z:	0.045	yaw:	0.841	yaw rate:	-1.017	Roll:	10.373	Pitch:	2.291	Yaw:	1.768	Thrust:	100.000
Time:	1.657	Roll Set Point:	-1.281	Pitch Set Point:	-0.260	Yaw Set Point:	-0.013	X_WP:	0.000	Y_WP:	0.000	Z_WP:	0.500	X:	0.640	Y:	0.134	Z:	0.045	yaw:	0.748	yaw rate:	9.380	Roll:	10.297	Pitch:	3.220	Yaw:	0.280	Thrust:	100.000
Time:	1.677	Roll Set Point:	-1.281	Pitch Set Point:	-0.261	Yaw Set Point:	-0.013	X_WP:	0.000	Y_WP:	0.000	Z_WP:	0.500	X:	0.640	Y:	0.134	Z:	0.045	yaw:	0.743	yaw rate:	0.504	Roll:	10.315	Pitch:	2.463	Yaw:	1.425	Thrust:	100.000
Time:	1.698	Roll Set Point:	-1.281	Pitch Set Point:	-0.261	Yaw Set Point:	-0.013	X_WP:	0.000	Y_WP:	0.000	Z_WP:	0.500	X:	0.640	Y:	0.134	Z:	0.045	yaw:	0.735	yaw rate:	0.748	Roll:	10.408	Pitch:	2.491	Yaw:	1.440	Thrust:	100.000
Time:	1.719	Roll Set Point:	-1.281	Pitch Set Point:	-0.260	Yaw Set Point:	-0.014	X_WP:	0.000	Y_WP:	0.000	Z_WP:	0.500	X:	0.640	Y:	0.134	Z:	0.045	yaw:	0.788	yaw rate:	-5.277	Roll:	10.413	Pitch:	1.964	Yaw:	2.257	Thrust:	100.000
Time:	1.739	Roll Set Point:	-1.281	Pitch Set Point:	-0.260	Yaw Set Point:	-0.013	X_WP:	0.000	Y_WP:	0.000	Z_WP:	0.500	X:	0.640	Y:	0.134	Z:	0.045	yaw:	0.746	yaw rate:	4.144	Roll:	10.366	Pitch:	2.783	Yaw:	1.006	Thrust:	100.000
Time:	1.759	Roll Set Point:	-1.281	Pitch Set Point:	-0.260	Yaw Set Point:	-0.015	X_WP:	0.000	Y_WP:	0.000	Z_WP:	0.500	X:	0.640	Y:	0.134	Z:	0.045	yaw:	0.845	yaw rate:	-9.860	Roll:	10.451	Pitch:	1.483	Yaw:	2.969	Thrust:	100.000
Time:	1.777	Roll Set Point:	-1.281	Pitch Set Point:	-0.260	Yaw Set Point:	-0.013	X_WP:	0.000	Y_WP:	0.000	Z_WP:	0.500	X:	0.640	Y:	0.134	Z:	0.045	yaw:	0.765	yaw rate:	8.037	Roll:	10.260	Pitch:	3.160	Yaw:	0.225	Thrust:	100.000
Time:	1.797	Roll Set Point:	-1.281	Pitch Set Point:	-0.261	Yaw Set Point:	-0.013	X_WP:	0.000	Y_WP:	0.000	Z_WP:	0.500	X:	0.640	Y:	0.134	Z:	0.045	yaw:	0.736	yaw rate:	2.864	Roll:	10.336	Pitch:	2.696	Yaw:	1.174	Thrust:	100.000
Time:	1.816	Roll Set Point:	-1.281	Pitch Set Point:	-0.261	Yaw Set Point:	-0.013	X_WP:	0.000	Y_WP:	0.000	Z_WP:	0.500	X:	0.640	Y:	0.134	Z:	0.045	yaw:	0.736	yaw rate:	0.012	Roll:	10.354	Pitch:	2.452	Yaw:	1.529	Thrust:	100.000
Time:	1.837	Roll Set Point:	-1.281	Pitch Set Point:	-0.260	Yaw Set Point:	-0.015	X_WP:	0.000	Y_WP:	0.000	Z_WP:	0.500	X:	0.640	Y:	0.134	Z:	0.045	yaw:	0.831	yaw rate:	-9.511	Roll:	10.490	Pitch:	1.648	Yaw:	2.924	Thrust:	100.000
Time:	1.859	Roll Set Point:	-1.281	Pitch Set Point:	-0.259	Yaw Set Point:	-0.015	X_WP:	0.000	Y_WP:	0.000	Z_WP:	0.500	X:	0.640	Y:	0.134	Z:	0.045	yaw:	0.848	yaw rate:	-1.727	Roll:	10.420	Pitch:	2.333	Yaw:	1.965	Thrust:	100.000
Time:	1.878	Roll Set Point:	-1.281	Pitch Set Point:	-0.259	Yaw Set Point:	-0.015	X_WP:	0.000	Y_WP:	0.000	Z_WP:	0.500	X:	0.640	Y:	0.134	Z:	0.045	yaw:	0.868	yaw rate:	-2.010	Roll:	10.397	Pitch:	2.232	Yaw:	1.976	Thrust:	100.000
Time:	1.898	Roll Set Point:	-1.281	Pitch Set Point:	-0.259	Yaw Set Point:	-0.015	X_WP:	0.000	Y_WP:	0.000	Z_WP:	0.500	X:	0.640	Y:	0.134	Z:	0.045	yaw:	0.847	yaw rate:	2.132	Roll:	10.327	Pitch:	2.653	Yaw:	1.429	Thrust:	100.000
Time:	1.917	Roll Set Point:	-1.281	Pitch Set Point:	-0.260	Yaw Set Point:	-0.015	X_WP:	0.000	Y_WP:	0.000	Z_WP:	0.500	X:	0.640	Y:	0.134	Z:	0.045	yaw:	0.840	yaw rate:	0.688	Roll:	10.330	Pitch:	2.506	Yaw:	1.584	Thrust:	100.000
Time:	1.952	Roll Set Point:	-1.281	Pitch Set Point:	-0.260	Yaw Set Point:	-0.013	X_WP:	0.000	Y_WP:	0.000	Z_WP:	0.500	X:	0.640	Y:	0.134	Z:	0.045	yaw:	0.748	yaw rate:	9.215	Roll:	10.912	Pitch:	3.401	Yaw:	1.318	Thrust:	100.000
Time:	1.967	Roll Set Point:	-1.281	Pitch Set Point:	-0.260	Yaw Set Point:	-0.014	X_WP:	0.000	Y_WP:	0.000	Z_WP:	0.500	X:	0.640	Y:	0.134	Z:	0.045	yaw:	0.781	yaw rate:	-3.301	Roll:	10.162	Pitch:	1.953	Yaw:	2.084	Thrust:	100.000
Time:	1.986	Roll Set Point:	-1.281	Pitch Set Point:	-0.260	Yaw Set Point:	-0.013	X_WP:	0.000	Y_WP:	0.000	Z_WP:	0.500	X:	0.640	Y:	0.134	Z:	0.045	yaw:	0.765	yaw rate:	1.622	Roll:	10.383	Pitch:	2.590	Yaw:	1.368	Thrust:	100.000
Time:	2.006	Roll Set Point:	-1.281	Pitch Set Point:	-0.260	Yaw Set Point:	-0.015	X_WP:	0.000	Y_WP:	0.000	Z_WP:	0.500	X:	0.640	Y:	0.134	Z:	0.045	yaw:	0.841	yaw rate:	-7.577	Roll:	10.450	Pitch:	1.858	Yaw:	2.704	Thrust:	100.000
Time:	2.026	Roll Set Point:	-1.282	Pitch Set Point:	-0.258	Yaw Set Point:	-0.017	X_WP:	0.000	Y_WP:	0.000	Z_WP:	0.500	X:	0.640	Y:	0.134	Z:	0.045	yaw:	0.947	yaw rate:	-10.628	Roll:	10.807	Pitch:	1.250	Yaw:	3.284	Thrust:	100.000
Time:	2.046	Roll Set Point:	-1.281	Pitch Set Point:	-0.259	Yaw Set Point:	-0.015	X_WP:	0.000	Y_WP:	0.000	Z_WP:	0.500	X:	0.640	Y:	0.134	Z:	0.045	yaw:	0.862	yaw rate:	8.447	Roll:	9.956	Pitch:	3.535	Yaw:	0.645	Thrust:	100.000
Time:	2.066	Roll Set Point:	-1.281	Pitch Set Point:	-0.260	Yaw Set Point:	-0.014	X_WP:	0.000	Y_WP:	0.000	Z_WP:	0.500	X:	0.640	Y:	0.134	Z:	0.045	yaw:	0.828	yaw rate:	3.431	Roll:	10.336	Pitch:	2.802	Yaw:	1.299	Thrust:	100.000
Time:	2.087	Roll Set Point:	-1.281	Pitch Set Point:	-0.260	Yaw Set Point:	-0.014	X_WP:	0.000	Y_WP:	0.000	Z_WP:	0.500	X:	0.640	Y:	0.134	Z:	0.045	yaw:	0.783	yaw rate:	4.511	Roll:	10.356	Pitch:	2.943	Yaw:	1.133	Thrust:	100.000
Time:	2.107	Roll Set Point:	-1.281	Pitch Set Point:	-0.260	Yaw Set Point:	-0.013	X_WP:	0.000	Y_WP:	0.000	Z_WP:	0.500	X:	0.640	Y:	0.134	Z:	0.045	yaw:	0.756	yaw rate:	2.743	Roll:	10.332	Pitch:	2.788	Yaw:	1.269	Thrust:	100.000
Time:	2.128	Roll Set Point:	-1.281	Pitch Set Point:	-0.260	Yaw Set Point:	-0.015	X_WP:	0.000	Y_WP:	0.000	Z_WP:	0.500	X:	0.640	Y:	0.134	Z:	0.045	yaw:	0.840	yaw rate:	-8.440	Roll:	10.454	Pitch:	1.826	Yaw:	2.845	Thrust:	100.000
Time:	2.147	Roll Set Point:	-1.281	Pitch Set Point:	-0.260	Yaw Set Point:	-0.014	X_WP:	0.000	Y_WP:	0.000	Z_WP:	0.500	X:	0.640	Y:	0.134	Z:	0.045	yaw:	0.819	yaw rate:	2.094	Roll:	10.342	Pitch:	2.726	Yaw:	1.442	Thrust:	100.000
Time:	2.168	Roll Set Point:	-1.281	Pitch Set Point:	-0.261	Yaw Set Point:	-0.013	X_WP:	0.000	Y_WP:	0.000	Z_WP:	0.500	X:	0.640	Y:	0.134	Z:	0.045	yaw:	0.741	yaw rate:	7.823	Roll:	10.307	Pitch:	3.244	Yaw:	0.655	Thrust:	100.000
Time:	2.187	Roll Set Point:	-1.282	Pitch Set Point:	-0.258	Yaw Set Point:	-0.016	X_WP:	0.000	Y_WP:	0.000	Z_WP:	0.500	X:	0.640	Y:	0.134	Z:	0.045	yaw:	0.935	yaw rate:	-19.415	Roll:	10.910	Pitch:	0.335	Yaw:	4.510	Thrust:	100.000
Time:	2.208	Roll Set Point:	-1.281	Pitch Set Point:	-0.260	Yaw Set Point:	-0.015	X_WP:	0.000	Y_WP:	0.000	Z_WP:	0.500	X:	0.640	Y:	0.134	Z:	0.045	yaw:	0.831	yaw rate:	10.416	Roll:	9.941	Pitch:	3.767	Yaw:	0.402	Thrust:	100.000
Time:	2.228	Roll Set Point:	-1.281	Pitch Set Point:	-0.261	Yaw Set Point:	-0.013	X_WP:	0.000	Y_WP:	0.000	Z_WP:	0.500	X:	0.640	Y:	0.134	Z:	0.045	yaw:	0.742	yaw rate:	8.888	Roll:	10.295	Pitch:	3.365	Yaw:	0.584	Thrust:	100.000
Time:	2.247	Roll Set Point:	-1.281	Pitch Set Point:	-0.260	Yaw Set Point:	-0.013	X_WP:	0.000	Y_WP:	0.000	Z_WP:	0.500	X:	0.640	Y:	0.134	Z:	0.045	yaw:	0.752	yaw rate:	-0.968	Roll:	10.357	Pitch:	2.448	Yaw:	1.755	Thrust:	100.000
Time:	2.268	Roll Set Point:	-1.281	Pitch Set Point:	-0.260	Yaw Set Point:	-0.013	X_WP:	0.000	Y_WP:	0.000	Z_WP:	0.500	X:	0.640	Y:	0.134	Z:	0.045	yaw:	0.764	yaw rate:	-1.243	Roll:	10.409	Pitch:	2.466	Yaw:	1.880	Thrust:	100.000
Time:	2.287	Roll Set Point:	-1.281	Pitch Set Point:	-0.260	Yaw Set Point:	-0.013	X_WP:	0.000	Y_WP:	0.000	Z_WP:	0.500	X:	0.640	Y:	0.134	Z:	0.045	yaw:	0.755	yaw rate:	0.889	Roll:	10.356	Pitch:	2.681	Yaw:	1.556	Thrust:	100.000
Time:	2.307	Roll Set Point:	-1.281	Pitch Set Point:	-0.260	Yaw Set Point:	-0.013	X_WP:	0.000	Y_WP:	0.000	Z_WP:	0.500	X:	0.640	Y:	0.134	Z:	0.045	yaw:	0.763	yaw rate:	-0.807	Roll:	10.387	Pitch:	2.535	Yaw:	1.806	Thrust:	100.000
Time:	2.328	Roll Set Point:	-1.281	Pitch Set Point:	-0.259	Yaw Set Point:	-0.015	X_WP:	0.000	Y_WP:	0.000	Z_WP:	0.500	X:	0.640	Y:	0.135	Z:	0.045	yaw:	0.859	yaw rate:	-9.554	Roll:	10.476	Pitch:	1.768	Yaw:	3.082	Thrust:	100.000
Time:	2.347	Roll Set Point:	-1.282	Pitch Set Point:	-0.257	Yaw Set Point:	-0.019	X_WP:	0.000	Y_WP:	0.000	Z_WP:	0.500	X:	0.640	Y:	0.134	Z:	0.045	yaw:	1.075	yaw rate:	-21.583	Roll:	10.931	Pitch:	0.342	Yaw:	5.023	Thrust:	100.000
Time:	2.367	Roll Set Point:	-1.281	Pitch Set Point:	-0.260	Yaw Set Point:	-0.013	X_WP:	0.000	Y_WP:	0.000	Z_WP:	0.500	X:	0.640	Y:	0.134	Z:	0.045	yaw:	0.758	yaw rate:	31.699	Roll:	9.744	Pitch:	5.769	Yaw:	-2.415	Thrust:	100.000
Time:	2.387	Roll Set Point:	-1.281	Pitch Set Point:	-0.260	Yaw Set Point:	-0.014	X_WP:	0.000	Y_WP:	0.000	Z_WP:	0.500	X:	0.640	Y:	0.134	Z:	0.045	yaw:	0.781	yaw rate:	-2.324	Roll:	10.377	Pitch:	2.397	Yaw:	2.050	Thrust:	100.000
Time:	2.407	Roll Set Point:	-1.281	Pitch Set Point:	-0.260	Yaw Set Point:	-0.013	X_WP:	0.000	Y_WP:	0.000	Z_WP:	0.500	X:	0.640	Y:	0.134	Z:	0.045	yaw:	0.743	yaw rate:	3.812	Roll:	10.292	Pitch:	2.945	Yaw:	1.147	Thrust:	100.000
Time:	2.426	Roll Set Point:	-1.281	Pitch Set Point:	-0.259	Yaw Set Point:	-0.015	X_WP:	0.000	Y_WP:	0.000	Z_WP:	0.500	X:	0.640	Y:	0.134	Z:	0.045	yaw:	0.851	yaw rate:	-10.830	Roll:	10.488	Pitch:	1.651	Yaw:	3.267	Thrust:	100.000
Time:	2.447	Roll Set Point:	-1.281	Pitch Set Point:	-0.260	Yaw Set Point:	-0.013	X_WP:	0.000	Y_WP:	0.000	Z_WP:	0.500	X:	0.640	Y:	0.134	Z:	0.045	yaw:	0.757	yaw rate:	9.429	Roll:	10.278	Pitch:	3.495	Yaw:	0.421	Thrust:	100.000
Time:	2.467	Roll Set Point:	-1.281	Pitch Set Point:	-0.260	Yaw Set Point:	-0.013	X_WP:	0.000	Y_WP:	0.000	Z_WP:	0.500	X:	0.640	Y:	0.134	Z:	0.045	yaw:	0.761	yaw rate:	-0.410	Roll:	10.411	Pitch:	2.632	Yaw:	1.836	Thrust:	100.000
Time:	2.486	Roll Set Point:	-1.281	Pitch Set Point:	-0.260	Yaw Set Point:	-0.015	X_WP:	0.000	Y_WP:	0.000	Z_WP:	0.500	X:	0.640	Y:	0.134	Z:	0.045	yaw:	0.845	yaw rate:	-8.415	Roll:	10.446	Pitch:	1.829	Yaw:	2.986	Thrust:	100.000
Time:	2.506	Roll Set Point:	-1.281	Pitch Set Point:	-0.260	Yaw Set Point:	-0.013	X_WP:	0.000	Y_WP:	0.000	Z_WP:	0.500	X:	0.640	Y:	0.134	Z:	0.045	yaw:	0.755	yaw rate:	8.973	Roll:	10.258	Pitch:	3.468	Yaw:	0.578	Thrust:	100.000
Time:	2.526	Roll Set Point:	-1.281	Pitch Set Point:	-0.260	Yaw Set Point:	-0.013	X_WP:	0.000	Y_WP:	0.000	Z_WP:	0.500	X:	0.640	Y:	0.134	Z:	0.045	yaw:	0.758	yaw rate:	-0.264	Roll:	10.373	Pitch:	2.582	Yaw:	1.801	Thrust:	100.000
Time:	2.548	Roll Set Point:	-1.282	Pitch Set Point:	-0.258	Yaw Set Point:	-0.017	X_WP:	0.000	Y_WP:	0.000	Z_WP:	0.500	X:	0.640	Y:	0.134	Z:	0.045	yaw:	0.954	yaw rate:	-19.642	Roll:	10.927	Pitch:	0.703	Yaw:	4.502	Thrust:	100.000
Time:	2.568	Roll Set Point:	-1.281	Pitch Set Point:	-0.260	Yaw Set Point:	-0.014	X_WP:	0.000	Y_WP:	0.000	Z_WP:	0.500	X:	0.640	Y:	0.134	Z:	0.045	yaw:	0.777	yaw rate:	17.766	Roll:	9.851	Pitch:	4.494	Yaw:	-0.527	Thrust:	100.000
Time:	2.590	Roll Set Point:	-1.281	Pitch Set Point:	-0.259	Yaw Set Point:	-0.015	X_WP:	0.000	Y_WP:	0.000	Z_WP:	0.500	X:	0.640	Y:	0.135	Z:	0.045	yaw:	0.861	yaw rate:	-8.473	Roll:	10.508	Pitch:	1.943	Yaw:	3.003	Thrust:	100.000
Time:	2.607	Roll Set Point:	-1.281	Pitch Set Point:	-0.260	Yaw Set Point:	-0.014	X_WP:	0.000	Y_WP:	0.000	Z_WP:	0.500	X:	0.640	Y:	0.134	Z:	0.045	yaw:	0.781	yaw rate:	8.006	Roll:	10.237	Pitch:	3.318	Yaw:	0.523	Thrust:	100.000
Time:	2.627	Roll Set Point:	-1.281	Pitch Set Point:	-0.260	Yaw Set Point:	-0.015	X_WP:	0.000	Y_WP:	0.000	Z_WP:	0.500	X:	0.640	Y:	0.134	Z:	0.045	yaw:	0.840	yaw rate:	-5.907	Roll:	10.403	Pitch:	2.083	Yaw:	2.673	Thrust:	100.000
Time:	2.647	Roll Set Point:	-1.281	Pitch Set Point:	-0.260	Yaw Set Point:	-0.014	X_WP:	0.000	Y_WP:	0.000	Z_WP:	0.500	X:	0.640	Y:	0.134	Z:	0.045	yaw:	0.774	yaw rate:	6.685	Roll:	10.306	Pitch:	3.249	Yaw:	0.952	Thrust:	100.000
Time:	2.667	Roll Set Point:	-1.281	Pitch Set Point:	-0.261	Yaw Set Point:	-0.013	X_WP:	0.000	Y_WP:	0.000	Z_WP:	0.500	X:	0.640	Y:	0.134	Z:	0.045	yaw:	0.748	yaw rate:	2.582	Roll:	10.347	Pitch:	2.908	Yaw:	1.418	Thrust:	100.000
Time:	2.686	Roll Set Point:	-1.281	Pitch Set Point:	-0.260	Yaw Set Point:	-0.013	X_WP:	0.000	Y_WP:	0.000	Z_WP:	0.500	X:	0.640	Y:	0.134	Z:	0.045	yaw:	0.756	yaw rate:	-0.866	Roll:	10.375	Pitch:	2.494	Yaw:	1.898	Thrust:	100.000
Time:	2.707	Roll Set Point:	-1.282	Pitch Set Point:	-0.258	Yaw Set Point:	-0.017	X_WP:	0.000	Y_WP:	0.000	Z_WP:	0.500	X:	0.640	Y:	0.134	Z:	0.045	yaw:	0.976	yaw rate:	-21.974	Roll:	10.950	Pitch:	0.380	Yaw:	4.928	Thrust:	100.000
Time:	2.727	Roll Set Point:	-1.281	Pitch Set Point:	-0.260	Yaw Set Point:	-0.014	X_WP:	0.000	Y_WP:	0.000	Z_WP:	0.500	X:	0.640	Y:	0.134	Z:	0.045	yaw:	0.795	yaw rate:	18.097	Roll:	9.837	Pitch:	4.581	Yaw:	-0.525	Thrust:	100.000
Time:	2.748	Roll Set Point:	-1.281	Pitch Set Point:	-0.260	Yaw Set Point:	-0.013	X_WP:	0.000	Y_WP:	0.000	Z_WP:	0.500	X:	0.640	Y:	0.134	Z:	0.045	yaw:	0.756	yaw rate:	3.943	Roll:	10.369	Pitch:	3.012	Yaw:	1.383	Thrust:	100.000
Time:	2.769	Roll Set Point:	-1.281	Pitch Set Point:	-0.259	Yaw Set Point:	-0.015	X_WP:	0.000	Y_WP:	0.000	Z_WP:	0.500	X:	0.640	Y:	0.134	Z:	0.045	yaw:	0.857	yaw rate:	-10.174	Roll:	10.502	Pitch:	1.824	Yaw:	3.258	Thrust:	100.000
Time:	2.790	Roll Set Point:	-1.281	Pitch Set Point:	-0.259	Yaw Set Point:	-0.015	X_WP:	0.000	Y_WP:	0.000	Z_WP:	0.500	X:	0.640	Y:	0.134	Z:	0.045	yaw:	0.852	yaw rate:	0.564	Roll:	10.371	Pitch:	2.648	Yaw:	1.901	Thrust:	100.000
Time:	2.813	Roll Set Point:	-1.281	Pitch Set Point:	-0.260	Yaw Set Point:	-0.013	X_WP:	0.000	Y_WP:	0.000	Z_WP:	0.500	X:	0.640	Y:	0.134	Z:	0.045	yaw:	0.739	yaw rate:	11.262	Roll:	10.340	Pitch:	3.635	Yaw:	0.561	Thrust:	100.000
Time:	2.831	Roll Set Point:	-1.281	Pitch Set Point:	-0.260	Yaw Set Point:	-0.013	X_WP:	0.000	Y_WP:	0.000	Z_WP:	0.500	X:	0.640	Y:	0.134	Z:	0.045	yaw:	0.756	yaw rate:	-1.658	Roll:	10.328	Pitch:	2.452	Yaw:	2.016	Thrust:	100.000
Time:	2.846	Roll Set Point:	-1.281	Pitch Set Point:	-0.261	Yaw Set Point:	-0.013	X_WP:	0.000	Y_WP:	0.000	Z_WP:	0.500	X:	0.640	Y:	0.134	Z:	0.045	yaw:	0.742	yaw rate:	1.383	Roll:	10.261	Pitch:	2.671	Yaw:	1.424	Thrust:	100.000
Time:	2.867	Roll Set Point:	-1.281	Pitch Set Point:	-0.260	Yaw Set Point:	-0.015	X_WP:	0.000	Y_WP:	0.000	Z_WP:	0.500	X:	0.640	Y:	0.134	Z:	0.045	yaw:	0.838	yaw rate:	-9.566	Roll:	10.509	Pitch:	1.792	Yaw:	3.203	Thrust:	100.000
Time:	2.886	Roll Set Point:	-1.281	Pitch Set Point:	-0.260	Yaw Set Point:	-0.013	X_WP:	0.000	Y_WP:	0.000	Z_WP:	0.500	X:	0.640	Y:	0.134	Z:	0.045	yaw:	0.772	yaw rate:	6.582	Roll:	10.271	Pitch:	3.224	Yaw:	0.951	Thrust:	100.000
Time:	2.907	Roll Set Point:	-1.281	Pitch Set Point:	-0.261	Yaw Set Point:	-0.013	X_WP:	0.000	Y_WP:	0.000	Z_WP:	0.500	X:	0.640	Y:	0.134	Z:	0.045	yaw:	0.741	yaw rate:	3.063	Roll:	10.330	Pitch:	2.906	Yaw:	1.449	Thrust:	100.000
Time:	2.927	Roll Set Point:	-1.281	Pitch Set Point:	-0.260	Yaw Set Point:	-0.013	X_WP:	0.000	Y_WP:	0.000	Z_WP:	0.500	X:	0.640	Y:	0.134	Z:	0.045	yaw:	0.742	yaw rate:	-0.047	Roll:	10.394	Pitch:	2.644	Yaw:	1.894	Thrust:	100.000
Time:	2.947	Roll Set Point:	-1.281	Pitch Set Point:	-0.260	Yaw Set Point:	-0.013	X_WP:	0.000	Y_WP:	0.000	Z_WP:	0.500	X:	0.640	Y:	0.134	Z:	0.045	yaw:	0.747	yaw rate:	-0.576	Roll:	10.344	Pitch:	2.579	Yaw:	1.918	Thrust:	100.000
Time:	2.967	Roll Set Point:	-1.281	Pitch Set Point:	-0.260	Yaw Set Point:	-0.013	X_WP:	0.000	Y_WP:	0.000	Z_WP:	0.500	X:	0.640	Y:	0.134	Z:	0.045	yaw:	0.746	yaw rate:	0.163	Roll:	10.357	Pitch:	2.672	Yaw:	1.845	Thrust:	100.000
Time:	2.987	Roll Set Point:	-1.281	Pitch Set Point:	-0.260	Yaw Set Point:	-0.013	X_WP:	0.000	Y_WP:	0.000	Z_WP:	0.500	X:	0.640	Y:	0.134	Z:	0.045	yaw:	0.754	yaw rate:	-0.849	Roll:	10.371	Pitch:	2.563	Yaw:	1.982	Thrust:	100.000
Time:	3.007	Roll Set Point:	-1.281	Pitch Set Point:	-0.260	Yaw Set Point:	-0.013	X_WP:	0.000	Y_WP:	0.000	Z_WP:	0.500	X:	0.640	Y:	0.134	Z:	0.045	yaw:	0.760	yaw rate:	-0.525	Roll:	10.444	Pitch:	2.567	Yaw:	1.972	Thrust:	100.000
Time:	3.028	Roll Set Point:	-1.281	Pitch Set Point:	-0.260	Yaw Set Point:	-0.014	X_WP:	0.000	Y_WP:	0.000	Z_WP:	0.500	X:	0.640	Y:	0.134	Z:	0.045	yaw:	0.822	yaw rate:	-6.257	Roll:	10.370	Pitch:	2.152	Yaw:	2.804	Thrust:	100.000
Time:	3.046	Roll Set Point:	-1.281	Pitch Set Point:	-0.260	Yaw Set Point:	-0.013	X_WP:	0.000	Y_WP:	0.000	Z_WP:	0.500	X:	0.640	Y:	0.134	Z:	0.045	yaw:	0.747	yaw rate:	7.486	Roll:	10.324	Pitch:	3.257	Yaw:	0.772	Thrust:	100.000
Time:	3.067	Roll Set Point:	-1.281	Pitch Set Point:	-0.260	Yaw Set Point:	-0.015	X_WP:	0.000	Y_WP:	0.000	Z_WP:	0.500	X:	0.640	Y:	0.134	Z:	0.045	yaw:	0.844	yaw rate:	-9.712	Roll:	10.466	Pitch:	1.843	Yaw:	3.278	Thrust:	100.000
Time:	3.087	Roll Set Point:	-1.281	Pitch Set Point:	-0.260	Yaw Set Point:	-0.013	X_WP:	0.000	Y_WP:	0.000	Z_WP:	0.500	X:	0.640	Y:	0.134	Z:	0.045	yaw:	0.746	yaw rate:	9.850	Roll:	10.281	Pitch:	3.502	Yaw:	0.608	Thrust:	100.000
Time:	3.106	Roll Set Point:	-1.281	Pitch Set Point:	-0.260	Yaw Set Point:	-0.013	X_WP:	0.000	Y_WP:	0.000	Z_WP:	0.500	X:	0.640	Y:	0.134	Z:	0.045	yaw:	0.768	yaw rate:	-2.221	Roll:	10.384	Pitch:	2.381	Yaw:	2.184	Thrust:	100.000
Time:	3.126	Roll Set Point:	-1.281	Pitch Set Point:	-0.261	Yaw Set Point:	-0.013	X_WP:	0.000	Y_WP:	0.000	Z_WP:	0.500	X:	0.640	Y:	0.134	Z:	0.045	yaw:	0.741	yaw rate:	2.695	Roll:	10.293	Pitch:	2.936	Yaw:	1.553	Thrust:	100.000
Time:	3.146	Roll Set Point:	-1.281	Pitch Set Point:	-0.260	Yaw Set Point:	-0.013	X_WP:	0.000	Y_WP:	0.000	Z_WP:	0.500	X:	0.640	Y:	0.134	Z:	0.045	yaw:	0.759	yaw rate:	-1.833	Roll:	10.435	Pitch:	2.456	Yaw:	2.162	Thrust:	100.000
Time:	3.166	Roll Set Point:	-1.281	Pitch Set Point:	-0.259	Yaw Set Point:	-0.015	X_WP:	0.000	Y_WP:	0.000	Z_WP:	0.500	X:	0.640	Y:	0.134	Z:	0.045	yaw:	0.855	yaw rate:	-9.525	Roll:	10.477	Pitch:	1.772	Yaw:	3.315	Thrust:	100.000
Time:	3.186	Roll Set Point:	-1.281	Pitch Set Point:	-0.260	Yaw Set Point:	-0.014	X_WP:	0.000	Y_WP:	0.000	Z_WP:	0.500	X:	0.640	Y:	0.134	Z:	0.045	yaw:	0.824	yaw rate:	3.095	Roll:	10.319	Pitch:	2.923	Yaw:	1.638	Thrust:	100.000
Time:	3.207	Roll Set Point:	-1.281	Pitch Set Point:	-0.259	Yaw Set Point:	-0.015	X_WP:	0.000	Y_WP:	0.000	Z_WP:	0.500	X:	0.640	Y:	0.134	Z:	0.045	yaw:	0.872	yaw rate:	-4.854	Roll:	10.493	Pitch:	2.214	Yaw:	2.758	Thrust:	100.000
Time:	3.228	Roll Set Point:	-1.281	Pitch Set Point:	-0.260	Yaw Set Point:	-0.013	X_WP:	0.000	Y_WP:	0.000	Z_WP:	0.500	X:	0.640	Y:	0.134	Z:	0.045	yaw:	0.762	yaw rate:	10.983	Roll:	10.275	Pitch:	3.626	Yaw:	0.599	Thrust:	100.000
Time:	3.248	Roll Set Point:	-1.281	Pitch Set Point:	-0.260	Yaw Set Point:	-0.013	X_WP:	0.000	Y_WP:	0.000	Z_WP:	0.500	X:	0.640	Y:	0.134	Z:	0.045	yaw:	0.753	yaw rate:	0.962	Roll:	10.344	Pitch:	2.723	Yaw:	1.794	Thrust:	100.000
Time:	3.267	Roll Set Point:	-1.281	Pitch Set Point:	-0.261	Yaw Set Point:	-0.013	X_WP:	0.000	Y_WP:	0.000	Z_WP:	0.500	X:	0.640	Y:	0.134	Z:	0.045	yaw:	0.718	yaw rate:	3.494	Roll:	10.253	Pitch:	2.961	Yaw:	1.423	Thrust:	100.000
Time:	3.286	Roll Set Point:	-1.281	Pitch Set Point:	-0.259	Yaw Set Point:	-0.015	X_WP:	0.000	Y_WP:	0.000	Z_WP:	0.500	X:	0.640	Y:	0.134	Z:	0.045	yaw:	0.848	yaw rate:	-13.013	Roll:	10.563	Pitch:	1.404	Yaw:	3.836	Thrust:	100.000
Time:	3.307	Roll Set Point:	-1.281	Pitch Set Point:	-0.260	Yaw Set Point:	-0.014	X_WP:	0.000	Y_WP:	0.000	Z_WP:	0.500	X:	0.640	Y:	0.134	Z:	0.045	yaw:	0.830	yaw rate:	1.826	Roll:	10.335	Pitch:	2.807	Yaw:	1.867	Thrust:	100.000
Time:	3.326	Roll Set Point:	-1.281	Pitch Set Point:	-0.260	Yaw Set Point:	-0.013	X_WP:	0.000	Y_WP:	0.000	Z_WP:	0.500	X:	0.640	Y:	0.134	Z:	0.045	yaw:	0.765	yaw rate:	6.491	Roll:	10.292	Pitch:	3.189	Yaw:	1.114	Thrust:	100.000
Time:	3.348	Roll Set Point:	-1.281	Pitch Set Point:	-0.260	Yaw Set Point:	-0.013	X_WP:	0.000	Y_WP:	0.000	Z_WP:	0.500	X:	0.640	Y:	0.134	Z:	0.045	yaw:	0.750	yaw rate:	1.513	Roll:	10.339	Pitch:	2.831	Yaw:	1.798	Thrust:	100.000
Time:	3.368	Roll Set Point:	-1.281	Pitch Set Point:	-0.260	Yaw Set Point:	-0.015	X_WP:	0.000	Y_WP:	0.000	Z_WP:	0.500	X:	0.640	Y:	0.134	Z:	0.045	yaw:	0.839	yaw rate:	-8.942	Roll:	10.512	Pitch:	1.850	Yaw:	3.266	Thrust:	100.000
Time:	3.388	Roll Set Point:	-1.281	Pitch Set Point:	-0.260	Yaw Set Point:	-0.014	X_WP:	0.000	Y_WP:	0.000	Z_WP:	0.500	X:	0.640	Y:	0.134	Z:	0.045	yaw:	0.825	yaw rate:	1.392	Roll:	10.352	Pitch:	2.739	Yaw:	1.922	Thrust:	100.000
Time:	3.408	Roll Set Point:	-1.281	Pitch Set Point:	-0.260	Yaw Set Point:	-0.013	X_WP:	0.000	Y_WP:	0.000	Z_WP:	0.500	X:	0.640	Y:	0.134	Z:	0.045	yaw:	0.756	yaw rate:	6.881	Roll:	10.311	Pitch:	3.247	Yaw:	1.098	Thrust:	100.000
Time:	3.428	Roll Set Point:	-1.281	Pitch Set Point:	-0.260	Yaw Set Point:	-0.013	X_WP:	0.000	Y_WP:	0.000	Z_WP:	0.500	X:	0.640	Y:	0.134	Z:	0.045	yaw:	0.755	yaw rate:	0.178	Roll:	10.367	Pitch:	2.640	Yaw:	1.964	Thrust:	100.000
Time:	3.447	Roll Set Point:	-1.282	Pitch Set Point:	-0.257	Yaw Set Point:	-0.018	X_WP:	0.000	Y_WP:	0.000	Z_WP:	0.500	X:	0.640	Y:	0.134	Z:	0.045	yaw:	1.018	yaw rate:	-26.332	Roll:	10.979	Pitch:	0.112	Yaw:	5.850	Thrust:	100.000
Time:	3.472	Roll Set Point:	-1.281	Pitch Set Point:	-0.260	Yaw Set Point:	-0.013	X_WP:	0.000	Y_WP:	0.000	Z_WP:	0.500	X:	0.640	Y:	0.134	Z:	0.045	yaw:	0.750	yaw rate:	26.795	Roll:	10.046	Pitch:	5.014	Yaw:	-0.635	Thrust:	100.000
Time:	3.487	Roll Set Point:	-1.281	Pitch Set Point:	-0.260	Yaw Set Point:	-0.015	X_WP:	0.000	Y_WP:	0.000	Z_WP:	0.500	X:	0.640	Y:	0.134	Z:	0.045	yaw:	0.841	yaw rate:	-9.085	Roll:	10.319	Pitch:	1.448	Yaw:	3.453	Thrust:	100.000
Time:	3.507	Roll Set Point:	-1.281	Pitch Set Point:	-0.260	Yaw Set Point:	-0.013	X_WP:	0.000	Y_WP:	0.000	Z_WP:	0.500	X:	0.640	Y:	0.134	Z:	0.045	yaw:	0.749	yaw rate:	9.159	Roll:	10.268	Pitch:	3.443	Yaw:	0.769	Thrust:	100.000
Time:	3.526	Roll Set Point:	-1.281	Pitch Set Point:	-0.259	Yaw Set Point:	-0.015	X_WP:	0.000	Y_WP:	0.000	Z_WP:	0.500	X:	0.640	Y:	0.134	Z:	0.045	yaw:	0.849	yaw rate:	-10.003	Roll:	10.467	Pitch:	1.714	Yaw:	3.487	Thrust:	100.000
Time:	3.547	Roll Set Point:	-1.281	Pitch Set Point:	-0.260	Yaw Set Point:	-0.013	X_WP:	0.000	Y_WP:	0.000	Z_WP:	0.500	X:	0.640	Y:	0.134	Z:	0.045	yaw:	0.762	yaw rate:	8.750	Roll:	10.296	Pitch:	3.381	Yaw:	1.005	Thrust:	100.000
Time:	3.567	Roll Set Point:	-1.281	Pitch Set Point:	-0.260	Yaw Set Point:	-0.014	X_WP:	0.000	Y_WP:	0.000	Z_WP:	0.500	X:	0.640	Y:	0.134	Z:	0.045	yaw:	0.780	yaw rate:	-1.789	Roll:	10.403	Pitch:	2.515	Yaw:	2.294	Thrust:	100.000
Time:	3.587	Roll Set Point:	-1.281	Pitch Set Point:	-0.260	Yaw Set Point:	-0.013	X_WP:	0.000	Y_WP:	0.000	Z_WP:	0.500	X:	0.640	Y:	0.134	Z:	0.045	yaw:	0.751	yaw rate:	2.832	Roll:	10.314	Pitch:	2.902	Yaw:	1.611	Thrust:	100.000
Time:	3.606	Roll Set Point:	-1.281	Pitch Set Point:	-0.260	Yaw Set Point:	-0.014	X_WP:	0.000	Y_WP:	0.000	Z_WP:	0.500	X:	0.640	Y:	0.134	Z:	0.045	yaw:	0.830	yaw rate:	-7.812	Roll:	10.455	Pitch:	1.909	Yaw:	3.178	Thrust:	100.000
Time:	3.626	Roll Set Point:	-1.281	Pitch Set Point:	-0.260	Yaw Set Point:	-0.013	X_WP:	0.000	Y_WP:	0.000	Z_WP:	0.500	X:	0.640	Y:	0.134	Z:	0.045	yaw:	0.742	yaw rate:	8.711	Roll:	10.265	Pitch:	3.403	Yaw:	0.917	Thrust:	100.000
Time:	3.647	Roll Set Point:	-1.281	Pitch Set Point:	-0.260	Yaw Set Point:	-0.013	X_WP:	0.000	Y_WP:	0.000	Z_WP:	0.500	X:	0.640	Y:	0.134	Z:	0.045	yaw:	0.760	yaw rate:	-1.801	Roll:	10.431	Pitch:	2.525	Yaw:	2.306	Thrust:	100.000
Time:	3.667	Roll Set Point:	-1.281	Pitch Set Point:	-0.260	Yaw Set Point:	-0.014	X_WP:	0.000	Y_WP:	0.000	Z_WP:	0.500	X:	0.640	Y:	0.134	Z:	0.045	yaw:	0.818	yaw rate:	-5.721	Roll:	10.423	Pitch:	2.143	Yaw:	2.905	Thrust:	100.000
Time:	3.686	Roll Set Point:	-1.281	Pitch Set Point:	-0.260	Yaw Set Point:	-0.013	X_WP:	0.000	Y_WP:	0.000	Z_WP:	0.500	X:	0.640	Y:	0.134	Z:	0.045	yaw:	0.762	yaw rate:	5.540	Roll:	10.289	Pitch:	3.088	Yaw:	1.363	Thrust:	100.000
Time:	3.706	Roll Set Point:	-1.281	Pitch Set Point:	-0.260	Yaw Set Point:	-0.013	X_WP:	0.000	Y_WP:	0.000	Z_WP:	0.500	X:	0.640	Y:	0.134	Z:	0.045	yaw:	0.770	yaw rate:	-0.825	Roll:	10.372	Pitch:	2.572	Yaw:	2.191	Thrust:	100.000
Time:	3.726	Roll Set Point:	-1.281	Pitch Set Point:	-0.259	Yaw Set Point:	-0.015	X_WP:	0.000	Y_WP:	0.000	Z_WP:	0.500	X:	0.640	Y:	0.134	Z:	0.045	yaw:	0.869	yaw rate:	-9.858	Roll:	10.495	Pitch:	1.741	Yaw:	3.541	Thrust:	100.000
Time:	3.746	Roll Set Point:	-1.281	Pitch Set Point:	-0.260	Yaw Set Point:	-0.013	X_WP:	0.000	Y_WP:	0.000	Z_WP:	0.500	X:	0.640	Y:	0.134	Z:	0.045	yaw:	0.749	yaw rate:	11.992	Roll:	10.225	Pitch:	3.709	Yaw:	0.543	Thrust:	100.000
Time:	3.766	Roll Set Point:	-1.281	Pitch Set Point:	-0.260	Yaw Set Point:	-0.013	X_WP:	0.000	Y_WP:	0.000	Z_WP:	0.500	X:	0.640	Y:	0.134	Z:	0.045	yaw:	0.747	yaw rate:	0.263	Roll:	10.361	Pitch:	2.668	Yaw:	2.032	Thrust:	100.000
Time:	3.786	Roll Set Point:	-1.281	Pitch Set Point:	-0.259	Yaw Set Point:	-0.015	X_WP:	0.000	Y_WP:	0.000	Z_WP:	0.500	X:	0.640	Y:	0.134	Z:	0.045	yaw:	0.853	yaw rate:	-10.692	Roll:	10.528	Pitch:	1.696	Yaw:	3.633	Thrust:	100.000
Time:	3.806	Roll Set Point:	-1.281	Pitch Set Point:	-0.260	Yaw Set Point:	-0.013	X_WP:	0.000	Y_WP:	0.000	Z_WP:	0.500	X:	0.640	Y:	0.134	Z:	0.045	yaw:	0.769	yaw rate:	8.466	Roll:	10.257	Pitch:	3.382	Yaw:	1.027	Thrust:	100.000
Time:	3.826	Roll Set Point:	-1.282	Pitch Set Point:	-0.258	Yaw Set Point:	-0.017	X_WP:	0.000	Y_WP:	0.000	Z_WP:	0.500	X:	0.640	Y:	0.134	Z:	0.045	yaw:	0.963	yaw rate:	-19.455	Roll:	10.892	Pitch:	0.512	Yaw:	4.981	Thrust:	100.000
Time:	3.846	Roll Set Point:	-1.281	Pitch Set Point:	-0.260	Yaw Set Point:	-0.013	X_WP:	0.000	Y_WP:	0.000	Z_WP:	0.500	X:	0.640	Y:	0.134	Z:	0.045	yaw:	0.770	yaw rate:	19.368	Roll:	9.866	Pitch:	4.652	Yaw:	-0.367	Thrust:	100.000
Time:	3.866	Roll Set Point:	-1.281	Pitch Set Point:	-0.260	Yaw Set Point:	-0.014	X_WP:	0.000	Y_WP:	0.000	Z_WP:	0.500	X:	0.640	Y:	0.134	Z:	0.045	yaw:	0.818	yaw rate:	-4.796	Roll:	10.413	Pitch:	2.249	Yaw:	2.847	Thrust:	100.000
Time:	3.886	Roll Set Point:	-1.282	Pitch Set Point:	-0.258	Yaw Set Point:	-0.017	X_WP:	0.000	Y_WP:	0.000	Z_WP:	0.500	X:	0.640	Y:	0.134	Z:	0.045	yaw:	0.950	yaw rate:	-13.217	Roll:	10.836	Pitch:	1.076	Yaw:	4.141	Thrust:	100.000
Time:	3.906	Roll Set Point:	-1.281	Pitch Set Point:	-0.260	Yaw Set Point:	-0.013	X_WP:	0.000	Y_WP:	0.000	Z_WP:	0.500	X:	0.640	Y:	0.134	Z:	0.045	yaw:	0.747	yaw rate:	20.276	Roll:	9.790	Pitch:	4.745	Yaw:	-0.511	Thrust:	100.000
Time:	3.926	Roll Set Point:	-1.281	Pitch Set Point:	-0.259	Yaw Set Point:	-0.015	X_WP:	0.000	Y_WP:	0.000	Z_WP:	0.500	X:	0.640	Y:	0.134	Z:	0.045	yaw:	0.864	yaw rate:	-11.688	Roll:	10.551	Pitch:	1.549	Yaw:	3.830	Thrust:	100.000
Time:	3.946	Roll Set Point:	-1.281	Pitch Set Point:	-0.260	Yaw Set Point:	-0.013	X_WP:	0.000	Y_WP:	0.000	Z_WP:	0.500	X:	0.640	Y:	0.134	Z:	0.045	yaw:	0.755	yaw rate:	10.920	Roll:	10.220	Pitch:	3.624	Yaw:	0.734	Thrust:	100.000
Time:	3.966	Roll Set Point:	-1.282	Pitch Set Point:	-0.258	Yaw Set Point:	-0.016	X_WP:	0.000	Y_WP:	0.000	Z_WP:	0.500	X:	0.640	Y:	0.134	Z:	0.045	yaw:	0.939	yaw rate:	-18.417	Roll:	10.901	Pitch:	0.681	Yaw:	4.809	Thrust:	100.000
Time:	3.986	Roll Set Point:	-1.281	Pitch Set Point:	-0.259	Yaw Set Point:	-0.015	X_WP:	0.000	Y_WP:	0.000	Z_WP:	0.500	X:	0.640	Y:	0.134	Z:	0.045	yaw:	0.854	yaw rate:	8.522	Roll:	9.988	Pitch:	3.692	Yaw:	1.143	Thrust:	100.000
Time:	4.006	Roll Set Point:	-1.281	Pitch Set Point:	-0.259	Yaw Set Point:	-0.015	X_WP:	0.000	Y_WP:	0.000	Z_WP:	0.500	X:	0.640	Y:	0.134	Z:	0.045	yaw:	0.856	yaw rate:	-0.207	Roll:	10.363	Pitch:	2.618	Yaw:	2.331	Thrust:	100.000
Time:	4.026	Roll Set Point:	-1.281	Pitch Set Point:	-0.259	Yaw Set Point:	-0.015	X_WP:	0.000	Y_WP:	0.000	Z_WP:	0.500	X:	0.640	Y:	0.134	Z:	0.045	yaw:	0.844	yaw rate:	1.154	Roll:	10.356	Pitch:	2.687	Yaw:	2.121	Thrust:	100.000
Time:	4.047	Roll Set Point:	-1.281	Pitch Set Point:	-0.259	Yaw Set Point:	-0.015	X_WP:	0.000	Y_WP:	0.000	Z_WP:	0.500	X:	0.640	Y:	0.134	Z:	0.045	yaw:	0.844	yaw rate:	-0.001	Roll:	10.388	Pitch:	2.658	Yaw:	2.350	Thrust:	100.000
Time:	4.067	Roll Set Point:	-1.281	Pitch Set Point:	-0.259	Yaw Set Point:	-0.015	X_WP:	0.000	Y_WP:	0.000	Z_WP:	0.500	X:	0.640	Y:	0.134	Z:	0.045	yaw:	0.849	yaw rate:	-0.465	Roll:	10.411	Pitch:	2.621	Yaw:	2.407	Thrust:	100.000
Time:	4.086	Roll Set Point:	-1.281	Pitch Set Point:	-0.260	Yaw Set Point:	-0.015	X_WP:	0.000	Y_WP:	0.000	Z_WP:	0.500	X:	0.640	Y:	0.134	Z:	0.045	yaw:	0.842	yaw rate:	0.661	Roll:	10.296	Pitch:	2.627	Yaw:	2.193	Thrust:	100.000
Time:	4.106	Roll Set Point:	-1.281	Pitch Set Point:	-0.260	Yaw Set Point:	-0.014	X_WP:	0.000	Y_WP:	0.000	Z_WP:	0.500	X:	0.640	Y:	0.134	Z:	0.045	yaw:	0.791	yaw rate:	5.085	Roll:	10.344	Pitch:	3.119	Yaw:	1.600	Thrust:	100.000
Time:	4.125	Roll Set Point:	-1.281	Pitch Set Point:	-0.259	Yaw Set Point:	-0.015	X_WP:	0.000	Y_WP:	0.000	Z_WP:	0.500	X:	0.640	Y:	0.134	Z:	0.045	yaw:	0.849	yaw rate:	-5.789	Roll:	10.418	Pitch:	2.013	Yaw:	3.074	Thrust:	100.000
Time:	4.146	Roll Set Point:	-1.281	Pitch Set Point:	-0.260	Yaw Set Point:	-0.013	X_WP:	0.000	Y_WP:	0.000	Z_WP:	0.500	X:	0.640	Y:	0.134	Z:	0.045	yaw:	0.762	yaw rate:	8.695	Roll:	10.316	Pitch:	3.437	Yaw:	1.195	Thrust:	100.000
Time:	4.166	Roll Set Point:	-1.281	Pitch Set Point:	-0.260	Yaw Set Point:	-0.013	X_WP:	0.000	Y_WP:	0.000	Z_WP:	0.500	X:	0.640	Y:	0.134	Z:	0.045	yaw:	0.741	yaw rate:	2.120	Roll:	10.286	Pitch:	2.796	Yaw:	1.844	Thrust:	100.000
Time:	4.185	Roll Set Point:	-1.281	Pitch Set Point:	-0.260	Yaw Set Point:	-0.013	X_WP:	0.000	Y_WP:	0.000	Z_WP:	0.500	X:	0.640	Y:	0.134	Z:	0.045	yaw:	0.763	yaw rate:	-2.202	Roll:	10.423	Pitch:	2.402	Yaw:	2.508	Thrust:	100.000
Time:	4.206	Roll Set Point:	-1.281	Pitch Set Point:	-0.260	Yaw Set Point:	-0.013	X_WP:	0.000	Y_WP:	0.000	Z_WP:	0.500	X:	0.640	Y:	0.134	Z:	0.045	yaw:	0.761	yaw rate:	0.189	Roll:	10.375	Pitch:	2.691	Yaw:	2.241	Thrust:	100.000
Time:	4.226	Roll Set Point:	-1.281	Pitch Set Point:	-0.259	Yaw Set Point:	-0.015	X_WP:	0.000	Y_WP:	0.000	Z_WP:	0.500	X:	0.640	Y:	0.134	Z:	0.045	yaw:	0.885	yaw rate:	-12.422	Roll:	10.532	Pitch:	1.458	Yaw:	4.031	Thrust:	100.000
Time:	4.247	Roll Set Point:	-1.281	Pitch Set Point:	-0.260	Yaw Set Point:	-0.013	X_WP:	0.000	Y_WP:	0.000	Z_WP:	0.500	X:	0.640	Y:	0.134	Z:	0.045	yaw:	0.742	yaw rate:	14.309	Roll:	10.232	Pitch:	3.910	Yaw:	0.541	Thrust:	100.000
Time:	4.268	Roll Set Point:	-1.281	Pitch Set Point:	-0.261	Yaw Set Point:	-0.013	X_WP:	0.000	Y_WP:	0.000	Z_WP:	0.500	X:	0.640	Y:	0.134	Z:	0.045	yaw:	0.737	yaw rate:	0.533	Roll:	10.385	Pitch:	2.729	Yaw:	2.180	Thrust:	100.000
Time:	4.288	Roll Set Point:	-1.281	Pitch Set Point:	-0.260	Yaw Set Point:	-0.013	X_WP:	0.000	Y_WP:	0.000	Z_WP:	0.500	X:	0.640	Y:	0.134	Z:	0.045	yaw:	0.757	yaw rate:	-1.976	Roll:	10.384	Pitch:	2.436	Yaw:	2.510	Thrust:	100.000
Time:	4.308	Roll Set Point:	-1.281	Pitch Set Point:	-0.260	Yaw Set Point:	-0.015	X_WP:	0.000	Y_WP:	0.000	Z_WP:	0.500	X:	0.640	Y:	0.134	Z:	0.045	yaw:	0.838	yaw rate:	-8.083	Roll:	10.495	Pitch:	1.921	Yaw:	3.421	Thrust:	100.000
Time:	4.328	Roll Set Point:	-1.281	Pitch Set Point:	-0.260	Yaw Set Point:	-0.013	X_WP:	0.000	Y_WP:	0.000	Z_WP:	0.500	X:	0.640	Y:	0.134	Z:	0.045	yaw:	0.759	yaw rate:	7.911	Roll:	10.285	Pitch:	3.329	Yaw:	1.291	Thrust:	100.000
Time:	4.347	Roll Set Point:	-1.281	Pitch Set Point:	-0.259	Yaw Set Point:	-0.015	X_WP:	0.000	Y_WP:	0.000	Z_WP:	0.500	X:	0.640	Y:	0.134	Z:	0.045	yaw:	0.863	yaw rate:	-10.428	Roll:	10.458	Pitch:	1.655	Yaw:	3.790	Thrust:	100.000
Time:	4.367	Roll Set Point:	-1.281	Pitch Set Point:	-0.259	Yaw Set Point:	-0.015	X_WP:	0.000	Y_WP:	0.000	Z_WP:	0.500	X:	0.640	Y:	0.134	Z:	0.045	yaw:	0.858	yaw rate:	0.469	Roll:	10.369	Pitch:	2.630	Yaw:	2.291	Thrust:	100.000
Time:	4.386	Roll Set Point:	-1.281	Pitch Set Point:	-0.260	Yaw Set Point:	-0.013	X_WP:	0.000	Y_WP:	0.000	Z_WP:	0.500	X:	0.640	Y:	0.134	Z:	0.045	yaw:	0.745	yaw rate:	11.267	Roll:	10.251	Pitch:	3.654	Yaw:	0.801	Thrust:	100.000
Time:	4.406	Roll Set Point:	-1.282	Pitch Set Point:	-0.258	Yaw Set Point:	-0.016	X_WP:	0.000	Y_WP:	0.000	Z_WP:	0.500	X:	0.640	Y:	0.134	Z:	0.045	yaw:	0.929	yaw rate:	-18.385	Roll:	10.863	Pitch:	0.529	Yaw:	4.967	Thrust:	100.000
Time:	4.425	Roll Set Point:	-1.281	Pitch Set Point:	-0.260	Yaw Set Point:	-0.013	X_WP:	0.000	Y_WP:	0.000	Z_WP:	0.500	X:	0.640	Y:	0.134	Z:	0.045	yaw:	0.743	yaw rate:	18.621	Roll:	9.865	Pitch:	4.569	Yaw:	-0.248	Thrust:	100.000
Time:	4.446	Roll Set Point:	-1.281	Pitch Set Point:	-0.260	Yaw Set Point:	-0.015	X_WP:	0.000	Y_WP:	0.000	Z_WP:	0.500	X:	0.640	Y:	0.134	Z:	0.045	yaw:	0.834	yaw rate:	-9.051	Roll:	10.503	Pitch:	1.885	Yaw:	3.587	Thrust:	100.000
Time:	4.466	Roll Set Point:	-1.282	Pitch Set Point:	-0.258	Yaw Set Point:	-0.016	X_WP:	0.000	Y_WP:	0.000	Z_WP:	0.500	X:	0.640	Y:	0.134	Z:	0.045	yaw:	0.936	yaw rate:	-10.212	Roll:	10.805	Pitch:	1.271	Yaw:	3.886	Thrust:	100.000
Time:	4.486	Roll Set Point:	-1.281	Pitch Set Point:	-0.260	Yaw Set Point:	-0.013	X_WP:	0.000	Y_WP:	0.000	Z_WP:	0.500	X:	0.640	Y:	0.134	Z:	0.045	yaw:	0.768	yaw rate:	16.754	Roll:	9.879	Pitch:	4.431	Yaw:	0.067	Thrust:	100.000
Time:	4.506	Roll Set Point:	-1.281	Pitch Set Point:	-0.260	Yaw Set Point:	-0.014	X_WP:	0.000	Y_WP:	0.000	Z_WP:	0.500	X:	0.640	Y:	0.134	Z:	0.045	yaw:	0.781	yaw rate:	-1.303	Roll:	10.421	Pitch:	2.555	Yaw:	2.538	Thrust:	100.000
Time:	4.526	Roll Set Point:	-1.281	Pitch Set Point:	-0.260	Yaw Set Point:	-0.014	X_WP:	0.000	Y_WP:	0.000	Z_WP:	0.500	X:	0.640	Y:	0.134	Z:	0.045	yaw:	0.817	yaw rate:	-3.529	Roll:	10.326	Pitch:	2.328	Yaw:	2.861	Thrust:	100.000
Time:	4.546	Roll Set Point:	-1.282	Pitch Set Point:	-0.258	Yaw Set Point:	-0.016	X_WP:	0.000	Y_WP:	0.000	Z_WP:	0.500	X:	0.640	Y:	0.134	Z:	0.045	yaw:	0.931	yaw rate:	-11.485	Roll:	10.826	Pitch:	1.288	Yaw:	4.068	Thrust:	100.000
Time:	4.567	Roll Set Point:	-1.281	Pitch Set Point:	-0.260	Yaw Set Point:	-0.013	X_WP:	0.000	Y_WP:	0.000	Z_WP:	0.500	X:	0.640	Y:	0.134	Z:	0.045	yaw:	0.773	yaw rate:	15.878	Roll:	9.962	Pitch:	4.294	Yaw:	0.383	Thrust:	100.000
Time:	4.585	Roll Set Point:	-1.281	Pitch Set Point:	-0.260	Yaw Set Point:	-0.013	X_WP:	0.000	Y_WP:	0.000	Z_WP:	0.500	X:	0.640	Y:	0.134	Z:	0.045	yaw:	0.765	yaw rate:	0.770	Roll:	10.290	Pitch:	2.693	Yaw:	2.158	Thrust:	100.000
Time:	4.607	Roll Set Point:	-1.281	Pitch Set Point:	-0.260	Yaw Set Point:	-0.013	X_WP:	0.000	Y_WP:	0.000	Z_WP:	0.500	X:	0.640	Y:	0.134	Z:	0.045	yaw:	0.751	yaw rate:	1.404	Roll:	10.412	Pitch:	2.778	Yaw:	2.290	Thrust:	100.000
Time:	4.627	Roll Set Point:	-1.282	Pitch Set Point:	-0.258	Yaw Set Point:	-0.017	X_WP:	0.000	Y_WP:	0.000	Z_WP:	0.500	X:	0.640	Y:	0.134	Z:	0.045	yaw:	0.960	yaw rate:	-20.882	Roll:	10.937	Pitch:	0.325	Yaw:	5.391	Thrust:	100.000
Time:	4.647	Roll Set Point:	-1.281	Pitch Set Point:	-0.260	Yaw Set Point:	-0.013	X_WP:	0.000	Y_WP:	0.000	Z_WP:	0.500	X:	0.640	Y:	0.134	Z:	0.045	yaw:	0.755	yaw rate:	20.461	Roll:	9.825	Pitch:	4.738	Yaw:	-0.404	Thrust:	100.000
Time:	4.668	Roll Set Point:	-1.282	Pitch Set Point:	-0.256	Yaw Set Point:	-0.019	X_WP:	0.000	Y_WP:	0.000	Z_WP:	0.500	X:	0.640	Y:	0.134	Z:	0.045	yaw:	1.096	yaw rate:	-34.104	Roll:	11.071	Pitch:	-0.763	Yaw:	7.136	Thrust:	100.000
Time:	4.687	Roll Set Point:	-1.282	Pitch Set Point:	-0.256	Yaw Set Point:	-0.019	X_WP:	0.000	Y_WP:	0.000	Z_WP:	0.500	X:	0.640	Y:	0.134	Z:	0.045	yaw:	1.085	yaw rate:	1.154	Roll:	10.381	Pitch:	2.693	Yaw:	2.634	Thrust:	100.000
Time:	4.707	Roll Set Point:	-1.281	Pitch Set Point:	-0.260	Yaw Set Point:	-0.013	X_WP:	0.000	Y_WP:	0.000	Z_WP:	0.500	X:	0.640	Y:	0.134	Z:	0.045	yaw:	0.752	yaw rate:	33.300	Roll:	9.710	Pitch:	5.798	Yaw:	-1.965	Thrust:	100.000
Time:	4.728	Roll Set Point:	-1.281	Pitch Set Point:	-0.260	Yaw Set Point:	-0.013	X_WP:	0.000	Y_WP:	0.000	Z_WP:	0.500	X:	0.640	Y:	0.134	Z:	0.045	yaw:	0.768	yaw rate:	-1.665	Roll:	10.405	Pitch:	2.504	Yaw:	2.624	Thrust:	100.000
Time:	4.747	Roll Set Point:	-1.282	Pitch Set Point:	-0.258	Yaw Set Point:	-0.016	X_WP:	0.000	Y_WP:	0.000	Z_WP:	0.500	X:	0.640	Y:	0.134	Z:	0.045	yaw:	0.937	yaw rate:	-16.911	Roll:	10.858	Pitch:	0.811	Yaw:	4.894	Thrust:	100.000
Time:	4.768	Roll Set Point:	-1.281	Pitch Set Point:	-0.260	Yaw Set Point:	-0.013	X_WP:	0.000	Y_WP:	0.000	Z_WP:	0.500	X:	0.640	Y:	0.134	Z:	0.045	yaw:	0.770	yaw rate:	16.763	Roll:	9.856	Pitch:	4.399	Yaw:	0.403	Thrust:	100.000
Time:	4.787	Roll Set Point:	-1.281	Pitch Set Point:	-0.260	Yaw Set Point:	-0.014	X_WP:	0.000	Y_WP:	0.000	Z_WP:	0.500	X:	0.640	Y:	0.135	Z:	0.045	yaw:	0.828	yaw rate:	-5.866	Roll:	10.414	Pitch:	2.083	Yaw:	3.244	Thrust:	100.000
Time:	4.807	Roll Set Point:	-1.281	Pitch Set Point:	-0.261	Yaw Set Point:	-0.013	X_WP:	0.000	Y_WP:	0.000	Z_WP:	0.500	X:	0.640	Y:	0.134	Z:	0.045	yaw:	0.741	yaw rate:	8.695	Roll:	10.285	Pitch:	3.383	Yaw:	1.197	Thrust:	100.000
Time:	4.828	Roll Set Point:	-1.281	Pitch Set Point:	-0.260	Yaw Set Point:	-0.013	X_WP:	0.000	Y_WP:	0.000	Z_WP:	0.500	X:	0.640	Y:	0.134	Z:	0.045	yaw:	0.759	yaw rate:	-1.730	Roll:	10.408	Pitch:	2.488	Yaw:	2.618	Thrust:	100.000
Time:	4.847	Roll Set Point:	-1.281	Pitch Set Point:	-0.260	Yaw Set Point:	-0.015	X_WP:	0.000	Y_WP:	0.000	Z_WP:	0.500	X:	0.640	Y:	0.135	Z:	0.045	yaw:	0.839	yaw rate:	-7.990	Roll:	10.439	Pitch:	1.943	Yaw:	3.586	Thrust:	100.000
Time:	4.867	Roll Set Point:	-1.281	Pitch Set Point:	-0.260	Yaw Set Point:	-0.013	X_WP:	0.000	Y_WP:	0.000	Z_WP:	0.500	X:	0.640	Y:	0.134	Z:	0.045	yaw:	0.759	yaw rate:	7.943	Roll:	10.288	Pitch:	3.321	Yaw:	1.340	Thrust:	100.000
Time:	4.887	Roll Set Point:	-1.281	Pitch Set Point:	-0.261	Yaw Set Point:	-0.013	X_WP:	0.000	Y_WP:	0.000	Z_WP:	0.500	X:	0.640	Y:	0.134	Z:	0.045	yaw:	0.739	yaw rate:	2.036	Roll:	10.330	Pitch:	2.798	Yaw:	2.117	Thrust:	100.000
Time:	4.907	Roll Set Point:	-1.281	Pitch Set Point:	-0.260	Yaw Set Point:	-0.013	X_WP:	0.000	Y_WP:	0.000	Z_WP:	0.500	X:	0.640	Y:	0.134	Z:	0.045	yaw:	0.762	yaw rate:	-2.309	Roll:	10.393	Pitch:	2.454	Yaw:	2.729	Thrust:	100.000
Time:	4.928	Roll Set Point:	-1.281	Pitch Set Point:	-0.260	Yaw Set Point:	-0.013	X_WP:	0.000	Y_WP:	0.000	Z_WP:	0.500	X:	0.640	Y:	0.134	Z:	0.045	yaw:	0.763	yaw rate:	-0.110	Roll:	10.401	Pitch:	2.636	Yaw:	2.504	Thrust:	100.000
Time:	4.947	Roll Set Point:	-1.281	Pitch Set Point:	-0.260	Yaw Set Point:	-0.013	X_WP:	0.000	Y_WP:	0.000	Z_WP:	0.500	X:	0.640	Y:	0.134	Z:	0.045	yaw:	0.762	yaw rate:	0.074	Roll:	10.359	Pitch:	2.652	Yaw:	2.366	Thrust:	100.000
Time:	4.966	Roll Set Point:	-1.281	Pitch Set Point:	-0.260	Yaw Set Point:	-0.014	X_WP:	0.000	Y_WP:	0.000	Z_WP:	0.500	X:	0.640	Y:	0.134	Z:	0.045	yaw:	0.775	yaw rate:	-1.282	Roll:	10.404	Pitch:	2.448	Yaw:	2.613	Thrust:	100.000
Time:	4.986	Roll Set Point:	-1.281	Pitch Set Point:	-0.260	Yaw Set Point:	-0.013	X_WP:	0.000	Y_WP:	0.000	Z_WP:	0.500	X:	0.640	Y:	0.134	Z:	0.045	yaw:	0.751	yaw rate:	2.379	Roll:	10.276	Pitch:	2.868	Yaw:	2.105	Thrust:	100.000
Time:	5.006	Roll Set Point:	-1.281	Pitch Set Point:	-0.259	Yaw Set Point:	-0.015	X_WP:	0.000	Y_WP:	0.000	Z_WP:	0.500	X:	0.640	Y:	0.134	Z:	0.045	yaw:	0.856	yaw rate:	-10.443	Roll:	10.521	Pitch:	1.681	Yaw:	3.957	Thrust:	100.000
Time:	5.026	Roll Set Point:	-1.281	Pitch Set Point:	-0.260	Yaw Set Point:	-0.015	X_WP:	0.000	Y_WP:	0.000	Z_WP:	0.500	X:	0.640	Y:	0.134	Z:	0.045	yaw:	0.833	yaw rate:	2.275	Roll:	10.313	Pitch:	2.813	Yaw:	2.287	Thrust:	100.000
Time:	5.047	Roll Set Point:	-1.281	Pitch Set Point:	-0.259	Yaw Set Point:	-0.015	X_WP:	0.000	Y_WP:	0.000	Z_WP:	0.500	X:	0.640	Y:	0.134	Z:	0.045	yaw:	0.849	yaw rate:	-1.561	Roll:	10.411	Pitch:	2.516	Yaw:	2.815	Thrust:	100.000
Time:	5.067	Roll Set Point:	-1.281	Pitch Set Point:	-0.260	Yaw Set Point:	-0.013	X_WP:	0.000	Y_WP:	0.000	Z_WP:	0.500	X:	0.640	Y:	0.134	Z:	0.045	yaw:	0.761	yaw rate:	8.780	Roll:	10.296	Pitch:	3.429	Yaw:	1.355	Thrust:	100.000
Time:	5.090	Roll Set Point:	-1.281	Pitch Set Point:	-0.260	Yaw Set Point:	-0.013	X_WP:	0.000	Y_WP:	0.000	Z_WP:	0.500	X:	0.640	Y:	0.134	Z:	0.045	yaw:	0.753	yaw rate:	0.743	Roll:	10.356	Pitch:	2.743	Yaw:	2.532	Thrust:	100.000
Time:	5.109	Roll Set Point:	-1.281	Pitch Set Point:	-0.259	Yaw Set Point:	-0.015	X_WP:	0.000	Y_WP:	0.000	Z_WP:	0.500	X:	0.640	Y:	0.134	Z:	0.045	yaw:	0.845	yaw rate:	-9.162	Roll:	10.485	Pitch:	1.787	Yaw:	3.794	Thrust:	100.000
Time:	5.129	Roll Set Point:	-1.281	Pitch Set Point:	-0.259	Yaw Set Point:	-0.015	X_WP:	0.000	Y_WP:	0.000	Z_WP:	0.500	X:	0.640	Y:	0.134	Z:	0.045	yaw:	0.855	yaw rate:	-0.994	Roll:	10.411	Pitch:	2.510	Yaw:	2.767	Thrust:	100.000
Time:	5.149	Roll Set Point:	-1.281	Pitch Set Point:	-0.260	Yaw Set Point:	-0.014	X_WP:	0.000	Y_WP:	0.000	Z_WP:	0.500	X:	0.640	Y:	0.134	Z:	0.045	yaw:	0.785	yaw rate:	6.991	Roll:	10.298	Pitch:	3.276	Yaw:	1.555	Thrust:	100.000
Time:	5.171	Roll Set Point:	-1.281	Pitch Set Point:	-0.260	Yaw Set Point:	-0.013	X_WP:	0.000	Y_WP:	0.000	Z_WP:	0.500	X:	0.640	Y:	0.134	Z:	0.045	yaw:	0.762	yaw rate:	2.280	Roll:	10.429	Pitch:	2.911	Yaw:	2.468	Thrust:	100.000
Time:	5.192	Roll Set Point:	-1.281	Pitch Set Point:	-0.259	Yaw Set Point:	-0.015	X_WP:	0.000	Y_WP:	0.000	Z_WP:	0.500	X:	0.640	Y:	0.134	Z:	0.045	yaw:	0.845	yaw rate:	-8.233	Roll:	10.377	Pitch:	1.795	Yaw:	3.696	Thrust:	100.000
Time:	5.208	Roll Set Point:	-1.282	Pitch Set Point:	-0.258	Yaw Set Point:	-0.016	X_WP:	0.000	Y_WP:	0.000	Z_WP:	0.500	X:	0.640	Y:	0.134	Z:	0.045	yaw:	0.935	yaw rate:	-8.995	Roll:	10.779	Pitch:	1.393	Yaw:	3.921	Thrust:	100.000
Time:	5.229	Roll Set Point:	-1.281	Pitch Set Point:	-0.259	Yaw Set Point:	-0.015	X_WP:	0.000	Y_WP:	0.000	Z_WP:	0.500	X:	0.640	Y:	0.134	Z:	0.045	yaw:	0.861	yaw rate:	7.323	Roll:	9.967	Pitch:	3.557	Yaw:	1.777	Thrust:	100.000
Time:	5.249	Roll Set Point:	-1.281	Pitch Set Point:	-0.260	Yaw Set Point:	-0.015	X_WP:	0.000	Y_WP:	0.000	Z_WP:	0.500	X:	0.640	Y:	0.134	Z:	0.045	yaw:	0.833	yaw rate:	2.845	Roll:	10.336	Pitch:	2.869	Yaw:	2.271	Thrust:	100.000
Time:	5.268	Roll Set Point:	-1.281	Pitch Set Point:	-0.260	Yaw Set Point:	-0.013	X_WP:	0.000	Y_WP:	0.000	Z_WP:	0.500	X:	0.640	Y:	0.134	Z:	0.045	yaw:	0.761	yaw rate:	7.198	Roll:	10.329	Pitch:	3.293	Yaw:	1.497	Thrust:	100.000
Time:	5.288	Roll Set Point:	-1.281	Pitch Set Point:	-0.260	Yaw Set Point:	-0.013	X_WP:	0.000	Y_WP:	0.000	Z_WP:	0.500	X:	0.640	Y:	0.134	Z:	0.045	yaw:	0.752	yaw rate:	0.857	Roll:	10.280	Pitch:	2.697	Yaw:	2.367	Thrust:	100.000
Time:	5.309	Roll Set Point:	-1.281	Pitch Set Point:	-0.260	Yaw Set Point:	-0.014	X_WP:	0.000	Y_WP:	0.000	Z_WP:	0.500	X:	0.640	Y:	0.134	Z:	0.045	yaw:	0.811	yaw rate:	-5.882	Roll:	10.458	Pitch:	2.108	Yaw:	3.424	Thrust:	100.000
Time:	5.328	Roll Set Point:	-1.281	Pitch Set Point:	-0.260	Yaw Set Point:	-0.013	X_WP:	0.000	Y_WP:	0.000	Z_WP:	0.500	X:	0.640	Y:	0.134	Z:	0.045	yaw:	0.745	yaw rate:	6.645	Roll:	10.292	Pitch:	3.223	Yaw:	1.580	Thrust:	100.000
Time:	5.349	Roll Set Point:	-1.281	Pitch Set Point:	-0.260	Yaw Set Point:	-0.013	X_WP:	0.000	Y_WP:	0.000	Z_WP:	0.500	X:	0.640	Y:	0.134	Z:	0.045	yaw:	0.758	yaw rate:	-1.299	Roll:	10.419	Pitch:	2.522	Yaw:	2.729	Thrust:	100.000
Time:	5.368	Roll Set Point:	-1.281	Pitch Set Point:	-0.260	Yaw Set Point:	-0.013	X_WP:	0.000	Y_WP:	0.000	Z_WP:	0.500	X:	0.640	Y:	0.134	Z:	0.045	yaw:	0.756	yaw rate:	0.160	Roll:	10.326	Pitch:	2.658	Yaw:	2.508	Thrust:	100.000
