Time:	0.044	Roll Set Point:	-0.065	Pitch Set Point:	-0.033	Yaw Set Point:	-0.022	X_WP:	0.000	Y_WP:	0.000	Y_WP:	0.750	X:	0.032	Y:	0.017	Z:	0.406	yaw:	1.238	yaw rate:	38.925	Roll:	0.949	Pitch:	0.474	Yaw:	1.728	Thrust:	18.947
Time:	0.061	Roll Set Point:	-0.065	Pitch Set Point:	-0.034	Yaw Set Point:	-0.031	X_WP:	0.000	Y_WP:	0.000	Y_WP:	0.750	X:	0.032	Y:	0.017	Z:	0.406	yaw:	1.783	yaw rate:	-54.515	Roll:	0.800	Pitch:	0.443	Yaw:	10.871	Thrust:	17.524
Time:	0.080	Roll Set Point:	-0.064	Pitch Set Point:	-0.034	Yaw Set Point:	-0.027	X_WP:	0.000	Y_WP:	0.000	Y_WP:	0.750	X:	0.032	Y:	0.017	Z:	0.406	yaw:	1.568	yaw rate:	21.529	Roll:	0.857	Pitch:	0.622	Yaw:	-0.746	Thrust:	20.499
Time:	0.100	Roll Set Point:	-0.064	Pitch Set Point:	-0.035	Yaw Set Point:	-0.012	X_WP:	0.000	Y_WP:	0.000	Y_WP:	0.750	X:	0.032	Y:	0.018	Z:	0.406	yaw:	0.706	yaw rate:	86.170	Roll:	0.469	Pitch:	1.052	Yaw:	-10.481	Thrust:	21.681
Time:	0.120	Roll Set Point:	-0.065	Pitch Set Point:	-0.034	Yaw Set Point:	-0.029	X_WP:	0.000	Y_WP:	0.000	Y_WP:	0.750	X:	0.032	Y:	0.017	Z:	0.406	yaw:	1.655	yaw rate:	-94.909	Roll:	1.421	Pitch:	-0.137	Yaw:	14.744	Thrust:	21.888
Time:	0.140	Roll Set Point:	-0.064	Pitch Set Point:	-0.034	Yaw Set Point:	-0.028	X_WP:	0.000	Y_WP:	0.000	Y_WP:	0.750	X:	0.032	Y:	0.017	Z:	0.406	yaw:	1.578	yaw rate:	7.715	Roll:	0.905	Pitch:	0.548	Yaw:	1.250	Thrust:	23.008
Time:	0.160	Roll Set Point:	-0.065	Pitch Set Point:	-0.034	Yaw Set Point:	-0.029	X_WP:	0.000	Y_WP:	0.000	Y_WP:	0.750	X:	0.032	Y:	0.017	Z:	0.406	yaw:	1.644	yaw rate:	-6.642	Roll:	0.991	Pitch:	0.421	Yaw:	3.240	Thrust:	23.856
Time:	0.181	Roll Set Point:	-0.064	Pitch Set Point:	-0.034	Yaw Set Point:	-0.028	X_WP:	0.000	Y_WP:	0.000	Y_WP:	0.750	X:	0.032	Y:	0.017	Z:	0.406	yaw:	1.586	yaw rate:	5.842	Roll:	0.912	Pitch:	0.531	Yaw:	1.595	Thrust:	25.243
Time:	0.200	Roll Set Point:	-0.065	Pitch Set Point:	-0.033	Yaw Set Point:	-0.019	X_WP:	0.000	Y_WP:	0.000	Y_WP:	0.750	X:	0.032	Y:	0.017	Z:	0.406	yaw:	1.077	yaw rate:	50.890	Roll:	1.176	Pitch:	0.430	Yaw:	-5.771	Thrust:	26.774
Time:	0.223	Roll Set Point:	-0.065	Pitch Set Point:	-0.034	Yaw Set Point:	-0.029	X_WP:	0.000	Y_WP:	0.000	Y_WP:	0.750	X:	0.032	Y:	0.017	Z:	0.406	yaw:	1.678	yaw rate:	-60.153	Roll:	0.853	Pitch:	0.475	Yaw:	9.130	Thrust:	26.008
Time:	0.240	Roll Set Point:	-0.064	Pitch Set Point:	-0.034	Yaw Set Point:	-0.027	X_WP:	0.000	Y_WP:	0.000	Y_WP:	0.750	X:	0.032	Y:	0.017	Z:	0.406	yaw:	1.568	yaw rate:	11.005	Roll:	0.891	Pitch:	0.540	Yaw:	0.586	Thrust:	26.193
Time:	0.261	Roll Set Point:	-0.065	Pitch Set Point:	-0.034	Yaw Set Point:	-0.030	X_WP:	0.000	Y_WP:	0.000	Y_WP:	0.750	X:	0.032	Y:	0.017	Z:	0.406	yaw:	1.708	yaw rate:	-13.940	Roll:	1.022	Pitch:	0.414	Yaw:	4.233	Thrust:	28.171
Time:	0.279	Roll Set Point:	-0.064	Pitch Set Point:	-0.034	Yaw Set Point:	-0.028	X_WP:	0.000	Y_WP:	0.000	Y_WP:	0.750	X:	0.032	Y:	0.017	Z:	0.406	yaw:	1.631	yaw rate:	7.668	Roll:	0.926	Pitch:	0.575	Yaw:	1.277	Thrust:	28.111
Time:	0.300	Roll Set Point:	-0.064	Pitch Set Point:	-0.034	Yaw Set Point:	-0.020	X_WP:	0.000	Y_WP:	0.000	Y_WP:	0.750	X:	0.032	Y:	0.017	Z:	0.406	yaw:	1.158	yaw rate:	47.297	Roll:	0.833	Pitch:	0.518	Yaw:	-4.259	Thrust:	31.052
Time:	0.320	Roll Set Point:	-0.064	Pitch Set Point:	-0.034	Yaw Set Point:	-0.027	X_WP:	0.000	Y_WP:	0.000	Y_WP:	0.750	X:	0.032	Y:	0.017	Z:	0.406	yaw:	1.553	yaw rate:	-39.455	Roll:	1.038	Pitch:	0.483	Yaw:	7.552	Thrust:	29.256
Time:	0.340	Roll Set Point:	-0.065	Pitch Set Point:	-0.034	Yaw Set Point:	-0.028	X_WP:	0.000	Y_WP:	0.000	Y_WP:	0.750	X:	0.032	Y:	0.017	Z:	0.406	yaw:	1.630	yaw rate:	-7.765	Roll:	1.027	Pitch:	0.450	Yaw:	3.444	Thrust:	31.402
Time:	0.360	Roll Set Point:	-0.064	Pitch Set Point:	-0.034	Yaw Set Point:	-0.028	X_WP:	0.000	Y_WP:	0.000	Y_WP:	0.750	X:	0.032	Y:	0.017	Z:	0.406	yaw:	1.632	yaw rate:	-0.161	Roll:	0.933	Pitch:	0.488	Yaw:	2.471	Thrust:	32.551
Time:	0.379	Roll Set Point:	-0.064	Pitch Set Point:	-0.034	Yaw Set Point:	-0.028	X_WP:	0.000	Y_WP:	0.000	Y_WP:	0.750	X:	0.032	Y:	0.017	Z:	0.406	yaw:	1.585	yaw rate:	4.717	Roll:	0.988	Pitch:	0.475	Yaw:	1.716	Thrust:	32.032
Time:	0.402	Roll Set Point:	-0.064	Pitch Set Point:	-0.034	Yaw Set Point:	-0.028	X_WP:	0.000	Y_WP:	0.000	Y_WP:	0.750	X:	0.032	Y:	0.017	Z:	0.406	yaw:	1.621	yaw rate:	-3.626	Roll:	0.961	Pitch:	0.512	Yaw:	2.896	Thrust:	35.703
Time:	0.420	Roll Set Point:	-0.065	Pitch Set Point:	-0.034	Yaw Set Point:	-0.030	X_WP:	0.000	Y_WP:	0.000	Y_WP:	0.750	X:	0.032	Y:	0.017	Z:	0.406	yaw:	1.695	yaw rate:	-7.426	Roll:	1.016	Pitch:	0.432	Yaw:	3.632	Thrust:	32.971
Time:	0.439	Roll Set Point:	-0.065	Pitch Set Point:	-0.034	Yaw Set Point:	-0.029	X_WP:	0.000	Y_WP:	0.000	Y_WP:	0.750	X:	0.032	Y:	0.017	Z:	0.406	yaw:	1.658	yaw rate:	3.760	Roll:	0.968	Pitch:	0.500	Yaw:	2.022	Thrust:	35.094
Time:	0.461	Roll Set Point:	-0.064	Pitch Set Point:	-0.034	Yaw Set Point:	-0.027	X_WP:	0.000	Y_WP:	0.000	Y_WP:	0.750	X:	0.032	Y:	0.017	Z:	0.406	yaw:	1.568	yaw rate:	8.959	Roll:	0.928	Pitch:	0.565	Yaw:	1.335	Thrust:	37.553
Time:	0.479	Roll Set Point:	-0.065	Pitch Set Point:	-0.034	Yaw Set Point:	-0.030	X_WP:	0.000	Y_WP:	0.000	Y_WP:	0.750	X:	0.032	Y:	0.017	Z:	0.406	yaw:	1.704	yaw rate:	-13.571	Roll:	1.058	Pitch:	0.404	Yaw:	4.500	Thrust:	35.760
Time:	0.499	Roll Set Point:	-0.064	Pitch Set Point:	-0.034	Yaw Set Point:	-0.028	X_WP:	0.000	Y_WP:	0.000	Y_WP:	0.750	X:	0.032	Y:	0.017	Z:	0.406	yaw:	1.613	yaw rate:	9.125	Roll:	0.913	Pitch:	0.565	Yaw:	1.276	Thrust:	37.587
Time:	0.520	Roll Set Point:	-0.065	Pitch Set Point:	-0.034	Yaw Set Point:	-0.031	X_WP:	0.000	Y_WP:	0.000	Y_WP:	0.750	X:	0.032	Y:	0.017	Z:	0.406	yaw:	1.783	yaw rate:	-17.047	Roll:	1.076	Pitch:	0.355	Yaw:	4.877	Thrust:	39.758
Time:	0.540	Roll Set Point:	-0.065	Pitch Set Point:	-0.034	Yaw Set Point:	-0.030	X_WP:	0.000	Y_WP:	0.000	Y_WP:	0.750	X:	0.032	Y:	0.017	Z:	0.406	yaw:	1.710	yaw rate:	7.261	Roll:	0.944	Pitch:	0.558	Yaw:	1.711	Thrust:	39.080
Time:	0.559	Roll Set Point:	-0.064	Pitch Set Point:	-0.034	Yaw Set Point:	-0.028	X_WP:	0.000	Y_WP:	0.000	Y_WP:	0.750	X:	0.032	Y:	0.017	Z:	0.406	yaw:	1.595	yaw rate:	11.556	Roll:	0.928	Pitch:	0.575	Yaw:	0.864	Thrust:	39.466
Time:	0.578	Roll Set Point:	-0.065	Pitch Set Point:	-0.034	Yaw Set Point:	-0.029	X_WP:	0.000	Y_WP:	0.000	Y_WP:	0.750	X:	0.032	Y:	0.017	Z:	0.406	yaw:	1.651	yaw rate:	-5.639	Roll:	1.019	Pitch:	0.440	Yaw:	3.351	Thrust:	40.412
Time:	0.599	Roll Set Point:	-0.064	Pitch Set Point:	-0.034	Yaw Set Point:	-0.028	X_WP:	0.000	Y_WP:	0.000	Y_WP:	0.750	X:	0.032	Y:	0.017	Z:	0.406	yaw:	1.608	yaw rate:	4.356	Roll:	0.951	Pitch:	0.554	Yaw:	2.017	Thrust:	42.553
Time:	0.622	Roll Set Point:	-0.064	Pitch Set Point:	-0.034	Yaw Set Point:	-0.027	X_WP:	0.000	Y_WP:	0.000	Y_WP:	0.750	X:	0.032	Y:	0.017	Z:	0.406	yaw:	1.568	yaw rate:	4.012	Roll:	0.996	Pitch:	0.511	Yaw:	2.084	Thrust:	46.577
Time:	0.639	Roll Set Point:	-0.064	Pitch Set Point:	-0.034	Yaw Set Point:	-0.029	X_WP:	0.000	Y_WP:	0.000	Y_WP:	0.750	X:	0.032	Y:	0.017	Z:	0.406	yaw:	1.645	yaw rate:	-7.756	Roll:	1.005	Pitch:	0.460	Yaw:	3.739	Thrust:	40.040
Time:	0.659	Roll Set Point:	-0.064	Pitch Set Point:	-0.034	Yaw Set Point:	-0.029	X_WP:	0.000	Y_WP:	0.000	Y_WP:	0.750	X:	0.032	Y:	0.017	Z:	0.406	yaw:	1.636	yaw rate:	0.955	Roll:	0.986	Pitch:	0.521	Yaw:	2.497	Thrust:	44.527
Time:	0.680	Roll Set Point:	-0.064	Pitch Set Point:	-0.034	Yaw Set Point:	-0.027	X_WP:	0.000	Y_WP:	0.000	Y_WP:	0.750	X:	0.032	Y:	0.017	Z:	0.406	yaw:	1.567	yaw rate:	6.895	Roll:	0.979	Pitch:	0.522	Yaw:	1.640	Thrust:	46.072
Time:	0.700	Roll Set Point:	-0.065	Pitch Set Point:	-0.034	Yaw Set Point:	-0.029	X_WP:	0.000	Y_WP:	0.000	Y_WP:	0.750	X:	0.032	Y:	0.017	Z:	0.406	yaw:	1.641	yaw rate:	-7.431	Roll:	1.029	Pitch:	0.469	Yaw:	3.636	Thrust:	45.645
Time:	0.720	Roll Set Point:	-0.064	Pitch Set Point:	-0.034	Yaw Set Point:	-0.028	X_WP:	0.000	Y_WP:	0.000	Y_WP:	0.750	X:	0.032	Y:	0.017	Z:	0.406	yaw:	1.624	yaw rate:	1.732	Roll:	0.987	Pitch:	0.515	Yaw:	2.426	Thrust:	47.571
Time:	0.740	Roll Set Point:	-0.064	Pitch Set Point:	-0.034	Yaw Set Point:	-0.028	X_WP:	0.000	Y_WP:	0.000	Y_WP:	0.750	X:	0.032	Y:	0.017	Z:	0.406	yaw:	1.618	yaw rate:	0.591	Roll:	0.987	Pitch:	0.519	Yaw:	2.568	Thrust:	48.045
Time:	0.759	Roll Set Point:	-0.065	Pitch Set Point:	-0.034	Yaw Set Point:	-0.029	X_WP:	0.000	Y_WP:	0.000	Y_WP:	0.750	X:	0.032	Y:	0.017	Z:	0.406	yaw:	1.641	yaw rate:	-2.380	Roll:	1.023	Pitch:	0.500	Yaw:	2.995	Thrust:	47.607
Time:	0.779	Roll Set Point:	-0.065	Pitch Set Point:	-0.034	Yaw Set Point:	-0.029	X_WP:	0.000	Y_WP:	0.000	Y_WP:	0.750	X:	0.032	Y:	0.017	Z:	0.406	yaw:	1.661	yaw rate:	-1.974	Roll:	1.006	Pitch:	0.491	Yaw:	2.984	Thrust:	49.563
Time:	0.799	Roll Set Point:	-0.065	Pitch Set Point:	-0.034	Yaw Set Point:	-0.030	X_WP:	0.000	Y_WP:	0.000	Y_WP:	0.750	X:	0.032	Y:	0.017	Z:	0.406	yaw:	1.723	yaw rate:	-6.143	Roll:	1.036	Pitch:	0.441	Yaw:	3.624	Thrust:	49.638
Time:	0.820	Roll Set Point:	-0.064	Pitch Set Point:	-0.034	Yaw Set Point:	-0.029	X_WP:	0.000	Y_WP:	0.000	Y_WP:	0.750	X:	0.032	Y:	0.017	Z:	0.406	yaw:	1.637	yaw rate:	8.560	Roll:	0.963	Pitch:	0.601	Yaw:	1.641	Thrust:	52.875
Time:	0.840	Roll Set Point:	-0.064	Pitch Set Point:	-0.034	Yaw Set Point:	-0.028	X_WP:	0.000	Y_WP:	0.000	Y_WP:	0.750	X:	0.032	Y:	0.017	Z:	0.406	yaw:	1.585	yaw rate:	5.178	Roll:	0.985	Pitch:	0.522	Yaw:	1.997	Thrust:	52.564
Time:	0.859	Roll Set Point:	-0.065	Pitch Set Point:	-0.034	Yaw Set Point:	-0.029	X_WP:	0.000	Y_WP:	0.000	Y_WP:	0.750	X:	0.032	Y:	0.017	Z:	0.406	yaw:	1.638	yaw rate:	-5.271	Roll:	1.041	Pitch:	0.460	Yaw:	3.441	Thrust:	51.138
Time:	0.879	Roll Set Point:	-0.064	Pitch Set Point:	-0.034	Yaw Set Point:	-0.028	X_WP:	0.000	Y_WP:	0.000	Y_WP:	0.750	X:	0.032	Y:	0.017	Z:	0.406	yaw:	1.614	yaw rate:	2.379	Roll:	0.994	Pitch:	0.537	Yaw:	2.397	Thrust:	53.168
Time:	0.901	Roll Set Point:	-0.065	Pitch Set Point:	-0.034	Yaw Set Point:	-0.029	X_WP:	0.000	Y_WP:	0.000	Y_WP:	0.750	X:	0.032	Y:	0.017	Z:	0.406	yaw:	1.641	yaw rate:	-2.726	Roll:	1.040	Pitch:	0.472	Yaw:	3.139	Thrust:	57.131
Time:	0.920	Roll Set Point:	-0.064	Pitch Set Point:	-0.034	Yaw Set Point:	-0.029	X_WP:	0.000	Y_WP:	0.000	Y_WP:	0.750	X:	0.032	Y:	0.017	Z:	0.406	yaw:	1.649	yaw rate:	-0.801	Roll:	1.001	Pitch:	0.524	Yaw:	2.862	Thrust:	52.996
Time:	0.940	Roll Set Point:	-0.065	Pitch Set Point:	-0.034	Yaw Set Point:	-0.029	X_WP:	0.000	Y_WP:	0.000	Y_WP:	0.750	X:	0.032	Y:	0.017	Z:	0.406	yaw:	1.655	yaw rate:	-0.543	Roll:	1.027	Pitch:	0.500	Yaw:	2.880	Thrust:	56.084
Time:	0.961	Roll Set Point:	-0.064	Pitch Set Point:	-0.034	Yaw Set Point:	-0.028	X_WP:	0.000	Y_WP:	0.000	Y_WP:	0.750	X:	0.032	Y:	0.017	Z:	0.406	yaw:	1.599	yaw rate:	5.557	Roll:	0.997	Pitch:	0.553	Yaw:	2.101	Thrust:	58.739
Time:	0.979	Roll Set Point:	-0.064	Pitch Set Point:	-0.034	Yaw Set Point:	-0.029	X_WP:	0.000	Y_WP:	0.000	Y_WP:	0.750	X:	0.032	Y:	0.017	Z:	0.406	yaw:	1.638	yaw rate:	-3.857	Roll:	1.017	Pitch:	0.510	Yaw:	3.316	Thrust:	54.970
Time:	1.000	Roll Set Point:	-0.064	Pitch Set Point:	-0.034	Yaw Set Point:	-0.012	X_WP:	0.000	Y_WP:	0.000	Y_WP:	0.750	X:	0.032	Y:	0.017	Z:	0.406	yaw:	0.697	yaw rate:	94.047	Roll:	0.581	Pitch:	0.860	Yaw:	-10.412	Thrust:	59.385
Time:	1.022	Roll Set Point:	-0.064	Pitch Set Point:	-0.034	Yaw Set Point:	-0.012	X_WP:	0.000	Y_WP:	0.000	Y_WP:	0.750	X:	0.032	Y:	0.017	Z:	0.406	yaw:	0.688	yaw rate:	0.944	Roll:	1.010	Pitch:	0.536	Yaw:	1.421	Thrust:	63.364
Time:	1.040	Roll Set Point:	-0.064	Pitch Set Point:	-0.034	Yaw Set Point:	-0.028	X_WP:	0.000	Y_WP:	0.000	Y_WP:	0.750	X:	0.032	Y:	0.017	Z:	0.406	yaw:	1.592	yaw rate:	-90.399	Roll:	1.455	Pitch:	0.169	Yaw:	15.172	Thrust:	57.464
Time:	1.064	Roll Set Point:	-0.065	Pitch Set Point:	-0.034	Yaw Set Point:	-0.030	X_WP:	0.000	Y_WP:	0.000	Y_WP:	0.750	X:	0.032	Y:	0.017	Z:	0.406	yaw:	1.714	yaw rate:	-12.166	Roll:	1.065	Pitch:	0.479	Yaw:	4.394	Thrust:	68.548
Time:	1.080	Roll Set Point:	-0.065	Pitch Set Point:	-0.034	Yaw Set Point:	-0.030	X_WP:	0.000	Y_WP:	0.000	Y_WP:	0.750	X:	0.032	Y:	0.017	Z:	0.406	yaw:	1.719	yaw rate:	-0.528	Roll:	1.047	Pitch:	0.476	Yaw:	2.942	Thrust:	53.531
Time:	1.102	Roll Set Point:	-0.064	Pitch Set Point:	-0.034	Yaw Set Point:	-0.028	X_WP:	0.000	Y_WP:	0.000	Y_WP:	0.750	X:	0.032	Y:	0.017	Z:	0.406	yaw:	1.617	yaw rate:	10.169	Roll:	0.982	Pitch:	0.592	Yaw:	1.690	Thrust:	66.149
Time:	1.122	Roll Set Point:	-0.064	Pitch Set Point:	-0.035	Yaw Set Point:	-0.013	X_WP:	0.000	Y_WP:	0.000	Y_WP:	0.750	X:	0.032	Y:	0.018	Z:	0.406	yaw:	0.724	yaw rate:	89.357	Roll:	0.573	Pitch:	1.115	Yaw:	-10.217	Thrust:	64.375
Time:	1.141	Roll Set Point:	-0.065	Pitch Set Point:	-0.034	Yaw Set Point:	-0.029	X_WP:	0.000	Y_WP:	0.000	Y_WP:	0.750	X:	0.032	Y:	0.017	Z:	0.406	yaw:	1.677	yaw rate:	-95.304	Roll:	1.516	Pitch:	-0.089	Yaw:	16.205	Thrust:	61.222
Time:	1.161	Roll Set Point:	-0.064	Pitch Set Point:	-0.034	Yaw Set Point:	-0.028	X_WP:	0.000	Y_WP:	0.000	Y_WP:	0.750	X:	0.032	Y:	0.017	Z:	0.406	yaw:	1.607	yaw rate:	6.993	Roll:	1.017	Pitch:	0.534	Yaw:	1.937	Thrust:	65.235
Time:	1.181	Roll Set Point:	-0.064	Pitch Set Point:	-0.034	Yaw Set Point:	-0.013	X_WP:	0.000	Y_WP:	0.000	Y_WP:	0.750	X:	0.032	Y:	0.017	Z:	0.406	yaw:	0.720	yaw rate:	88.698	Roll:	0.597	Pitch:	0.852	Yaw:	-10.546	Thrust:	64.503
Time:	1.201	Roll Set Point:	-0.064	Pitch Set Point:	-0.034	Yaw Set Point:	-0.012	X_WP:	0.000	Y_WP:	0.000	Y_WP:	0.750	X:	0.032	Y:	0.017	Z:	0.406	yaw:	0.663	yaw rate:	5.666	Roll:	0.996	Pitch:	0.616	Yaw:	0.858	Thrust:	68.701
Time:	1.224	Roll Set Point:	-0.065	Pitch Set Point:	-0.034	Yaw Set Point:	-0.029	X_WP:	0.000	Y_WP:	0.000	Y_WP:	0.750	X:	0.032	Y:	0.017	Z:	0.406	yaw:	1.637	yaw rate:	-97.339	Roll:	1.476	Pitch:	0.167	Yaw:	13.787	Thrust:	74.820
Time:	1.240	Roll Set Point:	-0.064	Pitch Set Point:	-0.034	Yaw Set Point:	-0.013	X_WP:	0.000	Y_WP:	0.000	Y_WP:	0.750	X:	0.032	Y:	0.017	Z:	0.406	yaw:	0.727	yaw rate:	90.910	Roll:	0.488	Pitch:	0.949	Yaw:	-13.738	Thrust:	59.481
Time:	1.262	Roll Set Point:	-0.064	Pitch Set Point:	-0.035	Yaw Set Point:	-0.013	X_WP:	0.000	Y_WP:	0.000	Y_WP:	0.750	X:	0.032	Y:	0.018	Z:	0.406	yaw:	0.747	yaw rate:	-1.927	Roll:	1.032	Pitch:	0.790	Yaw:	1.972	Thrust:	71.903
Time:	1.281	Roll Set Point:	-0.064	Pitch Set Point:	-0.034	Yaw Set Point:	-0.027	X_WP:	0.000	Y_WP:	0.000	Y_WP:	0.750	X:	0.032	Y:	0.017	Z:	0.406	yaw:	1.565	yaw rate:	-81.813	Roll:	1.463	Pitch:	-0.016	Yaw:	14.028	Thrust:	68.741
Time:	1.301	Roll Set Point:	-0.064	Pitch Set Point:	-0.034	Yaw Set Point:	-0.028	X_WP:	0.000	Y_WP:	0.000	Y_WP:	0.750	X:	0.032	Y:	0.017	Z:	0.406	yaw:	1.605	yaw rate:	-3.994	Roll:	1.057	Pitch:	0.500	Yaw:	3.419	Thrust:	69.880
Time:	1.322	Roll Set Point:	-0.065	Pitch Set Point:	-0.034	Yaw Set Point:	-0.029	X_WP:	0.000	Y_WP:	0.000	Y_WP:	0.750	X:	0.032	Y:	0.017	Z:	0.406	yaw:	1.663	yaw rate:	-5.852	Roll:	1.089	Pitch:	0.509	Yaw:	3.755	Thrust:	74.719
Time:	1.343	Roll Set Point:	-0.064	Pitch Set Point:	-0.034	Yaw Set Point:	-0.028	X_WP:	0.000	Y_WP:	0.000	Y_WP:	0.750	X:	0.032	Y:	0.017	Z:	0.406	yaw:	1.616	yaw rate:	4.774	Roll:	1.034	Pitch:	0.555	Yaw:	2.392	Thrust:	74.668
Time:	1.361	Roll Set Point:	-0.064	Pitch Set Point:	-0.034	Yaw Set Point:	-0.029	X_WP:	0.000	Y_WP:	0.000	Y_WP:	0.750	X:	0.032	Y:	0.017	Z:	0.406	yaw:	1.639	yaw rate:	-2.336	Roll:	1.044	Pitch:	0.497	Yaw:	3.237	Thrust:	68.058
Time:	1.379	Roll Set Point:	-0.065	Pitch Set Point:	-0.034	Yaw Set Point:	-0.029	X_WP:	0.000	Y_WP:	0.000	Y_WP:	0.750	X:	0.032	Y:	0.017	Z:	0.406	yaw:	1.674	yaw rate:	-3.473	Roll:	1.059	Pitch:	0.509	Yaw:	3.485	Thrust:	71.628
Time:	1.399	Roll Set Point:	-0.065	Pitch Set Point:	-0.034	Yaw Set Point:	-0.030	X_WP:	0.000	Y_WP:	0.000	Y_WP:	0.750	X:	0.032	Y:	0.017	Z:	0.406	yaw:	1.741	yaw rate:	-6.755	Roll:	1.077	Pitch:	0.495	Yaw:	4.030	Thrust:	75.301
Time:	1.421	Roll Set Point:	-0.065	Pitch Set Point:	-0.034	Yaw Set Point:	-0.029	X_WP:	0.000	Y_WP:	0.000	Y_WP:	0.750	X:	0.032	Y:	0.017	Z:	0.406	yaw:	1.648	yaw rate:	9.296	Roll:	1.032	Pitch:	0.566	Yaw:	1.884	Thrust:	78.001
Time:	1.440	Roll Set Point:	-0.064	Pitch Set Point:	-0.034	Yaw Set Point:	-0.029	X_WP:	0.000	Y_WP:	0.000	Y_WP:	0.750	X:	0.032	Y:	0.017	Z:	0.406	yaw:	1.647	yaw rate:	0.096	Roll:	1.033	Pitch:	0.563	Yaw:	3.022	Thrust:	74.840
Time:	1.460	Roll Set Point:	-0.064	Pitch Set Point:	-0.034	Yaw Set Point:	-0.028	X_WP:	0.000	Y_WP:	0.000	Y_WP:	0.750	X:	0.032	Y:	0.017	Z:	0.406	yaw:	1.594	yaw rate:	5.280	Roll:	1.055	Pitch:	0.559	Yaw:	2.257	Thrust:	77.760
Time:	1.479	Roll Set Point:	-0.064	Pitch Set Point:	-0.034	Yaw Set Point:	-0.028	X_WP:	0.000	Y_WP:	0.000	Y_WP:	0.750	X:	0.032	Y:	0.017	Z:	0.406	yaw:	1.612	yaw rate:	-1.797	Roll:	1.059	Pitch:	0.529	Yaw:	3.229	Thrust:	76.240
Time:	1.500	Roll Set Point:	-0.065	Pitch Set Point:	-0.034	Yaw Set Point:	-0.029	X_WP:	0.000	Y_WP:	0.000	Y_WP:	0.750	X:	0.032	Y:	0.017	Z:	0.406	yaw:	1.688	yaw rate:	-7.573	Roll:	1.102	Pitch:	0.459	Yaw:	4.115	Thrust:	81.227
Time:	1.521	Roll Set Point:	-0.064	Pitch Set Point:	-0.034	Yaw Set Point:	-0.029	X_WP:	0.000	Y_WP:	0.000	Y_WP:	0.750	X:	0.032	Y:	0.017	Z:	0.406	yaw:	1.655	yaw rate:	3.348	Roll:	1.038	Pitch:	0.613	Yaw:	2.721	Thrust:	81.811
Time:	1.540	Roll Set Point:	-0.064	Pitch Set Point:	-0.034	Yaw Set Point:	-0.029	X_WP:	0.000	Y_WP:	0.000	Y_WP:	0.750	X:	0.032	Y:	0.017	Z:	0.406	yaw:	1.650	yaw rate:	0.471	Roll:	1.063	Pitch:	0.521	Yaw:	2.992	Thrust:	78.940
Time:	1.560	Roll Set Point:	-0.065	Pitch Set Point:	-0.034	Yaw Set Point:	-0.029	X_WP:	0.000	Y_WP:	0.000	Y_WP:	0.750	X:	0.032	Y:	0.017	Z:	0.406	yaw:	1.686	yaw rate:	-3.584	Roll:	1.101	Pitch:	0.493	Yaw:	3.627	Thrust:	81.018
Time:	1.579	Roll Set Point:	-0.064	Pitch Set Point:	-0.034	Yaw Set Point:	-0.026	X_WP:	0.000	Y_WP:	0.000	Y_WP:	0.750	X:	0.032	Y:	0.017	Z:	0.406	yaw:	1.490	yaw rate:	19.591	Roll:	0.942	Pitch:	0.703	Yaw:	0.334	Thrust:	82.462
Time:	1.600	Roll Set Point:	-0.064	Pitch Set Point:	-0.034	Yaw Set Point:	-0.028	X_WP:	0.000	Y_WP:	0.000	Y_WP:	0.750	X:	0.032	Y:	0.017	Z:	0.406	yaw:	1.603	yaw rate:	-11.344	Roll:	1.130	Pitch:	0.470	Yaw:	4.551	Thrust:	83.355
Time:	1.620	Roll Set Point:	-0.065	Pitch Set Point:	-0.034	Yaw Set Point:	-0.019	X_WP:	0.000	Y_WP:	0.000	Y_WP:	0.750	X:	0.032	Y:	0.017	Z:	0.406	yaw:	1.087	yaw rate:	51.611	Roll:	1.229	Pitch:	0.532	Yaw:	-4.061	Thrust:	88.854
Time:	1.640	Roll Set Point:	-0.065	Pitch Set Point:	-0.033	Yaw Set Point:	-0.019	X_WP:	0.000	Y_WP:	0.000	Y_WP:	0.750	X:	0.032	Y:	0.017	Z:	0.406	yaw:	1.083	yaw rate:	0.418	Roll:	1.104	Pitch:	0.494	Yaw:	2.272	Thrust:	82.380
Time:	1.660	Roll Set Point:	-0.064	Pitch Set Point:	-0.034	Yaw Set Point:	-0.028	X_WP:	0.000	Y_WP:	0.000	Y_WP:	0.750	X:	0.032	Y:	0.017	Z:	0.406	yaw:	1.616	yaw rate:	-53.244	Roll:	0.894	Pitch:	0.577	Yaw:	10.071	Thrust:	84.199
Time:	1.679	Roll Set Point:	-0.064	Pitch Set Point:	-0.034	Yaw Set Point:	-0.028	X_WP:	0.000	Y_WP:	0.000	Y_WP:	0.750	X:	0.032	Y:	0.017	Z:	0.406	yaw:	1.631	yaw rate:	-1.583	Roll:	1.084	Pitch:	0.544	Yaw:	3.335	Thrust:	84.756
Time:	1.700	Roll Set Point:	-0.065	Pitch Set Point:	-0.034	Yaw Set Point:	-0.029	X_WP:	0.000	Y_WP:	0.000	Y_WP:	0.750	X:	0.032	Y:	0.017	Z:	0.406	yaw:	1.662	yaw rate:	-3.050	Roll:	1.087	Pitch:	0.533	Yaw:	3.606	Thrust:	88.528
Time:	1.720	Roll Set Point:	-0.064	Pitch Set Point:	-0.034	Yaw Set Point:	-0.027	X_WP:	0.000	Y_WP:	0.000	Y_WP:	0.750	X:	0.032	Y:	0.017	Z:	0.406	yaw:	1.569	yaw rate:	9.312	Roll:	1.050	Pitch:	0.584	Yaw:	1.837	Thrust:	87.466
Time:	1.740	Roll Set Point:	-0.065	Pitch Set Point:	-0.034	Yaw Set Point:	-0.028	X_WP:	0.000	Y_WP:	0.000	Y_WP:	0.750	X:	0.032	Y:	0.017	Z:	0.406	yaw:	1.628	yaw rate:	-5.913	Roll:	1.105	Pitch:	0.517	Yaw:	3.951	Thrust:	90.090
Time:	1.760	Roll Set Point:	-0.064	Pitch Set Point:	-0.034	Yaw Set Point:	-0.029	X_WP:	0.000	Y_WP:	0.000	Y_WP:	0.750	X:	0.032	Y:	0.017	Z:	0.406	yaw:	1.637	yaw rate:	-0.887	Roll:	1.070	Pitch:	0.574	Yaw:	3.315	Thrust:	90.000
Time:	1.780	Roll Set Point:	-0.065	Pitch Set Point:	-0.034	Yaw Set Point:	-0.029	X_WP:	0.000	Y_WP:	0.000	Y_WP:	0.750	X:	0.032	Y:	0.017	Z:	0.406	yaw:	1.643	yaw rate:	-0.636	Roll:	1.089	Pitch:	0.491	Yaw:	3.298	Thrust:	90.309
Time:	1.800	Roll Set Point:	-0.064	Pitch Set Point:	-0.034	Yaw Set Point:	-0.027	X_WP:	0.000	Y_WP:	0.000	Y_WP:	0.750	X:	0.032	Y:	0.017	Z:	0.406	yaw:	1.557	yaw rate:	8.623	Roll:	1.058	Pitch:	0.624	Yaw:	1.994	Thrust:	92.034
Time:	1.820	Roll Set Point:	-0.064	Pitch Set Point:	-0.034	Yaw Set Point:	-0.029	X_WP:	0.000	Y_WP:	0.000	Y_WP:	0.750	X:	0.032	Y:	0.017	Z:	0.406	yaw:	1.651	yaw rate:	-9.446	Roll:	1.117	Pitch:	0.497	Yaw:	4.492	Thrust:	91.501
Time:	1.840	Roll Set Point:	-0.065	Pitch Set Point:	-0.034	Yaw Set Point:	-0.029	X_WP:	0.000	Y_WP:	0.000	Y_WP:	0.750	X:	0.032	Y:	0.017	Z:	0.406	yaw:	1.686	yaw rate:	-3.502	Roll:	1.123	Pitch:	0.514	Yaw:	3.774	Thrust:	93.687
Time:	1.860	Roll Set Point:	-0.065	Pitch Set Point:	-0.034	Yaw Set Point:	-0.029	X_WP:	0.000	Y_WP:	0.000	Y_WP:	0.750	X:	0.032	Y:	0.017	Z:	0.406	yaw:	1.668	yaw rate:	1.785	Roll:	1.059	Pitch:	0.573	Yaw:	3.045	Thrust:	92.708
Time:	1.879	Roll Set Point:	-0.065	Pitch Set Point:	-0.034	Yaw Set Point:	-0.030	X_WP:	0.000	Y_WP:	0.000	Y_WP:	0.750	X:	0.032	Y:	0.017	Z:	0.406	yaw:	1.714	yaw rate:	-4.563	Roll:	1.126	Pitch:	0.514	Yaw:	3.975	Thrust:	95.273
Time:	1.900	Roll Set Point:	-0.064	Pitch Set Point:	-0.034	Yaw Set Point:	-0.028	X_WP:	0.000	Y_WP:	0.000	Y_WP:	0.750	X:	0.032	Y:	0.017	Z:	0.406	yaw:	1.631	yaw rate:	8.270	Roll:	1.042	Pitch:	0.634	Yaw:	2.227	Thrust:	97.166
Time:	1.920	Roll Set Point:	-0.064	Pitch Set Point:	-0.034	Yaw Set Point:	-0.028	X_WP:	0.000	Y_WP:	0.000	Y_WP:	0.750	X:	0.032	Y:	0.017	Z:	0.406	yaw:	1.576	yaw rate:	5.531	Roll:	1.080	Pitch:	0.572	Yaw:	2.533	Thrust:	96.645
Time:	1.942	Roll Set Point:	-0.065	Pitch Set Point:	-0.034	Yaw Set Point:	-0.030	X_WP:	0.000	Y_WP:	0.000	Y_WP:	0.750	X:	0.032	Y:	0.017	Z:	0.406	yaw:	1.705	yaw rate:	-12.843	Roll:	1.166	Pitch:	0.481	Yaw:	5.029	Thrust:	100.000
Time:	1.960	Roll Set Point:	-0.064	Pitch Set Point:	-0.034	Yaw Set Point:	-0.028	X_WP:	0.000	Y_WP:	0.000	Y_WP:	0.750	X:	0.032	Y:	0.017	Z:	0.406	yaw:	1.612	yaw rate:	9.252	Roll:	1.040	Pitch:	0.596	Yaw:	1.744	Thrust:	89.533
Time:	1.980	Roll Set Point:	-0.065	Pitch Set Point:	-0.034	Yaw Set Point:	-0.029	X_WP:	0.000	Y_WP:	0.000	Y_WP:	0.750	X:	0.032	Y:	0.017	Z:	0.406	yaw:	1.654	yaw rate:	-4.194	Roll:	1.123	Pitch:	0.569	Yaw:	3.920	Thrust:	100.000
Time:	2.000	Roll Set Point:	-0.065	Pitch Set Point:	-0.034	Yaw Set Point:	-0.029	X_WP:	0.000	Y_WP:	0.000	Y_WP:	0.750	X:	0.032	Y:	0.017	Z:	0.406	yaw:	1.676	yaw rate:	-2.251	Roll:	1.095	Pitch:	0.518	Yaw:	3.661	Thrust:	97.101
Time:	2.020	Roll Set Point:	-0.064	Pitch Set Point:	-0.034	Yaw Set Point:	-0.023	X_WP:	0.000	Y_WP:	0.000	Y_WP:	0.750	X:	0.032	Y:	0.017	Z:	0.406	yaw:	1.297	yaw rate:	37.990	Roll:	1.018	Pitch:	0.603	Yaw:	-2.119	Thrust:	100.000
Time:	2.040	Roll Set Point:	-0.064	Pitch Set Point:	-0.034	Yaw Set Point:	-0.006	X_WP:	0.000	Y_WP:	0.000	Y_WP:	0.750	X:	0.032	Y:	0.017	Z:	0.405	yaw:	0.344	yaw rate:	95.214	Roll:	0.952	Pitch:	1.044	Yaw:	-10.488	Thrust:	100.000
Time:	2.060	Roll Set Point:	-0.064	Pitch Set Point:	-0.034	Yaw Set Point:	-0.029	X_WP:	0.000	Y_WP:	0.000	Y_WP:	0.750	X:	0.032	Y:	0.017	Z:	0.406	yaw:	1.654	yaw rate:	-130.971	Roll:	1.328	Pitch:	0.050	Yaw:	21.276	Thrust:	96.518
Time:	2.079	Roll Set Point:	-0.065	Pitch Set Point:	-0.034	Yaw Set Point:	-0.029	X_WP:	0.000	Y_WP:	0.000	Y_WP:	0.750	X:	0.032	Y:	0.017	Z:	0.406	yaw:	1.665	yaw rate:	-1.099	Roll:	1.131	Pitch:	0.538	Yaw:	3.539	Thrust:	100.000
Time:	2.100	Roll Set Point:	-0.064	Pitch Set Point:	-0.034	Yaw Set Point:	-0.028	X_WP:	0.000	Y_WP:	0.000	Y_WP:	0.750	X:	0.032	Y:	0.017	Z:	0.406	yaw:	1.601	yaw rate:	6.393	Roll:	1.067	Pitch:	0.635	Yaw:	2.515	Thrust:	100.000
Time:	2.120	Roll Set Point:	-0.064	Pitch Set Point:	-0.034	Yaw Set Point:	-0.028	X_WP:	0.000	Y_WP:	0.000	Y_WP:	0.750	X:	0.032	Y:	0.017	Z:	0.406	yaw:	1.591	yaw rate:	1.068	Roll:	1.119	Pitch:	0.561	Yaw:	3.213	Thrust:	100.000
Time:	2.140	Roll Set Point:	-0.064	Pitch Set Point:	-0.034	Yaw Set Point:	-0.028	X_WP:	0.000	Y_WP:	0.000	Y_WP:	0.750	X:	0.032	Y:	0.017	Z:	0.406	yaw:	1.600	yaw rate:	-0.981	Roll:	1.115	Pitch:	0.530	Yaw:	3.479	Thrust:	100.000
Time:	2.161	Roll Set Point:	-0.065	Pitch Set Point:	-0.034	Yaw Set Point:	-0.029	X_WP:	0.000	Y_WP:	0.000	Y_WP:	0.750	X:	0.032	Y:	0.017	Z:	0.406	yaw:	1.670	yaw rate:	-6.966	Roll:	1.156	Pitch:	0.554	Yaw:	4.386	Thrust:	100.000
Time:	2.179	Roll Set Point:	-0.064	Pitch Set Point:	-0.034	Yaw Set Point:	-0.027	X_WP:	0.000	Y_WP:	0.000	Y_WP:	0.750	X:	0.032	Y:	0.017	Z:	0.406	yaw:	1.571	yaw rate:	9.878	Roll:	1.058	Pitch:	0.638	Yaw:	1.881	Thrust:	100.000
Time:	2.199	Roll Set Point:	-0.065	Pitch Set Point:	-0.034	Yaw Set Point:	-0.029	X_WP:	0.000	Y_WP:	0.000	Y_WP:	0.750	X:	0.032	Y:	0.017	Z:	0.406	yaw:	1.652	yaw rate:	-8.037	Roll:	1.152	Pitch:	0.481	Yaw:	4.512	Thrust:	100.000
Time:	2.222	Roll Set Point:	-0.064	Pitch Set Point:	-0.034	Yaw Set Point:	-0.029	X_WP:	0.000	Y_WP:	0.000	Y_WP:	0.750	X:	0.032	Y:	0.017	Z:	0.406	yaw:	1.645	yaw rate:	0.614	Roll:	1.118	Pitch:	0.575	Yaw:	3.549	Thrust:	100.000
Time:	2.240	Roll Set Point:	-0.064	Pitch Set Point:	-0.034	Yaw Set Point:	-0.028	X_WP:	0.000	Y_WP:	0.000	Y_WP:	0.750	X:	0.032	Y:	0.017	Z:	0.406	yaw:	1.600	yaw rate:	4.588	Roll:	1.106	Pitch:	0.620	Yaw:	2.569	Thrust:	100.000
Time:	2.260	Roll Set Point:	-0.064	Pitch Set Point:	-0.034	Yaw Set Point:	-0.027	X_WP:	0.000	Y_WP:	0.000	Y_WP:	0.750	X:	0.032	Y:	0.017	Z:	0.406	yaw:	1.576	yaw rate:	2.402	Roll:	1.108	Pitch:	0.589	Yaw:	3.100	Thrust:	100.000
Time:	2.279	Roll Set Point:	-0.065	Pitch Set Point:	-0.034	Yaw Set Point:	-0.031	X_WP:	0.000	Y_WP:	0.000	Y_WP:	0.750	X:	0.032	Y:	0.017	Z:	0.406	yaw:	1.748	yaw rate:	-17.247	Roll:	1.205	Pitch:	0.407	Yaw:	5.936	Thrust:	100.000
Time:	2.309	Roll Set Point:	-0.064	Pitch Set Point:	-0.034	Yaw Set Point:	-0.021	X_WP:	0.000	Y_WP:	0.000	Y_WP:	0.750	X:	0.032	Y:	0.017	Z:	0.406	yaw:	1.178	yaw rate:	57.049	Roll:	1.082	Pitch:	0.748	Yaw:	-1.682	Thrust:	100.000
Time:	2.321	Roll Set Point:	-0.064	Pitch Set Point:	-0.034	Yaw Set Point:	-0.028	X_WP:	0.000	Y_WP:	0.000	Y_WP:	0.750	X:	0.032	Y:	0.017	Z:	0.406	yaw:	1.614	yaw rate:	-43.647	Roll:	1.228	Pitch:	0.459	Yaw:	12.132	Thrust:	75.768
Time:	2.340	Roll Set Point:	-0.065	Pitch Set Point:	-0.034	Yaw Set Point:	-0.029	X_WP:	0.000	Y_WP:	0.000	Y_WP:	0.750	X:	0.032	Y:	0.017	Z:	0.406	yaw:	1.638	yaw rate:	-2.357	Roll:	1.145	Pitch:	0.496	Yaw:	3.761	Thrust:	100.000
Time:	2.360	Roll Set Point:	-0.064	Pitch Set Point:	-0.034	Yaw Set Point:	-0.028	X_WP:	0.000	Y_WP:	0.000	Y_WP:	0.750	X:	0.032	Y:	0.017	Z:	0.406	yaw:	1.621	yaw rate:	1.668	Roll:	1.109	Pitch:	0.597	Yaw:	3.278	Thrust:	100.000
Time:	2.380	Roll Set Point:	-0.064	Pitch Set Point:	-0.034	Yaw Set Point:	-0.028	X_WP:	0.000	Y_WP:	0.000	Y_WP:	0.750	X:	0.032	Y:	0.017	Z:	0.406	yaw:	1.616	yaw rate:	0.532	Roll:	1.150	Pitch:	0.608	Yaw:	3.484	Thrust:	100.000
Time:	2.399	Roll Set Point:	-0.064	Pitch Set Point:	-0.034	Yaw Set Point:	-0.028	X_WP:	0.000	Y_WP:	0.000	Y_WP:	0.750	X:	0.032	Y:	0.017	Z:	0.406	yaw:	1.586	yaw rate:	2.960	Roll:	1.091	Pitch:	0.585	Yaw:	3.023	Thrust:	100.000
Time:	2.421	Roll Set Point:	-0.064	Pitch Set Point:	-0.034	Yaw Set Point:	-0.028	X_WP:	0.000	Y_WP:	0.000	Y_WP:	0.750	X:	0.032	Y:	0.017	Z:	0.406	yaw:	1.601	yaw rate:	-1.527	Roll:	1.175	Pitch:	0.532	Yaw:	3.784	Thrust:	100.000
Time:	2.440	Roll Set Point:	-0.064	Pitch Set Point:	-0.034	Yaw Set Point:	-0.029	X_WP:	0.000	Y_WP:	0.000	Y_WP:	0.750	X:	0.032	Y:	0.017	Z:	0.406	yaw:	1.642	yaw rate:	-4.060	Roll:	1.125	Pitch:	0.579	Yaw:	4.066	Thrust:	100.000
Time:	2.459	Roll Set Point:	-0.065	Pitch Set Point:	-0.034	Yaw Set Point:	-0.030	X_WP:	0.000	Y_WP:	0.000	Y_WP:	0.750	X:	0.032	Y:	0.017	Z:	0.406	yaw:	1.713	yaw rate:	-7.094	Roll:	1.193	Pitch:	0.537	Yaw:	4.611	Thrust:	100.000
Time:	2.480	Roll Set Point:	-0.065	Pitch Set Point:	-0.034	Yaw Set Point:	-0.030	X_WP:	0.000	Y_WP:	0.000	Y_WP:	0.750	X:	0.032	Y:	0.017	Z:	0.406	yaw:	1.709	yaw rate:	0.364	Roll:	1.113	Pitch:	0.557	Yaw:	3.700	Thrust:	100.000
Time:	2.500	Roll Set Point:	-0.064	Pitch Set Point:	-0.034	Yaw Set Point:	-0.027	X_WP:	0.000	Y_WP:	0.000	Y_WP:	0.750	X:	0.032	Y:	0.017	Z:	0.406	yaw:	1.571	yaw rate:	13.801	Roll:	1.099	Pitch:	0.682	Yaw:	1.637	Thrust:	100.000
Time:	2.520	Roll Set Point:	-0.064	Pitch Set Point:	-0.034	Yaw Set Point:	-0.029	X_WP:	0.000	Y_WP:	0.000	Y_WP:	0.750	X:	0.032	Y:	0.017	Z:	0.406	yaw:	1.649	yaw rate:	-7.765	Roll:	1.173	Pitch:	0.535	Yaw:	4.648	Thrust:	100.000
Time:	2.540	Roll Set Point:	-0.065	Pitch Set Point:	-0.034	Yaw Set Point:	-0.029	X_WP:	0.000	Y_WP:	0.000	Y_WP:	0.750	X:	0.032	Y:	0.017	Z:	0.406	yaw:	1.681	yaw rate:	-3.255	Roll:	1.153	Pitch:	0.535	Yaw:	4.146	Thrust:	100.000
Time:	2.560	Roll Set Point:	-0.064	Pitch Set Point:	-0.034	Yaw Set Point:	-0.021	X_WP:	0.000	Y_WP:	0.000	Y_WP:	0.750	X:	0.032	Y:	0.017	Z:	0.406	yaw:	1.176	yaw rate:	50.490	Roll:	1.038	Pitch:	0.669	Yaw:	-3.447	Thrust:	100.000
Time:	2.579	Roll Set Point:	-0.065	Pitch Set Point:	-0.034	Yaw Set Point:	-0.030	X_WP:	0.000	Y_WP:	0.000	Y_WP:	0.750	X:	0.032	Y:	0.017	Z:	0.406	yaw:	1.704	yaw rate:	-52.773	Roll:	1.274	Pitch:	0.498	Yaw:	11.033	Thrust:	100.000
Time:	2.601	Roll Set Point:	-0.064	Pitch Set Point:	-0.034	Yaw Set Point:	-0.028	X_WP:	0.000	Y_WP:	0.000	Y_WP:	0.750	X:	0.032	Y:	0.017	Z:	0.406	yaw:	1.602	yaw rate:	10.206	Roll:	1.116	Pitch:	0.635	Yaw:	2.490	Thrust:	100.000
Time:	2.619	Roll Set Point:	-0.064	Pitch Set Point:	-0.034	Yaw Set Point:	-0.028	X_WP:	0.000	Y_WP:	0.000	Y_WP:	0.750	X:	0.032	Y:	0.017	Z:	0.406	yaw:	1.628	yaw rate:	-2.612	Roll:	1.157	Pitch:	0.569	Yaw:	3.940	Thrust:	100.000
Time:	2.640	Roll Set Point:	-0.063	Pitch Set Point:	-0.035	Yaw Set Point:	0.006	X_WP:	0.000	Y_WP:	0.000	Y_WP:	0.750	X:	0.031	Y:	0.017	Z:	0.406	yaw:	-0.341	yaw rate:	196.907	Roll:	0.169	Pitch:	1.629	Yaw:	-24.737	Thrust:	100.000
Time:	2.661	Roll Set Point:	-0.063	Pitch Set Point:	-0.035	Yaw Set Point:	0.006	X_WP:	0.000	Y_WP:	0.000	Y_WP:	0.750	X:	0.031	Y:	0.017	Z:	0.406	yaw:	-0.358	yaw rate:	1.696	Roll:	1.139	Pitch:	0.606	Yaw:	0.804	Thrust:	100.000
Time:	2.679	Roll Set Point:	-0.065	Pitch Set Point:	-0.033	Yaw Set Point:	-0.020	X_WP:	0.000	Y_WP:	0.000	Y_WP:	0.750	X:	0.032	Y:	0.017	Z:	0.405	yaw:	1.164	yaw rate:	-152.195	Roll:	2.352	Pitch:	-0.545	Yaw:	24.731	Thrust:	100.000
Time:	2.700	Roll Set Point:	-0.065	Pitch Set Point:	-0.034	Yaw Set Point:	-0.030	X_WP:	0.000	Y_WP:	0.000	Y_WP:	0.750	X:	0.032	Y:	0.017	Z:	0.406	yaw:	1.714	yaw rate:	-54.955	Roll:	1.026	Pitch:	0.589	Yaw:	10.930	Thrust:	100.000
Time:	2.721	Roll Set Point:	-0.064	Pitch Set Point:	-0.034	Yaw Set Point:	-0.028	X_WP:	0.000	Y_WP:	0.000	Y_WP:	0.750	X:	0.032	Y:	0.017	Z:	0.406	yaw:	1.627	yaw rate:	8.648	Roll:	1.127	Pitch:	0.642	Yaw:	2.715	Thrust:	100.000
Time:	2.740	Roll Set Point:	-0.064	Pitch Set Point:	-0.034	Yaw Set Point:	-0.027	X_WP:	0.000	Y_WP:	0.000	Y_WP:	0.750	X:	0.032	Y:	0.017	Z:	0.406	yaw:	1.571	yaw rate:	5.619	Roll:	1.132	Pitch:	0.615	Yaw:	2.767	Thrust:	100.000
Time:	2.760	Roll Set Point:	-0.065	Pitch Set Point:	-0.034	Yaw Set Point:	-0.029	X_WP:	0.000	Y_WP:	0.000	Y_WP:	0.750	X:	0.032	Y:	0.017	Z:	0.406	yaw:	1.648	yaw rate:	-7.698	Roll:	1.212	Pitch:	0.540	Yaw:	4.738	Thrust:	100.000
Time:	2.780	Roll Set Point:	-0.065	Pitch Set Point:	-0.033	Yaw Set Point:	-0.020	X_WP:	0.000	Y_WP:	0.000	Y_WP:	0.750	X:	0.032	Y:	0.017	Z:	0.406	yaw:	1.156	yaw rate:	49.245	Roll:	1.320	Pitch:	0.540	Yaw:	-3.051	Thrust:	100.000
Time:	2.800	Roll Set Point:	-0.065	Pitch Set Point:	-0.034	Yaw Set Point:	-0.030	X_WP:	0.000	Y_WP:	0.000	Y_WP:	0.750	X:	0.032	Y:	0.017	Z:	0.406	yaw:	1.742	yaw rate:	-58.628	Roll:	1.058	Pitch:	0.591	Yaw:	11.545	Thrust:	100.000
Time:	2.821	Roll Set Point:	-0.064	Pitch Set Point:	-0.034	Yaw Set Point:	-0.029	X_WP:	0.000	Y_WP:	0.000	Y_WP:	0.750	X:	0.032	Y:	0.017	Z:	0.406	yaw:	1.648	yaw rate:	9.406	Roll:	1.123	Pitch:	0.658	Yaw:	2.605	Thrust:	100.000
Time:	2.840	Roll Set Point:	-0.065	Pitch Set Point:	-0.034	Yaw Set Point:	-0.029	X_WP:	0.000	Y_WP:	0.000	Y_WP:	0.750	X:	0.032	Y:	0.017	Z:	0.406	yaw:	1.679	yaw rate:	-3.133	Roll:	1.190	Pitch:	0.541	Yaw:	4.199	Thrust:	100.000
Time:	2.861	Roll Set Point:	-0.065	Pitch Set Point:	-0.034	Yaw Set Point:	-0.029	X_WP:	0.000	Y_WP:	0.000	Y_WP:	0.750	X:	0.032	Y:	0.017	Z:	0.406	yaw:	1.674	yaw rate:	0.500	Roll:	1.169	Pitch:	0.596	Yaw:	3.788	Thrust:	100.000
Time:	2.880	Roll Set Point:	-0.064	Pitch Set Point:	-0.034	Yaw Set Point:	-0.027	X_WP:	0.000	Y_WP:	0.000	Y_WP:	0.750	X:	0.032	Y:	0.017	Z:	0.406	yaw:	1.555	yaw rate:	11.890	Roll:	1.105	Pitch:	0.693	Yaw:	2.005	Thrust:	100.000
Time:	2.900	Roll Set Point:	-0.065	Pitch Set Point:	-0.034	Yaw Set Point:	-0.030	X_WP:	0.000	Y_WP:	0.000	Y_WP:	0.750	X:	0.032	Y:	0.017	Z:	0.406	yaw:	1.730	yaw rate:	-17.461	Roll:	1.255	Pitch:	0.495	Yaw:	6.203	Thrust:	100.000
Time:	2.922	Roll Set Point:	-0.064	Pitch Set Point:	-0.034	Yaw Set Point:	-0.021	X_WP:	0.000	Y_WP:	0.000	Y_WP:	0.750	X:	0.032	Y:	0.017	Z:	0.406	yaw:	1.180	yaw rate:	54.953	Roll:	1.047	Pitch:	0.697	Yaw:	-3.366	Thrust:	100.000
Time:	2.941	Roll Set Point:	-0.064	Pitch Set Point:	-0.034	Yaw Set Point:	-0.025	X_WP:	0.000	Y_WP:	0.000	Y_WP:	0.750	X:	0.032	Y:	0.017	Z:	0.406	yaw:	1.436	yaw rate:	-25.617	Roll:	1.210	Pitch:	0.626	Yaw:	7.022	Thrust:	100.000
Time:	2.960	Roll Set Point:	-0.064	Pitch Set Point:	-0.034	Yaw Set Point:	-0.028	X_WP:	0.000	Y_WP:	0.000	Y_WP:	0.750	X:	0.032	Y:	0.017	Z:	0.406	yaw:	1.612	yaw rate:	-17.585	Roll:	1.226	Pitch:	0.545	Yaw:	6.103	Thrust:	100.000
Time:	2.980	Roll Set Point:	-0.064	Pitch Set Point:	-0.034	Yaw Set Point:	-0.028	X_WP:	0.000	Y_WP:	0.000	Y_WP:	0.750	X:	0.032	Y:	0.017	Z:	0.406	yaw:	1.594	yaw rate:	1.794	Roll:	1.186	Pitch:	0.571	Yaw:	3.527	Thrust:	100.000
Time:	3.000	Roll Set Point:	-0.065	Pitch Set Point:	-0.034	Yaw Set Point:	-0.029	X_WP:	0.000	Y_WP:	0.000	Y_WP:	0.750	X:	0.032	Y:	0.017	Z:	0.406	yaw:	1.683	yaw rate:	-8.876	Roll:	1.216	Pitch:	0.545	Yaw:	5.082	Thrust:	100.000
Time:	3.020	Roll Set Point:	-0.064	Pitch Set Point:	-0.034	Yaw Set Point:	-0.028	X_WP:	0.000	Y_WP:	0.000	Y_WP:	0.750	X:	0.032	Y:	0.017	Z:	0.406	yaw:	1.619	yaw rate:	6.390	Roll:	1.155	Pitch:	0.668	Yaw:	3.008	Thrust:	100.000
Time:	3.041	Roll Set Point:	-0.064	Pitch Set Point:	-0.034	Yaw Set Point:	-0.028	X_WP:	0.000	Y_WP:	0.000	Y_WP:	0.750	X:	0.032	Y:	0.017	Z:	0.406	yaw:	1.632	yaw rate:	-1.261	Roll:	1.191	Pitch:	0.582	Yaw:	4.058	Thrust:	100.000
Time:	3.060	Roll Set Point:	-0.064	Pitch Set Point:	-0.035	Yaw Set Point:	-0.013	X_WP:	0.000	Y_WP:	0.000	Y_WP:	0.750	X:	0.032	Y:	0.017	Z:	0.406	yaw:	0.736	yaw rate:	89.544	Roll:	0.728	Pitch:	1.172	Yaw:	-9.331	Thrust:	100.000
Time:	3.080	Roll Set Point:	-0.065	Pitch Set Point:	-0.033	Yaw Set Point:	-0.021	X_WP:	0.000	Y_WP:	0.000	Y_WP:	0.750	X:	0.032	Y:	0.017	Z:	0.406	yaw:	1.206	yaw rate:	-46.910	Roll:	1.844	Pitch:	-0.041	Yaw:	9.513	Thrust:	100.000
Time:	3.101	Roll Set Point:	-0.065	Pitch Set Point:	-0.034	Yaw Set Point:	-0.029	X_WP:	0.000	Y_WP:	0.000	Y_WP:	0.750	X:	0.032	Y:	0.017	Z:	0.406	yaw:	1.663	yaw rate:	-45.779	Roll:	1.032	Pitch:	0.668	Yaw:	9.777	Thrust:	100.000
Time:	3.121	Roll Set Point:	-0.064	Pitch Set Point:	-0.034	Yaw Set Point:	-0.028	X_WP:	0.000	Y_WP:	0.000	Y_WP:	0.750	X:	0.032	Y:	0.017	Z:	0.406	yaw:	1.588	yaw rate:	7.522	Roll:	1.153	Pitch:	0.636	Yaw:	2.870	Thrust:	100.000
Time:	3.139	Roll Set Point:	-0.064	Pitch Set Point:	-0.034	Yaw Set Point:	-0.022	X_WP:	0.000	Y_WP:	0.000	Y_WP:	0.750	X:	0.032	Y:	0.017	Z:	0.406	yaw:	1.256	yaw rate:	33.204	Roll:	1.103	Pitch:	0.620	Yaw:	-1.392	Thrust:	100.000
Time:	3.160	Roll Set Point:	-0.065	Pitch Set Point:	-0.034	Yaw Set Point:	-0.030	X_WP:	0.000	Y_WP:	0.000	Y_WP:	0.750	X:	0.032	Y:	0.017	Z:	0.406	yaw:	1.708	yaw rate:	-45.221	Roll:	1.334	Pitch:	0.513	Yaw:	9.900	Thrust:	100.000
Time:	3.180	Roll Set Point:	-0.064	Pitch Set Point:	-0.034	Yaw Set Point:	-0.028	X_WP:	0.000	Y_WP:	0.000	Y_WP:	0.750	X:	0.032	Y:	0.017	Z:	0.406	yaw:	1.583	yaw rate:	12.520	Roll:	1.135	Pitch:	0.704	Yaw:	2.316	Thrust:	100.000
Time:	3.200	Roll Set Point:	-0.065	Pitch Set Point:	-0.034	Yaw Set Point:	-0.028	X_WP:	0.000	Y_WP:	0.000	Y_WP:	0.750	X:	0.032	Y:	0.017	Z:	0.406	yaw:	1.595	yaw rate:	-1.170	Roll:	1.221	Pitch:	0.569	Yaw:	4.012	Thrust:	100.000
Time:	3.220	Roll Set Point:	-0.065	Pitch Set Point:	-0.034	Yaw Set Point:	-0.029	X_WP:	0.000	Y_WP:	0.000	Y_WP:	0.750	X:	0.032	Y:	0.017	Z:	0.406	yaw:	1.667	yaw rate:	-7.268	Roll:	1.223	Pitch:	0.578	Yaw:	4.973	Thrust:	100.000
Time:	3.240	Roll Set Point:	-0.065	Pitch Set Point:	-0.034	Yaw Set Point:	-0.033	X_WP:	0.000	Y_WP:	0.000	Y_WP:	0.750	X:	0.032	Y:	0.017	Z:	0.406	yaw:	1.903	yaw rate:	-23.534	Roll:	1.288	Pitch:	0.470	Yaw:	7.448	Thrust:	100.000
Time:	3.260	Roll Set Point:	-0.064	Pitch Set Point:	-0.034	Yaw Set Point:	-0.028	X_WP:	0.000	Y_WP:	0.000	Y_WP:	0.750	X:	0.032	Y:	0.017	Z:	0.406	yaw:	1.595	yaw rate:	30.732	Roll:	1.088	Pitch:	0.780	Yaw:	-0.058	Thrust:	100.000
Time:	3.279	Roll Set Point:	-0.064	Pitch Set Point:	-0.034	Yaw Set Point:	-0.029	X_WP:	0.000	Y_WP:	0.000	Y_WP:	0.750	X:	0.032	Y:	0.017	Z:	0.406	yaw:	1.638	yaw rate:	-4.207	Roll:	1.218	Pitch:	0.580	Yaw:	4.525	Thrust:	100.000
Time:	3.300	Roll Set Point:	-0.065	Pitch Set Point:	-0.033	Yaw Set Point:	-0.021	X_WP:	0.000	Y_WP:	0.000	Y_WP:	0.750	X:	0.032	Y:	0.017	Z:	0.406	yaw:	1.209	yaw rate:	42.835	Roll:	1.427	Pitch:	0.542	Yaw:	-2.169	Thrust:	100.000
Time:	3.320	Roll Set Point:	-0.064	Pitch Set Point:	-0.034	Yaw Set Point:	-0.028	X_WP:	0.000	Y_WP:	0.000	Y_WP:	0.750	X:	0.032	Y:	0.017	Z:	0.406	yaw:	1.607	yaw rate:	-39.793	Roll:	0.989	Pitch:	0.738	Yaw:	9.038	Thrust:	100.000
Time:	3.340	Roll Set Point:	-0.064	Pitch Set Point:	-0.034	Yaw Set Point:	-0.028	X_WP:	0.000	Y_WP:	0.000	Y_WP:	0.750	X:	0.032	Y:	0.017	Z:	0.406	yaw:	1.590	yaw rate:	1.747	Roll:	1.204	Pitch:	0.579	Yaw:	3.643	Thrust:	100.000
Time:	3.361	Roll Set Point:	-0.064	Pitch Set Point:	-0.034	Yaw Set Point:	-0.029	X_WP:	0.000	Y_WP:	0.000	Y_WP:	0.750	X:	0.032	Y:	0.017	Z:	0.406	yaw:	1.659	yaw rate:	-6.936	Roll:	1.245	Pitch:	0.584	Yaw:	5.042	Thrust:	100.000
Time:	3.379	Roll Set Point:	-0.065	Pitch Set Point:	-0.034	Yaw Set Point:	-0.030	X_WP:	0.000	Y_WP:	0.000	Y_WP:	0.750	X:	0.032	Y:	0.017	Z:	0.406	yaw:	1.690	yaw rate:	-3.144	Roll:	1.217	Pitch:	0.605	Yaw:	4.428	Thrust:	100.000
Time:	3.399	Roll Set Point:	-0.064	Pitch Set Point:	-0.034	Yaw Set Point:	-0.028	X_WP:	0.000	Y_WP:	0.000	Y_WP:	0.750	X:	0.032	Y:	0.017	Z:	0.406	yaw:	1.583	yaw rate:	10.762	Roll:	1.155	Pitch:	0.661	Yaw:	2.615	Thrust:	100.000
Time:	3.419	Roll Set Point:	-0.064	Pitch Set Point:	-0.034	Yaw Set Point:	-0.021	X_WP:	0.000	Y_WP:	0.000	Y_WP:	0.750	X:	0.032	Y:	0.017	Z:	0.406	yaw:	1.224	yaw rate:	35.899	Roll:	1.172	Pitch:	0.601	Yaw:	-1.284	Thrust:	100.000
Time:	3.440	Roll Set Point:	-0.064	Pitch Set Point:	-0.034	Yaw Set Point:	-0.021	X_WP:	0.000	Y_WP:	0.000	Y_WP:	0.750	X:	0.032	Y:	0.017	Z:	0.406	yaw:	1.193	yaw rate:	3.056	Roll:	1.189	Pitch:	0.687	Yaw:	3.120	Thrust:	100.000
Time:	3.460	Roll Set Point:	-0.064	Pitch Set Point:	-0.034	Yaw Set Point:	-0.028	X_WP:	0.000	Y_WP:	0.000	Y_WP:	0.750	X:	0.032	Y:	0.017	Z:	0.406	yaw:	1.587	yaw rate:	-39.351	Roll:	1.314	Pitch:	0.590	Yaw:	9.176	Thrust:	100.000
Time:	3.479	Roll Set Point:	-0.065	Pitch Set Point:	-0.034	Yaw Set Point:	-0.029	X_WP:	0.000	Y_WP:	0.000	Y_WP:	0.750	X:	0.032	Y:	0.017	Z:	0.406	yaw:	1.675	yaw rate:	-8.782	Roll:	1.236	Pitch:	0.524	Yaw:	5.285	Thrust:	100.000
Time:	3.500	Roll Set Point:	-0.065	Pitch Set Point:	-0.034	Yaw Set Point:	-0.031	X_WP:	0.000	Y_WP:	0.000	Y_WP:	0.750	X:	0.032	Y:	0.017	Z:	0.406	yaw:	1.772	yaw rate:	-9.787	Roll:	1.292	Pitch:	0.583	Yaw:	5.624	Thrust:	100.000
Time:	3.520	Roll Set Point:	-0.064	Pitch Set Point:	-0.034	Yaw Set Point:	-0.028	X_WP:	0.000	Y_WP:	0.000	Y_WP:	0.750	X:	0.032	Y:	0.017	Z:	0.406	yaw:	1.611	yaw rate:	16.151	Roll:	1.151	Pitch:	0.734	Yaw:	2.048	Thrust:	100.000
Time:	3.540	Roll Set Point:	-0.065	Pitch Set Point:	-0.034	Yaw Set Point:	-0.031	X_WP:	0.000	Y_WP:	0.000	Y_WP:	0.750	X:	0.032	Y:	0.017	Z:	0.406	yaw:	1.757	yaw rate:	-14.599	Roll:	1.293	Pitch:	0.484	Yaw:	6.220	Thrust:	100.000
Time:	3.559	Roll Set Point:	-0.064	Pitch Set Point:	-0.034	Yaw Set Point:	-0.028	X_WP:	0.000	Y_WP:	0.000	Y_WP:	0.750	X:	0.032	Y:	0.017	Z:	0.406	yaw:	1.613	yaw rate:	14.436	Roll:	1.146	Pitch:	0.745	Yaw:	2.066	Thrust:	100.000
Time:	3.579	Roll Set Point:	-0.065	Pitch Set Point:	-0.034	Yaw Set Point:	-0.029	X_WP:	0.000	Y_WP:	0.000	Y_WP:	0.750	X:	0.032	Y:	0.017	Z:	0.406	yaw:	1.660	yaw rate:	-4.787	Roll:	1.261	Pitch:	0.581	Yaw:	4.815	Thrust:	100.000
Time:	3.600	Roll Set Point:	-0.064	Pitch Set Point:	-0.034	Yaw Set Point:	-0.027	X_WP:	0.000	Y_WP:	0.000	Y_WP:	0.750	X:	0.032	Y:	0.017	Z:	0.406	yaw:	1.574	yaw rate:	8.633	Roll:	1.178	Pitch:	0.689	Yaw:	2.939	Thrust:	100.000
Time:	3.620	Roll Set Point:	-0.065	Pitch Set Point:	-0.034	Yaw Set Point:	-0.030	X_WP:	0.000	Y_WP:	0.000	Y_WP:	0.750	X:	0.032	Y:	0.017	Z:	0.406	yaw:	1.714	yaw rate:	-13.978	Roll:	1.321	Pitch:	0.503	Yaw:	6.134	Thrust:	100.000
Time:	3.640	Roll Set Point:	-0.065	Pitch Set Point:	-0.034	Yaw Set Point:	-0.029	X_WP:	0.000	Y_WP:	0.000	Y_WP:	0.750	X:	0.032	Y:	0.017	Z:	0.406	yaw:	1.643	yaw rate:	7.111	Roll:	1.189	Pitch:	0.691	Yaw:	3.140	Thrust:	100.000
Time:	3.660	Roll Set Point:	-0.064	Pitch Set Point:	-0.034	Yaw Set Point:	-0.029	X_WP:	0.000	Y_WP:	0.000	Y_WP:	0.750	X:	0.032	Y:	0.017	Z:	0.406	yaw:	1.635	yaw rate:	0.746	Roll:	1.226	Pitch:	0.656	Yaw:	4.142	Thrust:	100.000
Time:	3.679	Roll Set Point:	-0.064	Pitch Set Point:	-0.034	Yaw Set Point:	-0.028	X_WP:	0.000	Y_WP:	0.000	Y_WP:	0.750	X:	0.032	Y:	0.017	Z:	0.406	yaw:	1.587	yaw rate:	4.863	Roll:	1.215	Pitch:	0.625	Yaw:	3.440	Thrust:	100.000
Time:	3.700	Roll Set Point:	-0.065	Pitch Set Point:	-0.034	Yaw Set Point:	-0.029	X_WP:	0.000	Y_WP:	0.000	Y_WP:	0.750	X:	0.032	Y:	0.017	Z:	0.406	yaw:	1.655	yaw rate:	-6.802	Roll:	1.282	Pitch:	0.604	Yaw:	5.231	Thrust:	100.000
Time:	3.720	Roll Set Point:	-0.065	Pitch Set Point:	-0.034	Yaw Set Point:	-0.029	X_WP:	0.000	Y_WP:	0.000	Y_WP:	0.750	X:	0.032	Y:	0.017	Z:	0.406	yaw:	1.684	yaw rate:	-2.922	Roll:	1.248	Pitch:	0.623	Yaw:	4.641	Thrust:	100.000
Time:	3.739	Roll Set Point:	-0.064	Pitch Set Point:	-0.034	Yaw Set Point:	-0.030	X_WP:	0.000	Y_WP:	0.000	Y_WP:	0.750	X:	0.032	Y:	0.017	Z:	0.406	yaw:	1.707	yaw rate:	-2.330	Roll:	1.150	Pitch:	0.566	Yaw:	4.620	Thrust:	100.000
Time:	3.760	Roll Set Point:	-0.065	Pitch Set Point:	-0.033	Yaw Set Point:	-0.020	X_WP:	0.000	Y_WP:	0.000	Y_WP:	0.750	X:	0.032	Y:	0.017	Z:	0.405	yaw:	1.160	yaw rate:	54.733	Roll:	1.433	Pitch:	0.534	Yaw:	-3.226	Thrust:	100.000
Time:	3.780	Roll Set Point:	-0.064	Pitch Set Point:	-0.033	Yaw Set Point:	-0.021	X_WP:	0.000	Y_WP:	0.000	Y_WP:	0.750	X:	0.032	Y:	0.017	Z:	0.405	yaw:	1.222	yaw rate:	-6.220	Roll:	0.940	Pitch:	0.689	Yaw:	4.488	Thrust:	100.000
Time:	3.800	Roll Set Point:	-0.064	Pitch Set Point:	-0.033	Yaw Set Point:	-0.020	X_WP:	0.000	Y_WP:	0.000	Y_WP:	0.750	X:	0.032	Y:	0.017	Z:	0.406	yaw:	1.133	yaw rate:	8.901	Roll:	1.215	Pitch:	0.705	Yaw:	2.347	Thrust:	100.000
Time:	3.820	Roll Set Point:	-0.065	Pitch Set Point:	-0.033	Yaw Set Point:	-0.018	X_WP:	0.000	Y_WP:	0.000	Y_WP:	0.750	X:	0.032	Y:	0.017	Z:	0.405	yaw:	1.035	yaw rate:	9.777	Roll:	1.646	Pitch:	0.460	Yaw:	2.191	Thrust:	100.000
Time:	3.839	Roll Set Point:	-0.064	Pitch Set Point:	-0.033	Yaw Set Point:	-0.020	X_WP:	0.000	Y_WP:	0.000	Y_WP:	0.750	X:	0.032	Y:	0.017	Z:	0.405	yaw:	1.131	yaw rate:	-9.587	Roll:	0.859	Pitch:	0.766	Yaw:	4.836	Thrust:	100.000
Time:	3.860	Roll Set Point:	-0.065	Pitch Set Point:	-0.033	Yaw Set Point:	-0.018	X_WP:	0.000	Y_WP:	0.000	Y_WP:	0.750	X:	0.032	Y:	0.017	Z:	0.405	yaw:	1.043	yaw rate:	8.832	Roll:	1.649	Pitch:	0.532	Yaw:	2.357	Thrust:	100.000
Time:	3.879	Roll Set Point:	-0.064	Pitch Set Point:	-0.033	Yaw Set Point:	-0.021	X_WP:	0.000	Y_WP:	0.000	Y_WP:	0.750	X:	0.032	Y:	0.017	Z:	0.405	yaw:	1.186	yaw rate:	-14.326	Roll:	0.818	Pitch:	0.772	Yaw:	5.530	Thrust:	100.000
Time:	3.899	Roll Set Point:	-0.064	Pitch Set Point:	-0.033	Yaw Set Point:	-0.022	X_WP:	0.000	Y_WP:	0.000	Y_WP:	0.750	X:	0.032	Y:	0.017	Z:	0.405	yaw:	1.249	yaw rate:	-6.307	Roll:	1.330	Pitch:	0.508	Yaw:	4.546	Thrust:	100.000
Time:	3.921	Roll Set Point:	-0.064	Pitch Set Point:	-0.033	Yaw Set Point:	-0.022	X_WP:	0.000	Y_WP:	0.000	Y_WP:	0.750	X:	0.032	Y:	0.017	Z:	0.405	yaw:	1.253	yaw rate:	-0.408	Roll:	1.245	Pitch:	0.701	Yaw:	4.037	Thrust:	100.000
Time:	3.940	Roll Set Point:	-0.064	Pitch Set Point:	-0.033	Yaw Set Point:	-0.020	X_WP:	0.000	Y_WP:	0.000	Y_WP:	0.750	X:	0.032	Y:	0.017	Z:	0.406	yaw:	1.133	yaw rate:	12.068	Roll:	1.202	Pitch:	0.679	Yaw:	1.713	Thrust:	100.000
Time:	3.960	Roll Set Point:	-0.065	Pitch Set Point:	-0.033	Yaw Set Point:	-0.019	X_WP:	0.000	Y_WP:	0.000	Y_WP:	0.750	X:	0.032	Y:	0.017	Z:	0.405	yaw:	1.103	yaw rate:	2.954	Roll:	1.682	Pitch:	0.508	Yaw:	3.142	Thrust:	100.000
Time:	3.980	Roll Set Point:	-0.064	Pitch Set Point:	-0.034	Yaw Set Point:	-0.020	X_WP:	0.000	Y_WP:	0.000	Y_WP:	0.750	X:	0.032	Y:	0.017	Z:	0.405	yaw:	1.162	yaw rate:	-5.866	Roll:	0.862	Pitch:	0.787	Yaw:	4.407	Thrust:	100.000
Time:	4.000	Roll Set Point:	-0.063	Pitch Set Point:	-0.034	Yaw Set Point:	-0.011	X_WP:	0.000	Y_WP:	0.000	Y_WP:	0.750	X:	0.032	Y:	0.017	Z:	0.406	yaw:	0.656	yaw rate:	50.564	Roll:	0.824	Pitch:	0.936	Yaw:	-3.854	Thrust:	100.000
Time:	4.022	Roll Set Point:	-0.063	Pitch Set Point:	-0.034	Yaw Set Point:	-0.012	X_WP:	0.000	Y_WP:	0.000	Y_WP:	0.750	X:	0.032	Y:	0.017	Z:	0.406	yaw:	0.715	yaw rate:	-5.904	Roll:	1.266	Pitch:	0.705	Yaw:	3.916	Thrust:	100.000
Time:	4.039	Roll Set Point:	-0.063	Pitch Set Point:	-0.034	Yaw Set Point:	-0.013	X_WP:	0.000	Y_WP:	0.000	Y_WP:	0.750	X:	0.032	Y:	0.017	Z:	0.406	yaw:	0.757	yaw rate:	-4.141	Roll:	1.269	Pitch:	0.563	Yaw:	3.432	Thrust:	100.000
Time:	4.060	Roll Set Point:	-0.063	Pitch Set Point:	-0.034	Yaw Set Point:	-0.011	X_WP:	0.000	Y_WP:	0.000	Y_WP:	0.750	X:	0.032	Y:	0.017	Z:	0.406	yaw:	0.607	yaw rate:	14.977	Roll:	1.179	Pitch:	0.731	Yaw:	0.862	Thrust:	100.000
Time:	4.079	Roll Set Point:	-0.063	Pitch Set Point:	-0.034	Yaw Set Point:	-0.014	X_WP:	0.000	Y_WP:	0.000	Y_WP:	0.750	X:	0.032	Y:	0.017	Z:	0.406	yaw:	0.782	yaw rate:	-17.509	Roll:	1.321	Pitch:	0.598	Yaw:	5.382	Thrust:	100.000
Time:	4.099	Roll Set Point:	-0.063	Pitch Set Point:	-0.034	Yaw Set Point:	-0.012	X_WP:	0.000	Y_WP:	0.000	Y_WP:	0.750	X:	0.032	Y:	0.017	Z:	0.406	yaw:	0.698	yaw rate:	8.383	Roll:	1.205	Pitch:	0.689	Yaw:	1.885	Thrust:	100.000
Time:	4.120	Roll Set Point:	-0.063	Pitch Set Point:	-0.034	Yaw Set Point:	-0.012	X_WP:	0.000	Y_WP:	0.000	Y_WP:	0.750	X:	0.032	Y:	0.017	Z:	0.406	yaw:	0.707	yaw rate:	-0.881	Roll:	1.268	Pitch:	0.628	Yaw:	3.084	Thrust:	100.000
Time:	4.142	Roll Set Point:	-0.064	Pitch Set Point:	-0.034	Yaw Set Point:	-0.014	X_WP:	0.000	Y_WP:	0.000	Y_WP:	0.750	X:	0.032	Y:	0.017	Z:	0.406	yaw:	0.811	yaw rate:	-10.415	Roll:	1.338	Pitch:	0.633	Yaw:	4.562	Thrust:	100.000
Time:	4.160	Roll Set Point:	-0.063	Pitch Set Point:	-0.034	Yaw Set Point:	-0.012	X_WP:	0.000	Y_WP:	0.000	Y_WP:	0.750	X:	0.032	Y:	0.017	Z:	0.406	yaw:	0.682	yaw rate:	12.923	Roll:	1.126	Pitch:	0.755	Yaw:	0.984	Thrust:	100.000
Time:	4.179	Roll Set Point:	-0.063	Pitch Set Point:	-0.034	Yaw Set Point:	-0.013	X_WP:	0.000	Y_WP:	0.000	Y_WP:	0.750	X:	0.032	Y:	0.017	Z:	0.406	yaw:	0.759	yaw rate:	-7.732	Roll:	1.331	Pitch:	0.546	Yaw:	4.044	Thrust:	100.000
Time:	4.200	Roll Set Point:	-0.064	Pitch Set Point:	-0.034	Yaw Set Point:	-0.017	X_WP:	0.000	Y_WP:	0.000	Y_WP:	0.750	X:	0.032	Y:	0.017	Z:	0.406	yaw:	0.973	yaw rate:	-21.440	Roll:	1.318	Pitch:	0.535	Yaw:	6.163	Thrust:	100.000
Time:	4.220	Roll Set Point:	-0.063	Pitch Set Point:	-0.034	Yaw Set Point:	-0.013	X_WP:	0.000	Y_WP:	0.000	Y_WP:	0.750	X:	0.032	Y:	0.017	Z:	0.406	yaw:	0.719	yaw rate:	25.427	Roll:	1.185	Pitch:	0.840	Yaw:	-0.085	Thrust:	100.000
Time:	4.240	Roll Set Point:	-0.063	Pitch Set Point:	-0.034	Yaw Set Point:	-0.014	X_WP:	0.000	Y_WP:	0.000	Y_WP:	0.750	X:	0.032	Y:	0.017	Z:	0.406	yaw:	0.783	yaw rate:	-6.342	Roll:	1.280	Pitch:	0.618	Yaw:	3.924	Thrust:	100.000
Time:	4.260	Roll Set Point:	-0.063	Pitch Set Point:	-0.034	Yaw Set Point:	-0.013	X_WP:	0.000	Y_WP:	0.000	Y_WP:	0.750	X:	0.032	Y:	0.017	Z:	0.406	yaw:	0.764	yaw rate:	1.874	Roll:	1.254	Pitch:	0.669	Yaw:	2.780	Thrust:	100.000
Time:	4.279	Roll Set Point:	-0.063	Pitch Set Point:	-0.034	Yaw Set Point:	-0.013	X_WP:	0.000	Y_WP:	0.000	Y_WP:	0.750	X:	0.032	Y:	0.017	Z:	0.406	yaw:	0.763	yaw rate:	0.095	Roll:	1.267	Pitch:	0.653	Yaw:	2.987	Thrust:	100.000
Time:	4.300	Roll Set Point:	-0.063	Pitch Set Point:	-0.034	Yaw Set Point:	-0.013	X_WP:	0.000	Y_WP:	0.000	Y_WP:	0.750	X:	0.032	Y:	0.017	Z:	0.406	yaw:	0.722	yaw rate:	4.105	Roll:	1.260	Pitch:	0.655	Yaw:	2.508	Thrust:	100.000
Time:	4.320	Roll Set Point:	-0.063	Pitch Set Point:	-0.034	Yaw Set Point:	-0.013	X_WP:	0.000	Y_WP:	0.000	Y_WP:	0.750	X:	0.032	Y:	0.017	Z:	0.406	yaw:	0.757	yaw rate:	-3.554	Roll:	1.298	Pitch:	0.693	Yaw:	3.567	Thrust:	100.000
Time:	4.339	Roll Set Point:	-0.063	Pitch Set Point:	-0.034	Yaw Set Point:	-0.013	X_WP:	0.000	Y_WP:	0.000	Y_WP:	0.750	X:	0.032	Y:	0.017	Z:	0.406	yaw:	0.755	yaw rate:	0.225	Roll:	1.229	Pitch:	0.650	Yaw:	2.984	Thrust:	100.000
Time:	4.360	Roll Set Point:	-0.063	Pitch Set Point:	-0.034	Yaw Set Point:	-0.012	X_WP:	0.000	Y_WP:	0.000	Y_WP:	0.750	X:	0.032	Y:	0.017	Z:	0.406	yaw:	0.694	yaw rate:	6.096	Roll:	1.305	Pitch:	0.628	Yaw:	2.223	Thrust:	100.000
Time:	4.379	Roll Set Point:	-0.063	Pitch Set Point:	-0.034	Yaw Set Point:	-0.013	X_WP:	0.000	Y_WP:	0.000	Y_WP:	0.750	X:	0.032	Y:	0.017	Z:	0.406	yaw:	0.729	yaw rate:	-3.428	Roll:	1.245	Pitch:	0.737	Yaw:	3.399	Thrust:	100.000
Time:	4.399	Roll Set Point:	-0.063	Pitch Set Point:	-0.034	Yaw Set Point:	-0.014	X_WP:	0.000	Y_WP:	0.000	Y_WP:	0.750	X:	0.032	Y:	0.017	Z:	0.406	yaw:	0.818	yaw rate:	-8.924	Roll:	1.324	Pitch:	0.590	Yaw:	4.328	Thrust:	100.000
Time:	4.422	Roll Set Point:	-0.063	Pitch Set Point:	-0.034	Yaw Set Point:	-0.013	X_WP:	0.000	Y_WP:	0.000	Y_WP:	0.750	X:	0.032	Y:	0.017	Z:	0.406	yaw:	0.740	yaw rate:	7.733	Roll:	1.305	Pitch:	0.717	Yaw:	2.395	Thrust:	100.000
Time:	4.439	Roll Set Point:	-0.063	Pitch Set Point:	-0.034	Yaw Set Point:	-0.013	X_WP:	0.000	Y_WP:	0.000	Y_WP:	0.750	X:	0.032	Y:	0.017	Z:	0.406	yaw:	0.742	yaw rate:	-0.132	Roll:	1.243	Pitch:	0.749	Yaw:	2.804	Thrust:	100.000
Time:	4.461	Roll Set Point:	-0.063	Pitch Set Point:	-0.034	Yaw Set Point:	-0.013	X_WP:	0.000	Y_WP:	0.000	Y_WP:	0.750	X:	0.032	Y:	0.017	Z:	0.406	yaw:	0.771	yaw rate:	-2.922	Roll:	1.305	Pitch:	0.663	Yaw:	3.604	Thrust:	100.000
Time:	4.480	Roll Set Point:	-0.063	Pitch Set Point:	-0.035	Yaw Set Point:	-0.005	X_WP:	0.000	Y_WP:	0.000	Y_WP:	0.750	X:	0.032	Y:	0.017	Z:	0.406	yaw:	0.258	yaw rate:	51.307	Roll:	1.190	Pitch:	1.056	Yaw:	-4.905	Thrust:	100.000
Time:	4.500	Roll Set Point:	-0.064	Pitch Set Point:	-0.034	Yaw Set Point:	-0.019	X_WP:	0.000	Y_WP:	0.000	Y_WP:	0.750	X:	0.032	Y:	0.017	Z:	0.406	yaw:	1.065	yaw rate:	-80.747	Roll:	1.455	Pitch:	0.144	Yaw:	14.092	Thrust:	100.000
Time:	4.519	Roll Set Point:	-0.064	Pitch Set Point:	-0.034	Yaw Set Point:	-0.020	X_WP:	0.000	Y_WP:	0.000	Y_WP:	0.750	X:	0.032	Y:	0.017	Z:	0.406	yaw:	1.142	yaw rate:	-7.660	Roll:	1.264	Pitch:	0.544	Yaw:	4.575	Thrust:	100.000
Time:	4.540	Roll Set Point:	-0.064	Pitch Set Point:	-0.035	Yaw Set Point:	-0.012	X_WP:	0.000	Y_WP:	0.000	Y_WP:	0.750	X:	0.032	Y:	0.018	Z:	0.406	yaw:	0.689	yaw rate:	45.316	Roll:	1.429	Pitch:	1.323	Yaw:	-3.086	Thrust:	100.000
Time:	4.559	Roll Set Point:	-0.064	Pitch Set Point:	-0.034	Yaw Set Point:	-0.031	X_WP:	0.000	Y_WP:	0.000	Y_WP:	0.750	X:	0.032	Y:	0.017	Z:	0.406	yaw:	1.762	yaw rate:	-107.281	Roll:	1.547	Pitch:	0.054	Yaw:	18.297	Thrust:	100.000
Time:	4.579	Roll Set Point:	-0.064	Pitch Set Point:	-0.034	Yaw Set Point:	-0.028	X_WP:	0.000	Y_WP:	0.000	Y_WP:	0.750	X:	0.032	Y:	0.018	Z:	0.406	yaw:	1.587	yaw rate:	17.506	Roll:	1.366	Pitch:	0.840	Yaw:	1.876	Thrust:	100.000
Time:	4.599	Roll Set Point:	-0.065	Pitch Set Point:	-0.034	Yaw Set Point:	-0.026	X_WP:	0.000	Y_WP:	0.000	Y_WP:	0.750	X:	0.032	Y:	0.017	Z:	0.406	yaw:	1.494	yaw rate:	9.241	Roll:	1.395	Pitch:	0.610	Yaw:	2.886	Thrust:	100.000
Time:	4.623	Roll Set Point:	-0.065	Pitch Set Point:	-0.034	Yaw Set Point:	-0.025	X_WP:	0.000	Y_WP:	0.000	Y_WP:	0.750	X:	0.032	Y:	0.017	Z:	0.406	yaw:	1.443	yaw rate:	5.080	Roll:	1.337	Pitch:	0.721	Yaw:	3.766	Thrust:	100.000
Time:	4.640	Roll Set Point:	-0.066	Pitch Set Point:	-0.034	Yaw Set Point:	-0.023	X_WP:	0.000	Y_WP:	0.000	Y_WP:	0.750	X:	0.033	Y:	0.017	Z:	0.406	yaw:	1.326	yaw rate:	11.709	Roll:	1.718	Pitch:	0.572	Yaw:	1.863	Thrust:	100.000
Time:	4.661	Roll Set Point:	-0.064	Pitch Set Point:	-0.034	Yaw Set Point:	-0.028	X_WP:	0.000	Y_WP:	0.000	Y_WP:	0.750	X:	0.032	Y:	0.018	Z:	0.406	yaw:	1.577	yaw rate:	-25.095	Roll:	0.809	Pitch:	0.717	Yaw:	7.453	Thrust:	100.000
Time:	4.679	Roll Set Point:	-0.065	Pitch Set Point:	-0.034	Yaw Set Point:	-0.039	X_WP:	0.000	Y_WP:	0.000	Y_WP:	0.750	X:	0.032	Y:	0.018	Z:	0.406	yaw:	2.208	yaw rate:	-63.116	Roll:	1.623	Pitch:	0.404	Yaw:	13.834	Thrust:	100.000
Time:	4.700	Roll Set Point:	-0.067	Pitch Set Point:	-0.032	Yaw Set Point:	0.010	X_WP:	0.000	Y_WP:	0.000	Y_WP:	0.750	X:	0.033	Y:	0.016	Z:	0.404	yaw:	-0.562	yaw rate:	277.013	Roll:	1.783	Pitch:	0.361	Yaw:	-33.889	Thrust:	100.000
Time:	4.720	Roll Set Point:	-0.067	Pitch Set Point:	-0.032	Yaw Set Point:	0.011	X_WP:	0.000	Y_WP:	0.000	Y_WP:	0.750	X:	0.033	Y:	0.016	Z:	0.404	yaw:	-0.622	yaw rate:	6.055	Roll:	1.283	Pitch:	0.686	Yaw:	0.351	Thrust:	100.000
Time:	4.740	Roll Set Point:	-0.067	Pitch Set Point:	-0.032	Yaw Set Point:	0.011	X_WP:	0.000	Y_WP:	0.000	Y_WP:	0.750	X:	0.033	Y:	0.016	Z:	0.404	yaw:	-0.629	yaw rate:	0.683	Roll:	1.342	Pitch:	0.672	Yaw:	1.016	Thrust:	100.000
Time:	4.763	Roll Set Point:	-0.067	Pitch Set Point:	-0.031	Yaw Set Point:	0.008	X_WP:	0.000	Y_WP:	0.000	Y_WP:	0.750	X:	0.033	Y:	0.016	Z:	0.404	yaw:	-0.476	yaw rate:	-15.343	Roll:	1.426	Pitch:	0.528	Yaw:	3.359	Thrust:	100.000
Time:	4.780	Roll Set Point:	-0.066	Pitch Set Point:	-0.032	Yaw Set Point:	0.007	X_WP:	0.000	Y_WP:	0.000	Y_WP:	0.750	X:	0.033	Y:	0.016	Z:	0.404	yaw:	-0.406	yaw rate:	-6.991	Roll:	0.857	Pitch:	0.863	Yaw:	2.227	Thrust:	100.000
Time:	4.800	Roll Set Point:	-0.066	Pitch Set Point:	-0.033	Yaw Set Point:	0.015	X_WP:	0.000	Y_WP:	0.000	Y_WP:	0.750	X:	0.033	Y:	0.016	Z:	0.405	yaw:	-0.831	yaw rate:	42.522	Roll:	1.326	Pitch:	1.066	Yaw:	-4.977	Thrust:	100.000
Time:	4.820	Roll Set Point:	-0.066	Pitch Set Point:	-0.033	Yaw Set Point:	0.020	X_WP:	0.000	Y_WP:	0.000	Y_WP:	0.750	X:	0.033	Y:	0.016	Z:	0.404	yaw:	-1.154	yaw rate:	32.345	Roll:	1.577	Pitch:	0.699	Yaw:	-3.771	Thrust:	100.000
Time:	4.840	Roll Set Point:	-0.064	Pitch Set Point:	-0.034	Yaw Set Point:	0.030	X_WP:	0.000	Y_WP:	0.000	Y_WP:	0.750	X:	0.032	Y:	0.017	Z:	0.405	yaw:	-1.693	yaw rate:	53.879	Roll:	0.095	Pitch:	1.610	Yaw:	-7.649	Thrust:	100.000
Time:	4.859	Roll Set Point:	-0.066	Pitch Set Point:	-0.033	Yaw Set Point:	0.017	X_WP:	0.000	Y_WP:	0.000	Y_WP:	0.750	X:	0.033	Y:	0.016	Z:	0.405	yaw:	-0.963	yaw rate:	-73.023	Roll:	2.253	Pitch:	-0.068	Yaw:	10.511	Thrust:	100.000
Time:	4.879	Roll Set Point:	-0.065	Pitch Set Point:	-0.033	Yaw Set Point:	0.027	X_WP:	0.000	Y_WP:	0.000	Y_WP:	0.750	X:	0.033	Y:	0.016	Z:	0.404	yaw:	-1.549	yaw rate:	58.581	Roll:	1.052	Pitch:	1.039	Yaw:	-7.647	Thrust:	100.000
Time:	4.900	Roll Set Point:	-0.065	Pitch Set Point:	-0.034	Yaw Set Point:	0.016	X_WP:	0.000	Y_WP:	0.000	Y_WP:	0.750	X:	0.032	Y:	0.017	Z:	0.405	yaw:	-0.926	yaw rate:	-62.292	Roll:	1.187	Pitch:	0.739	Yaw:	8.783	Thrust:	100.000
Time:	4.920	Roll Set Point:	-0.063	Pitch Set Point:	-0.034	Yaw Set Point:	0.008	X_WP:	0.000	Y_WP:	0.000	Y_WP:	0.750	X:	0.032	Y:	0.017	Z:	0.406	yaw:	-0.471	yaw rate:	-45.531	Roll:	0.837	Pitch:	0.690	Yaw:	7.170	Thrust:	100.000
Time:	4.940	Roll Set Point:	-0.064	Pitch Set Point:	-0.034	Yaw Set Point:	0.016	X_WP:	0.000	Y_WP:	0.000	Y_WP:	0.750	X:	0.032	Y:	0.017	Z:	0.405	yaw:	-0.914	yaw rate:	44.296	Roll:	1.585	Pitch:	0.789	Yaw:	-5.037	Thrust:	100.000
Time:	4.960	Roll Set Point:	-0.066	Pitch Set Point:	-0.034	Yaw Set Point:	-0.020	X_WP:	0.000	Y_WP:	0.000	Y_WP:	0.750	X:	0.033	Y:	0.017	Z:	0.406	yaw:	1.153	yaw rate:	-206.624	Roll:	2.231	Pitch:	0.092	Yaw:	31.052	Thrust:	100.000
Time:	4.979	Roll Set Point:	-0.065	Pitch Set Point:	-0.034	Yaw Set Point:	-0.013	X_WP:	0.000	Y_WP:	0.000	Y_WP:	0.750	X:	0.032	Y:	0.017	Z:	0.407	yaw:	0.740	yaw rate:	41.271	Roll:	0.837	Pitch:	1.058	Yaw:	-2.538	Thrust:	100.000
Time:	5.000	Roll Set Point:	-0.066	Pitch Set Point:	-0.035	Yaw Set Point:	-0.010	X_WP:	0.000	Y_WP:	0.000	Y_WP:	0.750	X:	0.033	Y:	0.018	Z:	0.407	yaw:	0.562	yaw rate:	17.810	Roll:	1.762	Pitch:	1.057	Yaw:	0.500	Thrust:	100.000
Time:	5.021	Roll Set Point:	-0.065	Pitch Set Point:	-0.035	Yaw Set Point:	-0.012	X_WP:	0.000	Y_WP:	0.000	Y_WP:	0.750	X:	0.032	Y:	0.018	Z:	0.407	yaw:	0.687	yaw rate:	-12.543	Roll:	1.078	Pitch:	0.768	Yaw:	4.546	Thrust:	100.000
Time:	5.040	Roll Set Point:	-0.065	Pitch Set Point:	-0.035	Yaw Set Point:	-0.035	X_WP:	0.000	Y_WP:	0.000	Y_WP:	0.750	X:	0.032	Y:	0.018	Z:	0.407	yaw:	2.001	yaw rate:	-131.393	Roll:	1.467	Pitch:	0.064	Yaw:	22.112	Thrust:	100.000
Time:	5.061	Roll Set Point:	-0.064	Pitch Set Point:	-0.034	Yaw Set Point:	0.008	X_WP:	0.000	Y_WP:	0.000	Y_WP:	0.750	X:	0.032	Y:	0.017	Z:	0.405	yaw:	-0.441	yaw rate:	244.178	Roll:	0.843	Pitch:	1.189	Yaw:	-29.567	Thrust:	100.000
Time:	5.079	Roll Set Point:	-0.065	Pitch Set Point:	-0.034	Yaw Set Point:	0.010	X_WP:	0.000	Y_WP:	0.000	Y_WP:	0.750	X:	0.032	Y:	0.017	Z:	0.405	yaw:	-0.570	yaw rate:	12.970	Roll:	1.373	Pitch:	0.631	Yaw:	-0.767	Thrust:	100.000
Time:	5.100	Roll Set Point:	-0.064	Pitch Set Point:	-0.034	Yaw Set Point:	0.010	X_WP:	0.000	Y_WP:	0.000	Y_WP:	0.750	X:	0.032	Y:	0.017	Z:	0.405	yaw:	-0.598	yaw rate:	2.791	Roll:	1.300	Pitch:	0.759	Yaw:	0.827	Thrust:	100.000
Time:	5.120	Roll Set Point:	-0.065	Pitch Set Point:	-0.034	Yaw Set Point:	0.010	X_WP:	0.000	Y_WP:	0.000	Y_WP:	0.750	X:	0.032	Y:	0.017	Z:	0.405	yaw:	-0.567	yaw rate:	-3.115	Roll:	1.435	Pitch:	0.681	Yaw:	1.576	Thrust:	100.000
Time:	5.140	Roll Set Point:	-0.065	Pitch Set Point:	-0.034	Yaw Set Point:	0.011	X_WP:	0.000	Y_WP:	0.000	Y_WP:	0.750	X:	0.032	Y:	0.017	Z:	0.405	yaw:	-0.605	yaw rate:	3.752	Roll:	1.355	Pitch:	0.699	Yaw:	0.565	Thrust:	100.000
Time:	5.163	Roll Set Point:	-0.065	Pitch Set Point:	-0.034	Yaw Set Point:	0.010	X_WP:	0.000	Y_WP:	0.000	Y_WP:	0.750	X:	0.032	Y:	0.017	Z:	0.405	yaw:	-0.567	yaw rate:	-3.729	Roll:	1.384	Pitch:	0.716	Yaw:	1.799	Thrust:	100.000
Time:	5.183	Roll Set Point:	-0.065	Pitch Set Point:	-0.034	Yaw Set Point:	0.011	X_WP:	0.000	Y_WP:	0.000	Y_WP:	0.750	X:	0.033	Y:	0.017	Z:	0.405	yaw:	-0.624	yaw rate:	5.682	Roll:	1.473	Pitch:	0.816	Yaw:	0.392	Thrust:	100.000
Time:	5.200	Roll Set Point:	-0.065	Pitch Set Point:	-0.034	Yaw Set Point:	0.011	X_WP:	0.000	Y_WP:	0.000	Y_WP:	0.750	X:	0.033	Y:	0.017	Z:	0.405	yaw:	-0.609	yaw rate:	-1.495	Roll:	1.336	Pitch:	0.678	Yaw:	1.053	Thrust:	100.000
Time:	5.222	Roll Set Point:	-0.065	Pitch Set Point:	-0.034	Yaw Set Point:	0.011	X_WP:	0.000	Y_WP:	0.000	Y_WP:	0.750	X:	0.033	Y:	0.017	Z:	0.405	yaw:	-0.650	yaw rate:	4.042	Roll:	1.328	Pitch:	0.788	Yaw:	0.692	Thrust:	100.000
Time:	5.240	Roll Set Point:	-0.065	Pitch Set Point:	-0.034	Yaw Set Point:	0.011	X_WP:	0.000	Y_WP:	0.000	Y_WP:	0.750	X:	0.033	Y:	0.017	Z:	0.405	yaw:	-0.632	yaw rate:	-1.760	Roll:	1.371	Pitch:	0.636	Yaw:	1.069	Thrust:	100.000
Time:	5.270	Roll Set Point:	-0.064	Pitch Set Point:	-0.035	Yaw Set Point:	0.015	X_WP:	0.000	Y_WP:	0.000	Y_WP:	0.750	X:	0.032	Y:	0.017	Z:	0.405	yaw:	-0.848	yaw rate:	21.647	Roll:	1.402	Pitch:	0.941	Yaw:	-0.022	Thrust:	100.000
Time:	5.285	Roll Set Point:	-0.064	Pitch Set Point:	-0.035	Yaw Set Point:	0.020	X_WP:	0.000	Y_WP:	0.000	Y_WP:	0.750	X:	0.032	Y:	0.017	Z:	0.405	yaw:	-1.122	yaw rate:	27.332	Roll:	0.924	Pitch:	1.155	Yaw:	-5.306	Thrust:	100.000
Time:	5.300	Roll Set Point:	-0.064	Pitch Set Point:	-0.035	Yaw Set Point:	-0.021	X_WP:	0.000	Y_WP:	0.000	Y_WP:	0.750	X:	0.032	Y:	0.018	Z:	0.406	yaw:	1.191	yaw rate:	-231.240	Roll:	1.829	Pitch:	-0.079	Yaw:	42.847	Thrust:	100.000
Time:	5.321	Roll Set Point:	-0.064	Pitch Set Point:	-0.035	Yaw Set Point:	-0.022	X_WP:	0.000	Y_WP:	0.000	Y_WP:	0.750	X:	0.032	Y:	0.018	Z:	0.406	yaw:	1.283	yaw rate:	-9.278	Roll:	1.397	Pitch:	0.656	Yaw:	4.970	Thrust:	100.000
Time:	5.340	Roll Set Point:	-0.067	Pitch Set Point:	-0.033	Yaw Set Point:	-0.076	X_WP:	0.000	Y_WP:	0.000	Y_WP:	0.750	X:	0.033	Y:	0.018	Z:	0.406	yaw:	4.327	yaw rate:	-304.351	Roll:	3.002	Pitch:	-0.888	Yaw:	49.441	Thrust:	100.000
Time:	5.360	Roll Set Point:	-0.064	Pitch Set Point:	-0.036	Yaw Set Point:	-0.004	X_WP:	0.000	Y_WP:	0.000	Y_WP:	0.750	X:	0.032	Y:	0.018	Z:	0.407	yaw:	0.253	yaw rate:	407.439	Roll:	-0.775	Pitch:	2.776	Yaw:	-52.808	Thrust:	100.000
Time:	5.380	Roll Set Point:	-0.064	Pitch Set Point:	-0.036	Yaw Set Point:	-0.018	X_WP:	0.000	Y_WP:	0.000	Y_WP:	0.750	X:	0.032	Y:	0.018	Z:	0.407	yaw:	1.031	yaw rate:	-77.810	Roll:	1.569	Pitch:	0.659	Yaw:	13.414	Thrust:	100.000
