Time:	0.033	Roll Set Point:	0.002	Pitch Set Point:	-0.017	Yaw Set Point:	2.168	X_WP:	0.000	Y_WP:	0.000	Z_WP:	0.500	X:	0.015	Y:	0.010	Z:	0.049	yaw:	-124.206	yaw rate:	-0.585	Roll:	-0.173	Pitch:	0.067	Yaw:	-173.424	Thrust:	24.798
Time:	0.055	Roll Set Point:	0.002	Pitch Set Point:	-0.017	Yaw Set Point:	2.168	X_WP:	0.000	Y_WP:	0.000	Z_WP:	0.500	X:	0.015	Y:	0.010	Z:	0.049	yaw:	-124.228	yaw rate:	2.186	Roll:	-0.163	Pitch:	0.056	Yaw:	-174.671	Thrust:	25.986
Time:	0.075	Roll Set Point:	0.002	Pitch Set Point:	-0.017	Yaw Set Point:	2.168	X_WP:	0.000	Y_WP:	0.000	Z_WP:	0.500	X:	0.015	Y:	0.010	Z:	0.049	yaw:	-124.223	yaw rate:	-0.431	Roll:	-0.159	Pitch:	0.081	Yaw:	-175.132	Thrust:	27.008
Time:	0.096	Roll Set Point:	0.002	Pitch Set Point:	-0.017	Yaw Set Point:	2.168	X_WP:	0.000	Y_WP:	0.000	Z_WP:	0.500	X:	0.015	Y:	0.010	Z:	0.049	yaw:	-124.214	yaw rate:	-0.892	Roll:	-0.187	Pitch:	0.059	Yaw:	-176.133	Thrust:	28.290
Time:	0.115	Roll Set Point:	0.002	Pitch Set Point:	-0.017	Yaw Set Point:	2.168	X_WP:	0.000	Y_WP:	0.000	Z_WP:	0.500	X:	0.015	Y:	0.010	Z:	0.049	yaw:	-124.225	yaw rate:	1.057	Roll:	-0.180	Pitch:	0.064	Yaw:	-176.666	Thrust:	28.706
Time:	0.135	Roll Set Point:	0.002	Pitch Set Point:	-0.017	Yaw Set Point:	2.168	X_WP:	0.000	Y_WP:	0.000	Z_WP:	0.500	X:	0.015	Y:	0.010	Z:	0.049	yaw:	-124.236	yaw rate:	1.127	Roll:	-0.162	Pitch:	0.081	Yaw:	-177.631	Thrust:	30.230
Time:	0.155	Roll Set Point:	0.002	Pitch Set Point:	-0.017	Yaw Set Point:	2.168	X_WP:	0.000	Y_WP:	0.000	Z_WP:	0.500	X:	0.015	Y:	0.010	Z:	0.049	yaw:	-124.195	yaw rate:	-4.117	Roll:	-0.185	Pitch:	0.064	Yaw:	-177.108	Thrust:	31.608
Time:	0.175	Roll Set Point:	0.002	Pitch Set Point:	-0.017	Yaw Set Point:	2.168	X_WP:	0.000	Y_WP:	0.000	Z_WP:	0.500	X:	0.015	Y:	0.010	Z:	0.049	yaw:	-124.238	yaw rate:	4.291	Roll:	-0.182	Pitch:	0.068	Yaw:	-178.039	Thrust:	32.033
Time:	0.196	Roll Set Point:	0.002	Pitch Set Point:	-0.017	Yaw Set Point:	2.168	X_WP:	0.000	Y_WP:	0.000	Z_WP:	0.500	X:	0.015	Y:	0.010	Z:	0.049	yaw:	-124.214	yaw rate:	-2.368	Roll:	-0.176	Pitch:	0.061	Yaw:	-177.268	Thrust:	33.950
Time:	0.216	Roll Set Point:	0.002	Pitch Set Point:	-0.017	Yaw Set Point:	2.168	X_WP:	0.000	Y_WP:	0.000	Z_WP:	0.500	X:	0.015	Y:	0.010	Z:	0.049	yaw:	-124.205	yaw rate:	-0.964	Roll:	-0.172	Pitch:	0.084	Yaw:	-177.057	Thrust:	34.230
Time:	0.235	Roll Set Point:	0.002	Pitch Set Point:	-0.017	Yaw Set Point:	2.169	X_WP:	0.000	Y_WP:	0.000	Z_WP:	0.500	X:	0.015	Y:	0.010	Z:	0.049	yaw:	-124.252	yaw rate:	4.740	Roll:	-0.209	Pitch:	0.067	Yaw:	-178.125	Thrust:	35.675
Time:	0.255	Roll Set Point:	0.002	Pitch Set Point:	-0.017	Yaw Set Point:	2.168	X_WP:	0.000	Y_WP:	0.000	Z_WP:	0.500	X:	0.015	Y:	0.010	Z:	0.049	yaw:	-124.214	yaw rate:	-3.819	Roll:	-0.166	Pitch:	0.073	Yaw:	-176.938	Thrust:	36.156
Time:	0.275	Roll Set Point:	0.002	Pitch Set Point:	-0.017	Yaw Set Point:	2.168	X_WP:	0.000	Y_WP:	0.000	Z_WP:	0.500	X:	0.015	Y:	0.010	Z:	0.049	yaw:	-124.201	yaw rate:	-1.262	Roll:	-0.171	Pitch:	0.066	Yaw:	-177.056	Thrust:	37.769
Time:	0.295	Roll Set Point:	0.002	Pitch Set Point:	-0.017	Yaw Set Point:	2.168	X_WP:	0.000	Y_WP:	0.000	Z_WP:	0.500	X:	0.015	Y:	0.010	Z:	0.049	yaw:	-124.221	yaw rate:	1.998	Roll:	-0.195	Pitch:	0.075	Yaw:	-177.869	Thrust:	39.120
Time:	0.314	Roll Set Point:	0.002	Pitch Set Point:	-0.017	Yaw Set Point:	2.168	X_WP:	0.000	Y_WP:	0.000	Z_WP:	0.500	X:	0.015	Y:	0.010	Z:	0.049	yaw:	-124.222	yaw rate:	0.099	Roll:	-0.192	Pitch:	0.073	Yaw:	-177.418	Thrust:	40.197
Time:	0.334	Roll Set Point:	0.002	Pitch Set Point:	-0.017	Yaw Set Point:	2.168	X_WP:	0.000	Y_WP:	0.000	Z_WP:	0.500	X:	0.015	Y:	0.010	Z:	0.049	yaw:	-124.245	yaw rate:	2.288	Roll:	-0.178	Pitch:	0.056	Yaw:	-177.781	Thrust:	40.195
Time:	0.356	Roll Set Point:	0.002	Pitch Set Point:	-0.017	Yaw Set Point:	2.168	X_WP:	0.000	Y_WP:	0.000	Z_WP:	0.500	X:	0.015	Y:	0.010	Z:	0.049	yaw:	-124.230	yaw rate:	-1.504	Roll:	-0.179	Pitch:	0.073	Yaw:	-177.482	Thrust:	43.031
Time:	0.376	Roll Set Point:	0.002	Pitch Set Point:	-0.017	Yaw Set Point:	2.168	X_WP:	0.000	Y_WP:	0.000	Z_WP:	0.500	X:	0.015	Y:	0.010	Z:	0.049	yaw:	-124.193	yaw rate:	-3.672	Roll:	-0.195	Pitch:	0.094	Yaw:	-176.712	Thrust:	43.228
Time:	0.396	Roll Set Point:	0.002	Pitch Set Point:	-0.017	Yaw Set Point:	2.168	X_WP:	0.000	Y_WP:	0.000	Z_WP:	0.500	X:	0.015	Y:	0.010	Z:	0.049	yaw:	-124.202	yaw rate:	0.884	Roll:	-0.189	Pitch:	0.062	Yaw:	-177.748	Thrust:	45.364
Time:	0.416	Roll Set Point:	0.002	Pitch Set Point:	-0.017	Yaw Set Point:	2.168	X_WP:	0.000	Y_WP:	0.000	Z_WP:	0.500	X:	0.015	Y:	0.010	Z:	0.049	yaw:	-124.244	yaw rate:	4.214	Roll:	-0.169	Pitch:	0.083	Yaw:	-177.874	Thrust:	44.414
Time:	0.435	Roll Set Point:	0.002	Pitch Set Point:	-0.017	Yaw Set Point:	2.168	X_WP:	0.000	Y_WP:	0.000	Z_WP:	0.500	X:	0.015	Y:	0.010	Z:	0.049	yaw:	-124.236	yaw rate:	-0.848	Roll:	-0.200	Pitch:	0.072	Yaw:	-177.365	Thrust:	46.459
Time:	0.455	Roll Set Point:	0.002	Pitch Set Point:	-0.017	Yaw Set Point:	2.168	X_WP:	0.000	Y_WP:	0.000	Z_WP:	0.500	X:	0.015	Y:	0.010	Z:	0.049	yaw:	-124.237	yaw rate:	0.080	Roll:	-0.203	Pitch:	0.059	Yaw:	-177.488	Thrust:	47.681
Time:	0.476	Roll Set Point:	0.002	Pitch Set Point:	-0.017	Yaw Set Point:	2.168	X_WP:	0.000	Y_WP:	0.000	Z_WP:	0.500	X:	0.015	Y:	0.010	Z:	0.049	yaw:	-124.229	yaw rate:	-0.756	Roll:	-0.179	Pitch:	0.091	Yaw:	-177.573	Thrust:	48.577
Time:	0.496	Roll Set Point:	0.002	Pitch Set Point:	-0.017	Yaw Set Point:	2.168	X_WP:	0.000	Y_WP:	0.000	Z_WP:	0.500	X:	0.015	Y:	0.010	Z:	0.049	yaw:	-124.226	yaw rate:	-0.303	Roll:	-0.202	Pitch:	0.067	Yaw:	-177.351	Thrust:	50.002
Time:	0.517	Roll Set Point:	0.002	Pitch Set Point:	-0.017	Yaw Set Point:	2.168	X_WP:	0.000	Y_WP:	0.000	Z_WP:	0.500	X:	0.015	Y:	0.010	Z:	0.049	yaw:	-124.231	yaw rate:	0.541	Roll:	-0.194	Pitch:	0.063	Yaw:	-177.641	Thrust:	52.081
Time:	0.534	Roll Set Point:	0.002	Pitch Set Point:	-0.017	Yaw Set Point:	2.168	X_WP:	0.000	Y_WP:	0.000	Z_WP:	0.500	X:	0.015	Y:	0.010	Z:	0.049	yaw:	-124.227	yaw rate:	-0.480	Roll:	-0.170	Pitch:	0.093	Yaw:	-176.789	Thrust:	47.876
Time:	0.553	Roll Set Point:	0.002	Pitch Set Point:	-0.017	Yaw Set Point:	2.169	X_WP:	0.000	Y_WP:	0.000	Z_WP:	0.500	X:	0.015	Y:	0.010	Z:	0.049	yaw:	-124.252	yaw rate:	2.518	Roll:	-0.210	Pitch:	0.065	Yaw:	-177.827	Thrust:	53.072
Time:	0.573	Roll Set Point:	0.002	Pitch Set Point:	-0.017	Yaw Set Point:	2.168	X_WP:	0.000	Y_WP:	0.000	Z_WP:	0.500	X:	0.015	Y:	0.010	Z:	0.049	yaw:	-124.217	yaw rate:	-3.483	Roll:	-0.190	Pitch:	0.085	Yaw:	-176.997	Thrust:	54.038
Time:	0.594	Roll Set Point:	0.002	Pitch Set Point:	-0.017	Yaw Set Point:	2.169	X_WP:	0.000	Y_WP:	0.000	Z_WP:	0.500	X:	0.015	Y:	0.010	Z:	0.049	yaw:	-124.264	yaw rate:	4.665	Roll:	-0.202	Pitch:	0.065	Yaw:	-178.261	Thrust:	55.655
Time:	0.614	Roll Set Point:	0.002	Pitch Set Point:	-0.017	Yaw Set Point:	2.168	X_WP:	0.000	Y_WP:	0.000	Z_WP:	0.500	X:	0.015	Y:	0.010	Z:	0.049	yaw:	-124.222	yaw rate:	-4.126	Roll:	-0.195	Pitch:	0.097	Yaw:	-176.843	Thrust:	54.906
Time:	0.634	Roll Set Point:	0.002	Pitch Set Point:	-0.017	Yaw Set Point:	2.168	X_WP:	0.000	Y_WP:	0.000	Z_WP:	0.500	X:	0.015	Y:	0.010	Z:	0.049	yaw:	-124.222	yaw rate:	0.005	Roll:	-0.203	Pitch:	0.059	Yaw:	-177.458	Thrust:	59.052
Time:	0.654	Roll Set Point:	0.002	Pitch Set Point:	-0.017	Yaw Set Point:	2.168	X_WP:	0.000	Y_WP:	0.000	Z_WP:	0.500	X:	0.015	Y:	0.010	Z:	0.049	yaw:	-124.231	yaw rate:	0.817	Roll:	-0.188	Pitch:	0.085	Yaw:	-177.381	Thrust:	56.670
Time:	0.675	Roll Set Point:	0.002	Pitch Set Point:	-0.017	Yaw Set Point:	2.168	X_WP:	0.000	Y_WP:	0.000	Z_WP:	0.500	X:	0.015	Y:	0.010	Z:	0.049	yaw:	-124.226	yaw rate:	-0.501	Roll:	-0.211	Pitch:	0.071	Yaw:	-177.600	Thrust:	61.265
Time:	0.696	Roll Set Point:	0.002	Pitch Set Point:	-0.017	Yaw Set Point:	2.168	X_WP:	0.000	Y_WP:	0.000	Z_WP:	0.500	X:	0.015	Y:	0.010	Z:	0.049	yaw:	-124.208	yaw rate:	-1.784	Roll:	-0.200	Pitch:	0.091	Yaw:	-177.593	Thrust:	63.901
Time:	0.714	Roll Set Point:	0.002	Pitch Set Point:	-0.017	Yaw Set Point:	2.168	X_WP:	0.000	Y_WP:	0.000	Z_WP:	0.500	X:	0.015	Y:	0.010	Z:	0.049	yaw:	-124.234	yaw rate:	2.645	Roll:	-0.188	Pitch:	0.082	Yaw:	-177.426	Thrust:	57.677
Time:	0.735	Roll Set Point:	0.002	Pitch Set Point:	-0.017	Yaw Set Point:	2.168	X_WP:	0.000	Y_WP:	0.000	Z_WP:	0.500	X:	0.015	Y:	0.010	Z:	0.049	yaw:	-124.203	yaw rate:	-3.118	Roll:	-0.222	Pitch:	0.062	Yaw:	-177.070	Thrust:	63.160
Time:	0.754	Roll Set Point:	0.002	Pitch Set Point:	-0.017	Yaw Set Point:	2.168	X_WP:	0.000	Y_WP:	0.000	Z_WP:	0.500	X:	0.015	Y:	0.010	Z:	0.049	yaw:	-124.226	yaw rate:	2.283	Roll:	-0.203	Pitch:	0.087	Yaw:	-177.784	Thrust:	64.126
Time:	0.774	Roll Set Point:	0.002	Pitch Set Point:	-0.017	Yaw Set Point:	2.168	X_WP:	0.000	Y_WP:	0.000	Z_WP:	0.500	X:	0.015	Y:	0.010	Z:	0.049	yaw:	-124.217	yaw rate:	-0.906	Roll:	-0.189	Pitch:	0.076	Yaw:	-177.330	Thrust:	64.929
Time:	0.796	Roll Set Point:	0.002	Pitch Set Point:	-0.017	Yaw Set Point:	2.168	X_WP:	0.000	Y_WP:	0.000	Z_WP:	0.500	X:	0.015	Y:	0.010	Z:	0.049	yaw:	-124.219	yaw rate:	0.187	Roll:	-0.225	Pitch:	0.083	Yaw:	-177.726	Thrust:	67.630
Time:	0.814	Roll Set Point:	0.002	Pitch Set Point:	-0.017	Yaw Set Point:	2.168	X_WP:	0.000	Y_WP:	0.000	Z_WP:	0.500	X:	0.015	Y:	0.010	Z:	0.049	yaw:	-124.209	yaw rate:	-1.005	Roll:	-0.181	Pitch:	0.096	Yaw:	-176.982	Thrust:	62.640
Time:	0.834	Roll Set Point:	0.002	Pitch Set Point:	-0.017	Yaw Set Point:	2.169	X_WP:	0.000	Y_WP:	0.000	Z_WP:	0.500	X:	0.015	Y:	0.010	Z:	0.049	yaw:	-124.258	yaw rate:	4.950	Roll:	-0.219	Pitch:	0.061	Yaw:	-178.185	Thrust:	69.697
Time:	0.854	Roll Set Point:	0.002	Pitch Set Point:	-0.017	Yaw Set Point:	2.168	X_WP:	0.000	Y_WP:	0.000	Z_WP:	0.500	X:	0.015	Y:	0.010	Z:	0.049	yaw:	-124.222	yaw rate:	-3.588	Roll:	-0.201	Pitch:	0.080	Yaw:	-176.761	Thrust:	68.173
Time:	0.874	Roll Set Point:	0.002	Pitch Set Point:	-0.017	Yaw Set Point:	2.168	X_WP:	0.000	Y_WP:	0.000	Z_WP:	0.500	X:	0.015	Y:	0.010	Z:	0.049	yaw:	-124.219	yaw rate:	-0.296	Roll:	-0.205	Pitch:	0.100	Yaw:	-177.548	Thrust:	71.818
Time:	0.895	Roll Set Point:	0.002	Pitch Set Point:	-0.017	Yaw Set Point:	2.168	X_WP:	0.000	Y_WP:	0.000	Z_WP:	0.500	X:	0.015	Y:	0.010	Z:	0.049	yaw:	-124.224	yaw rate:	0.488	Roll:	-0.228	Pitch:	0.078	Yaw:	-177.638	Thrust:	72.877
Time:	0.914	Roll Set Point:	0.002	Pitch Set Point:	-0.017	Yaw Set Point:	2.168	X_WP:	0.000	Y_WP:	0.000	Z_WP:	0.500	X:	0.015	Y:	0.010	Z:	0.049	yaw:	-124.219	yaw rate:	-0.548	Roll:	-0.203	Pitch:	0.072	Yaw:	-177.159	Thrust:	69.886
Time:	0.935	Roll Set Point:	0.002	Pitch Set Point:	-0.017	Yaw Set Point:	2.168	X_WP:	0.000	Y_WP:	0.000	Z_WP:	0.500	X:	0.015	Y:	0.010	Z:	0.049	yaw:	-124.210	yaw rate:	-0.859	Roll:	-0.202	Pitch:	0.088	Yaw:	-177.443	Thrust:	74.970
Time:	0.954	Roll Set Point:	0.002	Pitch Set Point:	-0.017	Yaw Set Point:	2.168	X_WP:	0.000	Y_WP:	0.000	Z_WP:	0.500	X:	0.015	Y:	0.010	Z:	0.049	yaw:	-124.235	yaw rate:	2.456	Roll:	-0.212	Pitch:	0.078	Yaw:	-177.820	Thrust:	75.050
Time:	0.974	Roll Set Point:	0.002	Pitch Set Point:	-0.017	Yaw Set Point:	2.169	X_WP:	0.000	Y_WP:	0.000	Z_WP:	0.500	X:	0.015	Y:	0.010	Z:	0.049	yaw:	-124.252	yaw rate:	1.743	Roll:	-0.220	Pitch:	0.083	Yaw:	-177.639	Thrust:	74.590
Time:	0.996	Roll Set Point:	0.002	Pitch Set Point:	-0.017	Yaw Set Point:	2.168	X_WP:	0.000	Y_WP:	0.000	Z_WP:	0.500	X:	0.015	Y:	0.010	Z:	0.049	yaw:	-124.229	yaw rate:	-2.302	Roll:	-0.210	Pitch:	0.085	Yaw:	-177.390	Thrust:	78.289
Time:	1.014	Roll Set Point:	0.002	Pitch Set Point:	-0.017	Yaw Set Point:	2.168	X_WP:	0.000	Y_WP:	0.000	Z_WP:	0.500	X:	0.015	Y:	0.010	Z:	0.049	yaw:	-124.215	yaw rate:	-1.438	Roll:	-0.205	Pitch:	0.114	Yaw:	-176.976	Thrust:	75.668
Time:	1.034	Roll Set Point:	0.002	Pitch Set Point:	-0.017	Yaw Set Point:	2.168	X_WP:	0.000	Y_WP:	0.000	Z_WP:	0.500	X:	0.015	Y:	0.010	Z:	0.049	yaw:	-124.236	yaw rate:	2.119	Roll:	-0.226	Pitch:	0.053	Yaw:	-177.763	Thrust:	77.867
Time:	1.054	Roll Set Point:	0.002	Pitch Set Point:	-0.017	Yaw Set Point:	2.168	X_WP:	0.000	Y_WP:	0.000	Z_WP:	0.500	X:	0.015	Y:	0.010	Z:	0.049	yaw:	-124.216	yaw rate:	-1.987	Roll:	-0.223	Pitch:	0.093	Yaw:	-177.154	Thrust:	81.067
Time:	1.074	Roll Set Point:	0.002	Pitch Set Point:	-0.017	Yaw Set Point:	2.168	X_WP:	0.000	Y_WP:	0.000	Z_WP:	0.500	X:	0.015	Y:	0.010	Z:	0.049	yaw:	-124.243	yaw rate:	2.714	Roll:	-0.202	Pitch:	0.095	Yaw:	-177.946	Thrust:	82.904
Time:	1.095	Roll Set Point:	0.002	Pitch Set Point:	-0.017	Yaw Set Point:	2.168	X_WP:	0.000	Y_WP:	0.000	Z_WP:	0.500	X:	0.015	Y:	0.010	Z:	0.049	yaw:	-124.215	yaw rate:	-2.849	Roll:	-0.218	Pitch:	0.080	Yaw:	-177.088	Thrust:	80.866
Time:	1.115	Roll Set Point:	0.002	Pitch Set Point:	-0.017	Yaw Set Point:	2.168	X_WP:	0.000	Y_WP:	0.000	Z_WP:	0.500	X:	0.015	Y:	0.010	Z:	0.049	yaw:	-124.224	yaw rate:	0.929	Roll:	-0.233	Pitch:	0.069	Yaw:	-177.600	Thrust:	82.363
Time:	1.134	Roll Set Point:	0.002	Pitch Set Point:	-0.017	Yaw Set Point:	2.168	X_WP:	0.000	Y_WP:	0.000	Z_WP:	0.500	X:	0.015	Y:	0.010	Z:	0.049	yaw:	-124.213	yaw rate:	-1.089	Roll:	-0.221	Pitch:	0.097	Yaw:	-177.097	Thrust:	84.450
Time:	1.154	Roll Set Point:	0.002	Pitch Set Point:	-0.017	Yaw Set Point:	2.168	X_WP:	0.000	Y_WP:	0.000	Z_WP:	0.500	X:	0.015	Y:	0.010	Z:	0.049	yaw:	-124.208	yaw rate:	-0.534	Roll:	-0.203	Pitch:	0.100	Yaw:	-177.287	Thrust:	84.365
Time:	1.174	Roll Set Point:	0.002	Pitch Set Point:	-0.017	Yaw Set Point:	2.169	X_WP:	0.000	Y_WP:	0.000	Z_WP:	0.500	X:	0.015	Y:	0.010	Z:	0.049	yaw:	-124.267	yaw rate:	5.946	Roll:	-0.237	Pitch:	0.063	Yaw:	-178.384	Thrust:	86.848
Time:	1.204	Roll Set Point:	0.002	Pitch Set Point:	-0.017	Yaw Set Point:	2.168	X_WP:	0.000	Y_WP:	0.000	Z_WP:	0.500	X:	0.015	Y:	0.010	Z:	0.049	yaw:	-124.242	yaw rate:	-2.477	Roll:	-0.235	Pitch:	0.090	Yaw:	-179.206	Thrust:	100.000
Time:	1.216	Roll Set Point:	0.002	Pitch Set Point:	-0.017	Yaw Set Point:	2.168	X_WP:	0.000	Y_WP:	0.000	Z_WP:	0.500	X:	0.015	Y:	0.010	Z:	0.049	yaw:	-124.220	yaw rate:	-2.245	Roll:	-0.184	Pitch:	0.120	Yaw:	-175.426	Thrust:	60.963
Time:	1.234	Roll Set Point:	0.002	Pitch Set Point:	-0.017	Yaw Set Point:	2.168	X_WP:	0.000	Y_WP:	0.000	Z_WP:	0.500	X:	0.015	Y:	0.010	Z:	0.049	yaw:	-124.223	yaw rate:	0.305	Roll:	-0.257	Pitch:	0.077	Yaw:	-177.094	Thrust:	86.482
Time:	1.253	Roll Set Point:	0.002	Pitch Set Point:	-0.017	Yaw Set Point:	2.168	X_WP:	0.000	Y_WP:	0.000	Z_WP:	0.500	X:	0.015	Y:	0.010	Z:	0.049	yaw:	-124.203	yaw rate:	-2.015	Roll:	-0.217	Pitch:	0.094	Yaw:	-176.959	Thrust:	87.671
Time:	1.274	Roll Set Point:	0.002	Pitch Set Point:	-0.017	Yaw Set Point:	2.168	X_WP:	0.000	Y_WP:	0.000	Z_WP:	0.500	X:	0.015	Y:	0.010	Z:	0.049	yaw:	-124.199	yaw rate:	-0.423	Roll:	-0.229	Pitch:	0.081	Yaw:	-177.544	Thrust:	93.351
Time:	1.295	Roll Set Point:	0.002	Pitch Set Point:	-0.017	Yaw Set Point:	2.168	X_WP:	0.000	Y_WP:	0.000	Z_WP:	0.500	X:	0.015	Y:	0.010	Z:	0.049	yaw:	-124.210	yaw rate:	1.125	Roll:	-0.215	Pitch:	0.112	Yaw:	-177.732	Thrust:	97.417
Time:	1.314	Roll Set Point:	0.002	Pitch Set Point:	-0.017	Yaw Set Point:	2.168	X_WP:	0.000	Y_WP:	0.000	Z_WP:	0.500	X:	0.015	Y:	0.010	Z:	0.049	yaw:	-124.230	yaw rate:	2.058	Roll:	-0.234	Pitch:	0.072	Yaw:	-177.525	Thrust:	90.220
Time:	1.335	Roll Set Point:	0.002	Pitch Set Point:	-0.017	Yaw Set Point:	2.168	X_WP:	0.000	Y_WP:	0.000	Z_WP:	0.500	X:	0.015	Y:	0.010	Z:	0.049	yaw:	-124.224	yaw rate:	-0.669	Roll:	-0.236	Pitch:	0.064	Yaw:	-177.577	Thrust:	95.374
Time:	1.354	Roll Set Point:	0.002	Pitch Set Point:	-0.017	Yaw Set Point:	2.168	X_WP:	0.000	Y_WP:	0.000	Z_WP:	0.500	X:	0.015	Y:	0.010	Z:	0.049	yaw:	-124.205	yaw rate:	-1.859	Roll:	-0.209	Pitch:	0.127	Yaw:	-176.970	Thrust:	92.731
Time:	1.374	Roll Set Point:	0.002	Pitch Set Point:	-0.017	Yaw Set Point:	2.168	X_WP:	0.000	Y_WP:	0.000	Z_WP:	0.500	X:	0.015	Y:	0.010	Z:	0.049	yaw:	-124.207	yaw rate:	0.190	Roll:	-0.233	Pitch:	0.084	Yaw:	-177.461	Thrust:	100.000
Time:	1.395	Roll Set Point:	0.002	Pitch Set Point:	-0.017	Yaw Set Point:	2.169	X_WP:	0.000	Y_WP:	0.000	Z_WP:	0.500	X:	0.015	Y:	0.010	Z:	0.049	yaw:	-124.261	yaw rate:	5.369	Roll:	-0.251	Pitch:	0.072	Yaw:	-178.301	Thrust:	98.830
Time:	1.414	Roll Set Point:	0.002	Pitch Set Point:	-0.017	Yaw Set Point:	2.168	X_WP:	0.000	Y_WP:	0.000	Z_WP:	0.500	X:	0.015	Y:	0.010	Z:	0.049	yaw:	-124.222	yaw rate:	-3.845	Roll:	-0.223	Pitch:	0.084	Yaw:	-176.795	Thrust:	95.033
Time:	1.434	Roll Set Point:	0.002	Pitch Set Point:	-0.017	Yaw Set Point:	2.168	X_WP:	0.000	Y_WP:	0.000	Z_WP:	0.500	X:	0.015	Y:	0.010	Z:	0.049	yaw:	-124.209	yaw rate:	-1.284	Roll:	-0.222	Pitch:	0.117	Yaw:	-177.272	Thrust:	100.000
Time:	1.454	Roll Set Point:	0.002	Pitch Set Point:	-0.017	Yaw Set Point:	2.168	X_WP:	0.000	Y_WP:	0.000	Z_WP:	0.500	X:	0.015	Y:	0.010	Z:	0.049	yaw:	-124.238	yaw rate:	2.883	Roll:	-0.255	Pitch:	0.077	Yaw:	-177.863	Thrust:	100.000
Time:	1.474	Roll Set Point:	0.002	Pitch Set Point:	-0.017	Yaw Set Point:	2.168	X_WP:	0.000	Y_WP:	0.000	Z_WP:	0.500	X:	0.015	Y:	0.010	Z:	0.049	yaw:	-124.215	yaw rate:	-2.359	Roll:	-0.232	Pitch:	0.094	Yaw:	-177.139	Thrust:	100.000
Time:	1.494	Roll Set Point:	0.002	Pitch Set Point:	-0.017	Yaw Set Point:	2.168	X_WP:	0.000	Y_WP:	0.000	Z_WP:	0.500	X:	0.015	Y:	0.010	Z:	0.049	yaw:	-124.207	yaw rate:	-0.785	Roll:	-0.215	Pitch:	0.102	Yaw:	-177.344	Thrust:	100.000
Time:	1.514	Roll Set Point:	0.002	Pitch Set Point:	-0.017	Yaw Set Point:	2.168	X_WP:	0.000	Y_WP:	0.000	Z_WP:	0.500	X:	0.015	Y:	0.010	Z:	0.049	yaw:	-124.216	yaw rate:	0.951	Roll:	-0.233	Pitch:	0.082	Yaw:	-177.482	Thrust:	100.000
Time:	1.535	Roll Set Point:	0.002	Pitch Set Point:	-0.017	Yaw Set Point:	2.168	X_WP:	0.000	Y_WP:	0.000	Z_WP:	0.500	X:	0.015	Y:	0.010	Z:	0.049	yaw:	-124.220	yaw rate:	0.324	Roll:	-0.266	Pitch:	0.085	Yaw:	-177.694	Thrust:	100.000
Time:	1.555	Roll Set Point:	0.002	Pitch Set Point:	-0.017	Yaw Set Point:	2.168	X_WP:	0.000	Y_WP:	0.000	Z_WP:	0.500	X:	0.015	Y:	0.010	Z:	0.049	yaw:	-124.196	yaw rate:	-2.343	Roll:	-0.225	Pitch:	0.091	Yaw:	-176.899	Thrust:	100.000
Time:	1.574	Roll Set Point:	0.002	Pitch Set Point:	-0.017	Yaw Set Point:	2.168	X_WP:	0.000	Y_WP:	0.000	Z_WP:	0.500	X:	0.015	Y:	0.010	Z:	0.049	yaw:	-124.209	yaw rate:	1.326	Roll:	-0.233	Pitch:	0.118	Yaw:	-177.613	Thrust:	100.000
Time:	1.595	Roll Set Point:	0.002	Pitch Set Point:	-0.017	Yaw Set Point:	2.168	X_WP:	0.000	Y_WP:	0.000	Z_WP:	0.500	X:	0.015	Y:	0.010	Z:	0.049	yaw:	-124.237	yaw rate:	2.759	Roll:	-0.253	Pitch:	0.066	Yaw:	-178.039	Thrust:	100.000
Time:	1.615	Roll Set Point:	0.002	Pitch Set Point:	-0.017	Yaw Set Point:	2.168	X_WP:	0.000	Y_WP:	0.000	Z_WP:	0.500	X:	0.015	Y:	0.010	Z:	0.049	yaw:	-124.214	yaw rate:	-2.325	Roll:	-0.237	Pitch:	0.098	Yaw:	-177.134	Thrust:	100.000
Time:	1.634	Roll Set Point:	0.002	Pitch Set Point:	-0.017	Yaw Set Point:	2.168	X_WP:	0.000	Y_WP:	0.000	Z_WP:	0.500	X:	0.015	Y:	0.010	Z:	0.049	yaw:	-124.207	yaw rate:	-0.682	Roll:	-0.218	Pitch:	0.106	Yaw:	-176.936	Thrust:	100.000
Time:	1.654	Roll Set Point:	0.002	Pitch Set Point:	-0.017	Yaw Set Point:	2.168	X_WP:	0.000	Y_WP:	0.000	Z_WP:	0.500	X:	0.015	Y:	0.010	Z:	0.049	yaw:	-124.217	yaw rate:	1.054	Roll:	-0.253	Pitch:	0.084	Yaw:	-177.590	Thrust:	100.000
Time:	1.674	Roll Set Point:	0.002	Pitch Set Point:	-0.017	Yaw Set Point:	2.168	X_WP:	0.000	Y_WP:	0.000	Z_WP:	0.500	X:	0.015	Y:	0.010	Z:	0.049	yaw:	-124.229	yaw rate:	1.173	Roll:	-0.258	Pitch:	0.094	Yaw:	-177.820	Thrust:	100.000
Time:	1.695	Roll Set Point:	0.002	Pitch Set Point:	-0.017	Yaw Set Point:	2.167	X_WP:	0.000	Y_WP:	0.000	Z_WP:	0.500	X:	0.015	Y:	0.010	Z:	0.049	yaw:	-124.172	yaw rate:	-5.745	Roll:	-0.237	Pitch:	0.110	Yaw:	-176.780	Thrust:	100.000
Time:	1.714	Roll Set Point:	0.002	Pitch Set Point:	-0.017	Yaw Set Point:	2.168	X_WP:	0.000	Y_WP:	0.000	Z_WP:	0.500	X:	0.015	Y:	0.010	Z:	0.049	yaw:	-124.231	yaw rate:	5.960	Roll:	-0.250	Pitch:	0.086	Yaw:	-178.065	Thrust:	100.000
Time:	1.734	Roll Set Point:	0.002	Pitch Set Point:	-0.017	Yaw Set Point:	2.168	X_WP:	0.000	Y_WP:	0.000	Z_WP:	0.500	X:	0.015	Y:	0.010	Z:	0.049	yaw:	-124.245	yaw rate:	1.397	Roll:	-0.241	Pitch:	0.090	Yaw:	-177.672	Thrust:	100.000
Time:	1.754	Roll Set Point:	0.002	Pitch Set Point:	-0.017	Yaw Set Point:	2.168	X_WP:	0.000	Y_WP:	0.000	Z_WP:	0.500	X:	0.015	Y:	0.010	Z:	0.049	yaw:	-124.190	yaw rate:	-5.518	Roll:	-0.240	Pitch:	0.124	Yaw:	-176.684	Thrust:	100.000
Time:	1.775	Roll Set Point:	0.002	Pitch Set Point:	-0.017	Yaw Set Point:	2.168	X_WP:	0.000	Y_WP:	0.000	Z_WP:	0.500	X:	0.015	Y:	0.010	Z:	0.049	yaw:	-124.244	yaw rate:	5.370	Roll:	-0.257	Pitch:	0.074	Yaw:	-178.355	Thrust:	100.000
Time:	1.795	Roll Set Point:	0.002	Pitch Set Point:	-0.017	Yaw Set Point:	2.168	X_WP:	0.000	Y_WP:	0.000	Z_WP:	0.500	X:	0.015	Y:	0.010	Z:	0.049	yaw:	-124.225	yaw rate:	-1.835	Roll:	-0.265	Pitch:	0.094	Yaw:	-177.011	Thrust:	100.000
Time:	1.815	Roll Set Point:	0.002	Pitch Set Point:	-0.017	Yaw Set Point:	2.168	X_WP:	0.000	Y_WP:	0.000	Z_WP:	0.500	X:	0.015	Y:	0.010	Z:	0.049	yaw:	-124.239	yaw rate:	1.368	Roll:	-0.242	Pitch:	0.088	Yaw:	-177.842	Thrust:	100.000
Time:	1.834	Roll Set Point:	0.002	Pitch Set Point:	-0.017	Yaw Set Point:	2.168	X_WP:	0.000	Y_WP:	0.000	Z_WP:	0.500	X:	0.015	Y:	0.010	Z:	0.049	yaw:	-124.221	yaw rate:	-1.810	Roll:	-0.225	Pitch:	0.127	Yaw:	-177.015	Thrust:	100.000
Time:	1.854	Roll Set Point:	0.002	Pitch Set Point:	-0.017	Yaw Set Point:	2.168	X_WP:	0.000	Y_WP:	0.000	Z_WP:	0.500	X:	0.015	Y:	0.010	Z:	0.049	yaw:	-124.231	yaw rate:	0.961	Roll:	-0.264	Pitch:	0.084	Yaw:	-177.587	Thrust:	100.000
Time:	1.873	Roll Set Point:	0.002	Pitch Set Point:	-0.017	Yaw Set Point:	2.169	X_WP:	0.000	Y_WP:	0.000	Z_WP:	0.500	X:	0.015	Y:	0.010	Z:	0.049	yaw:	-124.250	yaw rate:	1.908	Roll:	-0.260	Pitch:	0.072	Yaw:	-177.564	Thrust:	100.000
Time:	1.894	Roll Set Point:	0.002	Pitch Set Point:	-0.017	Yaw Set Point:	2.168	X_WP:	0.000	Y_WP:	0.000	Z_WP:	0.500	X:	0.015	Y:	0.010	Z:	0.049	yaw:	-124.207	yaw rate:	-4.307	Roll:	-0.243	Pitch:	0.131	Yaw:	-176.939	Thrust:	100.000
Time:	1.913	Roll Set Point:	0.002	Pitch Set Point:	-0.017	Yaw Set Point:	2.168	X_WP:	0.000	Y_WP:	0.000	Z_WP:	0.500	X:	0.015	Y:	0.010	Z:	0.049	yaw:	-124.243	yaw rate:	3.618	Roll:	-0.247	Pitch:	0.068	Yaw:	-177.833	Thrust:	100.000
Time:	1.933	Roll Set Point:	0.002	Pitch Set Point:	-0.017	Yaw Set Point:	2.168	X_WP:	0.000	Y_WP:	0.000	Z_WP:	0.500	X:	0.015	Y:	0.010	Z:	0.049	yaw:	-124.189	yaw rate:	-5.375	Roll:	-0.250	Pitch:	0.133	Yaw:	-176.710	Thrust:	100.000
Time:	1.953	Roll Set Point:	0.002	Pitch Set Point:	-0.017	Yaw Set Point:	2.168	X_WP:	0.000	Y_WP:	0.000	Z_WP:	0.500	X:	0.015	Y:	0.010	Z:	0.049	yaw:	-124.226	yaw rate:	3.696	Roll:	-0.269	Pitch:	0.088	Yaw:	-177.947	Thrust:	100.000
Time:	1.974	Roll Set Point:	0.002	Pitch Set Point:	-0.017	Yaw Set Point:	2.168	X_WP:	0.000	Y_WP:	0.000	Z_WP:	0.500	X:	0.015	Y:	0.010	Z:	0.049	yaw:	-124.221	yaw rate:	-0.546	Roll:	-0.250	Pitch:	0.086	Yaw:	-177.382	Thrust:	100.000
Time:	1.994	Roll Set Point:	0.002	Pitch Set Point:	-0.017	Yaw Set Point:	2.168	X_WP:	0.000	Y_WP:	0.000	Z_WP:	0.500	X:	0.015	Y:	0.010	Z:	0.049	yaw:	-124.241	yaw rate:	2.034	Roll:	-0.246	Pitch:	0.103	Yaw:	-177.862	Thrust:	100.000
Time:	2.014	Roll Set Point:	0.002	Pitch Set Point:	-0.017	Yaw Set Point:	2.168	X_WP:	0.000	Y_WP:	0.000	Z_WP:	0.500	X:	0.015	Y:	0.010	Z:	0.049	yaw:	-124.239	yaw rate:	-0.199	Roll:	-0.274	Pitch:	0.122	Yaw:	-177.467	Thrust:	100.000
Time:	2.033	Roll Set Point:	0.002	Pitch Set Point:	-0.017	Yaw Set Point:	2.168	X_WP:	0.000	Y_WP:	0.000	Z_WP:	0.500	X:	0.015	Y:	0.010	Z:	0.049	yaw:	-124.225	yaw rate:	-1.404	Roll:	-0.244	Pitch:	0.084	Yaw:	-177.068	Thrust:	100.000
Time:	2.053	Roll Set Point:	0.002	Pitch Set Point:	-0.017	Yaw Set Point:	2.168	X_WP:	0.000	Y_WP:	0.000	Z_WP:	0.500	X:	0.015	Y:	0.010	Z:	0.049	yaw:	-124.218	yaw rate:	-0.640	Roll:	-0.271	Pitch:	0.100	Yaw:	-177.370	Thrust:	100.000
Time:	2.074	Roll Set Point:	0.002	Pitch Set Point:	-0.017	Yaw Set Point:	2.168	X_WP:	0.000	Y_WP:	0.000	Z_WP:	0.500	X:	0.015	Y:	0.010	Z:	0.049	yaw:	-124.225	yaw rate:	0.610	Roll:	-0.247	Pitch:	0.101	Yaw:	-177.736	Thrust:	100.000
Time:	2.094	Roll Set Point:	0.002	Pitch Set Point:	-0.017	Yaw Set Point:	2.168	X_WP:	0.000	Y_WP:	0.000	Z_WP:	0.500	X:	0.015	Y:	0.010	Z:	0.049	yaw:	-124.218	yaw rate:	-0.709	Roll:	-0.277	Pitch:	0.118	Yaw:	-177.377	Thrust:	100.000
Time:	2.113	Roll Set Point:	0.002	Pitch Set Point:	-0.017	Yaw Set Point:	2.168	X_WP:	0.000	Y_WP:	0.000	Z_WP:	0.500	X:	0.015	Y:	0.010	Z:	0.049	yaw:	-124.243	yaw rate:	2.576	Roll:	-0.254	Pitch:	0.077	Yaw:	-177.588	Thrust:	100.000
Time:	2.133	Roll Set Point:	0.002	Pitch Set Point:	-0.017	Yaw Set Point:	2.168	X_WP:	0.000	Y_WP:	0.000	Z_WP:	0.500	X:	0.015	Y:	0.010	Z:	0.049	yaw:	-124.207	yaw rate:	-3.659	Roll:	-0.269	Pitch:	0.112	Yaw:	-176.956	Thrust:	100.000
Time:	2.153	Roll Set Point:	0.002	Pitch Set Point:	-0.017	Yaw Set Point:	2.168	X_WP:	0.000	Y_WP:	0.000	Z_WP:	0.500	X:	0.015	Y:	0.010	Z:	0.049	yaw:	-124.224	yaw rate:	1.727	Roll:	-0.247	Pitch:	0.106	Yaw:	-177.686	Thrust:	100.000
Time:	2.174	Roll Set Point:	0.002	Pitch Set Point:	-0.017	Yaw Set Point:	2.168	X_WP:	0.000	Y_WP:	0.000	Z_WP:	0.500	X:	0.015	Y:	0.010	Z:	0.049	yaw:	-124.215	yaw rate:	-0.901	Roll:	-0.275	Pitch:	0.100	Yaw:	-177.540	Thrust:	100.000
Time:	2.194	Roll Set Point:	0.002	Pitch Set Point:	-0.017	Yaw Set Point:	2.168	X_WP:	0.000	Y_WP:	0.000	Z_WP:	0.500	X:	0.015	Y:	0.010	Z:	0.049	yaw:	-124.199	yaw rate:	-1.604	Roll:	-0.267	Pitch:	0.111	Yaw:	-177.102	Thrust:	100.000
Time:	2.213	Roll Set Point:	0.002	Pitch Set Point:	-0.017	Yaw Set Point:	2.168	X_WP:	0.000	Y_WP:	0.000	Z_WP:	0.500	X:	0.015	Y:	0.010	Z:	0.049	yaw:	-124.221	yaw rate:	2.168	Roll:	-0.261	Pitch:	0.122	Yaw:	-177.589	Thrust:	100.000
Time:	2.233	Roll Set Point:	0.002	Pitch Set Point:	-0.017	Yaw Set Point:	2.168	X_WP:	0.000	Y_WP:	0.000	Z_WP:	0.500	X:	0.015	Y:	0.010	Z:	0.049	yaw:	-124.225	yaw rate:	0.400	Roll:	-0.255	Pitch:	0.074	Yaw:	-177.513	Thrust:	100.000
Time:	2.254	Roll Set Point:	0.002	Pitch Set Point:	-0.017	Yaw Set Point:	2.168	X_WP:	0.000	Y_WP:	0.000	Z_WP:	0.500	X:	0.015	Y:	0.011	Z:	0.049	yaw:	-124.206	yaw rate:	-1.907	Roll:	-0.303	Pitch:	0.099	Yaw:	-177.397	Thrust:	100.000
Time:	2.274	Roll Set Point:	0.002	Pitch Set Point:	-0.017	Yaw Set Point:	2.168	X_WP:	0.000	Y_WP:	0.000	Z_WP:	0.500	X:	0.015	Y:	0.010	Z:	0.049	yaw:	-124.215	yaw rate:	0.999	Roll:	-0.253	Pitch:	0.119	Yaw:	-177.578	Thrust:	100.000
Time:	2.294	Roll Set Point:	0.002	Pitch Set Point:	-0.017	Yaw Set Point:	2.168	X_WP:	0.000	Y_WP:	0.000	Z_WP:	0.500	X:	0.015	Y:	0.010	Z:	0.049	yaw:	-124.201	yaw rate:	-1.434	Roll:	-0.262	Pitch:	0.127	Yaw:	-177.164	Thrust:	100.000
Time:	2.313	Roll Set Point:	0.002	Pitch Set Point:	-0.017	Yaw Set Point:	2.168	X_WP:	0.000	Y_WP:	0.000	Z_WP:	0.500	X:	0.015	Y:	0.010	Z:	0.049	yaw:	-124.207	yaw rate:	0.576	Roll:	-0.274	Pitch:	0.101	Yaw:	-177.367	Thrust:	100.000
Time:	2.335	Roll Set Point:	0.002	Pitch Set Point:	-0.017	Yaw Set Point:	2.168	X_WP:	0.000	Y_WP:	0.000	Z_WP:	0.500	X:	0.015	Y:	0.010	Z:	0.049	yaw:	-124.222	yaw rate:	1.531	Roll:	-0.276	Pitch:	0.075	Yaw:	-178.040	Thrust:	100.000
Time:	2.354	Roll Set Point:	0.002	Pitch Set Point:	-0.017	Yaw Set Point:	2.168	X_WP:	0.000	Y_WP:	0.000	Z_WP:	0.500	X:	0.015	Y:	0.010	Z:	0.049	yaw:	-124.224	yaw rate:	0.189	Roll:	-0.258	Pitch:	0.124	Yaw:	-177.294	Thrust:	100.000
Time:	2.375	Roll Set Point:	0.002	Pitch Set Point:	-0.017	Yaw Set Point:	2.168	X_WP:	0.000	Y_WP:	0.000	Z_WP:	0.500	X:	0.015	Y:	0.010	Z:	0.049	yaw:	-124.225	yaw rate:	0.112	Roll:	-0.277	Pitch:	0.109	Yaw:	-177.476	Thrust:	100.000
Time:	2.397	Roll Set Point:	0.002	Pitch Set Point:	-0.017	Yaw Set Point:	2.169	X_WP:	0.000	Y_WP:	0.000	Z_WP:	0.500	X:	0.015	Y:	0.010	Z:	0.049	yaw:	-124.252	yaw rate:	2.678	Roll:	-0.286	Pitch:	0.120	Yaw:	-178.281	Thrust:	100.000
Time:	2.417	Roll Set Point:	0.002	Pitch Set Point:	-0.017	Yaw Set Point:	2.168	X_WP:	0.000	Y_WP:	0.000	Z_WP:	0.500	X:	0.015	Y:	0.010	Z:	0.049	yaw:	-124.235	yaw rate:	-1.747	Roll:	-0.283	Pitch:	0.102	Yaw:	-177.268	Thrust:	100.000
Time:	2.437	Roll Set Point:	0.002	Pitch Set Point:	-0.017	Yaw Set Point:	2.168	X_WP:	0.000	Y_WP:	0.000	Z_WP:	0.500	X:	0.015	Y:	0.010	Z:	0.049	yaw:	-124.207	yaw rate:	-2.789	Roll:	-0.259	Pitch:	0.101	Yaw:	-176.852	Thrust:	100.000
Time:	2.456	Roll Set Point:	0.002	Pitch Set Point:	-0.017	Yaw Set Point:	2.168	X_WP:	0.000	Y_WP:	0.000	Z_WP:	0.500	X:	0.015	Y:	0.010	Z:	0.049	yaw:	-124.241	yaw rate:	3.424	Roll:	-0.284	Pitch:	0.117	Yaw:	-177.931	Thrust:	100.000
Time:	2.477	Roll Set Point:	0.002	Pitch Set Point:	-0.017	Yaw Set Point:	2.169	X_WP:	0.000	Y_WP:	0.000	Z_WP:	0.500	X:	0.015	Y:	0.010	Z:	0.049	yaw:	-124.246	yaw rate:	0.510	Roll:	-0.276	Pitch:	0.106	Yaw:	-177.557	Thrust:	100.000
Time:	2.496	Roll Set Point:	0.002	Pitch Set Point:	-0.017	Yaw Set Point:	2.168	X_WP:	0.000	Y_WP:	0.000	Z_WP:	0.500	X:	0.015	Y:	0.010	Z:	0.049	yaw:	-124.212	yaw rate:	-3.428	Roll:	-0.269	Pitch:	0.117	Yaw:	-176.900	Thrust:	100.000
Time:	2.514	Roll Set Point:	0.002	Pitch Set Point:	-0.017	Yaw Set Point:	2.168	X_WP:	0.000	Y_WP:	0.000	Z_WP:	0.500	X:	0.015	Y:	0.010	Z:	0.049	yaw:	-124.222	yaw rate:	1.038	Roll:	-0.263	Pitch:	0.102	Yaw:	-177.281	Thrust:	100.000
Time:	2.535	Roll Set Point:	0.002	Pitch Set Point:	-0.017	Yaw Set Point:	2.168	X_WP:	0.000	Y_WP:	0.000	Z_WP:	0.500	X:	0.015	Y:	0.011	Z:	0.049	yaw:	-124.228	yaw rate:	0.619	Roll:	-0.321	Pitch:	0.075	Yaw:	-177.743	Thrust:	100.000
Time:	2.554	Roll Set Point:	0.002	Pitch Set Point:	-0.017	Yaw Set Point:	2.168	X_WP:	0.000	Y_WP:	0.000	Z_WP:	0.500	X:	0.015	Y:	0.010	Z:	0.049	yaw:	-124.205	yaw rate:	-2.323	Roll:	-0.264	Pitch:	0.121	Yaw:	-176.914	Thrust:	100.000
Time:	2.575	Roll Set Point:	0.002	Pitch Set Point:	-0.017	Yaw Set Point:	2.168	X_WP:	0.000	Y_WP:	0.000	Z_WP:	0.500	X:	0.015	Y:	0.010	Z:	0.049	yaw:	-124.225	yaw rate:	2.037	Roll:	-0.256	Pitch:	0.144	Yaw:	-177.916	Thrust:	100.000
Time:	2.594	Roll Set Point:	0.002	Pitch Set Point:	-0.017	Yaw Set Point:	2.168	X_WP:	0.000	Y_WP:	0.000	Z_WP:	0.500	X:	0.015	Y:	0.010	Z:	0.049	yaw:	-124.237	yaw rate:	1.183	Roll:	-0.303	Pitch:	0.078	Yaw:	-177.359	Thrust:	100.000
Time:	2.614	Roll Set Point:	0.002	Pitch Set Point:	-0.017	Yaw Set Point:	2.168	X_WP:	0.000	Y_WP:	0.000	Z_WP:	0.500	X:	0.015	Y:	0.010	Z:	0.049	yaw:	-124.218	yaw rate:	-1.916	Roll:	-0.286	Pitch:	0.095	Yaw:	-177.235	Thrust:	100.000
Time:	2.634	Roll Set Point:	0.002	Pitch Set Point:	-0.017	Yaw Set Point:	2.168	X_WP:	0.000	Y_WP:	0.000	Z_WP:	0.500	X:	0.015	Y:	0.010	Z:	0.049	yaw:	-124.209	yaw rate:	-0.889	Roll:	-0.266	Pitch:	0.139	Yaw:	-177.317	Thrust:	100.000
Time:	2.654	Roll Set Point:	0.002	Pitch Set Point:	-0.017	Yaw Set Point:	2.168	X_WP:	0.000	Y_WP:	0.000	Z_WP:	0.500	X:	0.015	Y:	0.010	Z:	0.049	yaw:	-124.235	yaw rate:	2.568	Roll:	-0.293	Pitch:	0.113	Yaw:	-177.811	Thrust:	100.000
Time:	2.674	Roll Set Point:	0.002	Pitch Set Point:	-0.017	Yaw Set Point:	2.168	X_WP:	0.000	Y_WP:	0.000	Z_WP:	0.500	X:	0.015	Y:	0.010	Z:	0.049	yaw:	-124.237	yaw rate:	0.242	Roll:	-0.300	Pitch:	0.114	Yaw:	-177.516	Thrust:	100.000
Time:	2.695	Roll Set Point:	0.002	Pitch Set Point:	-0.017	Yaw Set Point:	2.168	X_WP:	0.000	Y_WP:	0.000	Z_WP:	0.500	X:	0.015	Y:	0.010	Z:	0.049	yaw:	-124.219	yaw rate:	-1.789	Roll:	-0.283	Pitch:	0.110	Yaw:	-177.352	Thrust:	100.000
Time:	2.714	Roll Set Point:	0.002	Pitch Set Point:	-0.017	Yaw Set Point:	2.167	X_WP:	0.000	Y_WP:	0.000	Z_WP:	0.500	X:	0.015	Y:	0.010	Z:	0.049	yaw:	-124.187	yaw rate:	-3.196	Roll:	-0.294	Pitch:	0.117	Yaw:	-176.549	Thrust:	100.000
Time:	2.735	Roll Set Point:	0.002	Pitch Set Point:	-0.017	Yaw Set Point:	2.168	X_WP:	0.000	Y_WP:	0.000	Z_WP:	0.500	X:	0.015	Y:	0.010	Z:	0.049	yaw:	-124.243	yaw rate:	5.519	Roll:	-0.287	Pitch:	0.095	Yaw:	-178.541	Thrust:	100.000
Time:	2.755	Roll Set Point:	0.002	Pitch Set Point:	-0.017	Yaw Set Point:	2.168	X_WP:	0.000	Y_WP:	0.000	Z_WP:	0.500	X:	0.015	Y:	0.010	Z:	0.049	yaw:	-124.233	yaw rate:	-0.930	Roll:	-0.290	Pitch:	0.120	Yaw:	-177.346	Thrust:	100.000
Time:	2.776	Roll Set Point:	0.002	Pitch Set Point:	-0.017	Yaw Set Point:	2.168	X_WP:	0.000	Y_WP:	0.000	Z_WP:	0.500	X:	0.015	Y:	0.010	Z:	0.049	yaw:	-124.204	yaw rate:	-2.960	Roll:	-0.278	Pitch:	0.142	Yaw:	-177.045	Thrust:	100.000
Time:	2.796	Roll Set Point:	0.002	Pitch Set Point:	-0.017	Yaw Set Point:	2.168	X_WP:	0.000	Y_WP:	0.000	Z_WP:	0.500	X:	0.015	Y:	0.010	Z:	0.049	yaw:	-124.231	yaw rate:	2.763	Roll:	-0.308	Pitch:	0.081	Yaw:	-177.850	Thrust:	100.000
Time:	2.816	Roll Set Point:	0.002	Pitch Set Point:	-0.017	Yaw Set Point:	2.168	X_WP:	0.000	Y_WP:	0.000	Z_WP:	0.500	X:	0.015	Y:	0.011	Z:	0.049	yaw:	-124.226	yaw rate:	-0.537	Roll:	-0.314	Pitch:	0.099	Yaw:	-177.574	Thrust:	100.000
Time:	2.835	Roll Set Point:	0.002	Pitch Set Point:	-0.017	Yaw Set Point:	2.167	X_WP:	0.000	Y_WP:	0.000	Z_WP:	0.500	X:	0.015	Y:	0.010	Z:	0.049	yaw:	-124.187	yaw rate:	-3.860	Roll:	-0.262	Pitch:	0.156	Yaw:	-176.687	Thrust:	100.000
Time:	2.855	Roll Set Point:	0.002	Pitch Set Point:	-0.017	Yaw Set Point:	2.169	X_WP:	0.000	Y_WP:	0.000	Z_WP:	0.500	X:	0.015	Y:	0.010	Z:	0.049	yaw:	-124.252	yaw rate:	6.444	Roll:	-0.292	Pitch:	0.113	Yaw:	-178.334	Thrust:	100.000
Time:	2.877	Roll Set Point:	0.002	Pitch Set Point:	-0.017	Yaw Set Point:	2.169	X_WP:	0.000	Y_WP:	0.000	Z_WP:	0.500	X:	0.015	Y:	0.010	Z:	0.049	yaw:	-124.252	yaw rate:	-0.008	Roll:	-0.305	Pitch:	0.080	Yaw:	-177.700	Thrust:	100.000
Time:	2.897	Roll Set Point:	0.002	Pitch Set Point:	-0.017	Yaw Set Point:	2.168	X_WP:	0.000	Y_WP:	0.000	Z_WP:	0.500	X:	0.015	Y:	0.011	Z:	0.049	yaw:	-124.206	yaw rate:	-4.619	Roll:	-0.317	Pitch:	0.118	Yaw:	-176.836	Thrust:	100.000
Time:	2.915	Roll Set Point:	0.002	Pitch Set Point:	-0.017	Yaw Set Point:	2.168	X_WP:	0.000	Y_WP:	0.000	Z_WP:	0.500	X:	0.015	Y:	0.010	Z:	0.049	yaw:	-124.218	yaw rate:	1.267	Roll:	-0.260	Pitch:	0.119	Yaw:	-177.356	Thrust:	100.000
Time:	2.936	Roll Set Point:	0.002	Pitch Set Point:	-0.017	Yaw Set Point:	2.168	X_WP:	0.000	Y_WP:	0.000	Z_WP:	0.500	X:	0.015	Y:	0.010	Z:	0.049	yaw:	-124.236	yaw rate:	1.726	Roll:	-0.289	Pitch:	0.146	Yaw:	-177.702	Thrust:	100.000
Time:	2.955	Roll Set Point:	0.002	Pitch Set Point:	-0.017	Yaw Set Point:	2.168	X_WP:	0.000	Y_WP:	0.000	Z_WP:	0.500	X:	0.015	Y:	0.010	Z:	0.049	yaw:	-124.239	yaw rate:	0.338	Roll:	-0.314	Pitch:	0.101	Yaw:	-177.531	Thrust:	100.000
Time:	2.976	Roll Set Point:	0.002	Pitch Set Point:	-0.017	Yaw Set Point:	2.168	X_WP:	0.000	Y_WP:	0.000	Z_WP:	0.500	X:	0.015	Y:	0.010	Z:	0.049	yaw:	-124.224	yaw rate:	-1.517	Roll:	-0.292	Pitch:	0.105	Yaw:	-177.465	Thrust:	100.000
Time:	2.995	Roll Set Point:	0.002	Pitch Set Point:	-0.017	Yaw Set Point:	2.168	X_WP:	0.000	Y_WP:	0.000	Z_WP:	0.500	X:	0.015	Y:	0.010	Z:	0.049	yaw:	-124.217	yaw rate:	-0.699	Roll:	-0.300	Pitch:	0.121	Yaw:	-177.074	Thrust:	100.000
Time:	3.016	Roll Set Point:	0.002	Pitch Set Point:	-0.017	Yaw Set Point:	2.168	X_WP:	0.000	Y_WP:	0.000	Z_WP:	0.500	X:	0.015	Y:	0.010	Z:	0.049	yaw:	-124.232	yaw rate:	1.479	Roll:	-0.313	Pitch:	0.109	Yaw:	-177.834	Thrust:	100.000
Time:	3.035	Roll Set Point:	0.002	Pitch Set Point:	-0.017	Yaw Set Point:	2.168	X_WP:	0.000	Y_WP:	0.000	Z_WP:	0.500	X:	0.015	Y:	0.010	Z:	0.049	yaw:	-124.242	yaw rate:	1.006	Roll:	-0.306	Pitch:	0.136	Yaw:	-177.417	Thrust:	100.000
Time:	3.055	Roll Set Point:	0.002	Pitch Set Point:	-0.017	Yaw Set Point:	2.168	X_WP:	0.000	Y_WP:	0.000	Z_WP:	0.500	X:	0.015	Y:	0.010	Z:	0.049	yaw:	-124.206	yaw rate:	-3.543	Roll:	-0.279	Pitch:	0.119	Yaw:	-176.972	Thrust:	100.000
Time:	3.076	Roll Set Point:	0.002	Pitch Set Point:	-0.017	Yaw Set Point:	2.168	X_WP:	0.000	Y_WP:	0.000	Z_WP:	0.500	X:	0.015	Y:	0.010	Z:	0.049	yaw:	-124.222	yaw rate:	1.632	Roll:	-0.322	Pitch:	0.114	Yaw:	-177.670	Thrust:	100.000
Time:	3.097	Roll Set Point:	0.002	Pitch Set Point:	-0.017	Yaw Set Point:	2.168	X_WP:	0.000	Y_WP:	0.000	Z_WP:	0.500	X:	0.015	Y:	0.010	Z:	0.049	yaw:	-124.241	yaw rate:	1.844	Roll:	-0.320	Pitch:	0.097	Yaw:	-178.021	Thrust:	100.000
Time:	3.115	Roll Set Point:	0.002	Pitch Set Point:	-0.017	Yaw Set Point:	2.168	X_WP:	0.000	Y_WP:	0.000	Z_WP:	0.500	X:	0.015	Y:	0.010	Z:	0.049	yaw:	-124.222	yaw rate:	-1.929	Roll:	-0.283	Pitch:	0.141	Yaw:	-176.800	Thrust:	100.000
Time:	3.136	Roll Set Point:	0.002	Pitch Set Point:	-0.017	Yaw Set Point:	2.168	X_WP:	0.000	Y_WP:	0.000	Z_WP:	0.500	X:	0.015	Y:	0.010	Z:	0.049	yaw:	-124.207	yaw rate:	-1.488	Roll:	-0.293	Pitch:	0.134	Yaw:	-177.452	Thrust:	100.000
Time:	3.155	Roll Set Point:	0.002	Pitch Set Point:	-0.017	Yaw Set Point:	2.168	X_WP:	0.000	Y_WP:	0.000	Z_WP:	0.500	X:	0.015	Y:	0.010	Z:	0.049	yaw:	-124.216	yaw rate:	0.907	Roll:	-0.323	Pitch:	0.111	Yaw:	-177.379	Thrust:	100.000
Time:	3.176	Roll Set Point:	0.002	Pitch Set Point:	-0.017	Yaw Set Point:	2.168	X_WP:	0.000	Y_WP:	0.000	Z_WP:	0.500	X:	0.015	Y:	0.010	Z:	0.049	yaw:	-124.238	yaw rate:	2.231	Roll:	-0.317	Pitch:	0.106	Yaw:	-177.952	Thrust:	100.000
Time:	3.197	Roll Set Point:	0.002	Pitch Set Point:	-0.017	Yaw Set Point:	2.168	X_WP:	0.000	Y_WP:	0.000	Z_WP:	0.500	X:	0.015	Y:	0.010	Z:	0.049	yaw:	-124.234	yaw rate:	-0.368	Roll:	-0.306	Pitch:	0.115	Yaw:	-177.495	Thrust:	100.000
Time:	3.215	Roll Set Point:	0.002	Pitch Set Point:	-0.017	Yaw Set Point:	2.168	X_WP:	0.000	Y_WP:	0.000	Z_WP:	0.500	X:	0.015	Y:	0.010	Z:	0.049	yaw:	-124.208	yaw rate:	-2.667	Roll:	-0.291	Pitch:	0.160	Yaw:	-176.717	Thrust:	100.000
Time:	3.236	Roll Set Point:	0.002	Pitch Set Point:	-0.017	Yaw Set Point:	2.168	X_WP:	0.000	Y_WP:	0.000	Z_WP:	0.500	X:	0.015	Y:	0.010	Z:	0.049	yaw:	-124.238	yaw rate:	3.039	Roll:	-0.317	Pitch:	0.113	Yaw:	-178.052	Thrust:	100.000
Time:	3.256	Roll Set Point:	0.002	Pitch Set Point:	-0.017	Yaw Set Point:	2.168	X_WP:	0.000	Y_WP:	0.000	Z_WP:	0.500	X:	0.015	Y:	0.010	Z:	0.049	yaw:	-124.204	yaw rate:	-3.382	Roll:	-0.322	Pitch:	0.100	Yaw:	-176.992	Thrust:	100.000
Time:	3.276	Roll Set Point:	0.002	Pitch Set Point:	-0.017	Yaw Set Point:	2.168	X_WP:	0.000	Y_WP:	0.000	Z_WP:	0.500	X:	0.015	Y:	0.010	Z:	0.049	yaw:	-124.241	yaw rate:	3.707	Roll:	-0.294	Pitch:	0.124	Yaw:	-177.968	Thrust:	100.000
Time:	3.296	Roll Set Point:	0.002	Pitch Set Point:	-0.017	Yaw Set Point:	2.168	X_WP:	0.000	Y_WP:	0.000	Z_WP:	0.500	X:	0.015	Y:	0.010	Z:	0.049	yaw:	-124.229	yaw rate:	-1.271	Roll:	-0.330	Pitch:	0.133	Yaw:	-177.313	Thrust:	100.000
Time:	3.315	Roll Set Point:	0.002	Pitch Set Point:	-0.017	Yaw Set Point:	2.168	X_WP:	0.000	Y_WP:	0.000	Z_WP:	0.500	X:	0.015	Y:	0.010	Z:	0.049	yaw:	-124.219	yaw rate:	-1.014	Roll:	-0.305	Pitch:	0.128	Yaw:	-177.165	Thrust:	100.000
Time:	3.336	Roll Set Point:	0.002	Pitch Set Point:	-0.017	Yaw Set Point:	2.168	X_WP:	0.000	Y_WP:	0.000	Z_WP:	0.500	X:	0.015	Y:	0.010	Z:	0.049	yaw:	-124.238	yaw rate:	1.926	Roll:	-0.317	Pitch:	0.115	Yaw:	-177.912	Thrust:	100.000
Time:	3.355	Roll Set Point:	0.002	Pitch Set Point:	-0.017	Yaw Set Point:	2.168	X_WP:	0.000	Y_WP:	0.000	Z_WP:	0.500	X:	0.015	Y:	0.010	Z:	0.049	yaw:	-124.208	yaw rate:	-2.960	Roll:	-0.312	Pitch:	0.126	Yaw:	-176.831	Thrust:	100.000
Time:	3.375	Roll Set Point:	0.002	Pitch Set Point:	-0.017	Yaw Set Point:	2.168	X_WP:	0.000	Y_WP:	0.000	Z_WP:	0.500	X:	0.015	Y:	0.010	Z:	0.049	yaw:	-124.220	yaw rate:	1.211	Roll:	-0.330	Pitch:	0.110	Yaw:	-177.620	Thrust:	100.000
Time:	3.396	Roll Set Point:	0.002	Pitch Set Point:	-0.017	Yaw Set Point:	2.168	X_WP:	0.000	Y_WP:	0.000	Z_WP:	0.500	X:	0.015	Y:	0.010	Z:	0.049	yaw:	-124.225	yaw rate:	0.509	Roll:	-0.310	Pitch:	0.146	Yaw:	-177.728	Thrust:	100.000
Time:	3.415	Roll Set Point:	0.002	Pitch Set Point:	-0.017	Yaw Set Point:	2.168	X_WP:	0.000	Y_WP:	0.000	Z_WP:	0.500	X:	0.015	Y:	0.010	Z:	0.049	yaw:	-124.225	yaw rate:	-0.001	Roll:	-0.304	Pitch:	0.132	Yaw:	-177.121	Thrust:	100.000
Time:	3.436	Roll Set Point:	0.002	Pitch Set Point:	-0.017	Yaw Set Point:	2.168	X_WP:	0.000	Y_WP:	0.000	Z_WP:	0.500	X:	0.015	Y:	0.010	Z:	0.049	yaw:	-124.236	yaw rate:	1.045	Roll:	-0.340	Pitch:	0.090	Yaw:	-177.807	Thrust:	100.000
Time:	3.456	Roll Set Point:	0.002	Pitch Set Point:	-0.017	Yaw Set Point:	2.168	X_WP:	0.000	Y_WP:	0.000	Z_WP:	0.500	X:	0.015	Y:	0.010	Z:	0.049	yaw:	-124.214	yaw rate:	-2.235	Roll:	-0.312	Pitch:	0.134	Yaw:	-177.155	Thrust:	100.000
Time:	3.476	Roll Set Point:	0.002	Pitch Set Point:	-0.017	Yaw Set Point:	2.168	X_WP:	0.000	Y_WP:	0.000	Z_WP:	0.500	X:	0.015	Y:	0.010	Z:	0.049	yaw:	-124.229	yaw rate:	1.576	Roll:	-0.321	Pitch:	0.121	Yaw:	-177.672	Thrust:	100.000
Time:	3.496	Roll Set Point:	0.002	Pitch Set Point:	-0.017	Yaw Set Point:	2.168	X_WP:	0.000	Y_WP:	0.000	Z_WP:	0.500	X:	0.015	Y:	0.010	Z:	0.049	yaw:	-124.240	yaw rate:	1.092	Roll:	-0.318	Pitch:	0.153	Yaw:	-177.544	Thrust:	100.000
Time:	3.517	Roll Set Point:	0.002	Pitch Set Point:	-0.017	Yaw Set Point:	2.168	X_WP:	0.000	Y_WP:	0.000	Z_WP:	0.500	X:	0.015	Y:	0.010	Z:	0.049	yaw:	-124.223	yaw rate:	-1.700	Roll:	-0.313	Pitch:	0.115	Yaw:	-177.568	Thrust:	100.000
Time:	3.535	Roll Set Point:	0.002	Pitch Set Point:	-0.017	Yaw Set Point:	2.168	X_WP:	0.000	Y_WP:	0.000	Z_WP:	0.500	X:	0.015	Y:	0.010	Z:	0.049	yaw:	-124.245	yaw rate:	2.220	Roll:	-0.326	Pitch:	0.098	Yaw:	-177.411	Thrust:	100.000
Time:	3.554	Roll Set Point:	0.002	Pitch Set Point:	-0.017	Yaw Set Point:	2.168	X_WP:	0.000	Y_WP:	0.000	Z_WP:	0.500	X:	0.015	Y:	0.010	Z:	0.049	yaw:	-124.221	yaw rate:	-2.464	Roll:	-0.327	Pitch:	0.136	Yaw:	-176.917	Thrust:	100.000
Time:	3.574	Roll Set Point:	0.002	Pitch Set Point:	-0.017	Yaw Set Point:	2.168	X_WP:	0.000	Y_WP:	0.000	Z_WP:	0.500	X:	0.015	Y:	0.010	Z:	0.049	yaw:	-124.223	yaw rate:	0.197	Roll:	-0.318	Pitch:	0.127	Yaw:	-177.483	Thrust:	100.000
Time:	3.595	Roll Set Point:	0.002	Pitch Set Point:	-0.017	Yaw Set Point:	2.168	X_WP:	0.000	Y_WP:	0.000	Z_WP:	0.500	X:	0.015	Y:	0.010	Z:	0.049	yaw:	-124.215	yaw rate:	-0.785	Roll:	-0.327	Pitch:	0.155	Yaw:	-177.550	Thrust:	100.000
Time:	3.614	Roll Set Point:	0.002	Pitch Set Point:	-0.017	Yaw Set Point:	2.169	X_WP:	0.000	Y_WP:	0.000	Z_WP:	0.500	X:	0.015	Y:	0.010	Z:	0.049	yaw:	-124.252	yaw rate:	3.670	Roll:	-0.323	Pitch:	0.096	Yaw:	-177.732	Thrust:	100.000
Time:	3.634	Roll Set Point:	0.002	Pitch Set Point:	-0.017	Yaw Set Point:	2.168	X_WP:	0.000	Y_WP:	0.000	Z_WP:	0.500	X:	0.015	Y:	0.010	Z:	0.049	yaw:	-124.243	yaw rate:	-0.866	Roll:	-0.344	Pitch:	0.122	Yaw:	-177.382	Thrust:	100.000
Time:	3.654	Roll Set Point:	0.002	Pitch Set Point:	-0.017	Yaw Set Point:	2.168	X_WP:	0.000	Y_WP:	0.000	Z_WP:	0.500	X:	0.015	Y:	0.010	Z:	0.049	yaw:	-124.220	yaw rate:	-2.314	Roll:	-0.316	Pitch:	0.143	Yaw:	-177.144	Thrust:	100.000
Time:	3.674	Roll Set Point:	0.002	Pitch Set Point:	-0.017	Yaw Set Point:	2.168	X_WP:	0.000	Y_WP:	0.000	Z_WP:	0.500	X:	0.015	Y:	0.010	Z:	0.049	yaw:	-124.219	yaw rate:	-0.115	Roll:	-0.340	Pitch:	0.129	Yaw:	-177.438	Thrust:	100.000
Time:	3.695	Roll Set Point:	0.002	Pitch Set Point:	-0.017	Yaw Set Point:	2.168	X_WP:	0.000	Y_WP:	0.000	Z_WP:	0.500	X:	0.015	Y:	0.010	Z:	0.049	yaw:	-124.244	yaw rate:	2.507	Roll:	-0.334	Pitch:	0.101	Yaw:	-177.834	Thrust:	100.000
Time:	3.714	Roll Set Point:	0.002	Pitch Set Point:	-0.017	Yaw Set Point:	2.168	X_WP:	0.000	Y_WP:	0.000	Z_WP:	0.500	X:	0.015	Y:	0.010	Z:	0.049	yaw:	-124.206	yaw rate:	-3.817	Roll:	-0.293	Pitch:	0.176	Yaw:	-176.841	Thrust:	100.000
Time:	3.734	Roll Set Point:	0.002	Pitch Set Point:	-0.017	Yaw Set Point:	2.168	X_WP:	0.000	Y_WP:	0.000	Z_WP:	0.500	X:	0.015	Y:	0.010	Z:	0.049	yaw:	-124.221	yaw rate:	1.593	Roll:	-0.365	Pitch:	0.097	Yaw:	-177.664	Thrust:	100.000
Time:	3.755	Roll Set Point:	0.002	Pitch Set Point:	-0.017	Yaw Set Point:	2.169	X_WP:	0.000	Y_WP:	0.000	Z_WP:	0.500	X:	0.015	Y:	0.010	Z:	0.049	yaw:	-124.250	yaw rate:	2.856	Roll:	-0.336	Pitch:	0.134	Yaw:	-177.870	Thrust:	100.000
Time:	3.774	Roll Set Point:	0.002	Pitch Set Point:	-0.017	Yaw Set Point:	2.168	X_WP:	0.000	Y_WP:	0.000	Z_WP:	0.500	X:	0.015	Y:	0.010	Z:	0.049	yaw:	-124.238	yaw rate:	-1.190	Roll:	-0.315	Pitch:	0.149	Yaw:	-177.324	Thrust:	100.000
Time:	3.795	Roll Set Point:	0.002	Pitch Set Point:	-0.017	Yaw Set Point:	2.168	X_WP:	0.000	Y_WP:	0.000	Z_WP:	0.500	X:	0.015	Y:	0.010	Z:	0.049	yaw:	-124.228	yaw rate:	-1.031	Roll:	-0.332	Pitch:	0.146	Yaw:	-177.434	Thrust:	100.000
Time:	3.815	Roll Set Point:	0.002	Pitch Set Point:	-0.017	Yaw Set Point:	2.168	X_WP:	0.000	Y_WP:	0.000	Z_WP:	0.500	X:	0.015	Y:	0.010	Z:	0.049	yaw:	-124.240	yaw rate:	1.266	Roll:	-0.334	Pitch:	0.095	Yaw:	-177.679	Thrust:	100.000
Time:	3.835	Roll Set Point:	0.002	Pitch Set Point:	-0.017	Yaw Set Point:	2.169	X_WP:	0.000	Y_WP:	0.000	Z_WP:	0.500	X:	0.015	Y:	0.010	Z:	0.049	yaw:	-124.246	yaw rate:	0.578	Roll:	-0.351	Pitch:	0.120	Yaw:	-177.559	Thrust:	100.000
Time:	3.854	Roll Set Point:	0.002	Pitch Set Point:	-0.017	Yaw Set Point:	2.168	X_WP:	0.000	Y_WP:	0.000	Z_WP:	0.500	X:	0.015	Y:	0.010	Z:	0.049	yaw:	-124.210	yaw rate:	-3.577	Roll:	-0.316	Pitch:	0.172	Yaw:	-176.758	Thrust:	100.000
Time:	3.874	Roll Set Point:	0.002	Pitch Set Point:	-0.017	Yaw Set Point:	2.168	X_WP:	0.000	Y_WP:	0.000	Z_WP:	0.500	X:	0.015	Y:	0.010	Z:	0.049	yaw:	-124.210	yaw rate:	-0.032	Roll:	-0.343	Pitch:	0.125	Yaw:	-177.436	Thrust:	100.000
Time:	3.895	Roll Set Point:	0.002	Pitch Set Point:	-0.017	Yaw Set Point:	2.168	X_WP:	0.000	Y_WP:	0.000	Z_WP:	0.500	X:	0.015	Y:	0.010	Z:	0.049	yaw:	-124.221	yaw rate:	1.073	Roll:	-0.350	Pitch:	0.118	Yaw:	-177.691	Thrust:	100.000
Time:	3.914	Roll Set Point:	0.002	Pitch Set Point:	-0.017	Yaw Set Point:	2.168	X_WP:	0.000	Y_WP:	0.000	Z_WP:	0.500	X:	0.015	Y:	0.010	Z:	0.049	yaw:	-124.242	yaw rate:	2.082	Roll:	-0.344	Pitch:	0.125	Yaw:	-177.501	Thrust:	100.000
Time:	3.935	Roll Set Point:	0.002	Pitch Set Point:	-0.017	Yaw Set Point:	2.168	X_WP:	0.000	Y_WP:	0.000	Z_WP:	0.500	X:	0.015	Y:	0.010	Z:	0.049	yaw:	-124.200	yaw rate:	-4.149	Roll:	-0.319	Pitch:	0.152	Yaw:	-177.335	Thrust:	100.000
Time:	3.954	Roll Set Point:	0.002	Pitch Set Point:	-0.017	Yaw Set Point:	2.167	X_WP:	0.000	Y_WP:	0.000	Z_WP:	0.500	X:	0.015	Y:	0.010	Z:	0.049	yaw:	-124.189	yaw rate:	-1.162	Roll:	-0.355	Pitch:	0.132	Yaw:	-177.059	Thrust:	100.000
Time:	3.974	Roll Set Point:	0.002	Pitch Set Point:	-0.017	Yaw Set Point:	2.168	X_WP:	0.000	Y_WP:	0.000	Z_WP:	0.500	X:	0.015	Y:	0.010	Z:	0.049	yaw:	-124.193	yaw rate:	0.446	Roll:	-0.342	Pitch:	0.122	Yaw:	-177.270	Thrust:	100.000
Time:	3.995	Roll Set Point:	0.002	Pitch Set Point:	-0.017	Yaw Set Point:	2.168	X_WP:	0.000	Y_WP:	0.000	Z_WP:	0.500	X:	0.015	Y:	0.010	Z:	0.049	yaw:	-124.228	yaw rate:	3.503	Roll:	-0.335	Pitch:	0.136	Yaw:	-178.201	Thrust:	100.000
Time:	4.015	Roll Set Point:	0.002	Pitch Set Point:	-0.017	Yaw Set Point:	2.168	X_WP:	0.000	Y_WP:	0.000	Z_WP:	0.500	X:	0.015	Y:	0.010	Z:	0.049	yaw:	-124.239	yaw rate:	1.051	Roll:	-0.356	Pitch:	0.121	Yaw:	-177.655	Thrust:	100.000
Time:	4.034	Roll Set Point:	0.002	Pitch Set Point:	-0.017	Yaw Set Point:	2.168	X_WP:	0.000	Y_WP:	0.000	Z_WP:	0.500	X:	0.015	Y:	0.010	Z:	0.049	yaw:	-124.222	yaw rate:	-1.620	Roll:	-0.344	Pitch:	0.152	Yaw:	-177.026	Thrust:	100.000
Time:	4.054	Roll Set Point:	0.002	Pitch Set Point:	-0.017	Yaw Set Point:	2.168	X_WP:	0.000	Y_WP:	0.000	Z_WP:	0.500	X:	0.015	Y:	0.010	Z:	0.049	yaw:	-124.213	yaw rate:	-0.961	Roll:	-0.330	Pitch:	0.131	Yaw:	-177.113	Thrust:	100.000
Time:	4.074	Roll Set Point:	0.002	Pitch Set Point:	-0.017	Yaw Set Point:	2.168	X_WP:	0.000	Y_WP:	0.000	Z_WP:	0.500	X:	0.015	Y:	0.010	Z:	0.049	yaw:	-124.204	yaw rate:	-0.867	Roll:	-0.359	Pitch:	0.124	Yaw:	-177.524	Thrust:	100.000
Time:	4.096	Roll Set Point:	0.002	Pitch Set Point:	-0.017	Yaw Set Point:	2.168	X_WP:	0.000	Y_WP:	0.000	Z_WP:	0.500	X:	0.015	Y:	0.010	Z:	0.049	yaw:	-124.242	yaw rate:	3.828	Roll:	-0.362	Pitch:	0.126	Yaw:	-178.179	Thrust:	100.000
Time:	4.116	Roll Set Point:	0.002	Pitch Set Point:	-0.017	Yaw Set Point:	2.168	X_WP:	0.000	Y_WP:	0.000	Z_WP:	0.500	X:	0.015	Y:	0.010	Z:	0.049	yaw:	-124.200	yaw rate:	-4.281	Roll:	-0.343	Pitch:	0.156	Yaw:	-176.770	Thrust:	100.000
Time:	4.136	Roll Set Point:	0.002	Pitch Set Point:	-0.017	Yaw Set Point:	2.168	X_WP:	0.000	Y_WP:	0.000	Z_WP:	0.500	X:	0.015	Y:	0.010	Z:	0.049	yaw:	-124.221	yaw rate:	2.130	Roll:	-0.330	Pitch:	0.126	Yaw:	-177.734	Thrust:	100.000
Time:	4.157	Roll Set Point:	0.002	Pitch Set Point:	-0.017	Yaw Set Point:	2.168	X_WP:	0.000	Y_WP:	0.000	Z_WP:	0.500	X:	0.015	Y:	0.010	Z:	0.049	yaw:	-124.207	yaw rate:	-1.352	Roll:	-0.369	Pitch:	0.154	Yaw:	-177.479	Thrust:	100.000
Time:	4.176	Roll Set Point:	0.002	Pitch Set Point:	-0.017	Yaw Set Point:	2.168	X_WP:	0.000	Y_WP:	0.000	Z_WP:	0.500	X:	0.015	Y:	0.010	Z:	0.049	yaw:	-124.231	yaw rate:	2.352	Roll:	-0.345	Pitch:	0.135	Yaw:	-177.770	Thrust:	100.000
Time:	4.198	Roll Set Point:	0.002	Pitch Set Point:	-0.017	Yaw Set Point:	2.168	X_WP:	0.000	Y_WP:	0.000	Z_WP:	0.500	X:	0.015	Y:	0.010	Z:	0.049	yaw:	-124.196	yaw rate:	-3.484	Roll:	-0.378	Pitch:	0.135	Yaw:	-177.189	Thrust:	100.000
Time:	4.216	Roll Set Point:	0.002	Pitch Set Point:	-0.017	Yaw Set Point:	2.168	X_WP:	0.000	Y_WP:	0.000	Z_WP:	0.500	X:	0.015	Y:	0.010	Z:	0.049	yaw:	-124.209	yaw rate:	1.339	Roll:	-0.335	Pitch:	0.153	Yaw:	-177.425	Thrust:	100.000
Time:	4.234	Roll Set Point:	0.002	Pitch Set Point:	-0.017	Yaw Set Point:	2.169	X_WP:	0.000	Y_WP:	0.000	Z_WP:	0.500	X:	0.015	Y:	0.010	Z:	0.049	yaw:	-124.250	yaw rate:	4.020	Roll:	-0.350	Pitch:	0.098	Yaw:	-177.512	Thrust:	100.000
Time:	4.255	Roll Set Point:	0.002	Pitch Set Point:	-0.017	Yaw Set Point:	2.168	X_WP:	0.000	Y_WP:	0.000	Z_WP:	0.500	X:	0.015	Y:	0.010	Z:	0.049	yaw:	-124.216	yaw rate:	-3.330	Roll:	-0.351	Pitch:	0.152	Yaw:	-177.235	Thrust:	100.000
Time:	4.275	Roll Set Point:	0.002	Pitch Set Point:	-0.017	Yaw Set Point:	2.167	X_WP:	0.000	Y_WP:	0.000	Z_WP:	0.500	X:	0.015	Y:	0.010	Z:	0.049	yaw:	-124.183	yaw rate:	-3.347	Roll:	-0.341	Pitch:	0.145	Yaw:	-176.969	Thrust:	100.000
Time:	4.295	Roll Set Point:	0.002	Pitch Set Point:	-0.017	Yaw Set Point:	2.167	X_WP:	0.000	Y_WP:	0.000	Z_WP:	0.500	X:	0.015	Y:	0.010	Z:	0.049	yaw:	-124.188	yaw rate:	0.519	Roll:	-0.368	Pitch:	0.149	Yaw:	-177.406	Thrust:	100.000
Time:	4.316	Roll Set Point:	0.002	Pitch Set Point:	-0.017	Yaw Set Point:	2.168	X_WP:	0.000	Y_WP:	0.000	Z_WP:	0.500	X:	0.015	Y:	0.010	Z:	0.049	yaw:	-124.228	yaw rate:	4.030	Roll:	-0.369	Pitch:	0.112	Yaw:	-178.344	Thrust:	100.000
Time:	4.336	Roll Set Point:	0.002	Pitch Set Point:	-0.017	Yaw Set Point:	2.168	X_WP:	0.000	Y_WP:	0.000	Z_WP:	0.500	X:	0.015	Y:	0.010	Z:	0.049	yaw:	-124.202	yaw rate:	-2.661	Roll:	-0.343	Pitch:	0.152	Yaw:	-176.872	Thrust:	100.000
Time:	4.356	Roll Set Point:	0.002	Pitch Set Point:	-0.017	Yaw Set Point:	2.168	X_WP:	0.000	Y_WP:	0.000	Z_WP:	0.500	X:	0.015	Y:	0.010	Z:	0.049	yaw:	-124.226	yaw rate:	2.416	Roll:	-0.367	Pitch:	0.156	Yaw:	-177.956	Thrust:	100.000
Time:	4.377	Roll Set Point:	0.002	Pitch Set Point:	-0.017	Yaw Set Point:	2.168	X_WP:	0.000	Y_WP:	0.000	Z_WP:	0.500	X:	0.015	Y:	0.010	Z:	0.049	yaw:	-124.241	yaw rate:	1.491	Roll:	-0.377	Pitch:	0.130	Yaw:	-177.488	Thrust:	100.000
Time:	4.398	Roll Set Point:	0.002	Pitch Set Point:	-0.017	Yaw Set Point:	2.168	X_WP:	0.000	Y_WP:	0.000	Z_WP:	0.500	X:	0.015	Y:	0.010	Z:	0.049	yaw:	-124.217	yaw rate:	-2.364	Roll:	-0.357	Pitch:	0.134	Yaw:	-177.587	Thrust:	100.000
Time:	4.415	Roll Set Point:	0.002	Pitch Set Point:	-0.017	Yaw Set Point:	2.168	X_WP:	0.000	Y_WP:	0.000	Z_WP:	0.500	X:	0.015	Y:	0.010	Z:	0.049	yaw:	-124.209	yaw rate:	-0.863	Roll:	-0.341	Pitch:	0.158	Yaw:	-176.483	Thrust:	100.000
Time:	4.435	Roll Set Point:	0.002	Pitch Set Point:	-0.017	Yaw Set Point:	2.168	X_WP:	0.000	Y_WP:	0.000	Z_WP:	0.500	X:	0.015	Y:	0.010	Z:	0.049	yaw:	-124.215	yaw rate:	0.684	Roll:	-0.365	Pitch:	0.139	Yaw:	-177.537	Thrust:	100.000
Time:	4.455	Roll Set Point:	0.002	Pitch Set Point:	-0.017	Yaw Set Point:	2.168	X_WP:	0.000	Y_WP:	0.000	Z_WP:	0.500	X:	0.015	Y:	0.010	Z:	0.049	yaw:	-124.235	yaw rate:	1.935	Roll:	-0.363	Pitch:	0.143	Yaw:	-177.916	Thrust:	100.000
Time:	4.475	Roll Set Point:	0.002	Pitch Set Point:	-0.017	Yaw Set Point:	2.168	X_WP:	0.000	Y_WP:	0.000	Z_WP:	0.500	X:	0.015	Y:	0.010	Z:	0.049	yaw:	-124.218	yaw rate:	-1.660	Roll:	-0.347	Pitch:	0.137	Yaw:	-177.235	Thrust:	100.000
Time:	4.495	Roll Set Point:	0.002	Pitch Set Point:	-0.017	Yaw Set Point:	2.168	X_WP:	0.000	Y_WP:	0.000	Z_WP:	0.500	X:	0.015	Y:	0.010	Z:	0.049	yaw:	-124.208	yaw rate:	-0.984	Roll:	-0.380	Pitch:	0.154	Yaw:	-177.361	Thrust:	100.000
Time:	4.515	Roll Set Point:	0.002	Pitch Set Point:	-0.017	Yaw Set Point:	2.168	X_WP:	0.000	Y_WP:	0.000	Z_WP:	0.500	X:	0.015	Y:	0.010	Z:	0.049	yaw:	-124.225	yaw rate:	1.653	Roll:	-0.358	Pitch:	0.131	Yaw:	-177.607	Thrust:	100.000
Time:	4.535	Roll Set Point:	0.002	Pitch Set Point:	-0.017	Yaw Set Point:	2.168	X_WP:	0.000	Y_WP:	0.000	Z_WP:	0.500	X:	0.015	Y:	0.010	Z:	0.049	yaw:	-124.216	yaw rate:	-0.856	Roll:	-0.369	Pitch:	0.152	Yaw:	-177.338	Thrust:	100.000
Time:	4.555	Roll Set Point:	0.002	Pitch Set Point:	-0.017	Yaw Set Point:	2.168	X_WP:	0.000	Y_WP:	0.000	Z_WP:	0.500	X:	0.015	Y:	0.010	Z:	0.049	yaw:	-124.220	yaw rate:	0.354	Roll:	-0.369	Pitch:	0.152	Yaw:	-177.501	Thrust:	100.000
Time:	4.575	Roll Set Point:	0.002	Pitch Set Point:	-0.017	Yaw Set Point:	2.168	X_WP:	0.000	Y_WP:	0.000	Z_WP:	0.500	X:	0.015	Y:	0.010	Z:	0.049	yaw:	-124.224	yaw rate:	0.385	Roll:	-0.362	Pitch:	0.114	Yaw:	-177.311	Thrust:	100.000
Time:	4.596	Roll Set Point:	0.002	Pitch Set Point:	-0.017	Yaw Set Point:	2.168	X_WP:	0.000	Y_WP:	0.000	Z_WP:	0.500	X:	0.015	Y:	0.010	Z:	0.049	yaw:	-124.227	yaw rate:	0.378	Roll:	-0.390	Pitch:	0.161	Yaw:	-177.727	Thrust:	100.000
Time:	4.617	Roll Set Point:	0.002	Pitch Set Point:	-0.017	Yaw Set Point:	2.168	X_WP:	0.000	Y_WP:	0.000	Z_WP:	0.500	X:	0.015	Y:	0.010	Z:	0.049	yaw:	-124.220	yaw rate:	-0.696	Roll:	-0.365	Pitch:	0.139	Yaw:	-177.653	Thrust:	100.000
Time:	4.635	Roll Set Point:	0.002	Pitch Set Point:	-0.017	Yaw Set Point:	2.168	X_WP:	0.000	Y_WP:	0.000	Z_WP:	0.500	X:	0.015	Y:	0.010	Z:	0.049	yaw:	-124.221	yaw rate:	0.008	Roll:	-0.361	Pitch:	0.160	Yaw:	-177.057	Thrust:	100.000
Time:	4.655	Roll Set Point:	0.002	Pitch Set Point:	-0.017	Yaw Set Point:	2.169	X_WP:	0.000	Y_WP:	0.000	Z_WP:	0.500	X:	0.015	Y:	0.010	Z:	0.049	yaw:	-124.250	yaw rate:	2.918	Roll:	-0.366	Pitch:	0.116	Yaw:	-177.883	Thrust:	100.000
Time:	4.675	Roll Set Point:	0.002	Pitch Set Point:	-0.017	Yaw Set Point:	2.168	X_WP:	0.000	Y_WP:	0.000	Z_WP:	0.500	X:	0.015	Y:	0.010	Z:	0.049	yaw:	-124.207	yaw rate:	-4.262	Roll:	-0.385	Pitch:	0.162	Yaw:	-176.870	Thrust:	100.000
Time:	4.695	Roll Set Point:	0.002	Pitch Set Point:	-0.017	Yaw Set Point:	2.168	X_WP:	0.000	Y_WP:	0.000	Z_WP:	0.500	X:	0.015	Y:	0.010	Z:	0.049	yaw:	-124.193	yaw rate:	-1.377	Roll:	-0.365	Pitch:	0.162	Yaw:	-177.288	Thrust:	100.000
Time:	4.715	Roll Set Point:	0.002	Pitch Set Point:	-0.017	Yaw Set Point:	2.169	X_WP:	0.000	Y_WP:	0.000	Z_WP:	0.500	X:	0.015	Y:	0.010	Z:	0.049	yaw:	-124.251	yaw rate:	5.800	Roll:	-0.377	Pitch:	0.130	Yaw:	-178.198	Thrust:	100.000
Time:	4.736	Roll Set Point:	0.002	Pitch Set Point:	-0.017	Yaw Set Point:	2.169	X_WP:	0.000	Y_WP:	0.000	Z_WP:	0.500	X:	0.015	Y:	0.010	Z:	0.049	yaw:	-124.250	yaw rate:	-0.152	Roll:	-0.385	Pitch:	0.148	Yaw:	-177.677	Thrust:	100.000
Time:	4.758	Roll Set Point:	0.002	Pitch Set Point:	-0.017	Yaw Set Point:	2.168	X_WP:	0.000	Y_WP:	0.000	Z_WP:	0.500	X:	0.015	Y:	0.010	Z:	0.049	yaw:	-124.213	yaw rate:	-3.668	Roll:	-0.394	Pitch:	0.154	Yaw:	-177.181	Thrust:	100.000
Time:	4.777	Roll Set Point:	0.002	Pitch Set Point:	-0.017	Yaw Set Point:	2.168	X_WP:	0.000	Y_WP:	0.000	Z_WP:	0.500	X:	0.015	Y:	0.010	Z:	0.049	yaw:	-124.206	yaw rate:	-0.755	Roll:	-0.353	Pitch:	0.152	Yaw:	-177.337	Thrust:	100.000
Time:	4.798	Roll Set Point:	0.002	Pitch Set Point:	-0.017	Yaw Set Point:	2.168	X_WP:	0.000	Y_WP:	0.000	Z_WP:	0.500	X:	0.015	Y:	0.010	Z:	0.049	yaw:	-124.224	yaw rate:	1.828	Roll:	-0.397	Pitch:	0.142	Yaw:	-177.793	Thrust:	100.000
Time:	4.816	Roll Set Point:	0.002	Pitch Set Point:	-0.017	Yaw Set Point:	2.168	X_WP:	0.000	Y_WP:	0.000	Z_WP:	0.500	X:	0.015	Y:	0.010	Z:	0.049	yaw:	-124.212	yaw rate:	-1.218	Roll:	-0.376	Pitch:	0.148	Yaw:	-176.989	Thrust:	100.000
Time:	4.835	Roll Set Point:	0.002	Pitch Set Point:	-0.017	Yaw Set Point:	2.168	X_WP:	0.000	Y_WP:	0.000	Z_WP:	0.500	X:	0.015	Y:	0.010	Z:	0.049	yaw:	-124.219	yaw rate:	0.750	Roll:	-0.354	Pitch:	0.127	Yaw:	-177.347	Thrust:	100.000
Time:	4.855	Roll Set Point:	0.002	Pitch Set Point:	-0.017	Yaw Set Point:	2.168	X_WP:	0.000	Y_WP:	0.000	Z_WP:	0.500	X:	0.015	Y:	0.010	Z:	0.049	yaw:	-124.199	yaw rate:	-1.997	Roll:	-0.396	Pitch:	0.152	Yaw:	-177.174	Thrust:	100.000
Time:	4.875	Roll Set Point:	0.002	Pitch Set Point:	-0.017	Yaw Set Point:	2.168	X_WP:	0.000	Y_WP:	0.000	Z_WP:	0.500	X:	0.015	Y:	0.010	Z:	0.049	yaw:	-124.199	yaw rate:	-0.033	Roll:	-0.361	Pitch:	0.150	Yaw:	-177.223	Thrust:	100.000
Time:	4.896	Roll Set Point:	0.002	Pitch Set Point:	-0.017	Yaw Set Point:	2.168	X_WP:	0.000	Y_WP:	0.000	Z_WP:	0.500	X:	0.015	Y:	0.010	Z:	0.049	yaw:	-124.222	yaw rate:	2.270	Roll:	-0.393	Pitch:	0.151	Yaw:	-178.028	Thrust:	100.000
Time:	4.914	Roll Set Point:	0.002	Pitch Set Point:	-0.017	Yaw Set Point:	2.168	X_WP:	0.000	Y_WP:	0.000	Z_WP:	0.500	X:	0.015	Y:	0.010	Z:	0.049	yaw:	-124.193	yaw rate:	-2.880	Roll:	-0.370	Pitch:	0.156	Yaw:	-176.765	Thrust:	100.000
Time:	4.934	Roll Set Point:	0.002	Pitch Set Point:	-0.017	Yaw Set Point:	2.168	X_WP:	0.000	Y_WP:	0.000	Z_WP:	0.500	X:	0.015	Y:	0.010	Z:	0.049	yaw:	-124.201	yaw rate:	0.844	Roll:	-0.376	Pitch:	0.154	Yaw:	-177.531	Thrust:	100.000
Time:	4.958	Roll Set Point:	0.002	Pitch Set Point:	-0.017	Yaw Set Point:	2.168	X_WP:	0.000	Y_WP:	0.000	Z_WP:	0.500	X:	0.015	Y:	0.010	Z:	0.049	yaw:	-124.210	yaw rate:	0.876	Roll:	-0.442	Pitch:	0.146	Yaw:	-178.142	Thrust:	100.000
Time:	4.974	Roll Set Point:	0.002	Pitch Set Point:	-0.017	Yaw Set Point:	2.169	X_WP:	0.000	Y_WP:	0.000	Z_WP:	0.500	X:	0.015	Y:	0.010	Z:	0.049	yaw:	-124.247	yaw rate:	3.697	Roll:	-0.331	Pitch:	0.154	Yaw:	-177.292	Thrust:	100.000
Time:	4.994	Roll Set Point:	0.002	Pitch Set Point:	-0.017	Yaw Set Point:	2.168	X_WP:	0.000	Y_WP:	0.000	Z_WP:	0.500	X:	0.015	Y:	0.010	Z:	0.049	yaw:	-124.217	yaw rate:	-3.004	Roll:	-0.371	Pitch:	0.145	Yaw:	-177.183	Thrust:	100.000
Time:	5.014	Roll Set Point:	0.002	Pitch Set Point:	-0.017	Yaw Set Point:	2.168	X_WP:	0.000	Y_WP:	0.000	Z_WP:	0.500	X:	0.015	Y:	0.010	Z:	0.049	yaw:	-124.215	yaw rate:	-0.164	Roll:	-0.390	Pitch:	0.155	Yaw:	-177.344	Thrust:	100.000
Time:	5.036	Roll Set Point:	0.002	Pitch Set Point:	-0.017	Yaw Set Point:	2.168	X_WP:	0.000	Y_WP:	0.000	Z_WP:	0.500	X:	0.015	Y:	0.010	Z:	0.049	yaw:	-124.236	yaw rate:	2.054	Roll:	-0.411	Pitch:	0.121	Yaw:	-177.932	Thrust:	100.000
Time:	5.054	Roll Set Point:	0.002	Pitch Set Point:	-0.017	Yaw Set Point:	2.168	X_WP:	0.000	Y_WP:	0.000	Z_WP:	0.500	X:	0.015	Y:	0.010	Z:	0.049	yaw:	-124.213	yaw rate:	-2.319	Roll:	-0.376	Pitch:	0.182	Yaw:	-176.931	Thrust:	100.000
Time:	5.075	Roll Set Point:	0.002	Pitch Set Point:	-0.017	Yaw Set Point:	2.168	X_WP:	0.000	Y_WP:	0.000	Z_WP:	0.500	X:	0.015	Y:	0.010	Z:	0.049	yaw:	-124.212	yaw rate:	-0.075	Roll:	-0.392	Pitch:	0.159	Yaw:	-177.429	Thrust:	100.000
Time:	5.097	Roll Set Point:	0.002	Pitch Set Point:	-0.017	Yaw Set Point:	2.168	X_WP:	0.000	Y_WP:	0.000	Z_WP:	0.500	X:	0.015	Y:	0.010	Z:	0.049	yaw:	-124.229	yaw rate:	1.718	Roll:	-0.403	Pitch:	0.149	Yaw:	-178.087	Thrust:	100.000
Time:	5.114	Roll Set Point:	0.002	Pitch Set Point:	-0.017	Yaw Set Point:	2.168	X_WP:	0.000	Y_WP:	0.000	Z_WP:	0.500	X:	0.015	Y:	0.010	Z:	0.049	yaw:	-124.234	yaw rate:	0.478	Roll:	-0.393	Pitch:	0.118	Yaw:	-177.143	Thrust:	100.000
Time:	5.134	Roll Set Point:	0.002	Pitch Set Point:	-0.017	Yaw Set Point:	2.168	X_WP:	0.000	Y_WP:	0.000	Z_WP:	0.500	X:	0.015	Y:	0.010	Z:	0.049	yaw:	-124.199	yaw rate:	-3.451	Roll:	-0.389	Pitch:	0.178	Yaw:	-176.975	Thrust:	100.000
Time:	5.154	Roll Set Point:	0.002	Pitch Set Point:	-0.017	Yaw Set Point:	2.168	X_WP:	0.000	Y_WP:	0.000	Z_WP:	0.500	X:	0.015	Y:	0.010	Z:	0.049	yaw:	-124.229	yaw rate:	2.941	Roll:	-0.374	Pitch:	0.157	Yaw:	-177.851	Thrust:	100.000
Time:	5.174	Roll Set Point:	0.002	Pitch Set Point:	-0.017	Yaw Set Point:	2.168	X_WP:	0.000	Y_WP:	0.000	Z_WP:	0.500	X:	0.015	Y:	0.010	Z:	0.049	yaw:	-124.227	yaw rate:	-0.160	Roll:	-0.398	Pitch:	0.153	Yaw:	-177.443	Thrust:	100.000
Time:	5.195	Roll Set Point:	0.002	Pitch Set Point:	-0.017	Yaw Set Point:	2.169	X_WP:	0.000	Y_WP:	0.000	Z_WP:	0.500	X:	0.015	Y:	0.010	Z:	0.049	yaw:	-124.250	yaw rate:	2.316	Roll:	-0.399	Pitch:	0.138	Yaw:	-177.819	Thrust:	100.000
Time:	5.219	Roll Set Point:	0.002	Pitch Set Point:	-0.017	Yaw Set Point:	2.168	X_WP:	0.000	Y_WP:	0.000	Z_WP:	0.500	X:	0.015	Y:	0.010	Z:	0.049	yaw:	-124.199	yaw rate:	-5.107	Roll:	-0.391	Pitch:	0.180	Yaw:	-177.529	Thrust:	100.000
Time:	5.239	Roll Set Point:	0.002	Pitch Set Point:	-0.017	Yaw Set Point:	2.168	X_WP:	0.000	Y_WP:	0.000	Z_WP:	0.500	X:	0.015	Y:	0.010	Z:	0.049	yaw:	-124.242	yaw rate:	4.227	Roll:	-0.418	Pitch:	0.138	Yaw:	-178.036	Thrust:	100.000
Time:	5.255	Roll Set Point:	0.002	Pitch Set Point:	-0.017	Yaw Set Point:	2.168	X_WP:	0.000	Y_WP:	0.000	Z_WP:	0.500	X:	0.015	Y:	0.010	Z:	0.049	yaw:	-124.222	yaw rate:	-1.965	Roll:	-0.381	Pitch:	0.155	Yaw:	-176.562	Thrust:	100.000
