Time:	0.039	Roll Set Point:	0.776	Pitch Set Point:	-1.269	Yaw Set Point:	1.747	X_WP:	0.000	Y_WP:	0.000	Y_WP:	0.750	X:	0.369	Y:	1.097	Z:	0.808	yaw:	-100.068	yaw rate:	14.546	Roll:	-30.000	Pitch:	4.982	Yaw:	-139.721	Thrust:	0.000
Time:	0.052	Roll Set Point:	0.781	Pitch Set Point:	-1.267	Yaw Set Point:	1.745	X_WP:	0.000	Y_WP:	0.000	Y_WP:	0.750	X:	0.364	Y:	1.099	Z:	0.809	yaw:	-99.967	yaw rate:	-10.095	Roll:	-30.000	Pitch:	0.610	Yaw:	-138.212	Thrust:	0.000
Time:	0.071	Roll Set Point:	0.786	Pitch Set Point:	-1.267	Yaw Set Point:	1.742	X_WP:	0.000	Y_WP:	0.000	Y_WP:	0.750	X:	0.359	Y:	1.100	Z:	0.809	yaw:	-99.782	yaw rate:	-18.475	Roll:	-30.000	Pitch:	3.307	Yaw:	-138.016	Thrust:	0.000
Time:	0.091	Roll Set Point:	0.793	Pitch Set Point:	-1.253	Yaw Set Point:	1.749	X_WP:	0.000	Y_WP:	0.000	Y_WP:	0.750	X:	0.353	Y:	1.101	Z:	0.809	yaw:	-100.188	yaw rate:	40.626	Roll:	-30.000	Pitch:	-7.672	Yaw:	-147.291	Thrust:	0.000
Time:	0.112	Roll Set Point:	0.800	Pitch Set Point:	-1.245	Yaw Set Point:	1.751	X_WP:	0.000	Y_WP:	0.000	Y_WP:	0.750	X:	0.346	Y:	1.103	Z:	0.810	yaw:	-100.350	yaw rate:	16.133	Roll:	-30.000	Pitch:	-3.914	Yaw:	-145.022	Thrust:	0.000
Time:	0.134	Roll Set Point:	0.806	Pitch Set Point:	-1.235	Yaw Set Point:	1.756	X_WP:	0.000	Y_WP:	0.000	Y_WP:	0.750	X:	0.341	Y:	1.104	Z:	0.809	yaw:	-100.629	yaw rate:	27.985	Roll:	-30.000	Pitch:	-5.278	Yaw:	-147.661	Thrust:	0.000
Time:	0.150	Roll Set Point:	0.808	Pitch Set Point:	-1.249	Yaw Set Point:	1.741	X_WP:	0.000	Y_WP:	0.000	Y_WP:	0.750	X:	0.337	Y:	1.104	Z:	0.809	yaw:	-99.764	yaw rate:	-86.498	Roll:	-30.000	Pitch:	16.206	Yaw:	-130.641	Thrust:	0.000
Time:	0.171	Roll Set Point:	0.813	Pitch Set Point:	-1.245	Yaw Set Point:	1.741	X_WP:	0.000	Y_WP:	0.000	Y_WP:	0.750	X:	0.332	Y:	1.105	Z:	0.809	yaw:	-99.779	yaw rate:	1.468	Roll:	-30.000	Pitch:	-0.221	Yaw:	-143.634	Thrust:	0.000
Time:	0.190	Roll Set Point:	0.820	Pitch Set Point:	-1.233	Yaw Set Point:	1.748	X_WP:	0.000	Y_WP:	0.000	Y_WP:	0.750	X:	0.327	Y:	1.106	Z:	0.809	yaw:	-100.158	yaw rate:	37.924	Roll:	-30.000	Pitch:	-7.974	Yaw:	-148.845	Thrust:	0.000
Time:	0.211	Roll Set Point:	0.821	Pitch Set Point:	-1.242	Yaw Set Point:	1.737	X_WP:	0.000	Y_WP:	0.000	Y_WP:	0.750	X:	0.323	Y:	1.106	Z:	0.808	yaw:	-99.531	yaw rate:	-62.742	Roll:	-30.000	Pitch:	11.553	Yaw:	-135.107	Thrust:	0.000
Time:	0.233	Roll Set Point:	0.826	Pitch Set Point:	-1.238	Yaw Set Point:	1.737	X_WP:	0.000	Y_WP:	0.000	Y_WP:	0.750	X:	0.318	Y:	1.107	Z:	0.808	yaw:	-99.520	yaw rate:	-1.139	Roll:	-30.000	Pitch:	0.439	Yaw:	-143.216	Thrust:	0.000
Time:	0.251	Roll Set Point:	0.830	Pitch Set Point:	-1.239	Yaw Set Point:	1.733	X_WP:	0.000	Y_WP:	0.000	Y_WP:	0.750	X:	0.314	Y:	1.107	Z:	0.807	yaw:	-99.274	yaw rate:	-24.564	Roll:	-30.000	Pitch:	4.211	Yaw:	-138.784	Thrust:	0.000
Time:	0.271	Roll Set Point:	0.834	Pitch Set Point:	-1.237	Yaw Set Point:	1.731	X_WP:	0.000	Y_WP:	0.000	Y_WP:	0.750	X:	0.309	Y:	1.108	Z:	0.806	yaw:	-99.157	yaw rate:	-11.652	Roll:	-30.000	Pitch:	1.975	Yaw:	-140.802	Thrust:	0.000
Time:	0.290	Roll Set Point:	0.838	Pitch Set Point:	-1.234	Yaw Set Point:	1.729	X_WP:	0.000	Y_WP:	0.000	Y_WP:	0.750	X:	0.305	Y:	1.108	Z:	0.806	yaw:	-99.079	yaw rate:	-7.796	Roll:	-30.000	Pitch:	1.232	Yaw:	-141.232	Thrust:	0.000
Time:	0.311	Roll Set Point:	0.842	Pitch Set Point:	-1.231	Yaw Set Point:	1.728	X_WP:	0.000	Y_WP:	0.000	Y_WP:	0.750	X:	0.300	Y:	1.109	Z:	0.805	yaw:	-99.018	yaw rate:	-6.183	Roll:	-30.000	Pitch:	0.919	Yaw:	-141.556	Thrust:	0.000
Time:	0.331	Roll Set Point:	0.846	Pitch Set Point:	-1.226	Yaw Set Point:	1.729	X_WP:	0.000	Y_WP:	0.000	Y_WP:	0.750	X:	0.296	Y:	1.109	Z:	0.805	yaw:	-99.061	yaw rate:	4.325	Roll:	-30.000	Pitch:	-1.240	Yaw:	-142.929	Thrust:	0.000
Time:	0.351	Roll Set Point:	0.850	Pitch Set Point:	-1.224	Yaw Set Point:	1.727	X_WP:	0.000	Y_WP:	0.000	Y_WP:	0.750	X:	0.291	Y:	1.109	Z:	0.805	yaw:	-98.978	yaw rate:	-8.320	Roll:	-30.000	Pitch:	0.963	Yaw:	-141.001	Thrust:	0.000
Time:	0.371	Roll Set Point:	0.854	Pitch Set Point:	-1.228	Yaw Set Point:	1.720	X_WP:	0.000	Y_WP:	0.000	Y_WP:	0.750	X:	0.287	Y:	1.110	Z:	0.805	yaw:	-98.561	yaw rate:	-41.683	Roll:	-30.000	Pitch:	6.743	Yaw:	-136.043	Thrust:	0.000
Time:	0.390	Roll Set Point:	0.858	Pitch Set Point:	-1.225	Yaw Set Point:	1.720	X_WP:	0.000	Y_WP:	0.000	Y_WP:	0.750	X:	0.282	Y:	1.111	Z:	0.805	yaw:	-98.528	yaw rate:	-3.285	Roll:	-30.000	Pitch:	0.291	Yaw:	-141.093	Thrust:	0.000
Time:	0.412	Roll Set Point:	0.862	Pitch Set Point:	-1.222	Yaw Set Point:	1.719	X_WP:	0.000	Y_WP:	0.000	Y_WP:	0.750	X:	0.277	Y:	1.111	Z:	0.805	yaw:	-98.469	yaw rate:	-5.923	Roll:	-30.000	Pitch:	0.471	Yaw:	-141.199	Thrust:	0.000
Time:	0.431	Roll Set Point:	0.866	Pitch Set Point:	-1.219	Yaw Set Point:	1.718	X_WP:	0.000	Y_WP:	0.000	Y_WP:	0.750	X:	0.273	Y:	1.111	Z:	0.804	yaw:	-98.411	yaw rate:	-5.757	Roll:	-30.000	Pitch:	0.130	Yaw:	-140.237	Thrust:	0.000
Time:	0.450	Roll Set Point:	0.871	Pitch Set Point:	-1.214	Yaw Set Point:	1.718	X_WP:	0.000	Y_WP:	0.000	Y_WP:	0.750	X:	0.268	Y:	1.112	Z:	0.804	yaw:	-98.426	yaw rate:	1.514	Roll:	-30.000	Pitch:	-1.032	Yaw:	-141.495	Thrust:	0.000
Time:	0.471	Roll Set Point:	0.875	Pitch Set Point:	-1.205	Yaw Set Point:	1.723	X_WP:	0.000	Y_WP:	0.000	Y_WP:	0.750	X:	0.264	Y:	1.112	Z:	0.804	yaw:	-98.701	yaw rate:	27.426	Roll:	-30.000	Pitch:	-5.341	Yaw:	-145.427	Thrust:	0.000
Time:	0.490	Roll Set Point:	0.879	Pitch Set Point:	-1.208	Yaw Set Point:	1.718	X_WP:	0.000	Y_WP:	0.000	Y_WP:	0.750	X:	0.260	Y:	1.113	Z:	0.804	yaw:	-98.406	yaw rate:	-29.469	Roll:	-30.000	Pitch:	4.371	Yaw:	-137.333	Thrust:	0.000
Time:	0.513	Roll Set Point:	0.883	Pitch Set Point:	-1.206	Yaw Set Point:	1.715	X_WP:	0.000	Y_WP:	0.000	Y_WP:	0.750	X:	0.256	Y:	1.114	Z:	0.804	yaw:	-98.287	yaw rate:	-11.887	Roll:	-30.000	Pitch:	1.258	Yaw:	-140.310	Thrust:	0.000
Time:	0.538	Roll Set Point:	0.887	Pitch Set Point:	-1.201	Yaw Set Point:	1.716	X_WP:	0.000	Y_WP:	0.000	Y_WP:	0.750	X:	0.251	Y:	1.114	Z:	0.803	yaw:	-98.339	yaw rate:	5.162	Roll:	-30.000	Pitch:	-0.944	Yaw:	-142.757	Thrust:	0.000
Time:	0.551	Roll Set Point:	0.892	Pitch Set Point:	-1.194	Yaw Set Point:	1.719	X_WP:	0.000	Y_WP:	0.000	Y_WP:	0.750	X:	0.246	Y:	1.114	Z:	0.803	yaw:	-98.478	yaw rate:	13.950	Roll:	-30.000	Pitch:	-6.671	Yaw:	-142.914	Thrust:	0.000
Time:	0.573	Roll Set Point:	0.897	Pitch Set Point:	-1.191	Yaw Set Point:	1.719	X_WP:	0.000	Y_WP:	0.000	Y_WP:	0.750	X:	0.242	Y:	1.115	Z:	0.803	yaw:	-98.466	yaw rate:	-1.241	Roll:	-30.000	Pitch:	-0.891	Yaw:	-141.752	Thrust:	0.000
Time:	0.590	Roll Set Point:	0.901	Pitch Set Point:	-1.186	Yaw Set Point:	1.718	X_WP:	0.000	Y_WP:	0.000	Y_WP:	0.750	X:	0.237	Y:	1.116	Z:	0.802	yaw:	-98.462	yaw rate:	-0.347	Roll:	-30.000	Pitch:	-2.446	Yaw:	-140.833	Thrust:	0.000
Time:	0.611	Roll Set Point:	0.906	Pitch Set Point:	-1.186	Yaw Set Point:	1.716	X_WP:	0.000	Y_WP:	0.000	Y_WP:	0.750	X:	0.233	Y:	1.117	Z:	0.802	yaw:	-98.317	yaw rate:	-14.531	Roll:	-30.000	Pitch:	0.988	Yaw:	-139.421	Thrust:	0.000
Time:	0.631	Roll Set Point:	0.910	Pitch Set Point:	-1.183	Yaw Set Point:	1.715	X_WP:	0.000	Y_WP:	0.000	Y_WP:	0.750	X:	0.229	Y:	1.118	Z:	0.802	yaw:	-98.265	yaw rate:	-5.185	Roll:	-30.000	Pitch:	-0.960	Yaw:	-140.483	Thrust:	0.000
Time:	0.651	Roll Set Point:	0.915	Pitch Set Point:	-1.178	Yaw Set Point:	1.716	X_WP:	0.000	Y_WP:	0.000	Y_WP:	0.750	X:	0.224	Y:	1.119	Z:	0.802	yaw:	-98.311	yaw rate:	4.557	Roll:	-30.000	Pitch:	-2.840	Yaw:	-141.966	Thrust:	0.000
Time:	0.670	Roll Set Point:	0.921	Pitch Set Point:	-1.169	Yaw Set Point:	1.720	X_WP:	0.000	Y_WP:	0.000	Y_WP:	0.750	X:	0.219	Y:	1.120	Z:	0.803	yaw:	-98.574	yaw rate:	26.323	Roll:	-30.000	Pitch:	-7.238	Yaw:	-145.066	Thrust:	0.000
Time:	0.690	Roll Set Point:	0.925	Pitch Set Point:	-1.170	Yaw Set Point:	1.717	X_WP:	0.000	Y_WP:	0.000	Y_WP:	0.750	X:	0.214	Y:	1.121	Z:	0.803	yaw:	-98.349	yaw rate:	-22.505	Roll:	-30.000	Pitch:	1.389	Yaw:	-138.314	Thrust:	0.000
Time:	0.711	Roll Set Point:	0.929	Pitch Set Point:	-1.178	Yaw Set Point:	1.707	X_WP:	0.000	Y_WP:	0.000	Y_WP:	0.750	X:	0.211	Y:	1.122	Z:	0.803	yaw:	-97.804	yaw rate:	-54.472	Roll:	-30.000	Pitch:	7.794	Yaw:	-133.827	Thrust:	0.000
Time:	0.731	Roll Set Point:	0.933	Pitch Set Point:	-1.178	Yaw Set Point:	1.704	X_WP:	0.000	Y_WP:	0.000	Y_WP:	0.750	X:	0.206	Y:	1.122	Z:	0.803	yaw:	-97.641	yaw rate:	-16.303	Roll:	-30.000	Pitch:	0.726	Yaw:	-138.101	Thrust:	0.000
Time:	0.752	Roll Set Point:	0.938	Pitch Set Point:	-1.169	Yaw Set Point:	1.708	X_WP:	0.000	Y_WP:	0.000	Y_WP:	0.750	X:	0.202	Y:	1.123	Z:	0.804	yaw:	-97.881	yaw rate:	23.996	Roll:	-30.000	Pitch:	-6.066	Yaw:	-143.869	Thrust:	0.000
Time:	0.772	Roll Set Point:	0.943	Pitch Set Point:	-1.155	Yaw Set Point:	1.716	X_WP:	0.000	Y_WP:	0.000	Y_WP:	0.750	X:	0.197	Y:	1.123	Z:	0.804	yaw:	-98.320	yaw rate:	43.896	Roll:	-30.000	Pitch:	-10.406	Yaw:	-146.980	Thrust:	0.000
Time:	0.792	Roll Set Point:	0.949	Pitch Set Point:	-1.132	Yaw Set Point:	1.732	X_WP:	0.000	Y_WP:	0.000	Y_WP:	0.750	X:	0.191	Y:	1.124	Z:	0.805	yaw:	-99.208	yaw rate:	88.817	Roll:	-30.000	Pitch:	-19.278	Yaw:	-154.258	Thrust:	0.000
Time:	0.813	Roll Set Point:	0.952	Pitch Set Point:	-1.145	Yaw Set Point:	1.717	X_WP:	0.000	Y_WP:	0.000	Y_WP:	0.750	X:	0.187	Y:	1.124	Z:	0.805	yaw:	-98.384	yaw rate:	-82.411	Roll:	-30.000	Pitch:	11.872	Yaw:	-131.101	Thrust:	0.000
Time:	0.833	Roll Set Point:	0.956	Pitch Set Point:	-1.145	Yaw Set Point:	1.713	X_WP:	0.000	Y_WP:	0.000	Y_WP:	0.750	X:	0.183	Y:	1.124	Z:	0.805	yaw:	-98.175	yaw rate:	-20.948	Roll:	-30.000	Pitch:	0.697	Yaw:	-138.317	Thrust:	0.000
Time:	0.850	Roll Set Point:	0.959	Pitch Set Point:	-1.143	Yaw Set Point:	1.712	X_WP:	0.000	Y_WP:	0.000	Y_WP:	0.750	X:	0.179	Y:	1.124	Z:	0.805	yaw:	-98.087	yaw rate:	-8.796	Roll:	-30.000	Pitch:	-1.615	Yaw:	-139.171	Thrust:	0.000
Time:	0.871	Roll Set Point:	0.964	Pitch Set Point:	-1.134	Yaw Set Point:	1.716	X_WP:	0.000	Y_WP:	0.000	Y_WP:	0.750	X:	0.174	Y:	1.125	Z:	0.806	yaw:	-98.328	yaw rate:	24.178	Roll:	-30.000	Pitch:	-7.019	Yaw:	-144.513	Thrust:	0.000
Time:	0.892	Roll Set Point:	0.967	Pitch Set Point:	-1.120	Yaw Set Point:	1.725	X_WP:	0.000	Y_WP:	0.000	Y_WP:	0.750	X:	0.170	Y:	1.125	Z:	0.806	yaw:	-98.855	yaw rate:	52.634	Roll:	-30.000	Pitch:	-12.687	Yaw:	-148.882	Thrust:	0.000
Time:	0.912	Roll Set Point:	0.971	Pitch Set Point:	-1.117	Yaw Set Point:	1.723	X_WP:	0.000	Y_WP:	0.000	Y_WP:	0.750	X:	0.165	Y:	1.125	Z:	0.807	yaw:	-98.730	yaw rate:	-12.491	Roll:	-30.000	Pitch:	-1.848	Yaw:	-140.172	Thrust:	0.000
Time:	0.933	Roll Set Point:	0.976	Pitch Set Point:	-1.106	Yaw Set Point:	1.729	X_WP:	0.000	Y_WP:	0.000	Y_WP:	0.750	X:	0.160	Y:	1.125	Z:	0.807	yaw:	-99.063	yaw rate:	33.298	Roll:	-30.000	Pitch:	-9.737	Yaw:	-146.671	Thrust:	0.000
Time:	0.951	Roll Set Point:	0.978	Pitch Set Point:	-1.116	Yaw Set Point:	1.718	X_WP:	0.000	Y_WP:	0.000	Y_WP:	0.750	X:	0.158	Y:	1.125	Z:	0.808	yaw:	-98.442	yaw rate:	-62.032	Roll:	-30.000	Pitch:	9.023	Yaw:	-132.051	Thrust:	0.000
Time:	0.972	Roll Set Point:	0.981	Pitch Set Point:	-1.117	Yaw Set Point:	1.714	X_WP:	0.000	Y_WP:	0.000	Y_WP:	0.750	X:	0.154	Y:	1.125	Z:	0.808	yaw:	-98.190	yaw rate:	-25.236	Roll:	-30.000	Pitch:	1.001	Yaw:	-138.068	Thrust:	0.000
Time:	0.991	Roll Set Point:	0.984	Pitch Set Point:	-1.106	Yaw Set Point:	1.720	X_WP:	0.000	Y_WP:	0.000	Y_WP:	0.750	X:	0.150	Y:	1.125	Z:	0.808	yaw:	-98.527	yaw rate:	33.686	Roll:	-30.000	Pitch:	-9.578	Yaw:	-146.027	Thrust:	0.000
Time:	1.012	Roll Set Point:	0.987	Pitch Set Point:	-1.099	Yaw Set Point:	1.722	X_WP:	0.000	Y_WP:	0.000	Y_WP:	0.750	X:	0.146	Y:	1.124	Z:	0.809	yaw:	-98.680	yaw rate:	15.317	Roll:	-30.000	Pitch:	-6.272	Yaw:	-143.867	Thrust:	0.000
Time:	1.035	Roll Set Point:	0.991	Pitch Set Point:	-1.102	Yaw Set Point:	1.716	X_WP:	0.000	Y_WP:	0.000	Y_WP:	0.750	X:	0.142	Y:	1.124	Z:	0.809	yaw:	-98.339	yaw rate:	-34.119	Roll:	-30.000	Pitch:	1.738	Yaw:	-138.255	Thrust:	0.000
Time:	1.052	Roll Set Point:	0.993	Pitch Set Point:	-1.102	Yaw Set Point:	1.713	X_WP:	0.000	Y_WP:	0.000	Y_WP:	0.750	X:	0.139	Y:	1.124	Z:	0.810	yaw:	-98.169	yaw rate:	-17.041	Roll:	-30.000	Pitch:	-0.629	Yaw:	-137.715	Thrust:	0.000
Time:	1.072	Roll Set Point:	0.996	Pitch Set Point:	-1.103	Yaw Set Point:	1.709	X_WP:	0.000	Y_WP:	0.000	Y_WP:	0.750	X:	0.135	Y:	1.124	Z:	0.810	yaw:	-97.911	yaw rate:	-25.799	Roll:	-30.000	Pitch:	0.985	Yaw:	-137.395	Thrust:	0.000
Time:	1.091	Roll Set Point:	0.999	Pitch Set Point:	-1.102	Yaw Set Point:	1.707	X_WP:	0.000	Y_WP:	0.000	Y_WP:	0.750	X:	0.132	Y:	1.123	Z:	0.811	yaw:	-97.777	yaw rate:	-13.313	Roll:	-30.000	Pitch:	-0.961	Yaw:	-138.393	Thrust:	0.000
Time:	1.112	Roll Set Point:	1.002	Pitch Set Point:	-1.087	Yaw Set Point:	1.715	X_WP:	0.000	Y_WP:	0.000	Y_WP:	0.750	X:	0.128	Y:	1.123	Z:	0.811	yaw:	-98.286	yaw rate:	50.896	Roll:	-30.000	Pitch:	-12.235	Yaw:	-147.758	Thrust:	0.000
Time:	1.133	Roll Set Point:	1.003	Pitch Set Point:	-1.096	Yaw Set Point:	1.705	X_WP:	0.000	Y_WP:	0.000	Y_WP:	0.750	X:	0.126	Y:	1.122	Z:	0.811	yaw:	-97.714	yaw rate:	-57.220	Roll:	-30.000	Pitch:	6.825	Yaw:	-133.893	Thrust:	0.000
Time:	1.151	Roll Set Point:	1.006	Pitch Set Point:	-1.093	Yaw Set Point:	1.706	X_WP:	0.000	Y_WP:	0.000	Y_WP:	0.750	X:	0.123	Y:	1.122	Z:	0.812	yaw:	-97.726	yaw rate:	1.142	Roll:	-30.000	Pitch:	-3.501	Yaw:	-140.161	Thrust:	0.000
Time:	1.171	Roll Set Point:	1.008	Pitch Set Point:	-1.084	Yaw Set Point:	1.710	X_WP:	0.000	Y_WP:	0.000	Y_WP:	0.750	X:	0.119	Y:	1.122	Z:	0.812	yaw:	-97.965	yaw rate:	23.959	Roll:	-30.000	Pitch:	-8.046	Yaw:	-143.927	Thrust:	0.000
Time:	1.191	Roll Set Point:	1.010	Pitch Set Point:	-1.086	Yaw Set Point:	1.705	X_WP:	0.000	Y_WP:	0.000	Y_WP:	0.750	X:	0.117	Y:	1.121	Z:	0.812	yaw:	-97.706	yaw rate:	-25.968	Roll:	-30.000	Pitch:	1.377	Yaw:	-137.096	Thrust:	0.000
Time:	1.212	Roll Set Point:	1.012	Pitch Set Point:	-1.086	Yaw Set Point:	1.703	X_WP:	0.000	Y_WP:	0.000	Y_WP:	0.750	X:	0.114	Y:	1.121	Z:	0.812	yaw:	-97.568	yaw rate:	-13.748	Roll:	-30.000	Pitch:	-0.553	Yaw:	-138.554	Thrust:	0.000
Time:	1.231	Roll Set Point:	1.013	Pitch Set Point:	-1.086	Yaw Set Point:	1.700	X_WP:	0.000	Y_WP:	0.000	Y_WP:	0.750	X:	0.112	Y:	1.120	Z:	0.812	yaw:	-97.392	yaw rate:	-17.568	Roll:	-30.000	Pitch:	0.106	Yaw:	-137.405	Thrust:	0.000
Time:	1.253	Roll Set Point:	-0.821	Pitch Set Point:	-1.965	Yaw Set Point:	-0.590	X_WP:	0.000	Y_WP:	0.000	Y_WP:	0.750	X:	0.112	Y:	1.107	Z:	0.815	yaw:	33.815	yaw rate:	-13120.748	Roll:	30.000	Pitch:	30.000	Yaw:	1611.625	Thrust:	0.000
Time:	1.272	Roll Set Point:	-1.227	Pitch Set Point:	-1.279	Yaw Set Point:	-1.344	X_WP:	0.000	Y_WP:	0.000	Y_WP:	0.750	X:	0.105	Y:	1.128	Z:	0.818	yaw:	77.004	yaw rate:	-4318.861	Roll:	30.000	Pitch:	-30.000	Yaw:	718.098	Thrust:	0.000
Time:	1.292	Roll Set Point:	-0.803	Pitch Set Point:	-1.973	Yaw Set Point:	-0.579	X_WP:	0.000	Y_WP:	0.000	Y_WP:	0.750	X:	0.108	Y:	1.106	Z:	0.815	yaw:	33.170	yaw rate:	4383.414	Roll:	-30.000	Pitch:	30.000	Yaw:	-540.379	Thrust:	2.190
Time:	1.311	Roll Set Point:	-1.223	Pitch Set Point:	-1.267	Yaw Set Point:	-1.357	X_WP:	0.000	Y_WP:	0.000	Y_WP:	0.750	X:	0.101	Y:	1.127	Z:	0.817	yaw:	77.745	yaw rate:	-4457.520	Roll:	30.000	Pitch:	-30.000	Yaw:	681.182	Thrust:	0.000
Time:	1.334	Roll Set Point:	-1.221	Pitch Set Point:	-1.258	Yaw Set Point:	-1.367	X_WP:	0.000	Y_WP:	0.000	Y_WP:	0.750	X:	0.098	Y:	1.126	Z:	0.817	yaw:	78.308	yaw rate:	-56.310	Roll:	30.000	Pitch:	-2.936	Yaw:	113.307	Thrust:	0.000
Time:	1.351	Roll Set Point:	1.023	Pitch Set Point:	-1.072	Yaw Set Point:	1.697	X_WP:	0.000	Y_WP:	0.000	Y_WP:	0.750	X:	0.097	Y:	1.116	Z:	0.811	yaw:	-97.248	yaw rate:	17555.561	Roll:	-30.000	Pitch:	-30.000	Yaw:	-2735.820	Thrust:	9.461
Time:	1.371	Roll Set Point:	1.024	Pitch Set Point:	-1.072	Yaw Set Point:	1.695	X_WP:	0.000	Y_WP:	0.000	Y_WP:	0.750	X:	0.095	Y:	1.116	Z:	0.812	yaw:	-97.105	yaw rate:	-14.272	Roll:	-30.000	Pitch:	-0.477	Yaw:	-136.430	Thrust:	0.000
Time:	1.392	Roll Set Point:	1.026	Pitch Set Point:	-1.073	Yaw Set Point:	1.691	X_WP:	0.000	Y_WP:	0.000	Y_WP:	0.750	X:	0.092	Y:	1.116	Z:	0.812	yaw:	-96.909	yaw rate:	-19.638	Roll:	-30.000	Pitch:	0.251	Yaw:	-136.050	Thrust:	0.000
Time:	1.411	Roll Set Point:	1.029	Pitch Set Point:	-1.082	Yaw Set Point:	1.682	X_WP:	0.000	Y_WP:	0.000	Y_WP:	0.750	X:	0.090	Y:	1.116	Z:	0.812	yaw:	-96.349	yaw rate:	-55.915	Roll:	-30.000	Pitch:	6.503	Yaw:	-130.599	Thrust:	0.000
Time:	1.434	Roll Set Point:	1.031	Pitch Set Point:	-1.086	Yaw Set Point:	1.676	X_WP:	0.000	Y_WP:	0.000	Y_WP:	0.750	X:	0.088	Y:	1.116	Z:	0.813	yaw:	-96.036	yaw rate:	-31.329	Roll:	-30.000	Pitch:	2.312	Yaw:	-134.878	Thrust:	0.000
Time:	1.452	Roll Set Point:	1.034	Pitch Set Point:	-1.089	Yaw Set Point:	1.671	X_WP:	0.000	Y_WP:	0.000	Y_WP:	0.750	X:	0.085	Y:	1.116	Z:	0.813	yaw:	-95.729	yaw rate:	-30.670	Roll:	-30.000	Pitch:	2.935	Yaw:	-133.048	Thrust:	0.000
Time:	1.472	Roll Set Point:	1.036	Pitch Set Point:	-1.083	Yaw Set Point:	1.674	X_WP:	0.000	Y_WP:	0.000	Y_WP:	0.750	X:	0.083	Y:	1.116	Z:	0.813	yaw:	-95.915	yaw rate:	18.517	Roll:	-30.000	Pitch:	-5.578	Yaw:	-140.351	Thrust:	0.000
Time:	1.491	Roll Set Point:	-0.732	Pitch Set Point:	-2.003	Yaw Set Point:	-0.549	X_WP:	0.000	Y_WP:	0.000	Y_WP:	0.750	X:	0.084	Y:	1.104	Z:	0.816	yaw:	31.452	yaw rate:	-12736.616	Roll:	30.000	Pitch:	30.000	Yaw:	1811.764	Thrust:	0.000
Time:	1.511	Roll Set Point:	-0.688	Pitch Set Point:	-2.031	Yaw Set Point:	-0.506	X_WP:	0.000	Y_WP:	0.000	Y_WP:	0.750	X:	0.082	Y:	1.105	Z:	0.817	yaw:	28.975	yaw rate:	247.682	Roll:	-17.794	Pitch:	30.000	Yaw:	5.245	Thrust:	0.000
Time:	1.534	Roll Set Point:	-0.697	Pitch Set Point:	-2.027	Yaw Set Point:	-0.518	X_WP:	0.000	Y_WP:	0.000	Y_WP:	0.750	X:	0.080	Y:	1.106	Z:	0.817	yaw:	29.666	yaw rate:	-69.106	Roll:	25.200	Pitch:	22.799	Yaw:	45.497	Thrust:	0.000
Time:	1.551	Roll Set Point:	-0.715	Pitch Set Point:	-2.015	Yaw Set Point:	-0.540	X_WP:	0.000	Y_WP:	0.000	Y_WP:	0.750	X:	0.078	Y:	1.107	Z:	0.817	yaw:	30.954	yaw rate:	-128.803	Roll:	30.000	Pitch:	14.353	Yaw:	59.563	Thrust:	0.000
Time:	1.571	Roll Set Point:	-0.713	Pitch Set Point:	-2.016	Yaw Set Point:	-0.542	X_WP:	0.000	Y_WP:	0.000	Y_WP:	0.750	X:	0.077	Y:	1.107	Z:	0.818	yaw:	31.036	yaw rate:	-8.222	Roll:	17.903	Pitch:	27.288	Yaw:	41.208	Thrust:	0.000
Time:	1.591	Roll Set Point:	-0.672	Pitch Set Point:	-2.043	Yaw Set Point:	-0.501	X_WP:	0.000	Y_WP:	0.000	Y_WP:	0.750	X:	0.074	Y:	1.107	Z:	0.818	yaw:	28.719	yaw rate:	231.668	Roll:	-17.429	Pitch:	30.000	Yaw:	6.704	Thrust:	0.000
Time:	1.612	Roll Set Point:	1.053	Pitch Set Point:	-1.173	Yaw Set Point:	1.585	X_WP:	0.000	Y_WP:	0.000	Y_WP:	0.750	X:	0.069	Y:	1.121	Z:	0.817	yaw:	-90.827	yaw rate:	11954.622	Roll:	-30.000	Pitch:	-30.000	Yaw:	-1684.735	Thrust:	0.000
Time:	1.633	Roll Set Point:	1.056	Pitch Set Point:	-1.141	Yaw Set Point:	1.612	X_WP:	0.000	Y_WP:	0.000	Y_WP:	0.750	X:	0.067	Y:	1.120	Z:	0.816	yaw:	-92.382	yaw rate:	155.482	Roll:	-30.000	Pitch:	-25.607	Yaw:	-151.412	Thrust:	0.000
Time:	1.652	Roll Set Point:	1.058	Pitch Set Point:	-1.171	Yaw Set Point:	1.584	X_WP:	0.000	Y_WP:	0.000	Y_WP:	0.750	X:	0.065	Y:	1.122	Z:	0.816	yaw:	-90.768	yaw rate:	-161.352	Roll:	-30.000	Pitch:	29.083	Yaw:	-106.171	Thrust:	0.000
Time:	1.672	Roll Set Point:	1.060	Pitch Set Point:	-1.150	Yaw Set Point:	1.602	X_WP:	0.000	Y_WP:	0.000	Y_WP:	0.750	X:	0.063	Y:	1.122	Z:	0.816	yaw:	-91.782	yaw rate:	101.381	Roll:	-30.000	Pitch:	-16.264	Yaw:	-144.966	Thrust:	0.000
Time:	1.691	Roll Set Point:	1.061	Pitch Set Point:	-1.166	Yaw Set Point:	1.587	X_WP:	0.000	Y_WP:	0.000	Y_WP:	0.750	X:	0.062	Y:	1.122	Z:	0.816	yaw:	-90.919	yaw rate:	-86.293	Roll:	-30.000	Pitch:	15.010	Yaw:	-119.029	Thrust:	0.000
Time:	1.712	Roll Set Point:	1.060	Pitch Set Point:	-1.073	Yaw Set Point:	1.667	X_WP:	0.000	Y_WP:	0.000	Y_WP:	0.750	X:	0.061	Y:	1.120	Z:	0.816	yaw:	-95.529	yaw rate:	461.024	Roll:	-30.000	Pitch:	-30.000	Yaw:	-194.673	Thrust:	0.000
Time:	1.732	Roll Set Point:	1.062	Pitch Set Point:	-1.080	Yaw Set Point:	1.661	X_WP:	0.000	Y_WP:	0.000	Y_WP:	0.750	X:	0.060	Y:	1.121	Z:	0.815	yaw:	-95.155	yaw rate:	-37.406	Roll:	-30.000	Pitch:	4.516	Yaw:	-131.759	Thrust:	0.000
Time:	1.752	Roll Set Point:	1.064	Pitch Set Point:	-1.081	Yaw Set Point:	1.658	X_WP:	0.000	Y_WP:	0.000	Y_WP:	0.750	X:	0.058	Y:	1.121	Z:	0.815	yaw:	-95.016	yaw rate:	-13.975	Roll:	-30.000	Pitch:	0.392	Yaw:	-134.908	Thrust:	0.000
Time:	1.771	Roll Set Point:	1.066	Pitch Set Point:	-1.086	Yaw Set Point:	1.654	X_WP:	0.000	Y_WP:	0.000	Y_WP:	0.750	X:	0.057	Y:	1.122	Z:	0.815	yaw:	-94.761	yaw rate:	-25.423	Roll:	-30.000	Pitch:	2.608	Yaw:	-132.665	Thrust:	0.000
Time:	1.790	Roll Set Point:	1.068	Pitch Set Point:	-1.087	Yaw Set Point:	1.652	X_WP:	0.000	Y_WP:	0.000	Y_WP:	0.750	X:	0.055	Y:	1.123	Z:	0.814	yaw:	-94.662	yaw rate:	-9.971	Roll:	-30.000	Pitch:	-0.001	Yaw:	-134.654	Thrust:	0.000
Time:	1.810	Roll Set Point:	1.070	Pitch Set Point:	-1.091	Yaw Set Point:	1.647	X_WP:	0.000	Y_WP:	0.000	Y_WP:	0.750	X:	0.054	Y:	1.123	Z:	0.814	yaw:	-94.359	yaw rate:	-30.245	Roll:	-30.000	Pitch:	3.482	Yaw:	-131.855	Thrust:	0.000
Time:	1.831	Roll Set Point:	1.071	Pitch Set Point:	-1.095	Yaw Set Point:	1.643	X_WP:	0.000	Y_WP:	0.000	Y_WP:	0.750	X:	0.052	Y:	1.123	Z:	0.814	yaw:	-94.118	yaw rate:	-24.101	Roll:	-30.000	Pitch:	2.301	Yaw:	-132.431	Thrust:	0.000
Time:	1.851	Roll Set Point:	1.073	Pitch Set Point:	-1.092	Yaw Set Point:	1.644	X_WP:	0.000	Y_WP:	0.000	Y_WP:	0.750	X:	0.051	Y:	1.123	Z:	0.814	yaw:	-94.166	yaw rate:	4.773	Roll:	-30.000	Pitch:	-2.673	Yaw:	-136.064	Thrust:	0.000
Time:	1.871	Roll Set Point:	1.074	Pitch Set Point:	-1.089	Yaw Set Point:	1.644	X_WP:	0.000	Y_WP:	0.000	Y_WP:	0.750	X:	0.049	Y:	1.123	Z:	0.814	yaw:	-94.185	yaw rate:	1.938	Roll:	-30.000	Pitch:	-2.273	Yaw:	-135.769	Thrust:	0.000
Time:	1.891	Roll Set Point:	1.076	Pitch Set Point:	-1.093	Yaw Set Point:	1.639	X_WP:	0.000	Y_WP:	0.000	Y_WP:	0.750	X:	0.047	Y:	1.122	Z:	0.813	yaw:	-93.906	yaw rate:	-27.965	Roll:	-30.000	Pitch:	2.776	Yaw:	-131.452	Thrust:	0.000
Time:	1.910	Roll Set Point:	1.077	Pitch Set Point:	-1.096	Yaw Set Point:	1.634	X_WP:	0.000	Y_WP:	0.000	Y_WP:	0.750	X:	0.045	Y:	1.122	Z:	0.813	yaw:	-93.601	yaw rate:	-30.422	Roll:	-30.000	Pitch:	3.445	Yaw:	-130.675	Thrust:	0.000
Time:	1.932	Roll Set Point:	1.078	Pitch Set Point:	-1.099	Yaw Set Point:	1.630	X_WP:	0.000	Y_WP:	0.000	Y_WP:	0.750	X:	0.044	Y:	1.121	Z:	0.813	yaw:	-93.366	yaw rate:	-23.563	Roll:	-30.000	Pitch:	2.465	Yaw:	-131.736	Thrust:	0.000
Time:	1.951	Roll Set Point:	1.077	Pitch Set Point:	-1.077	Yaw Set Point:	1.647	X_WP:	0.000	Y_WP:	0.000	Y_WP:	0.750	X:	0.042	Y:	1.120	Z:	0.813	yaw:	-94.363	yaw rate:	99.725	Roll:	-30.000	Pitch:	-19.686	Yaw:	-149.808	Thrust:	0.000
Time:	1.970	Roll Set Point:	1.080	Pitch Set Point:	-1.098	Yaw Set Point:	1.626	X_WP:	0.000	Y_WP:	0.000	Y_WP:	0.750	X:	0.040	Y:	1.120	Z:	0.812	yaw:	-93.163	yaw rate:	-119.993	Roll:	-30.000	Pitch:	17.780	Yaw:	-118.890	Thrust:	0.000
Time:	1.990	Roll Set Point:	1.081	Pitch Set Point:	-1.095	Yaw Set Point:	1.627	X_WP:	0.000	Y_WP:	0.000	Y_WP:	0.750	X:	0.039	Y:	1.119	Z:	0.812	yaw:	-93.212	yaw rate:	4.919	Roll:	-30.000	Pitch:	-2.182	Yaw:	-134.734	Thrust:	0.000
Time:	2.011	Roll Set Point:	1.082	Pitch Set Point:	-1.228	Yaw Set Point:	1.509	X_WP:	0.000	Y_WP:	0.000	Y_WP:	0.750	X:	0.036	Y:	1.122	Z:	0.810	yaw:	-86.438	yaw rate:	-677.451	Roll:	-30.000	Pitch:	30.000	Yaw:	-38.406	Thrust:	0.000
Time:	2.032	Roll Set Point:	1.077	Pitch Set Point:	-1.279	Yaw Set Point:	1.461	X_WP:	0.000	Y_WP:	0.000	Y_WP:	0.750	X:	0.035	Y:	1.122	Z:	0.810	yaw:	-83.725	yaw rate:	-271.267	Roll:	-27.750	Pitch:	30.000	Yaw:	-88.782	Thrust:	0.000
Time:	2.050	Roll Set Point:	1.081	Pitch Set Point:	-1.082	Yaw Set Point:	1.634	X_WP:	0.000	Y_WP:	0.000	Y_WP:	0.750	X:	0.036	Y:	1.117	Z:	0.810	yaw:	-93.635	yaw rate:	990.971	Roll:	-30.000	Pitch:	-30.000	Yaw:	-281.811	Thrust:	0.000
Time:	2.071	Roll Set Point:	1.082	Pitch Set Point:	-1.105	Yaw Set Point:	1.613	X_WP:	0.000	Y_WP:	0.000	Y_WP:	0.750	X:	0.035	Y:	1.116	Z:	0.809	yaw:	-92.404	yaw rate:	-123.037	Roll:	-30.000	Pitch:	18.871	Yaw:	-117.972	Thrust:	0.000
Time:	2.090	Roll Set Point:	1.082	Pitch Set Point:	-1.108	Yaw Set Point:	1.608	X_WP:	0.000	Y_WP:	0.000	Y_WP:	0.750	X:	0.034	Y:	1.116	Z:	0.808	yaw:	-92.128	yaw rate:	-27.642	Roll:	-30.000	Pitch:	4.068	Yaw:	-128.755	Thrust:	0.000
Time:	2.111	Roll Set Point:	1.082	Pitch Set Point:	-1.093	Yaw Set Point:	1.620	X_WP:	0.000	Y_WP:	0.000	Y_WP:	0.750	X:	0.033	Y:	1.115	Z:	0.809	yaw:	-92.796	yaw rate:	66.846	Roll:	-30.000	Pitch:	-11.862	Yaw:	-142.174	Thrust:	0.000
Time:	2.132	Roll Set Point:	1.082	Pitch Set Point:	-1.104	Yaw Set Point:	1.608	X_WP:	0.000	Y_WP:	0.000	Y_WP:	0.750	X:	0.032	Y:	1.114	Z:	0.807	yaw:	-92.145	yaw rate:	-65.192	Roll:	-30.000	Pitch:	9.566	Yaw:	-124.340	Thrust:	0.000
Time:	2.151	Roll Set Point:	1.082	Pitch Set Point:	-1.107	Yaw Set Point:	1.603	X_WP:	0.000	Y_WP:	0.000	Y_WP:	0.750	X:	0.031	Y:	1.113	Z:	0.807	yaw:	-91.862	yaw rate:	-28.224	Roll:	-30.000	Pitch:	4.339	Yaw:	-128.478	Thrust:	0.000
Time:	2.171	Roll Set Point:	1.082	Pitch Set Point:	-1.108	Yaw Set Point:	1.600	X_WP:	0.000	Y_WP:	0.000	Y_WP:	0.750	X:	0.030	Y:	1.111	Z:	0.806	yaw:	-91.700	yaw rate:	-16.209	Roll:	-30.000	Pitch:	2.587	Yaw:	-129.949	Thrust:	0.000
Time:	2.191	Roll Set Point:	1.080	Pitch Set Point:	-1.091	Yaw Set Point:	1.614	X_WP:	0.000	Y_WP:	0.000	Y_WP:	0.750	X:	0.030	Y:	1.110	Z:	0.805	yaw:	-92.495	yaw rate:	79.443	Roll:	-30.000	Pitch:	-13.916	Yaw:	-144.000	Thrust:	0.000
Time:	2.210	Roll Set Point:	1.079	Pitch Set Point:	-1.078	Yaw Set Point:	1.625	X_WP:	0.000	Y_WP:	0.000	Y_WP:	0.750	X:	0.030	Y:	1.108	Z:	0.805	yaw:	-93.082	yaw rate:	58.745	Roll:	-30.000	Pitch:	-10.128	Yaw:	-141.582	Thrust:	0.000
Time:	2.232	Roll Set Point:	1.080	Pitch Set Point:	-1.093	Yaw Set Point:	1.611	X_WP:	0.000	Y_WP:	0.000	Y_WP:	0.750	X:	0.029	Y:	1.108	Z:	0.804	yaw:	-92.289	yaw rate:	-79.326	Roll:	-30.000	Pitch:	11.896	Yaw:	-123.835	Thrust:	0.000
Time:	2.251	Roll Set Point:	1.079	Pitch Set Point:	-1.088	Yaw Set Point:	1.614	X_WP:	0.000	Y_WP:	0.000	Y_WP:	0.750	X:	0.029	Y:	1.108	Z:	0.804	yaw:	-92.495	yaw rate:	20.601	Roll:	-30.000	Pitch:	-4.161	Yaw:	-135.749	Thrust:	0.000
Time:	2.271	Roll Set Point:	1.079	Pitch Set Point:	-1.092	Yaw Set Point:	1.611	X_WP:	0.000	Y_WP:	0.000	Y_WP:	0.750	X:	0.029	Y:	1.107	Z:	0.803	yaw:	-92.285	yaw rate:	-20.979	Roll:	-30.000	Pitch:	3.552	Yaw:	-130.127	Thrust:	0.000
Time:	2.290	Roll Set Point:	1.079	Pitch Set Point:	-1.102	Yaw Set Point:	1.601	X_WP:	0.000	Y_WP:	0.000	Y_WP:	0.750	X:	0.028	Y:	1.107	Z:	0.802	yaw:	-91.721	yaw rate:	-56.407	Roll:	-30.000	Pitch:	9.398	Yaw:	-124.507	Thrust:	0.000
Time:	2.311	Roll Set Point:	1.080	Pitch Set Point:	-1.120	Yaw Set Point:	1.584	X_WP:	0.000	Y_WP:	0.000	Y_WP:	0.750	X:	0.028	Y:	1.107	Z:	0.803	yaw:	-90.775	yaw rate:	-94.567	Roll:	-30.000	Pitch:	15.818	Yaw:	-118.422	Thrust:	0.000
Time:	2.333	Roll Set Point:	1.080	Pitch Set Point:	-1.172	Yaw Set Point:	1.538	X_WP:	0.000	Y_WP:	0.000	Y_WP:	0.750	X:	0.027	Y:	1.108	Z:	0.804	yaw:	-88.094	yaw rate:	-268.175	Roll:	-30.000	Pitch:	30.000	Yaw:	-96.816	Thrust:	0.000
Time:	2.351	Roll Set Point:	1.080	Pitch Set Point:	-1.173	Yaw Set Point:	1.536	X_WP:	0.000	Y_WP:	0.000	Y_WP:	0.750	X:	0.027	Y:	1.108	Z:	0.804	yaw:	-88.003	yaw rate:	-9.081	Roll:	-30.000	Pitch:	3.688	Yaw:	-124.757	Thrust:	0.000
Time:	2.370	Roll Set Point:	1.080	Pitch Set Point:	-1.179	Yaw Set Point:	1.530	X_WP:	0.000	Y_WP:	0.000	Y_WP:	0.750	X:	0.026	Y:	1.108	Z:	0.804	yaw:	-87.664	yaw rate:	-33.837	Roll:	-30.000	Pitch:	7.943	Yaw:	-122.132	Thrust:	0.000
Time:	2.396	Roll Set Point:	1.080	Pitch Set Point:	-1.177	Yaw Set Point:	1.532	X_WP:	0.000	Y_WP:	0.000	Y_WP:	0.750	X:	0.026	Y:	1.108	Z:	0.804	yaw:	-87.759	yaw rate:	9.499	Roll:	-30.000	Pitch:	1.287	Yaw:	-128.582	Thrust:	0.000
Time:	2.411	Roll Set Point:	1.081	Pitch Set Point:	-1.176	Yaw Set Point:	1.533	X_WP:	0.000	Y_WP:	0.000	Y_WP:	0.750	X:	0.026	Y:	1.108	Z:	0.804	yaw:	-87.825	yaw rate:	6.518	Roll:	-30.000	Pitch:	0.469	Yaw:	-126.807	Thrust:	0.000
Time:	2.431	Roll Set Point:	1.081	Pitch Set Point:	-1.176	Yaw Set Point:	1.532	X_WP:	0.000	Y_WP:	0.000	Y_WP:	0.750	X:	0.025	Y:	1.108	Z:	0.804	yaw:	-87.771	yaw rate:	-5.343	Roll:	-30.000	Pitch:	3.044	Yaw:	-125.958	Thrust:	0.000
Time:	2.450	Roll Set Point:	1.083	Pitch Set Point:	-1.155	Yaw Set Point:	1.551	X_WP:	0.000	Y_WP:	0.000	Y_WP:	0.750	X:	0.024	Y:	1.108	Z:	0.804	yaw:	-88.848	yaw rate:	107.694	Roll:	-30.000	Pitch:	-17.513	Yaw:	-142.973	Thrust:	0.000
Time:	2.471	Roll Set Point:	1.082	Pitch Set Point:	-1.172	Yaw Set Point:	1.534	X_WP:	0.000	Y_WP:	0.000	Y_WP:	0.750	X:	0.024	Y:	1.108	Z:	0.804	yaw:	-87.895	yaw rate:	-95.288	Roll:	-30.000	Pitch:	17.595	Yaw:	-115.091	Thrust:	0.000
Time:	2.491	Roll Set Point:	1.083	Pitch Set Point:	-1.175	Yaw Set Point:	1.532	X_WP:	0.000	Y_WP:	0.000	Y_WP:	0.750	X:	0.023	Y:	1.108	Z:	0.804	yaw:	-87.756	yaw rate:	-13.893	Roll:	-30.000	Pitch:	4.154	Yaw:	-124.583	Thrust:	0.000
Time:	2.511	Roll Set Point:	1.082	Pitch Set Point:	-1.084	Yaw Set Point:	1.612	X_WP:	0.000	Y_WP:	0.000	Y_WP:	0.750	X:	0.024	Y:	1.106	Z:	0.801	yaw:	-92.345	yaw rate:	458.853	Roll:	-30.000	Pitch:	-30.000	Yaw:	-192.212	Thrust:	2.493
Time:	2.534	Roll Set Point:	1.084	Pitch Set Point:	-1.095	Yaw Set Point:	1.601	X_WP:	0.000	Y_WP:	0.000	Y_WP:	0.750	X:	0.023	Y:	1.106	Z:	0.802	yaw:	-91.725	yaw rate:	-61.983	Roll:	-30.000	Pitch:	8.769	Yaw:	-125.526	Thrust:	0.000
Time:	2.551	Roll Set Point:	1.085	Pitch Set Point:	-1.176	Yaw Set Point:	1.528	X_WP:	0.000	Y_WP:	0.000	Y_WP:	0.750	X:	0.021	Y:	1.108	Z:	0.805	yaw:	-87.543	yaw rate:	-418.179	Roll:	-30.000	Pitch:	30.000	Yaw:	-62.945	Thrust:	0.000
Time:	2.571	Roll Set Point:	1.087	Pitch Set Point:	-1.176	Yaw Set Point:	1.527	X_WP:	0.000	Y_WP:	0.000	Y_WP:	0.750	X:	0.020	Y:	1.108	Z:	0.805	yaw:	-87.495	yaw rate:	-4.835	Roll:	-30.000	Pitch:	2.281	Yaw:	-125.539	Thrust:	0.000
Time:	2.591	Roll Set Point:	1.087	Pitch Set Point:	-1.178	Yaw Set Point:	1.524	X_WP:	0.000	Y_WP:	0.000	Y_WP:	0.750	X:	0.019	Y:	1.108	Z:	0.805	yaw:	-87.341	yaw rate:	-15.390	Roll:	-30.000	Pitch:	4.385	Yaw:	-123.980	Thrust:	0.000
Time:	2.611	Roll Set Point:	1.088	Pitch Set Point:	-1.183	Yaw Set Point:	1.519	X_WP:	0.000	Y_WP:	0.000	Y_WP:	0.750	X:	0.018	Y:	1.108	Z:	0.805	yaw:	-87.051	yaw rate:	-29.017	Roll:	-30.000	Pitch:	6.671	Yaw:	-121.337	Thrust:	0.000
Time:	2.632	Roll Set Point:	1.089	Pitch Set Point:	-1.181	Yaw Set Point:	1.520	X_WP:	0.000	Y_WP:	0.000	Y_WP:	0.750	X:	0.017	Y:	1.108	Z:	0.805	yaw:	-87.104	yaw rate:	5.306	Roll:	-30.000	Pitch:	0.935	Yaw:	-126.631	Thrust:	0.000
Time:	2.650	Roll Set Point:	1.091	Pitch Set Point:	-1.178	Yaw Set Point:	1.522	X_WP:	0.000	Y_WP:	0.000	Y_WP:	0.750	X:	0.015	Y:	1.108	Z:	0.806	yaw:	-87.195	yaw rate:	9.142	Roll:	-30.000	Pitch:	-0.087	Yaw:	-126.725	Thrust:	0.000
Time:	2.671	Roll Set Point:	1.092	Pitch Set Point:	-1.181	Yaw Set Point:	1.518	X_WP:	0.000	Y_WP:	0.000	Y_WP:	0.750	X:	0.014	Y:	1.108	Z:	0.806	yaw:	-86.990	yaw rate:	-20.542	Roll:	-30.000	Pitch:	5.119	Yaw:	-122.816	Thrust:	0.000
Time:	2.691	Roll Set Point:	1.093	Pitch Set Point:	-1.181	Yaw Set Point:	1.517	X_WP:	0.000	Y_WP:	0.000	Y_WP:	0.750	X:	0.013	Y:	1.108	Z:	0.806	yaw:	-86.923	yaw rate:	-6.701	Roll:	-30.000	Pitch:	2.544	Yaw:	-124.491	Thrust:	0.000
Time:	2.711	Roll Set Point:	1.095	Pitch Set Point:	-1.179	Yaw Set Point:	1.517	X_WP:	0.000	Y_WP:	0.000	Y_WP:	0.750	X:	0.011	Y:	1.109	Z:	0.806	yaw:	-86.927	yaw rate:	0.450	Roll:	-30.000	Pitch:	1.473	Yaw:	-125.417	Thrust:	0.000
Time:	2.734	Roll Set Point:	1.097	Pitch Set Point:	-1.182	Yaw Set Point:	1.514	X_WP:	0.000	Y_WP:	0.000	Y_WP:	0.750	X:	0.010	Y:	1.109	Z:	0.807	yaw:	-86.733	yaw rate:	-19.393	Roll:	-30.000	Pitch:	4.507	Yaw:	-123.543	Thrust:	0.000
Time:	2.750	Roll Set Point:	1.098	Pitch Set Point:	-1.187	Yaw Set Point:	1.508	X_WP:	0.000	Y_WP:	0.000	Y_WP:	0.750	X:	0.008	Y:	1.109	Z:	0.807	yaw:	-86.411	yaw rate:	-32.238	Roll:	-30.000	Pitch:	7.463	Yaw:	-118.670	Thrust:	0.000
Time:	2.771	Roll Set Point:	1.101	Pitch Set Point:	-1.184	Yaw Set Point:	1.509	X_WP:	0.000	Y_WP:	0.000	Y_WP:	0.750	X:	0.007	Y:	1.110	Z:	0.807	yaw:	-86.481	yaw rate:	6.956	Roll:	-30.000	Pitch:	0.210	Yaw:	-125.773	Thrust:	0.000
Time:	2.791	Roll Set Point:	1.103	Pitch Set Point:	-1.184	Yaw Set Point:	1.508	X_WP:	0.000	Y_WP:	0.000	Y_WP:	0.750	X:	0.005	Y:	1.110	Z:	0.807	yaw:	-86.422	yaw rate:	-5.872	Roll:	-30.000	Pitch:	2.399	Yaw:	-123.949	Thrust:	0.000
Time:	2.811	Roll Set Point:	1.105	Pitch Set Point:	-1.186	Yaw Set Point:	1.506	X_WP:	0.000	Y_WP:	0.000	Y_WP:	0.750	X:	0.003	Y:	1.111	Z:	0.808	yaw:	-86.294	yaw rate:	-12.766	Roll:	-30.000	Pitch:	3.510	Yaw:	-122.794	Thrust:	0.000
Time:	2.832	Roll Set Point:	1.107	Pitch Set Point:	-1.186	Yaw Set Point:	1.505	X_WP:	0.000	Y_WP:	0.000	Y_WP:	0.750	X:	0.001	Y:	1.111	Z:	0.808	yaw:	-86.218	yaw rate:	-7.653	Roll:	-30.000	Pitch:	2.637	Yaw:	-123.814	Thrust:	0.000
Time:	2.850	Roll Set Point:	1.110	Pitch Set Point:	-1.182	Yaw Set Point:	1.508	X_WP:	0.000	Y_WP:	0.000	Y_WP:	0.750	X:	-0.000	Y:	1.112	Z:	0.808	yaw:	-86.382	yaw rate:	16.476	Roll:	-30.000	Pitch:	-1.981	Yaw:	-126.577	Thrust:	0.000
Time:	2.871	Roll Set Point:	1.113	Pitch Set Point:	-1.186	Yaw Set Point:	1.504	X_WP:	0.000	Y_WP:	0.000	Y_WP:	0.750	X:	-0.002	Y:	1.113	Z:	0.808	yaw:	-86.147	yaw rate:	-23.529	Roll:	-30.000	Pitch:	5.098	Yaw:	-121.389	Thrust:	0.000
Time:	2.890	Roll Set Point:	1.116	Pitch Set Point:	-1.183	Yaw Set Point:	1.504	X_WP:	0.000	Y_WP:	0.000	Y_WP:	0.750	X:	-0.004	Y:	1.113	Z:	0.809	yaw:	-86.191	yaw rate:	4.411	Roll:	-30.000	Pitch:	0.146	Yaw:	-124.907	Thrust:	0.000
Time:	2.911	Roll Set Point:	1.118	Pitch Set Point:	-1.184	Yaw Set Point:	1.503	X_WP:	0.000	Y_WP:	0.000	Y_WP:	0.750	X:	-0.006	Y:	1.114	Z:	0.809	yaw:	-86.097	yaw rate:	-9.423	Roll:	-30.000	Pitch:	2.717	Yaw:	-123.060	Thrust:	0.000
Time:	2.931	Roll Set Point:	1.121	Pitch Set Point:	-1.185	Yaw Set Point:	1.500	X_WP:	0.000	Y_WP:	0.000	Y_WP:	0.750	X:	-0.008	Y:	1.115	Z:	0.809	yaw:	-85.961	yaw rate:	-13.642	Roll:	-30.000	Pitch:	3.425	Yaw:	-122.029	Thrust:	0.000
Time:	2.951	Roll Set Point:	1.123	Pitch Set Point:	-1.197	Yaw Set Point:	1.489	X_WP:	0.000	Y_WP:	0.000	Y_WP:	0.750	X:	-0.010	Y:	1.116	Z:	0.809	yaw:	-85.322	yaw rate:	-63.862	Roll:	-30.000	Pitch:	11.738	Yaw:	-115.296	Thrust:	0.000
Time:	2.971	Roll Set Point:	1.125	Pitch Set Point:	-1.191	Yaw Set Point:	1.493	X_WP:	0.000	Y_WP:	0.000	Y_WP:	0.750	X:	-0.012	Y:	1.116	Z:	0.809	yaw:	-85.560	yaw rate:	23.824	Roll:	-30.000	Pitch:	-2.635	Yaw:	-126.585	Thrust:	0.000
Time:	2.991	Roll Set Point:	1.128	Pitch Set Point:	-1.193	Yaw Set Point:	1.490	X_WP:	0.000	Y_WP:	0.000	Y_WP:	0.750	X:	-0.013	Y:	1.117	Z:	0.809	yaw:	-85.395	yaw rate:	-16.484	Roll:	-30.000	Pitch:	4.076	Yaw:	-121.194	Thrust:	0.000
Time:	3.012	Roll Set Point:	1.131	Pitch Set Point:	-1.192	Yaw Set Point:	1.491	X_WP:	0.000	Y_WP:	0.000	Y_WP:	0.750	X:	-0.015	Y:	1.118	Z:	0.809	yaw:	-85.412	yaw rate:	1.678	Roll:	-30.000	Pitch:	0.879	Yaw:	-123.453	Thrust:	0.000
Time:	3.032	Roll Set Point:	1.134	Pitch Set Point:	-1.188	Yaw Set Point:	1.493	X_WP:	0.000	Y_WP:	0.000	Y_WP:	0.750	X:	-0.017	Y:	1.119	Z:	0.809	yaw:	-85.533	yaw rate:	12.085	Roll:	-30.000	Pitch:	-0.851	Yaw:	-125.095	Thrust:	0.000
Time:	3.051	Roll Set Point:	1.137	Pitch Set Point:	-1.188	Yaw Set Point:	1.492	X_WP:	0.000	Y_WP:	0.000	Y_WP:	0.750	X:	-0.019	Y:	1.119	Z:	0.809	yaw:	-85.482	yaw rate:	-5.097	Roll:	-30.000	Pitch:	1.744	Yaw:	-122.504	Thrust:	0.000
Time:	3.071	Roll Set Point:	1.139	Pitch Set Point:	-1.191	Yaw Set Point:	1.488	X_WP:	0.000	Y_WP:	0.000	Y_WP:	0.750	X:	-0.022	Y:	1.120	Z:	0.809	yaw:	-85.248	yaw rate:	-23.401	Roll:	-30.000	Pitch:	4.894	Yaw:	-120.002	Thrust:	0.000
Time:	3.091	Roll Set Point:	1.142	Pitch Set Point:	-1.194	Yaw Set Point:	1.484	X_WP:	0.000	Y_WP:	0.000	Y_WP:	0.750	X:	-0.024	Y:	1.120	Z:	0.809	yaw:	-85.035	yaw rate:	-21.302	Roll:	-30.000	Pitch:	4.530	Yaw:	-120.021	Thrust:	0.000
Time:	3.113	Roll Set Point:	1.145	Pitch Set Point:	-1.191	Yaw Set Point:	1.485	X_WP:	0.000	Y_WP:	0.000	Y_WP:	0.750	X:	-0.026	Y:	1.121	Z:	0.809	yaw:	-85.056	yaw rate:	2.100	Roll:	-30.000	Pitch:	0.571	Yaw:	-123.045	Thrust:	0.000
Time:	3.132	Roll Set Point:	1.148	Pitch Set Point:	-1.192	Yaw Set Point:	1.483	X_WP:	0.000	Y_WP:	0.000	Y_WP:	0.750	X:	-0.029	Y:	1.121	Z:	0.809	yaw:	-84.943	yaw rate:	-11.332	Roll:	-30.000	Pitch:	2.547	Yaw:	-121.087	Thrust:	0.000
Time:	3.151	Roll Set Point:	1.151	Pitch Set Point:	-1.195	Yaw Set Point:	1.478	X_WP:	0.000	Y_WP:	0.000	Y_WP:	0.750	X:	-0.031	Y:	1.122	Z:	0.809	yaw:	-84.667	yaw rate:	-27.593	Roll:	-30.000	Pitch:	5.369	Yaw:	-118.536	Thrust:	0.000
Time:	3.172	Roll Set Point:	1.154	Pitch Set Point:	-1.193	Yaw Set Point:	1.478	X_WP:	0.000	Y_WP:	0.000	Y_WP:	0.750	X:	-0.034	Y:	1.122	Z:	0.809	yaw:	-84.683	yaw rate:	1.614	Roll:	-30.000	Pitch:	0.149	Yaw:	-122.515	Thrust:	0.000
Time:	3.191	Roll Set Point:	1.157	Pitch Set Point:	-1.192	Yaw Set Point:	1.476	X_WP:	0.000	Y_WP:	0.000	Y_WP:	0.750	X:	-0.036	Y:	1.122	Z:	0.809	yaw:	-84.579	yaw rate:	-10.344	Roll:	-30.000	Pitch:	2.232	Yaw:	-120.663	Thrust:	0.000
Time:	3.214	Roll Set Point:	1.160	Pitch Set Point:	-1.196	Yaw Set Point:	1.471	X_WP:	0.000	Y_WP:	0.000	Y_WP:	0.750	X:	-0.039	Y:	1.123	Z:	0.809	yaw:	-84.281	yaw rate:	-29.811	Roll:	-30.000	Pitch:	5.384	Yaw:	-118.783	Thrust:	0.000
Time:	3.235	Roll Set Point:	1.163	Pitch Set Point:	-1.195	Yaw Set Point:	1.469	X_WP:	0.000	Y_WP:	0.000	Y_WP:	0.750	X:	-0.042	Y:	1.123	Z:	0.810	yaw:	-84.169	yaw rate:	-11.230	Roll:	-30.000	Pitch:	2.342	Yaw:	-120.187	Thrust:	0.000
Time:	3.254	Roll Set Point:	1.166	Pitch Set Point:	-1.201	Yaw Set Point:	1.462	X_WP:	0.000	Y_WP:	0.000	Y_WP:	0.750	X:	-0.044	Y:	1.123	Z:	0.810	yaw:	-83.752	yaw rate:	-41.738	Roll:	-30.000	Pitch:	7.571	Yaw:	-115.504	Thrust:	0.000
Time:	3.273	Roll Set Point:	1.169	Pitch Set Point:	-1.197	Yaw Set Point:	1.463	X_WP:	0.000	Y_WP:	0.000	Y_WP:	0.750	X:	-0.047	Y:	1.123	Z:	0.810	yaw:	-83.811	yaw rate:	5.970	Roll:	-30.000	Pitch:	-0.509	Yaw:	-121.606	Thrust:	0.000
Time:	3.294	Roll Set Point:	1.172	Pitch Set Point:	-1.198	Yaw Set Point:	1.460	X_WP:	0.000	Y_WP:	0.000	Y_WP:	0.750	X:	-0.050	Y:	1.123	Z:	0.810	yaw:	-83.650	yaw rate:	-16.128	Roll:	-30.000	Pitch:	3.389	Yaw:	-118.465	Thrust:	0.000
Time:	3.320	Roll Set Point:	1.174	Pitch Set Point:	-1.202	Yaw Set Point:	1.454	X_WP:	0.000	Y_WP:	0.000	Y_WP:	0.750	X:	-0.052	Y:	1.124	Z:	0.810	yaw:	-83.328	yaw rate:	-32.161	Roll:	-30.000	Pitch:	6.287	Yaw:	-118.338	Thrust:	0.000
Time:	3.332	Roll Set Point:	1.176	Pitch Set Point:	-1.209	Yaw Set Point:	1.446	X_WP:	0.000	Y_WP:	0.000	Y_WP:	0.750	X:	-0.054	Y:	1.124	Z:	0.810	yaw:	-82.865	yaw rate:	-46.335	Roll:	-30.000	Pitch:	9.243	Yaw:	-108.659	Thrust:	0.000
Time:	3.352	Roll Set Point:	1.179	Pitch Set Point:	-1.209	Yaw Set Point:	1.444	X_WP:	0.000	Y_WP:	0.000	Y_WP:	0.750	X:	-0.057	Y:	1.124	Z:	0.810	yaw:	-82.756	yaw rate:	-10.926	Roll:	-30.000	Pitch:	3.026	Yaw:	-118.061	Thrust:	0.000
Time:	3.372	Roll Set Point:	1.182	Pitch Set Point:	-1.210	Yaw Set Point:	1.442	X_WP:	0.000	Y_WP:	0.000	Y_WP:	0.750	X:	-0.059	Y:	1.124	Z:	0.810	yaw:	-82.643	yaw rate:	-11.288	Roll:	-30.000	Pitch:	3.214	Yaw:	-117.928	Thrust:	0.000
Time:	3.392	Roll Set Point:	1.184	Pitch Set Point:	-1.215	Yaw Set Point:	1.436	X_WP:	0.000	Y_WP:	0.000	Y_WP:	0.750	X:	-0.061	Y:	1.125	Z:	0.810	yaw:	-82.296	yaw rate:	-34.671	Roll:	-30.000	Pitch:	7.406	Yaw:	-114.552	Thrust:	0.000
Time:	3.411	Roll Set Point:	1.187	Pitch Set Point:	-1.216	Yaw Set Point:	1.434	X_WP:	0.000	Y_WP:	0.000	Y_WP:	0.750	X:	-0.063	Y:	1.125	Z:	0.811	yaw:	-82.142	yaw rate:	-15.408	Roll:	-30.000	Pitch:	4.107	Yaw:	-116.582	Thrust:	0.000
Time:	3.432	Roll Set Point:	1.190	Pitch Set Point:	-1.212	Yaw Set Point:	1.435	X_WP:	0.000	Y_WP:	0.000	Y_WP:	0.750	X:	-0.066	Y:	1.125	Z:	0.811	yaw:	-82.236	yaw rate:	9.379	Roll:	-30.000	Pitch:	-0.157	Yaw:	-120.146	Thrust:	0.000
Time:	3.452	Roll Set Point:	1.193	Pitch Set Point:	-1.210	Yaw Set Point:	1.435	X_WP:	0.000	Y_WP:	0.000	Y_WP:	0.750	X:	-0.068	Y:	1.126	Z:	0.811	yaw:	-82.236	yaw rate:	0.023	Roll:	-30.000	Pitch:	1.095	Yaw:	-118.622	Thrust:	0.000
Time:	3.471	Roll Set Point:	1.196	Pitch Set Point:	-1.208	Yaw Set Point:	1.435	X_WP:	0.000	Y_WP:	0.000	Y_WP:	0.750	X:	-0.071	Y:	1.126	Z:	0.812	yaw:	-82.201	yaw rate:	-3.548	Roll:	-30.000	Pitch:	1.629	Yaw:	-118.441	Thrust:	0.000
Time:	3.491	Roll Set Point:	1.199	Pitch Set Point:	-1.210	Yaw Set Point:	1.432	X_WP:	0.000	Y_WP:	0.000	Y_WP:	0.750	X:	-0.073	Y:	1.126	Z:	0.812	yaw:	-82.023	yaw rate:	-17.753	Roll:	-30.000	Pitch:	4.009	Yaw:	-116.089	Thrust:	0.000
Time:	3.511	Roll Set Point:	1.201	Pitch Set Point:	-1.215	Yaw Set Point:	1.425	X_WP:	0.000	Y_WP:	0.000	Y_WP:	0.750	X:	-0.076	Y:	1.126	Z:	0.812	yaw:	-81.664	yaw rate:	-35.869	Roll:	-30.000	Pitch:	7.512	Yaw:	-113.352	Thrust:	0.000
Time:	3.532	Roll Set Point:	1.204	Pitch Set Point:	-1.214	Yaw Set Point:	1.424	X_WP:	0.000	Y_WP:	0.000	Y_WP:	0.750	X:	-0.078	Y:	1.126	Z:	0.813	yaw:	-81.581	yaw rate:	-8.314	Roll:	-30.000	Pitch:	2.601	Yaw:	-116.899	Thrust:	0.000
Time:	3.555	Roll Set Point:	1.207	Pitch Set Point:	-1.217	Yaw Set Point:	1.419	X_WP:	0.000	Y_WP:	0.000	Y_WP:	0.750	X:	-0.081	Y:	1.126	Z:	0.813	yaw:	-81.314	yaw rate:	-26.726	Roll:	-30.000	Pitch:	5.565	Yaw:	-115.167	Thrust:	0.000
Time:	3.571	Roll Set Point:	1.209	Pitch Set Point:	-1.220	Yaw Set Point:	1.414	X_WP:	0.000	Y_WP:	0.000	Y_WP:	0.750	X:	-0.083	Y:	1.126	Z:	0.814	yaw:	-81.007	yaw rate:	-30.731	Roll:	-30.000	Pitch:	6.925	Yaw:	-111.496	Thrust:	0.000
Time:	3.591	Roll Set Point:	1.211	Pitch Set Point:	-1.220	Yaw Set Point:	1.411	X_WP:	0.000	Y_WP:	0.000	Y_WP:	0.750	X:	-0.086	Y:	1.126	Z:	0.815	yaw:	-80.856	yaw rate:	-15.076	Roll:	-30.000	Pitch:	3.832	Yaw:	-115.008	Thrust:	0.000
Time:	3.612	Roll Set Point:	1.213	Pitch Set Point:	-1.229	Yaw Set Point:	1.401	X_WP:	0.000	Y_WP:	0.000	Y_WP:	0.750	X:	-0.088	Y:	1.126	Z:	0.815	yaw:	-80.264	yaw rate:	-59.160	Roll:	-30.000	Pitch:	11.691	Yaw:	-108.453	Thrust:	0.000
Time:	3.632	Roll Set Point:	1.218	Pitch Set Point:	-1.203	Yaw Set Point:	1.422	X_WP:	0.000	Y_WP:	0.000	Y_WP:	0.750	X:	-0.091	Y:	1.126	Z:	0.816	yaw:	-81.454	yaw rate:	118.999	Roll:	-30.000	Pitch:	-19.396	Yaw:	-133.197	Thrust:	0.000
Time:	3.652	Roll Set Point:	1.217	Pitch Set Point:	-1.230	Yaw Set Point:	1.395	X_WP:	0.000	Y_WP:	0.000	Y_WP:	0.750	X:	-0.093	Y:	1.125	Z:	0.816	yaw:	-79.912	yaw rate:	-154.200	Roll:	-30.000	Pitch:	27.223	Yaw:	-95.577	Thrust:	0.000
Time:	3.672	Roll Set Point:	1.223	Pitch Set Point:	-1.205	Yaw Set Point:	1.415	X_WP:	0.000	Y_WP:	0.000	Y_WP:	0.750	X:	-0.096	Y:	1.125	Z:	0.817	yaw:	-81.071	yaw rate:	115.832	Roll:	-30.000	Pitch:	-19.784	Yaw:	-132.517	Thrust:	0.000
Time:	3.692	Roll Set Point:	1.225	Pitch Set Point:	-1.206	Yaw Set Point:	1.411	X_WP:	0.000	Y_WP:	0.000	Y_WP:	0.750	X:	-0.099	Y:	1.125	Z:	0.817	yaw:	-80.852	yaw rate:	-21.843	Roll:	-30.000	Pitch:	4.612	Yaw:	-113.954	Thrust:	0.000
Time:	3.712	Roll Set Point:	1.225	Pitch Set Point:	-1.224	Yaw Set Point:	1.393	X_WP:	0.000	Y_WP:	0.000	Y_WP:	0.750	X:	-0.101	Y:	1.124	Z:	0.817	yaw:	-79.788	yaw rate:	-106.410	Roll:	-30.000	Pitch:	19.427	Yaw:	-100.592	Thrust:	0.000
Time:	3.731	Roll Set Point:	1.229	Pitch Set Point:	-1.208	Yaw Set Point:	1.403	X_WP:	0.000	Y_WP:	0.000	Y_WP:	0.750	X:	-0.104	Y:	1.123	Z:	0.817	yaw:	-80.382	yaw rate:	59.388	Roll:	-30.000	Pitch:	-9.083	Yaw:	-123.904	Thrust:	0.000
Time:	3.751	Roll Set Point:	1.230	Pitch Set Point:	-1.227	Yaw Set Point:	1.383	X_WP:	0.000	Y_WP:	0.000	Y_WP:	0.750	X:	-0.107	Y:	1.123	Z:	0.818	yaw:	-79.268	yaw rate:	-111.414	Roll:	-30.000	Pitch:	21.162	Yaw:	-99.886	Thrust:	0.000
Time:	3.771	Roll Set Point:	1.235	Pitch Set Point:	-1.210	Yaw Set Point:	1.395	X_WP:	0.000	Y_WP:	0.000	Y_WP:	0.750	X:	-0.110	Y:	1.122	Z:	0.818	yaw:	-79.922	yaw rate:	65.408	Roll:	-30.000	Pitch:	-10.638	Yaw:	-124.150	Thrust:	0.000
Time:	3.791	Roll Set Point:	1.239	Pitch Set Point:	-1.193	Yaw Set Point:	1.406	X_WP:	0.000	Y_WP:	0.000	Y_WP:	0.750	X:	-0.114	Y:	1.122	Z:	0.818	yaw:	-80.559	yaw rate:	63.746	Roll:	-30.000	Pitch:	-10.557	Yaw:	-124.897	Thrust:	0.000
Time:	3.811	Roll Set Point:	1.240	Pitch Set Point:	-1.211	Yaw Set Point:	1.387	X_WP:	0.000	Y_WP:	0.000	Y_WP:	0.750	X:	-0.117	Y:	1.121	Z:	0.818	yaw:	-79.451	yaw rate:	-110.802	Roll:	-30.000	Pitch:	19.906	Yaw:	-100.533	Thrust:	0.000
Time:	3.832	Roll Set Point:	1.242	Pitch Set Point:	-1.209	Yaw Set Point:	1.384	X_WP:	0.000	Y_WP:	0.000	Y_WP:	0.750	X:	-0.120	Y:	1.120	Z:	0.818	yaw:	-79.309	yaw rate:	-14.252	Roll:	-30.000	Pitch:	2.838	Yaw:	-112.997	Thrust:	0.000
Time:	3.850	Roll Set Point:	1.245	Pitch Set Point:	-1.210	Yaw Set Point:	1.379	X_WP:	0.000	Y_WP:	0.000	Y_WP:	0.750	X:	-0.123	Y:	1.118	Z:	0.818	yaw:	-79.035	yaw rate:	-27.407	Roll:	-30.000	Pitch:	4.964	Yaw:	-110.494	Thrust:	0.000
Time:	3.872	Roll Set Point:	1.247	Pitch Set Point:	-1.206	Yaw Set Point:	1.379	X_WP:	0.000	Y_WP:	0.000	Y_WP:	0.750	X:	-0.127	Y:	1.117	Z:	0.818	yaw:	-78.987	yaw rate:	-4.777	Roll:	-30.000	Pitch:	1.092	Yaw:	-113.923	Thrust:	0.000
Time:	3.891	Roll Set Point:	1.250	Pitch Set Point:	-1.206	Yaw Set Point:	1.375	X_WP:	0.000	Y_WP:	0.000	Y_WP:	0.750	X:	-0.130	Y:	1.116	Z:	0.818	yaw:	-78.760	yaw rate:	-22.654	Roll:	-30.000	Pitch:	4.017	Yaw:	-110.642	Thrust:	0.000
Time:	3.911	Roll Set Point:	1.252	Pitch Set Point:	-1.210	Yaw Set Point:	1.366	X_WP:	0.000	Y_WP:	0.000	Y_WP:	0.750	X:	-0.134	Y:	1.114	Z:	0.818	yaw:	-78.277	yaw rate:	-48.318	Roll:	-30.000	Pitch:	8.043	Yaw:	-107.000	Thrust:	0.000
Time:	3.931	Roll Set Point:	1.255	Pitch Set Point:	-1.206	Yaw Set Point:	1.364	X_WP:	0.000	Y_WP:	0.000	Y_WP:	0.750	X:	-0.138	Y:	1.113	Z:	0.819	yaw:	-78.144	yaw rate:	-13.371	Roll:	-30.000	Pitch:	2.168	Yaw:	-111.574	Thrust:	0.000
Time:	3.952	Roll Set Point:	1.258	Pitch Set Point:	-1.203	Yaw Set Point:	1.362	X_WP:	0.000	Y_WP:	0.000	Y_WP:	0.750	X:	-0.142	Y:	1.111	Z:	0.819	yaw:	-78.027	yaw rate:	-11.643	Roll:	-30.000	Pitch:	1.604	Yaw:	-111.497	Thrust:	0.000
Time:	3.972	Roll Set Point:	1.261	Pitch Set Point:	-1.198	Yaw Set Point:	1.360	X_WP:	0.000	Y_WP:	0.000	Y_WP:	0.750	X:	-0.146	Y:	1.109	Z:	0.819	yaw:	-77.936	yaw rate:	-9.068	Roll:	-30.000	Pitch:	0.993	Yaw:	-111.525	Thrust:	0.000
Time:	3.991	Roll Set Point:	1.265	Pitch Set Point:	-1.193	Yaw Set Point:	1.360	X_WP:	0.000	Y_WP:	0.000	Y_WP:	0.750	X:	-0.151	Y:	1.108	Z:	0.820	yaw:	-77.900	yaw rate:	-3.604	Roll:	-30.000	Pitch:	-0.157	Yaw:	-112.230	Thrust:	0.000
Time:	4.011	Roll Set Point:	1.269	Pitch Set Point:	-1.188	Yaw Set Point:	1.357	X_WP:	0.000	Y_WP:	0.000	Y_WP:	0.750	X:	-0.155	Y:	1.106	Z:	0.820	yaw:	-77.768	yaw rate:	-13.241	Roll:	-30.000	Pitch:	1.194	Yaw:	-110.769	Thrust:	0.000
Time:	4.033	Roll Set Point:	1.272	Pitch Set Point:	-1.183	Yaw Set Point:	1.356	X_WP:	0.000	Y_WP:	0.000	Y_WP:	0.750	X:	-0.160	Y:	1.104	Z:	0.820	yaw:	-77.679	yaw rate:	-8.918	Roll:	-30.000	Pitch:	0.428	Yaw:	-111.518	Thrust:	0.000
Time:	4.051	Roll Set Point:	1.276	Pitch Set Point:	-1.179	Yaw Set Point:	1.354	X_WP:	0.000	Y_WP:	0.000	Y_WP:	0.750	X:	-0.164	Y:	1.102	Z:	0.820	yaw:	-77.551	yaw rate:	-12.829	Roll:	-30.000	Pitch:	0.599	Yaw:	-110.047	Thrust:	0.000
Time:	4.071	Roll Set Point:	1.279	Pitch Set Point:	-1.174	Yaw Set Point:	1.351	X_WP:	0.000	Y_WP:	0.000	Y_WP:	0.750	X:	-0.169	Y:	1.100	Z:	0.820	yaw:	-77.416	yaw rate:	-13.493	Roll:	-30.000	Pitch:	0.755	Yaw:	-110.679	Thrust:	0.000
Time:	4.091	Roll Set Point:	1.200	Pitch Set Point:	-1.571	Yaw Set Point:	0.972	X_WP:	0.000	Y_WP:	0.000	Y_WP:	0.750	X:	-0.185	Y:	1.103	Z:	0.806	yaw:	-55.717	yaw rate:	-2169.859	Roll:	30.000	Pitch:	30.000	Yaw:	200.230	Thrust:	25.912
Time:	4.111	Roll Set Point:	1.202	Pitch Set Point:	-1.572	Yaw Set Point:	0.964	X_WP:	0.000	Y_WP:	0.000	Y_WP:	0.750	X:	-0.190	Y:	1.100	Z:	0.806	yaw:	-55.222	yaw rate:	-49.485	Roll:	-27.625	Pitch:	17.225	Yaw:	-74.520	Thrust:	0.000
Time:	4.132	Roll Set Point:	1.209	Pitch Set Point:	-1.562	Yaw Set Point:	0.966	X_WP:	0.000	Y_WP:	0.000	Y_WP:	0.750	X:	-0.195	Y:	1.098	Z:	0.806	yaw:	-55.350	yaw rate:	12.751	Roll:	-30.000	Pitch:	7.790	Yaw:	-83.067	Thrust:	0.000
Time:	4.151	Roll Set Point:	1.216	Pitch Set Point:	-1.553	Yaw Set Point:	0.967	X_WP:	0.000	Y_WP:	0.000	Y_WP:	0.750	X:	-0.200	Y:	1.095	Z:	0.807	yaw:	-55.401	yaw rate:	5.131	Roll:	-30.000	Pitch:	7.833	Yaw:	-81.880	Thrust:	0.000
Time:	4.171	Roll Set Point:	1.219	Pitch Set Point:	-1.553	Yaw Set Point:	0.958	X_WP:	0.000	Y_WP:	0.000	Y_WP:	0.750	X:	-0.206	Y:	1.093	Z:	0.807	yaw:	-54.916	yaw rate:	-48.522	Roll:	-28.117	Pitch:	16.502	Yaw:	-74.097	Thrust:	0.000
Time:	4.191	Roll Set Point:	1.227	Pitch Set Point:	-1.540	Yaw Set Point:	0.963	X_WP:	0.000	Y_WP:	0.000	Y_WP:	0.750	X:	-0.211	Y:	1.091	Z:	0.808	yaw:	-55.194	yaw rate:	27.842	Roll:	-30.000	Pitch:	5.019	Yaw:	-84.725	Thrust:	0.000
Time:	4.210	Roll Set Point:	1.234	Pitch Set Point:	-1.531	Yaw Set Point:	0.964	X_WP:	0.000	Y_WP:	0.000	Y_WP:	0.750	X:	-0.216	Y:	1.088	Z:	0.808	yaw:	-55.241	yaw rate:	4.694	Roll:	-30.000	Pitch:	7.427	Yaw:	-81.632	Thrust:	0.000
Time:	4.233	Roll Set Point:	1.237	Pitch Set Point:	-1.531	Yaw Set Point:	0.956	X_WP:	0.000	Y_WP:	0.000	Y_WP:	0.750	X:	-0.222	Y:	1.086	Z:	0.809	yaw:	-54.762	yaw rate:	-47.876	Roll:	-28.528	Pitch:	15.776	Yaw:	-75.299	Thrust:	0.000
Time:	4.250	Roll Set Point:	1.246	Pitch Set Point:	-1.520	Yaw Set Point:	0.959	X_WP:	0.000	Y_WP:	0.000	Y_WP:	0.750	X:	-0.228	Y:	1.084	Z:	0.810	yaw:	-54.961	yaw rate:	19.848	Roll:	-30.000	Pitch:	4.302	Yaw:	-83.207	Thrust:	0.000
Time:	4.271	Roll Set Point:	1.253	Pitch Set Point:	-1.512	Yaw Set Point:	0.959	X_WP:	0.000	Y_WP:	0.000	Y_WP:	0.750	X:	-0.234	Y:	1.082	Z:	0.811	yaw:	-54.935	yaw rate:	-2.552	Roll:	-30.000	Pitch:	8.482	Yaw:	-80.399	Thrust:	0.000
Time:	4.290	Roll Set Point:	1.261	Pitch Set Point:	-1.503	Yaw Set Point:	0.959	X_WP:	0.000	Y_WP:	0.000	Y_WP:	0.750	X:	-0.240	Y:	1.080	Z:	0.811	yaw:	-54.967	yaw rate:	3.215	Roll:	-30.000	Pitch:	7.491	Yaw:	-81.192	Thrust:	0.000
Time:	4.311	Roll Set Point:	1.269	Pitch Set Point:	-1.496	Yaw Set Point:	0.958	X_WP:	0.000	Y_WP:	0.000	Y_WP:	0.750	X:	-0.246	Y:	1.078	Z:	0.812	yaw:	-54.911	yaw rate:	-5.640	Roll:	-30.000	Pitch:	8.468	Yaw:	-80.084	Thrust:	0.000
Time:	4.332	Roll Set Point:	1.279	Pitch Set Point:	-1.485	Yaw Set Point:	0.961	X_WP:	0.000	Y_WP:	0.000	Y_WP:	0.750	X:	-0.252	Y:	1.076	Z:	0.813	yaw:	-55.086	yaw rate:	17.502	Roll:	-30.000	Pitch:	5.037	Yaw:	-83.316	Thrust:	0.000
Time:	4.351	Roll Set Point:	1.286	Pitch Set Point:	-1.480	Yaw Set Point:	0.958	X_WP:	0.000	Y_WP:	0.000	Y_WP:	0.750	X:	-0.259	Y:	1.074	Z:	0.813	yaw:	-54.869	yaw rate:	-21.662	Roll:	-30.000	Pitch:	10.354	Yaw:	-77.289	Thrust:	0.000
Time:	4.371	Roll Set Point:	1.292	Pitch Set Point:	-1.476	Yaw Set Point:	0.954	X_WP:	0.000	Y_WP:	0.000	Y_WP:	0.750	X:	-0.265	Y:	1.072	Z:	0.814	yaw:	-54.649	yaw rate:	-22.037	Roll:	-30.000	Pitch:	10.441	Yaw:	-77.464	Thrust:	0.000
Time:	4.390	Roll Set Point:	1.301	Pitch Set Point:	-1.464	Yaw Set Point:	0.956	X_WP:	0.000	Y_WP:	0.000	Y_WP:	0.750	X:	-0.271	Y:	1.069	Z:	0.815	yaw:	-54.802	yaw rate:	15.255	Roll:	-30.000	Pitch:	4.397	Yaw:	-82.452	Thrust:	0.000
Time:	4.411	Roll Set Point:	1.308	Pitch Set Point:	-1.458	Yaw Set Point:	0.954	X_WP:	0.000	Y_WP:	0.000	Y_WP:	0.750	X:	-0.277	Y:	1.067	Z:	0.816	yaw:	-54.684	yaw rate:	-11.786	Roll:	-30.000	Pitch:	8.477	Yaw:	-78.960	Thrust:	0.000
Time:	4.433	Roll Set Point:	1.316	Pitch Set Point:	-1.447	Yaw Set Point:	0.956	X_WP:	0.000	Y_WP:	0.000	Y_WP:	0.750	X:	-0.283	Y:	1.064	Z:	0.817	yaw:	-54.769	yaw rate:	8.528	Roll:	-30.000	Pitch:	5.997	Yaw:	-81.908	Thrust:	0.000
Time:	4.450	Roll Set Point:	1.321	Pitch Set Point:	-1.444	Yaw Set Point:	0.951	X_WP:	0.000	Y_WP:	0.000	Y_WP:	0.750	X:	-0.289	Y:	1.062	Z:	0.817	yaw:	-54.477	yaw rate:	-29.201	Roll:	-30.000	Pitch:	10.779	Yaw:	-75.022	Thrust:	0.000
Time:	4.471	Roll Set Point:	1.330	Pitch Set Point:	-1.430	Yaw Set Point:	0.956	X_WP:	0.000	Y_WP:	0.000	Y_WP:	0.750	X:	-0.295	Y:	1.059	Z:	0.818	yaw:	-54.782	yaw rate:	30.512	Roll:	-30.000	Pitch:	1.655	Yaw:	-84.486	Thrust:	0.000
Time:	4.490	Roll Set Point:	1.337	Pitch Set Point:	-1.424	Yaw Set Point:	0.953	X_WP:	0.000	Y_WP:	0.000	Y_WP:	0.750	X:	-0.301	Y:	1.057	Z:	0.819	yaw:	-54.614	yaw rate:	-16.789	Roll:	-30.000	Pitch:	8.680	Yaw:	-78.040	Thrust:	0.000
Time:	4.511	Roll Set Point:	1.344	Pitch Set Point:	-1.413	Yaw Set Point:	0.955	X_WP:	0.000	Y_WP:	0.000	Y_WP:	0.750	X:	-0.306	Y:	1.054	Z:	0.819	yaw:	-54.698	yaw rate:	8.342	Roll:	-30.000	Pitch:	4.556	Yaw:	-81.553	Thrust:	0.000
Time:	4.532	Roll Set Point:	1.352	Pitch Set Point:	-1.402	Yaw Set Point:	0.957	X_WP:	0.000	Y_WP:	0.000	Y_WP:	0.750	X:	-0.312	Y:	1.052	Z:	0.819	yaw:	-54.808	yaw rate:	11.010	Roll:	-30.000	Pitch:	3.742	Yaw:	-82.003	Thrust:	0.000
Time:	4.552	Roll Set Point:	1.357	Pitch Set Point:	-1.398	Yaw Set Point:	0.952	X_WP:	0.000	Y_WP:	0.000	Y_WP:	0.750	X:	-0.318	Y:	1.049	Z:	0.820	yaw:	-54.544	yaw rate:	-26.339	Roll:	-30.000	Pitch:	9.562	Yaw:	-76.463	Thrust:	0.000
Time:	4.571	Roll Set Point:	1.367	Pitch Set Point:	-1.382	Yaw Set Point:	0.958	X_WP:	0.000	Y_WP:	0.000	Y_WP:	0.750	X:	-0.324	Y:	1.046	Z:	0.821	yaw:	-54.900	yaw rate:	35.548	Roll:	-30.000	Pitch:	-0.534	Yaw:	-85.305	Thrust:	0.000
Time:	4.596	Roll Set Point:	1.372	Pitch Set Point:	-1.379	Yaw Set Point:	0.952	X_WP:	0.000	Y_WP:	0.000	Y_WP:	0.750	X:	-0.331	Y:	1.043	Z:	0.822	yaw:	-54.564	yaw rate:	-33.591	Roll:	-30.000	Pitch:	10.168	Yaw:	-77.526	Thrust:	0.000
Time:	4.612	Roll Set Point:	1.381	Pitch Set Point:	-1.367	Yaw Set Point:	0.955	X_WP:	0.000	Y_WP:	0.000	Y_WP:	0.750	X:	-0.337	Y:	1.040	Z:	0.824	yaw:	-54.697	yaw rate:	13.348	Roll:	-30.000	Pitch:	0.895	Yaw:	-81.759	Thrust:	0.000
Time:	4.632	Roll Set Point:	1.388	Pitch Set Point:	-1.358	Yaw Set Point:	0.954	X_WP:	0.000	Y_WP:	0.000	Y_WP:	0.750	X:	-0.343	Y:	1.037	Z:	0.825	yaw:	-54.642	yaw rate:	-5.586	Roll:	-30.000	Pitch:	4.897	Yaw:	-79.697	Thrust:	0.000
Time:	4.650	Roll Set Point:	1.395	Pitch Set Point:	-1.350	Yaw Set Point:	0.951	X_WP:	0.000	Y_WP:	0.000	Y_WP:	0.750	X:	-0.350	Y:	1.034	Z:	0.826	yaw:	-54.509	yaw rate:	-13.270	Roll:	-30.000	Pitch:	5.884	Yaw:	-77.814	Thrust:	0.000
Time:	4.671	Roll Set Point:	1.403	Pitch Set Point:	-1.339	Yaw Set Point:	0.953	X_WP:	0.000	Y_WP:	0.000	Y_WP:	0.750	X:	-0.356	Y:	1.032	Z:	0.827	yaw:	-54.605	yaw rate:	9.561	Roll:	-30.000	Pitch:	2.445	Yaw:	-81.589	Thrust:	0.000
Time:	4.691	Roll Set Point:	1.409	Pitch Set Point:	-1.335	Yaw Set Point:	0.948	X_WP:	0.000	Y_WP:	0.000	Y_WP:	0.750	X:	-0.362	Y:	1.028	Z:	0.829	yaw:	-54.306	yaw rate:	-29.811	Roll:	-30.000	Pitch:	8.502	Yaw:	-76.054	Thrust:	0.000
Time:	4.711	Roll Set Point:	1.417	Pitch Set Point:	-1.321	Yaw Set Point:	0.952	X_WP:	0.000	Y_WP:	0.000	Y_WP:	0.750	X:	-0.368	Y:	1.025	Z:	0.830	yaw:	-54.518	yaw rate:	21.144	Roll:	-30.000	Pitch:	0.420	Yaw:	-82.866	Thrust:	0.000
Time:	4.732	Roll Set Point:	1.420	Pitch Set Point:	-1.324	Yaw Set Point:	0.939	X_WP:	0.000	Y_WP:	0.000	Y_WP:	0.750	X:	-0.374	Y:	1.022	Z:	0.831	yaw:	-53.824	yaw rate:	-69.398	Roll:	-28.746	Pitch:	14.534	Yaw:	-70.780	Thrust:	0.000
Time:	4.757	Roll Set Point:	1.426	Pitch Set Point:	-1.316	Yaw Set Point:	0.937	X_WP:	0.000	Y_WP:	0.000	Y_WP:	0.750	X:	-0.380	Y:	1.019	Z:	0.832	yaw:	-53.670	yaw rate:	-15.359	Roll:	-30.000	Pitch:	5.794	Yaw:	-78.478	Thrust:	0.000
Time:	4.771	Roll Set Point:	1.438	Pitch Set Point:	-1.290	Yaw Set Point:	0.952	X_WP:	0.000	Y_WP:	0.000	Y_WP:	0.750	X:	-0.386	Y:	1.016	Z:	0.834	yaw:	-54.539	yaw rate:	86.840	Roll:	-30.000	Pitch:	-11.022	Yaw:	-96.088	Thrust:	0.000
Time:	4.791	Roll Set Point:	1.443	Pitch Set Point:	-1.283	Yaw Set Point:	0.949	X_WP:	0.000	Y_WP:	0.000	Y_WP:	0.750	X:	-0.392	Y:	1.012	Z:	0.835	yaw:	-54.391	yaw rate:	-14.755	Roll:	-30.000	Pitch:	5.321	Yaw:	-78.082	Thrust:	0.000
Time:	4.811	Roll Set Point:	1.448	Pitch Set Point:	-1.277	Yaw Set Point:	0.944	X_WP:	0.000	Y_WP:	0.000	Y_WP:	0.750	X:	-0.398	Y:	1.008	Z:	0.836	yaw:	-54.099	yaw rate:	-29.240	Roll:	-30.000	Pitch:	7.145	Yaw:	-75.328	Thrust:	0.000
Time:	4.831	Roll Set Point:	1.451	Pitch Set Point:	-1.278	Yaw Set Point:	0.934	X_WP:	0.000	Y_WP:	0.000	Y_WP:	0.750	X:	-0.403	Y:	1.005	Z:	0.838	yaw:	-53.492	yaw rate:	-60.704	Roll:	-28.807	Pitch:	12.402	Yaw:	-71.408	Thrust:	0.000
Time:	4.851	Roll Set Point:	1.473	Pitch Set Point:	-0.970	Yaw Set Point:	1.215	X_WP:	0.000	Y_WP:	0.000	Y_WP:	0.750	X:	-0.399	Y:	0.997	Z:	0.850	yaw:	-69.624	yaw rate:	1613.187	Roll:	-30.000	Pitch:	-30.000	Yaw:	-326.266	Thrust:	0.000
Time:	4.871	Roll Set Point:	1.476	Pitch Set Point:	-0.987	Yaw Set Point:	1.189	X_WP:	0.000	Y_WP:	0.000	Y_WP:	0.750	X:	-0.404	Y:	0.993	Z:	0.851	yaw:	-68.108	yaw rate:	-151.516	Roll:	-30.000	Pitch:	19.104	Yaw:	-80.469	Thrust:	0.000
Time:	4.891	Roll Set Point:	1.481	Pitch Set Point:	-0.958	Yaw Set Point:	1.206	X_WP:	0.000	Y_WP:	0.000	Y_WP:	0.750	X:	-0.411	Y:	0.989	Z:	0.852	yaw:	-69.097	yaw rate:	98.814	Roll:	-30.000	Pitch:	-22.029	Yaw:	-113.415	Thrust:	0.000
Time:	4.911	Roll Set Point:	1.485	Pitch Set Point:	-0.953	Yaw Set Point:	1.200	X_WP:	0.000	Y_WP:	0.000	Y_WP:	0.750	X:	-0.417	Y:	0.984	Z:	0.853	yaw:	-68.766	yaw rate:	-33.100	Roll:	-30.000	Pitch:	-0.798	Yaw:	-95.620	Thrust:	0.000
Time:	4.932	Roll Set Point:	1.489	Pitch Set Point:	-0.946	Yaw Set Point:	1.196	X_WP:	0.000	Y_WP:	0.000	Y_WP:	0.750	X:	-0.422	Y:	0.980	Z:	0.854	yaw:	-68.503	yaw rate:	-26.215	Roll:	-30.000	Pitch:	-1.936	Yaw:	-96.531	Thrust:	0.000
Time:	4.952	Roll Set Point:	1.493	Pitch Set Point:	-0.938	Yaw Set Point:	1.193	X_WP:	0.000	Y_WP:	0.000	Y_WP:	0.750	X:	-0.428	Y:	0.976	Z:	0.855	yaw:	-68.369	yaw rate:	-13.446	Roll:	-30.000	Pitch:	-3.799	Yaw:	-97.708	Thrust:	0.000
Time:	4.971	Roll Set Point:	1.497	Pitch Set Point:	-0.930	Yaw Set Point:	1.191	X_WP:	0.000	Y_WP:	0.000	Y_WP:	0.750	X:	-0.434	Y:	0.972	Z:	0.855	yaw:	-68.212	yaw rate:	-15.719	Roll:	-30.000	Pitch:	-3.824	Yaw:	-96.908	Thrust:	0.000
Time:	4.991	Roll Set Point:	1.501	Pitch Set Point:	-0.924	Yaw Set Point:	1.186	X_WP:	0.000	Y_WP:	0.000	Y_WP:	0.750	X:	-0.439	Y:	0.968	Z:	0.855	yaw:	-67.972	yaw rate:	-24.001	Roll:	-30.000	Pitch:	-2.319	Yaw:	-95.563	Thrust:	0.000
Time:	5.010	Roll Set Point:	1.496	Pitch Set Point:	-0.847	Yaw Set Point:	1.248	X_WP:	0.000	Y_WP:	0.000	Y_WP:	0.750	X:	-0.443	Y:	0.962	Z:	0.858	yaw:	-71.519	yaw rate:	354.724	Roll:	-23.193	Pitch:	-30.000	Yaw:	-150.175	Thrust:	0.000
Time:	5.031	Roll Set Point:	1.498	Pitch Set Point:	-0.837	Yaw Set Point:	1.248	X_WP:	0.000	Y_WP:	0.000	Y_WP:	0.750	X:	-0.448	Y:	0.958	Z:	0.858	yaw:	-71.498	yaw rate:	-2.120	Roll:	-29.444	Pitch:	-7.266	Yaw:	-103.727	Thrust:	0.000
Time:	5.051	Roll Set Point:	1.502	Pitch Set Point:	-0.838	Yaw Set Point:	1.238	X_WP:	0.000	Y_WP:	0.000	Y_WP:	0.750	X:	-0.453	Y:	0.954	Z:	0.858	yaw:	-70.921	yaw rate:	-57.683	Roll:	-30.000	Pitch:	1.305	Yaw:	-95.602	Thrust:	0.000
Time:	5.070	Roll Set Point:	1.506	Pitch Set Point:	-0.836	Yaw Set Point:	1.230	X_WP:	0.000	Y_WP:	0.000	Y_WP:	0.750	X:	-0.457	Y:	0.950	Z:	0.858	yaw:	-70.490	yaw rate:	-43.067	Roll:	-30.000	Pitch:	-0.726	Yaw:	-96.315	Thrust:	0.000
Time:	5.092	Roll Set Point:	1.510	Pitch Set Point:	-0.833	Yaw Set Point:	1.224	X_WP:	0.000	Y_WP:	0.000	Y_WP:	0.750	X:	-0.463	Y:	0.946	Z:	0.858	yaw:	-70.145	yaw rate:	-34.570	Roll:	-30.000	Pitch:	-2.303	Yaw:	-97.682	Thrust:	0.000
Time:	5.111	Roll Set Point:	1.513	Pitch Set Point:	-0.855	Yaw Set Point:	1.193	X_WP:	0.000	Y_WP:	0.000	Y_WP:	0.750	X:	-0.466	Y:	0.942	Z:	0.857	yaw:	-68.373	yaw rate:	-177.171	Roll:	-30.000	Pitch:	21.057	Yaw:	-76.677	Thrust:	0.000
Time:	5.132	Roll Set Point:	1.522	Pitch Set Point:	-0.900	Yaw Set Point:	1.142	X_WP:	0.000	Y_WP:	0.000	Y_WP:	0.750	X:	-0.472	Y:	0.939	Z:	0.858	yaw:	-65.454	yaw rate:	-291.927	Roll:	-30.000	Pitch:	30.000	Yaw:	-57.051	Thrust:	0.000
Time:	5.153	Roll Set Point:	1.526	Pitch Set Point:	-0.922	Yaw Set Point:	1.113	X_WP:	0.000	Y_WP:	0.000	Y_WP:	0.750	X:	-0.476	Y:	0.936	Z:	0.858	yaw:	-63.783	yaw rate:	-167.108	Roll:	-30.000	Pitch:	20.803	Yaw:	-72.607	Thrust:	0.000
Time:	5.172	Roll Set Point:	1.530	Pitch Set Point:	-0.927	Yaw Set Point:	1.100	X_WP:	0.000	Y_WP:	0.000	Y_WP:	0.750	X:	-0.481	Y:	0.933	Z:	0.858	yaw:	-63.024	yaw rate:	-75.856	Roll:	-30.000	Pitch:	8.107	Yaw:	-81.435	Thrust:	0.000
Time:	5.192	Roll Set Point:	1.533	Pitch Set Point:	-0.925	Yaw Set Point:	1.094	X_WP:	0.000	Y_WP:	0.000	Y_WP:	0.750	X:	-0.485	Y:	0.929	Z:	0.858	yaw:	-62.662	yaw rate:	-36.192	Roll:	-30.000	Pitch:	1.754	Yaw:	-86.353	Thrust:	0.000
Time:	5.212	Roll Set Point:	1.537	Pitch Set Point:	-0.925	Yaw Set Point:	1.086	X_WP:	0.000	Y_WP:	0.000	Y_WP:	0.750	X:	-0.489	Y:	0.926	Z:	0.858	yaw:	-62.231	yaw rate:	-43.115	Roll:	-30.000	Pitch:	2.925	Yaw:	-85.742	Thrust:	0.000
Time:	5.232	Roll Set Point:	1.540	Pitch Set Point:	-0.925	Yaw Set Point:	1.078	X_WP:	0.000	Y_WP:	0.000	Y_WP:	0.750	X:	-0.493	Y:	0.923	Z:	0.857	yaw:	-61.789	yaw rate:	-44.236	Roll:	-30.000	Pitch:	3.353	Yaw:	-84.229	Thrust:	0.000
Time:	5.252	Roll Set Point:	1.544	Pitch Set Point:	-0.921	Yaw Set Point:	1.075	X_WP:	0.000	Y_WP:	0.000	Y_WP:	0.750	X:	-0.498	Y:	0.920	Z:	0.857	yaw:	-61.565	yaw rate:	-22.401	Roll:	-30.000	Pitch:	-0.146	Yaw:	-87.055	Thrust:	0.000
