Time:	0.039	Roll Set Point:	0.022	Pitch Set Point:	2.010	Yaw Set Point:	0.003	X_WP:	0.000	Y_WP:	0.000	Y_WP:	0.750	X:	-0.012	Y:	-1.005	Z:	0.044	yaw:	-0.167	yaw rate:	1.245	Roll:	-0.272	Pitch:	-29.138	Yaw:	-0.233	Thrust:	38.805
Time:	0.058	Roll Set Point:	0.022	Pitch Set Point:	2.009	Yaw Set Point:	0.003	X_WP:	0.000	Y_WP:	0.000	Y_WP:	0.750	X:	-0.012	Y:	-1.005	Z:	0.044	yaw:	-0.168	yaw rate:	0.135	Roll:	-0.261	Pitch:	-29.160	Yaw:	-0.255	Thrust:	40.424
Time:	0.080	Roll Set Point:	0.022	Pitch Set Point:	2.009	Yaw Set Point:	0.003	X_WP:	0.000	Y_WP:	0.000	Y_WP:	0.750	X:	-0.012	Y:	-1.005	Z:	0.044	yaw:	-0.155	yaw rate:	-1.264	Roll:	-0.458	Pitch:	-29.237	Yaw:	-0.063	Thrust:	42.363
Time:	0.099	Roll Set Point:	0.022	Pitch Set Point:	2.009	Yaw Set Point:	0.003	X_WP:	0.000	Y_WP:	0.000	Y_WP:	0.750	X:	-0.012	Y:	-1.005	Z:	0.044	yaw:	-0.159	yaw rate:	0.379	Roll:	-0.213	Pitch:	-29.299	Yaw:	-0.277	Thrust:	43.732
Time:	0.120	Roll Set Point:	0.022	Pitch Set Point:	2.009	Yaw Set Point:	0.003	X_WP:	0.000	Y_WP:	0.000	Y_WP:	0.750	X:	-0.012	Y:	-1.005	Z:	0.044	yaw:	-0.153	yaw rate:	-0.658	Roll:	-0.366	Pitch:	-29.361	Yaw:	-0.138	Thrust:	46.069
Time:	0.139	Roll Set Point:	0.022	Pitch Set Point:	2.009	Yaw Set Point:	0.003	X_WP:	0.000	Y_WP:	0.000	Y_WP:	0.750	X:	-0.012	Y:	-1.005	Z:	0.044	yaw:	-0.146	yaw rate:	-0.664	Roll:	-0.400	Pitch:	-29.357	Yaw:	-0.116	Thrust:	46.672
Time:	0.158	Roll Set Point:	0.022	Pitch Set Point:	2.009	Yaw Set Point:	0.002	X_WP:	0.000	Y_WP:	0.000	Y_WP:	0.750	X:	-0.012	Y:	-1.005	Z:	0.044	yaw:	-0.129	yaw rate:	-1.690	Roll:	-0.559	Pitch:	-29.435	Yaw:	0.036	Thrust:	48.865
Time:	0.179	Roll Set Point:	0.022	Pitch Set Point:	2.009	Yaw Set Point:	0.003	X_WP:	0.000	Y_WP:	0.000	Y_WP:	0.750	X:	-0.012	Y:	-1.005	Z:	0.044	yaw:	-0.155	yaw rate:	2.560	Roll:	0.105	Pitch:	-29.511	Yaw:	-0.554	Thrust:	50.859
Time:	0.199	Roll Set Point:	0.022	Pitch Set Point:	2.009	Yaw Set Point:	0.003	X_WP:	0.000	Y_WP:	0.000	Y_WP:	0.750	X:	-0.012	Y:	-1.005	Z:	0.044	yaw:	-0.151	yaw rate:	-0.343	Roll:	-0.324	Pitch:	-29.509	Yaw:	-0.175	Thrust:	52.315
Time:	0.219	Roll Set Point:	0.022	Pitch Set Point:	2.009	Yaw Set Point:	0.003	X_WP:	0.000	Y_WP:	0.000	Y_WP:	0.750	X:	-0.012	Y:	-1.005	Z:	0.044	yaw:	-0.164	yaw rate:	1.280	Roll:	-0.107	Pitch:	-29.610	Yaw:	-0.406	Thrust:	54.053
Time:	0.239	Roll Set Point:	0.022	Pitch Set Point:	2.009	Yaw Set Point:	0.003	X_WP:	0.000	Y_WP:	0.000	Y_WP:	0.750	X:	-0.012	Y:	-1.005	Z:	0.044	yaw:	-0.148	yaw rate:	-1.564	Roll:	-0.530	Pitch:	-29.636	Yaw:	-0.014	Thrust:	55.806
Time:	0.258	Roll Set Point:	0.022	Pitch Set Point:	2.009	Yaw Set Point:	0.003	X_WP:	0.000	Y_WP:	0.000	Y_WP:	0.750	X:	-0.012	Y:	-1.005	Z:	0.044	yaw:	-0.154	yaw rate:	0.581	Roll:	-0.172	Pitch:	-29.674	Yaw:	-0.307	Thrust:	56.470
Time:	0.278	Roll Set Point:	0.022	Pitch Set Point:	2.009	Yaw Set Point:	0.003	X_WP:	0.000	Y_WP:	0.000	Y_WP:	0.750	X:	-0.012	Y:	-1.005	Z:	0.044	yaw:	-0.161	yaw rate:	0.676	Roll:	-0.198	Pitch:	-29.731	Yaw:	-0.325	Thrust:	59.356
Time:	0.298	Roll Set Point:	0.022	Pitch Set Point:	2.009	Yaw Set Point:	0.003	X_WP:	0.000	Y_WP:	0.000	Y_WP:	0.750	X:	-0.012	Y:	-1.005	Z:	0.044	yaw:	-0.149	yaw rate:	-1.190	Roll:	-0.469	Pitch:	-29.786	Yaw:	-0.066	Thrust:	60.745
Time:	0.318	Roll Set Point:	0.022	Pitch Set Point:	2.009	Yaw Set Point:	0.002	X_WP:	0.000	Y_WP:	0.000	Y_WP:	0.750	X:	-0.012	Y:	-1.005	Z:	0.044	yaw:	-0.142	yaw rate:	-0.746	Roll:	-0.389	Pitch:	-29.874	Yaw:	-0.117	Thrust:	62.936
Time:	0.338	Roll Set Point:	0.022	Pitch Set Point:	2.009	Yaw Set Point:	0.003	X_WP:	0.000	Y_WP:	0.000	Y_WP:	0.750	X:	-0.012	Y:	-1.005	Z:	0.044	yaw:	-0.161	yaw rate:	1.932	Roll:	-0.010	Pitch:	-29.866	Yaw:	-0.492	Thrust:	63.727
Time:	0.358	Roll Set Point:	0.022	Pitch Set Point:	2.009	Yaw Set Point:	0.003	X_WP:	0.000	Y_WP:	0.000	Y_WP:	0.750	X:	-0.012	Y:	-1.005	Z:	0.044	yaw:	-0.168	yaw rate:	0.711	Roll:	-0.174	Pitch:	-29.882	Yaw:	-0.347	Thrust:	65.690
Time:	0.379	Roll Set Point:	0.022	Pitch Set Point:	2.009	Yaw Set Point:	0.003	X_WP:	0.000	Y_WP:	0.000	Y_WP:	0.750	X:	-0.012	Y:	-1.005	Z:	0.044	yaw:	-0.156	yaw rate:	-1.234	Roll:	-0.457	Pitch:	-29.928	Yaw:	-0.082	Thrust:	68.863
Time:	0.399	Roll Set Point:	0.022	Pitch Set Point:	2.009	Yaw Set Point:	0.003	X_WP:	0.000	Y_WP:	0.000	Y_WP:	0.750	X:	-0.012	Y:	-1.005	Z:	0.044	yaw:	-0.147	yaw rate:	-0.859	Roll:	-0.425	Pitch:	-29.899	Yaw:	-0.114	Thrust:	69.727
Time:	0.419	Roll Set Point:	0.022	Pitch Set Point:	2.009	Yaw Set Point:	0.003	X_WP:	0.000	Y_WP:	0.000	Y_WP:	0.750	X:	-0.012	Y:	-1.005	Z:	0.044	yaw:	-0.148	yaw rate:	0.137	Roll:	-0.277	Pitch:	-29.892	Yaw:	-0.246	Thrust:	71.601
Time:	0.440	Roll Set Point:	0.022	Pitch Set Point:	2.009	Yaw Set Point:	0.003	X_WP:	0.000	Y_WP:	0.000	Y_WP:	0.750	X:	-0.012	Y:	-1.005	Z:	0.044	yaw:	-0.177	yaw rate:	2.879	Roll:	0.150	Pitch:	-29.936	Yaw:	-0.628	Thrust:	74.533
Time:	0.460	Roll Set Point:	0.022	Pitch Set Point:	2.009	Yaw Set Point:	0.003	X_WP:	0.000	Y_WP:	0.000	Y_WP:	0.750	X:	-0.012	Y:	-1.005	Z:	0.044	yaw:	-0.171	yaw rate:	-0.658	Roll:	-0.376	Pitch:	-29.837	Yaw:	-0.172	Thrust:	73.459
Time:	0.480	Roll Set Point:	0.022	Pitch Set Point:	2.009	Yaw Set Point:	0.003	X_WP:	0.000	Y_WP:	0.000	Y_WP:	0.750	X:	-0.012	Y:	-1.005	Z:	0.044	yaw:	-0.153	yaw rate:	-1.805	Roll:	-0.561	Pitch:	-29.901	Yaw:	-0.003	Thrust:	76.408
Time:	0.500	Roll Set Point:	0.022	Pitch Set Point:	2.009	Yaw Set Point:	0.003	X_WP:	0.000	Y_WP:	0.000	Y_WP:	0.750	X:	-0.012	Y:	-1.005	Z:	0.044	yaw:	-0.161	yaw rate:	0.839	Roll:	-0.165	Pitch:	-29.876	Yaw:	-0.359	Thrust:	78.245
Time:	0.521	Roll Set Point:	0.022	Pitch Set Point:	2.009	Yaw Set Point:	0.003	X_WP:	0.000	Y_WP:	0.000	Y_WP:	0.750	X:	-0.012	Y:	-1.005	Z:	0.044	yaw:	-0.158	yaw rate:	-0.253	Roll:	-0.326	Pitch:	-29.887	Yaw:	-0.216	Thrust:	79.761
Time:	0.540	Roll Set Point:	0.022	Pitch Set Point:	2.009	Yaw Set Point:	0.003	X_WP:	0.000	Y_WP:	0.000	Y_WP:	0.750	X:	-0.012	Y:	-1.005	Z:	0.044	yaw:	-0.160	yaw rate:	0.136	Roll:	-0.258	Pitch:	-29.863	Yaw:	-0.268	Thrust:	79.319
Time:	0.560	Roll Set Point:	0.022	Pitch Set Point:	2.009	Yaw Set Point:	0.003	X_WP:	0.000	Y_WP:	0.000	Y_WP:	0.750	X:	-0.012	Y:	-1.005	Z:	0.044	yaw:	-0.144	yaw rate:	-1.597	Roll:	-0.547	Pitch:	-29.884	Yaw:	-0.020	Thrust:	82.813
Time:	0.580	Roll Set Point:	0.022	Pitch Set Point:	2.009	Yaw Set Point:	0.003	X_WP:	0.000	Y_WP:	0.000	Y_WP:	0.750	X:	-0.012	Y:	-1.005	Z:	0.044	yaw:	-0.168	yaw rate:	2.364	Roll:	0.037	Pitch:	-29.887	Yaw:	-0.567	Thrust:	84.197
Time:	0.599	Roll Set Point:	0.022	Pitch Set Point:	2.009	Yaw Set Point:	0.003	X_WP:	0.000	Y_WP:	0.000	Y_WP:	0.750	X:	-0.012	Y:	-1.005	Z:	0.044	yaw:	-0.167	yaw rate:	-0.030	Roll:	-0.277	Pitch:	-29.900	Yaw:	-0.259	Thrust:	86.397
Time:	0.620	Roll Set Point:	0.022	Pitch Set Point:	2.009	Yaw Set Point:	0.003	X_WP:	0.000	Y_WP:	0.000	Y_WP:	0.750	X:	-0.012	Y:	-1.005	Z:	0.044	yaw:	-0.170	yaw rate:	0.328	Roll:	-0.243	Pitch:	-29.887	Yaw:	-0.312	Thrust:	89.775
Time:	0.640	Roll Set Point:	0.022	Pitch Set Point:	2.009	Yaw Set Point:	0.003	X_WP:	0.000	Y_WP:	0.000	Y_WP:	0.750	X:	-0.012	Y:	-1.005	Z:	0.044	yaw:	-0.168	yaw rate:	-0.231	Roll:	-0.300	Pitch:	-29.876	Yaw:	-0.234	Thrust:	87.231
Time:	0.659	Roll Set Point:	0.022	Pitch Set Point:	2.009	Yaw Set Point:	0.003	X_WP:	0.000	Y_WP:	0.000	Y_WP:	0.750	X:	-0.012	Y:	-1.005	Z:	0.044	yaw:	-0.157	yaw rate:	-1.073	Roll:	-0.474	Pitch:	-29.878	Yaw:	-0.115	Thrust:	91.787
Time:	0.681	Roll Set Point:	0.022	Pitch Set Point:	2.010	Yaw Set Point:	0.003	X_WP:	0.000	Y_WP:	0.000	Y_WP:	0.750	X:	-0.012	Y:	-1.005	Z:	0.044	yaw:	-0.170	yaw rate:	1.234	Roll:	-0.095	Pitch:	-29.940	Yaw:	-0.429	Thrust:	95.326
Time:	0.700	Roll Set Point:	0.022	Pitch Set Point:	2.009	Yaw Set Point:	0.003	X_WP:	0.000	Y_WP:	0.000	Y_WP:	0.750	X:	-0.012	Y:	-1.005	Z:	0.044	yaw:	-0.153	yaw rate:	-1.635	Roll:	-0.548	Pitch:	-29.836	Yaw:	-0.035	Thrust:	91.677
Time:	0.721	Roll Set Point:	0.022	Pitch Set Point:	2.009	Yaw Set Point:	0.003	X_WP:	0.000	Y_WP:	0.000	Y_WP:	0.750	X:	-0.012	Y:	-1.005	Z:	0.044	yaw:	-0.149	yaw rate:	-0.401	Roll:	-0.352	Pitch:	-29.950	Yaw:	-0.197	Thrust:	100.000
Time:	0.740	Roll Set Point:	0.022	Pitch Set Point:	2.009	Yaw Set Point:	0.003	X_WP:	0.000	Y_WP:	0.000	Y_WP:	0.750	X:	-0.012	Y:	-1.005	Z:	0.044	yaw:	-0.153	yaw rate:	0.353	Roll:	-0.231	Pitch:	-29.846	Yaw:	-0.299	Thrust:	94.767
Time:	0.759	Roll Set Point:	0.022	Pitch Set Point:	2.009	Yaw Set Point:	0.003	X_WP:	0.000	Y_WP:	0.000	Y_WP:	0.750	X:	-0.012	Y:	-1.005	Z:	0.044	yaw:	-0.153	yaw rate:	0.018	Roll:	-0.298	Pitch:	-29.884	Yaw:	-0.255	Thrust:	98.612
Time:	0.780	Roll Set Point:	0.022	Pitch Set Point:	2.009	Yaw Set Point:	0.003	X_WP:	0.000	Y_WP:	0.000	Y_WP:	0.750	X:	-0.012	Y:	-1.005	Z:	0.044	yaw:	-0.153	yaw rate:	0.001	Roll:	-0.296	Pitch:	-29.881	Yaw:	-0.255	Thrust:	100.000
Time:	0.800	Roll Set Point:	0.022	Pitch Set Point:	2.009	Yaw Set Point:	0.003	X_WP:	0.000	Y_WP:	0.000	Y_WP:	0.750	X:	-0.012	Y:	-1.005	Z:	0.044	yaw:	-0.172	yaw rate:	1.930	Roll:	-0.006	Pitch:	-29.906	Yaw:	-0.532	Thrust:	100.000
Time:	0.820	Roll Set Point:	0.022	Pitch Set Point:	2.009	Yaw Set Point:	0.003	X_WP:	0.000	Y_WP:	0.000	Y_WP:	0.750	X:	-0.012	Y:	-1.005	Z:	0.044	yaw:	-0.155	yaw rate:	-1.755	Roll:	-0.544	Pitch:	-29.868	Yaw:	-0.033	Thrust:	100.000
Time:	0.840	Roll Set Point:	0.022	Pitch Set Point:	2.009	Yaw Set Point:	0.003	X_WP:	0.000	Y_WP:	0.000	Y_WP:	0.750	X:	-0.012	Y:	-1.005	Z:	0.044	yaw:	-0.148	yaw rate:	-0.708	Roll:	-0.409	Pitch:	-29.925	Yaw:	-0.158	Thrust:	100.000
Time:	0.861	Roll Set Point:	0.022	Pitch Set Point:	2.009	Yaw Set Point:	0.003	X_WP:	0.000	Y_WP:	0.000	Y_WP:	0.750	X:	-0.012	Y:	-1.005	Z:	0.044	yaw:	-0.154	yaw rate:	0.643	Roll:	-0.210	Pitch:	-29.866	Yaw:	-0.344	Thrust:	100.000
Time:	0.881	Roll Set Point:	0.022	Pitch Set Point:	2.010	Yaw Set Point:	0.003	X_WP:	0.000	Y_WP:	0.000	Y_WP:	0.750	X:	-0.012	Y:	-1.005	Z:	0.044	yaw:	-0.163	yaw rate:	0.831	Roll:	-0.158	Pitch:	-29.907	Yaw:	-0.382	Thrust:	100.000
Time:	0.900	Roll Set Point:	0.022	Pitch Set Point:	2.009	Yaw Set Point:	0.003	X_WP:	0.000	Y_WP:	0.000	Y_WP:	0.750	X:	-0.012	Y:	-1.005	Z:	0.044	yaw:	-0.154	yaw rate:	-0.867	Roll:	-0.435	Pitch:	-29.868	Yaw:	-0.150	Thrust:	100.000
Time:	0.921	Roll Set Point:	0.022	Pitch Set Point:	2.009	Yaw Set Point:	0.003	X_WP:	0.000	Y_WP:	0.000	Y_WP:	0.750	X:	-0.012	Y:	-1.005	Z:	0.044	yaw:	-0.173	yaw rate:	1.915	Roll:	0.004	Pitch:	-29.905	Yaw:	-0.542	Thrust:	100.000
Time:	0.940	Roll Set Point:	0.022	Pitch Set Point:	2.009	Yaw Set Point:	0.003	X_WP:	0.000	Y_WP:	0.000	Y_WP:	0.750	X:	-0.012	Y:	-1.005	Z:	0.044	yaw:	-0.169	yaw rate:	-0.375	Roll:	-0.364	Pitch:	-29.866	Yaw:	-0.235	Thrust:	100.000
Time:	0.960	Roll Set Point:	0.022	Pitch Set Point:	2.010	Yaw Set Point:	0.003	X_WP:	0.000	Y_WP:	0.000	Y_WP:	0.750	X:	-0.012	Y:	-1.005	Z:	0.044	yaw:	-0.153	yaw rate:	-1.644	Roll:	-0.529	Pitch:	-29.913	Yaw:	-0.046	Thrust:	100.000
Time:	0.980	Roll Set Point:	0.022	Pitch Set Point:	2.009	Yaw Set Point:	0.003	X_WP:	0.000	Y_WP:	0.000	Y_WP:	0.750	X:	-0.012	Y:	-1.005	Z:	0.044	yaw:	-0.164	yaw rate:	1.142	Roll:	-0.138	Pitch:	-29.856	Yaw:	-0.429	Thrust:	100.000
Time:	1.000	Roll Set Point:	0.022	Pitch Set Point:	2.009	Yaw Set Point:	0.003	X_WP:	0.000	Y_WP:	0.000	Y_WP:	0.750	X:	-0.012	Y:	-1.005	Z:	0.044	yaw:	-0.161	yaw rate:	-0.280	Roll:	-0.343	Pitch:	-29.881	Yaw:	-0.244	Thrust:	100.000
Time:	1.020	Roll Set Point:	0.022	Pitch Set Point:	2.009	Yaw Set Point:	0.003	X_WP:	0.000	Y_WP:	0.000	Y_WP:	0.750	X:	-0.012	Y:	-1.005	Z:	0.044	yaw:	-0.163	yaw rate:	0.142	Roll:	-0.282	Pitch:	-29.894	Yaw:	-0.299	Thrust:	100.000
Time:	1.040	Roll Set Point:	0.022	Pitch Set Point:	2.009	Yaw Set Point:	0.003	X_WP:	0.000	Y_WP:	0.000	Y_WP:	0.750	X:	-0.012	Y:	-1.005	Z:	0.044	yaw:	-0.163	yaw rate:	0.049	Roll:	-0.281	Pitch:	-29.889	Yaw:	-0.290	Thrust:	100.000
Time:	1.060	Roll Set Point:	0.022	Pitch Set Point:	2.009	Yaw Set Point:	0.003	X_WP:	0.000	Y_WP:	0.000	Y_WP:	0.750	X:	-0.012	Y:	-1.005	Z:	0.044	yaw:	-0.147	yaw rate:	-1.674	Roll:	-0.559	Pitch:	-29.869	Yaw:	-0.036	Thrust:	100.000
Time:	1.081	Roll Set Point:	0.022	Pitch Set Point:	2.009	Yaw Set Point:	0.003	X_WP:	0.000	Y_WP:	0.000	Y_WP:	0.750	X:	-0.012	Y:	-1.005	Z:	0.044	yaw:	-0.158	yaw rate:	1.177	Roll:	-0.142	Pitch:	-29.914	Yaw:	-0.431	Thrust:	100.000
Time:	1.102	Roll Set Point:	0.022	Pitch Set Point:	2.009	Yaw Set Point:	0.003	X_WP:	0.000	Y_WP:	0.000	Y_WP:	0.750	X:	-0.012	Y:	-1.005	Z:	0.044	yaw:	-0.168	yaw rate:	0.920	Roll:	-0.166	Pitch:	-29.976	Yaw:	-0.409	Thrust:	100.000
Time:	1.121	Roll Set Point:	0.022	Pitch Set Point:	2.009	Yaw Set Point:	0.003	X_WP:	0.000	Y_WP:	0.000	Y_WP:	0.750	X:	-0.012	Y:	-1.005	Z:	0.044	yaw:	-0.162	yaw rate:	-0.557	Roll:	-0.409	Pitch:	-29.805	Yaw:	-0.207	Thrust:	100.000
Time:	1.140	Roll Set Point:	0.022	Pitch Set Point:	2.009	Yaw Set Point:	0.003	X_WP:	0.000	Y_WP:	0.000	Y_WP:	0.750	X:	-0.012	Y:	-1.005	Z:	0.044	yaw:	-0.167	yaw rate:	0.508	Roll:	-0.221	Pitch:	-29.878	Yaw:	-0.361	Thrust:	100.000
Time:	1.160	Roll Set Point:	0.022	Pitch Set Point:	2.009	Yaw Set Point:	0.003	X_WP:	0.000	Y_WP:	0.000	Y_WP:	0.750	X:	-0.012	Y:	-1.005	Z:	0.044	yaw:	-0.151	yaw rate:	-1.638	Roll:	-0.564	Pitch:	-29.896	Yaw:	-0.055	Thrust:	100.000
Time:	1.180	Roll Set Point:	0.022	Pitch Set Point:	2.009	Yaw Set Point:	0.003	X_WP:	0.000	Y_WP:	0.000	Y_WP:	0.750	X:	-0.012	Y:	-1.005	Z:	0.044	yaw:	-0.175	yaw rate:	2.469	Roll:	0.095	Pitch:	-29.888	Yaw:	-0.633	Thrust:	100.000
Time:	1.200	Roll Set Point:	0.022	Pitch Set Point:	2.009	Yaw Set Point:	0.003	X_WP:	0.000	Y_WP:	0.000	Y_WP:	0.750	X:	-0.012	Y:	-1.005	Z:	0.044	yaw:	-0.153	yaw rate:	-2.262	Roll:	-0.661	Pitch:	-29.860	Yaw:	0.027	Thrust:	100.000
Time:	1.220	Roll Set Point:	0.022	Pitch Set Point:	2.009	Yaw Set Point:	0.003	X_WP:	0.000	Y_WP:	0.000	Y_WP:	0.750	X:	-0.012	Y:	-1.005	Z:	0.044	yaw:	-0.175	yaw rate:	2.266	Roll:	0.017	Pitch:	-29.931	Yaw:	-0.598	Thrust:	100.000
Time:	1.240	Roll Set Point:	0.022	Pitch Set Point:	2.009	Yaw Set Point:	0.003	X_WP:	0.000	Y_WP:	0.000	Y_WP:	0.750	X:	-0.012	Y:	-1.005	Z:	0.044	yaw:	-0.152	yaw rate:	-2.356	Roll:	-0.660	Pitch:	-29.856	Yaw:	0.048	Thrust:	100.000
Time:	1.260	Roll Set Point:	0.022	Pitch Set Point:	2.009	Yaw Set Point:	0.003	X_WP:	0.000	Y_WP:	0.000	Y_WP:	0.750	X:	-0.012	Y:	-1.005	Z:	0.044	yaw:	-0.149	yaw rate:	-0.318	Roll:	-0.359	Pitch:	-29.860	Yaw:	-0.231	Thrust:	100.000
Time:	1.281	Roll Set Point:	0.022	Pitch Set Point:	2.009	Yaw Set Point:	0.003	X_WP:	0.000	Y_WP:	0.000	Y_WP:	0.750	X:	-0.012	Y:	-1.005	Z:	0.044	yaw:	-0.169	yaw rate:	1.977	Roll:	-0.042	Pitch:	-29.915	Yaw:	-0.544	Thrust:	100.000
Time:	1.300	Roll Set Point:	0.022	Pitch Set Point:	2.009	Yaw Set Point:	0.003	X_WP:	0.000	Y_WP:	0.000	Y_WP:	0.750	X:	-0.012	Y:	-1.005	Z:	0.044	yaw:	-0.165	yaw rate:	-0.313	Roll:	-0.328	Pitch:	-29.907	Yaw:	-0.258	Thrust:	100.000
Time:	1.321	Roll Set Point:	0.022	Pitch Set Point:	2.009	Yaw Set Point:	0.003	X_WP:	0.000	Y_WP:	0.000	Y_WP:	0.750	X:	-0.012	Y:	-1.005	Z:	0.044	yaw:	-0.167	yaw rate:	0.212	Roll:	-0.274	Pitch:	-29.932	Yaw:	-0.333	Thrust:	100.000
Time:	1.340	Roll Set Point:	0.022	Pitch Set Point:	2.009	Yaw Set Point:	0.003	X_WP:	0.000	Y_WP:	0.000	Y_WP:	0.750	X:	-0.012	Y:	-1.005	Z:	0.044	yaw:	-0.162	yaw rate:	-0.570	Roll:	-0.399	Pitch:	-29.808	Yaw:	-0.215	Thrust:	100.000
Time:	1.360	Roll Set Point:	0.022	Pitch Set Point:	2.009	Yaw Set Point:	0.003	X_WP:	0.000	Y_WP:	0.000	Y_WP:	0.750	X:	-0.012	Y:	-1.005	Z:	0.044	yaw:	-0.176	yaw rate:	1.416	Roll:	-0.095	Pitch:	-29.918	Yaw:	-0.503	Thrust:	100.000
Time:	1.379	Roll Set Point:	0.021	Pitch Set Point:	2.009	Yaw Set Point:	0.003	X_WP:	0.000	Y_WP:	0.000	Y_WP:	0.750	X:	-0.012	Y:	-1.005	Z:	0.044	yaw:	-0.196	yaw rate:	2.024	Roll:	0.012	Pitch:	-29.879	Yaw:	-0.616	Thrust:	100.000
Time:	1.400	Roll Set Point:	0.021	Pitch Set Point:	2.010	Yaw Set Point:	0.003	X_WP:	0.000	Y_WP:	0.000	Y_WP:	0.750	X:	-0.012	Y:	-1.005	Z:	0.044	yaw:	-0.200	yaw rate:	0.379	Roll:	-0.227	Pitch:	-29.916	Yaw:	-0.406	Thrust:	100.000
Time:	1.420	Roll Set Point:	0.021	Pitch Set Point:	2.009	Yaw Set Point:	0.003	X_WP:	0.000	Y_WP:	0.000	Y_WP:	0.750	X:	-0.012	Y:	-1.005	Z:	0.044	yaw:	-0.197	yaw rate:	-0.314	Roll:	-0.346	Pitch:	-29.870	Yaw:	-0.309	Thrust:	100.000
Time:	1.439	Roll Set Point:	0.019	Pitch Set Point:	2.010	Yaw Set Point:	0.005	X_WP:	0.000	Y_WP:	0.000	Y_WP:	0.750	X:	-0.012	Y:	-1.005	Z:	0.045	yaw:	-0.307	yaw rate:	11.051	Roll:	1.369	Pitch:	-29.900	Yaw:	-2.024	Thrust:	100.000
Time:	1.459	Roll Set Point:	0.015	Pitch Set Point:	2.010	Yaw Set Point:	0.010	X_WP:	0.000	Y_WP:	0.000	Y_WP:	0.750	X:	-0.013	Y:	-1.005	Z:	0.045	yaw:	-0.597	yaw rate:	28.969	Roll:	4.109	Pitch:	-29.941	Yaw:	-4.703	Thrust:	100.000
Time:	1.480	Roll Set Point:	0.015	Pitch Set Point:	2.010	Yaw Set Point:	0.010	X_WP:	0.000	Y_WP:	0.000	Y_WP:	0.750	X:	-0.012	Y:	-1.005	Z:	0.045	yaw:	-0.554	yaw rate:	-4.313	Roll:	-0.643	Pitch:	-30.000	Yaw:	-0.314	Thrust:	100.000
Time:	1.501	Roll Set Point:	0.016	Pitch Set Point:	2.010	Yaw Set Point:	0.009	X_WP:	0.000	Y_WP:	0.000	Y_WP:	0.750	X:	-0.012	Y:	-1.005	Z:	0.045	yaw:	-0.526	yaw rate:	-2.761	Roll:	-0.544	Pitch:	-29.929	Yaw:	-0.497	Thrust:	100.000
Time:	1.522	Roll Set Point:	0.009	Pitch Set Point:	2.011	Yaw Set Point:	0.015	X_WP:	0.000	Y_WP:	0.000	Y_WP:	0.750	X:	-0.012	Y:	-1.005	Z:	0.045	yaw:	-0.875	yaw rate:	34.836	Roll:	5.261	Pitch:	-30.000	Yaw:	-5.877	Thrust:	100.000
Time:	1.540	Roll Set Point:	0.009	Pitch Set Point:	2.011	Yaw Set Point:	0.015	X_WP:	0.000	Y_WP:	0.000	Y_WP:	0.750	X:	-0.012	Y:	-1.005	Z:	0.045	yaw:	-0.879	yaw rate:	0.430	Roll:	0.154	Pitch:	-29.821	Yaw:	-1.379	Thrust:	100.000
Time:	1.559	Roll Set Point:	0.018	Pitch Set Point:	2.010	Yaw Set Point:	0.007	X_WP:	0.000	Y_WP:	0.000	Y_WP:	0.750	X:	-0.012	Y:	-1.005	Z:	0.044	yaw:	-0.385	yaw rate:	-49.388	Roll:	-7.662	Pitch:	-29.465	Yaw:	6.099	Thrust:	100.000
Time:	1.580	Roll Set Point:	0.019	Pitch Set Point:	2.010	Yaw Set Point:	0.005	X_WP:	0.000	Y_WP:	0.000	Y_WP:	0.750	X:	-0.012	Y:	-1.005	Z:	0.044	yaw:	-0.311	yaw rate:	-7.421	Roll:	-1.316	Pitch:	-29.907	Yaw:	0.420	Thrust:	100.000
Time:	1.601	Roll Set Point:	0.019	Pitch Set Point:	2.010	Yaw Set Point:	0.006	X_WP:	0.000	Y_WP:	0.000	Y_WP:	0.750	X:	-0.012	Y:	-1.005	Z:	0.044	yaw:	-0.322	yaw rate:	1.147	Roll:	-0.065	Pitch:	-29.879	Yaw:	-0.708	Thrust:	100.000
Time:	1.619	Roll Set Point:	0.023	Pitch Set Point:	2.010	Yaw Set Point:	0.002	X_WP:	0.000	Y_WP:	0.000	Y_WP:	0.750	X:	-0.012	Y:	-1.005	Z:	0.045	yaw:	-0.122	yaw rate:	-20.080	Roll:	-3.424	Pitch:	-29.761	Yaw:	2.565	Thrust:	100.000
Time:	1.639	Roll Set Point:	0.023	Pitch Set Point:	2.009	Yaw Set Point:	0.002	X_WP:	0.000	Y_WP:	0.000	Y_WP:	0.750	X:	-0.012	Y:	-1.005	Z:	0.044	yaw:	-0.121	yaw rate:	-0.012	Roll:	-0.338	Pitch:	-29.872	Yaw:	-0.281	Thrust:	100.000
Time:	1.662	Roll Set Point:	0.022	Pitch Set Point:	2.010	Yaw Set Point:	0.003	X_WP:	0.000	Y_WP:	0.000	Y_WP:	0.750	X:	-0.012	Y:	-1.005	Z:	0.044	yaw:	-0.164	yaw rate:	4.296	Roll:	0.310	Pitch:	-29.955	Yaw:	-0.860	Thrust:	100.000
Time:	1.682	Roll Set Point:	0.022	Pitch Set Point:	2.009	Yaw Set Point:	0.003	X_WP:	0.000	Y_WP:	0.000	Y_WP:	0.750	X:	-0.012	Y:	-1.005	Z:	0.044	yaw:	-0.166	yaw rate:	0.133	Roll:	-0.291	Pitch:	-29.872	Yaw:	-0.362	Thrust:	100.000
Time:	1.702	Roll Set Point:	0.022	Pitch Set Point:	2.009	Yaw Set Point:	0.003	X_WP:	0.000	Y_WP:	0.000	Y_WP:	0.750	X:	-0.012	Y:	-1.005	Z:	0.044	yaw:	-0.156	yaw rate:	-1.014	Roll:	-0.468	Pitch:	-29.909	Yaw:	-0.213	Thrust:	100.000
Time:	1.722	Roll Set Point:	0.022	Pitch Set Point:	2.009	Yaw Set Point:	0.003	X_WP:	0.000	Y_WP:	0.000	Y_WP:	0.750	X:	-0.012	Y:	-1.005	Z:	0.044	yaw:	-0.148	yaw rate:	-0.729	Roll:	-0.428	Pitch:	-29.843	Yaw:	-0.214	Thrust:	100.000
Time:	1.740	Roll Set Point:	0.022	Pitch Set Point:	2.009	Yaw Set Point:	0.003	X_WP:	0.000	Y_WP:	0.000	Y_WP:	0.750	X:	-0.012	Y:	-1.005	Z:	0.044	yaw:	-0.147	yaw rate:	-0.125	Roll:	-0.341	Pitch:	-29.865	Yaw:	-0.297	Thrust:	100.000
Time:	1.760	Roll Set Point:	0.022	Pitch Set Point:	2.009	Yaw Set Point:	0.003	X_WP:	0.000	Y_WP:	0.000	Y_WP:	0.750	X:	-0.012	Y:	-1.005	Z:	0.044	yaw:	-0.150	yaw rate:	0.248	Roll:	-0.269	Pitch:	-29.851	Yaw:	-0.360	Thrust:	100.000
Time:	1.779	Roll Set Point:	0.022	Pitch Set Point:	2.009	Yaw Set Point:	0.003	X_WP:	0.000	Y_WP:	0.000	Y_WP:	0.750	X:	-0.012	Y:	-1.005	Z:	0.044	yaw:	-0.159	yaw rate:	0.970	Roll:	-0.186	Pitch:	-29.872	Yaw:	-0.470	Thrust:	100.000
Time:	1.799	Roll Set Point:	0.022	Pitch Set Point:	2.010	Yaw Set Point:	0.002	X_WP:	0.000	Y_WP:	0.000	Y_WP:	0.750	X:	-0.012	Y:	-1.005	Z:	0.044	yaw:	-0.140	yaw rate:	-1.919	Roll:	-0.587	Pitch:	-29.953	Yaw:	-0.076	Thrust:	100.000
Time:	1.818	Roll Set Point:	0.022	Pitch Set Point:	2.009	Yaw Set Point:	0.003	X_WP:	0.000	Y_WP:	0.000	Y_WP:	0.750	X:	-0.012	Y:	-1.005	Z:	0.044	yaw:	-0.153	yaw rate:	1.268	Roll:	-0.139	Pitch:	-29.823	Yaw:	-0.504	Thrust:	100.000
Time:	1.838	Roll Set Point:	0.022	Pitch Set Point:	2.009	Yaw Set Point:	0.003	X_WP:	0.000	Y_WP:	0.000	Y_WP:	0.750	X:	-0.012	Y:	-1.005	Z:	0.044	yaw:	-0.175	yaw rate:	2.189	Roll:	0.017	Pitch:	-29.898	Yaw:	-0.653	Thrust:	100.000
Time:	1.858	Roll Set Point:	0.022	Pitch Set Point:	2.010	Yaw Set Point:	0.003	X_WP:	0.000	Y_WP:	0.000	Y_WP:	0.750	X:	-0.012	Y:	-1.005	Z:	0.044	yaw:	-0.166	yaw rate:	-0.895	Roll:	-0.451	Pitch:	-29.913	Yaw:	-0.239	Thrust:	100.000
Time:	1.879	Roll Set Point:	0.022	Pitch Set Point:	2.009	Yaw Set Point:	0.003	X_WP:	0.000	Y_WP:	0.000	Y_WP:	0.750	X:	-0.012	Y:	-1.005	Z:	0.044	yaw:	-0.146	yaw rate:	-1.948	Roll:	-0.615	Pitch:	-29.870	Yaw:	-0.077	Thrust:	100.000
Time:	1.899	Roll Set Point:	0.022	Pitch Set Point:	2.009	Yaw Set Point:	0.003	X_WP:	0.000	Y_WP:	0.000	Y_WP:	0.750	X:	-0.012	Y:	-1.005	Z:	0.044	yaw:	-0.162	yaw rate:	1.553	Roll:	-0.108	Pitch:	-29.886	Yaw:	-0.554	Thrust:	100.000
Time:	1.920	Roll Set Point:	0.022	Pitch Set Point:	2.009	Yaw Set Point:	0.003	X_WP:	0.000	Y_WP:	0.000	Y_WP:	0.750	X:	-0.012	Y:	-1.005	Z:	0.044	yaw:	-0.156	yaw rate:	-0.585	Roll:	-0.404	Pitch:	-29.933	Yaw:	-0.272	Thrust:	100.000
Time:	1.939	Roll Set Point:	0.022	Pitch Set Point:	2.009	Yaw Set Point:	0.003	X_WP:	0.000	Y_WP:	0.000	Y_WP:	0.750	X:	-0.012	Y:	-1.005	Z:	0.044	yaw:	-0.152	yaw rate:	-0.335	Roll:	-0.359	Pitch:	-29.842	Yaw:	-0.293	Thrust:	100.000
Time:	1.959	Roll Set Point:	0.022	Pitch Set Point:	2.009	Yaw Set Point:	0.003	X_WP:	0.000	Y_WP:	0.000	Y_WP:	0.750	X:	-0.012	Y:	-1.005	Z:	0.044	yaw:	-0.148	yaw rate:	-0.433	Roll:	-0.409	Pitch:	-29.897	Yaw:	-0.283	Thrust:	100.000
Time:	1.979	Roll Set Point:	0.022	Pitch Set Point:	2.010	Yaw Set Point:	0.003	X_WP:	0.000	Y_WP:	0.000	Y_WP:	0.750	X:	-0.012	Y:	-1.005	Z:	0.044	yaw:	-0.177	yaw rate:	2.928	Roll:	0.128	Pitch:	-29.900	Yaw:	-0.764	Thrust:	100.000
Time:	1.999	Roll Set Point:	0.022	Pitch Set Point:	2.009	Yaw Set Point:	0.002	X_WP:	0.000	Y_WP:	0.000	Y_WP:	0.750	X:	-0.012	Y:	-1.005	Z:	0.044	yaw:	-0.134	yaw rate:	-4.378	Roll:	-0.986	Pitch:	-29.900	Yaw:	0.243	Thrust:	100.000
Time:	2.019	Roll Set Point:	0.022	Pitch Set Point:	2.009	Yaw Set Point:	0.003	X_WP:	0.000	Y_WP:	0.000	Y_WP:	0.750	X:	-0.012	Y:	-1.005	Z:	0.044	yaw:	-0.167	yaw rate:	3.295	Roll:	0.176	Pitch:	-29.881	Yaw:	-0.801	Thrust:	100.000
Time:	2.039	Roll Set Point:	0.022	Pitch Set Point:	2.009	Yaw Set Point:	0.003	X_WP:	0.000	Y_WP:	0.000	Y_WP:	0.750	X:	-0.012	Y:	-1.005	Z:	0.044	yaw:	-0.161	yaw rate:	-0.576	Roll:	-0.420	Pitch:	-29.855	Yaw:	-0.284	Thrust:	100.000
Time:	2.059	Roll Set Point:	0.022	Pitch Set Point:	2.009	Yaw Set Point:	0.003	X_WP:	0.000	Y_WP:	0.000	Y_WP:	0.750	X:	-0.012	Y:	-1.005	Z:	0.044	yaw:	-0.167	yaw rate:	0.654	Roll:	-0.215	Pitch:	-29.912	Yaw:	-0.454	Thrust:	100.000
Time:	2.079	Roll Set Point:	0.022	Pitch Set Point:	2.009	Yaw Set Point:	0.003	X_WP:	0.000	Y_WP:	0.000	Y_WP:	0.750	X:	-0.012	Y:	-1.005	Z:	0.044	yaw:	-0.150	yaw rate:	-1.771	Roll:	-0.583	Pitch:	-29.881	Yaw:	-0.115	Thrust:	100.000
Time:	2.101	Roll Set Point:	0.022	Pitch Set Point:	2.009	Yaw Set Point:	0.003	X_WP:	0.000	Y_WP:	0.000	Y_WP:	0.750	X:	-0.012	Y:	-1.005	Z:	0.044	yaw:	-0.152	yaw rate:	0.219	Roll:	-0.287	Pitch:	-29.941	Yaw:	-0.393	Thrust:	100.000
Time:	2.121	Roll Set Point:	0.022	Pitch Set Point:	2.010	Yaw Set Point:	0.003	X_WP:	0.000	Y_WP:	0.000	Y_WP:	0.750	X:	-0.012	Y:	-1.005	Z:	0.044	yaw:	-0.174	yaw rate:	2.220	Roll:	0.001	Pitch:	-29.905	Yaw:	-0.671	Thrust:	100.000
Time:	2.139	Roll Set Point:	0.022	Pitch Set Point:	2.009	Yaw Set Point:	0.003	X_WP:	0.000	Y_WP:	0.000	Y_WP:	0.750	X:	-0.012	Y:	-1.005	Z:	0.044	yaw:	-0.153	yaw rate:	-2.104	Roll:	-0.653	Pitch:	-29.805	Yaw:	-0.012	Thrust:	100.000
Time:	2.159	Roll Set Point:	0.022	Pitch Set Point:	2.009	Yaw Set Point:	0.003	X_WP:	0.000	Y_WP:	0.000	Y_WP:	0.750	X:	-0.012	Y:	-1.005	Z:	0.044	yaw:	-0.177	yaw rate:	2.403	Roll:	0.018	Pitch:	-29.886	Yaw:	-0.702	Thrust:	100.000
Time:	2.179	Roll Set Point:	0.022	Pitch Set Point:	2.009	Yaw Set Point:	0.003	X_WP:	0.000	Y_WP:	0.000	Y_WP:	0.750	X:	-0.012	Y:	-1.005	Z:	0.044	yaw:	-0.159	yaw rate:	-1.822	Roll:	-0.559	Pitch:	-29.941	Yaw:	-0.138	Thrust:	100.000
Time:	2.199	Roll Set Point:	0.022	Pitch Set Point:	2.009	Yaw Set Point:	0.003	X_WP:	0.000	Y_WP:	0.000	Y_WP:	0.750	X:	-0.012	Y:	-1.005	Z:	0.044	yaw:	-0.163	yaw rate:	0.449	Roll:	-0.267	Pitch:	-29.837	Yaw:	-0.429	Thrust:	100.000
Time:	2.219	Roll Set Point:	0.022	Pitch Set Point:	2.009	Yaw Set Point:	0.003	X_WP:	0.000	Y_WP:	0.000	Y_WP:	0.750	X:	-0.012	Y:	-1.005	Z:	0.044	yaw:	-0.152	yaw rate:	-1.129	Roll:	-0.501	Pitch:	-29.888	Yaw:	-0.203	Thrust:	100.000
Time:	2.239	Roll Set Point:	0.022	Pitch Set Point:	2.009	Yaw Set Point:	0.003	X_WP:	0.000	Y_WP:	0.000	Y_WP:	0.750	X:	-0.012	Y:	-1.005	Z:	0.044	yaw:	-0.165	yaw rate:	1.283	Roll:	-0.102	Pitch:	-29.872	Yaw:	-0.543	Thrust:	100.000
Time:	2.259	Roll Set Point:	0.022	Pitch Set Point:	2.010	Yaw Set Point:	0.003	X_WP:	0.000	Y_WP:	0.000	Y_WP:	0.750	X:	-0.012	Y:	-1.005	Z:	0.044	yaw:	-0.175	yaw rate:	0.978	Roll:	-0.163	Pitch:	-29.934	Yaw:	-0.518	Thrust:	100.000
Time:	2.279	Roll Set Point:	0.022	Pitch Set Point:	2.009	Yaw Set Point:	0.002	X_WP:	0.000	Y_WP:	0.000	Y_WP:	0.750	X:	-0.012	Y:	-1.005	Z:	0.044	yaw:	-0.143	yaw rate:	-3.185	Roll:	-0.800	Pitch:	-29.850	Yaw:	0.063	Thrust:	100.000
Time:	2.299	Roll Set Point:	0.022	Pitch Set Point:	2.009	Yaw Set Point:	0.003	X_WP:	0.000	Y_WP:	0.000	Y_WP:	0.750	X:	-0.012	Y:	-1.005	Z:	0.044	yaw:	-0.165	yaw rate:	2.202	Roll:	0.003	Pitch:	-29.891	Yaw:	-0.664	Thrust:	100.000
Time:	2.320	Roll Set Point:	0.022	Pitch Set Point:	2.010	Yaw Set Point:	0.003	X_WP:	0.000	Y_WP:	0.000	Y_WP:	0.750	X:	-0.012	Y:	-1.005	Z:	0.044	yaw:	-0.154	yaw rate:	-1.044	Roll:	-0.463	Pitch:	-29.920	Yaw:	-0.219	Thrust:	100.000
Time:	2.339	Roll Set Point:	0.022	Pitch Set Point:	2.009	Yaw Set Point:	0.003	X_WP:	0.000	Y_WP:	0.000	Y_WP:	0.750	X:	-0.012	Y:	-1.005	Z:	0.044	yaw:	-0.172	yaw rate:	1.811	Roll:	-0.071	Pitch:	-29.860	Yaw:	-0.627	Thrust:	100.000
Time:	2.359	Roll Set Point:	0.022	Pitch Set Point:	2.009	Yaw Set Point:	0.003	X_WP:	0.000	Y_WP:	0.000	Y_WP:	0.750	X:	-0.012	Y:	-1.005	Z:	0.044	yaw:	-0.156	yaw rate:	-1.671	Roll:	-0.592	Pitch:	-29.868	Yaw:	-0.137	Thrust:	100.000
Time:	2.387	Roll Set Point:	0.022	Pitch Set Point:	2.010	Yaw Set Point:	0.003	X_WP:	0.000	Y_WP:	0.000	Y_WP:	0.750	X:	-0.012	Y:	-1.005	Z:	0.044	yaw:	-0.168	yaw rate:	1.244	Roll:	-0.185	Pitch:	-30.000	Yaw:	-0.565	Thrust:	100.000
Time:	2.399	Roll Set Point:	0.022	Pitch Set Point:	2.009	Yaw Set Point:	0.003	X_WP:	0.000	Y_WP:	0.000	Y_WP:	0.750	X:	-0.012	Y:	-1.005	Z:	0.044	yaw:	-0.167	yaw rate:	-0.118	Roll:	-0.337	Pitch:	-29.604	Yaw:	-0.311	Thrust:	100.000
Time:	2.419	Roll Set Point:	0.022	Pitch Set Point:	2.009	Yaw Set Point:	0.003	X_WP:	0.000	Y_WP:	0.000	Y_WP:	0.750	X:	-0.012	Y:	-1.005	Z:	0.044	yaw:	-0.176	yaw rate:	0.934	Roll:	-0.207	Pitch:	-29.813	Yaw:	-0.524	Thrust:	100.000
Time:	2.438	Roll Set Point:	0.022	Pitch Set Point:	2.009	Yaw Set Point:	0.003	X_WP:	0.000	Y_WP:	0.000	Y_WP:	0.750	X:	-0.012	Y:	-1.005	Z:	0.044	yaw:	-0.162	yaw rate:	-1.396	Roll:	-0.510	Pitch:	-29.929	Yaw:	-0.184	Thrust:	100.000
Time:	2.458	Roll Set Point:	0.022	Pitch Set Point:	2.009	Yaw Set Point:	0.003	X_WP:	0.000	Y_WP:	0.000	Y_WP:	0.750	X:	-0.012	Y:	-1.005	Z:	0.044	yaw:	-0.160	yaw rate:	-0.256	Roll:	-0.375	Pitch:	-29.887	Yaw:	-0.348	Thrust:	100.000
Time:	2.479	Roll Set Point:	0.022	Pitch Set Point:	2.009	Yaw Set Point:	0.003	X_WP:	0.000	Y_WP:	0.000	Y_WP:	0.750	X:	-0.012	Y:	-1.005	Z:	0.044	yaw:	-0.174	yaw rate:	1.405	Roll:	-0.116	Pitch:	-29.884	Yaw:	-0.585	Thrust:	100.000
Time:	2.500	Roll Set Point:	0.022	Pitch Set Point:	2.009	Yaw Set Point:	0.003	X_WP:	0.000	Y_WP:	0.000	Y_WP:	0.750	X:	-0.012	Y:	-1.005	Z:	0.044	yaw:	-0.163	yaw rate:	-1.138	Roll:	-0.503	Pitch:	-29.914	Yaw:	-0.252	Thrust:	100.000
Time:	2.523	Roll Set Point:	0.022	Pitch Set Point:	2.009	Yaw Set Point:	0.002	X_WP:	0.000	Y_WP:	0.000	Y_WP:	0.750	X:	-0.012	Y:	-1.005	Z:	0.044	yaw:	-0.141	yaw rate:	-2.172	Roll:	-0.620	Pitch:	-29.974	Yaw:	-0.129	Thrust:	100.000
Time:	2.541	Roll Set Point:	0.022	Pitch Set Point:	2.009	Yaw Set Point:	0.003	X_WP:	0.000	Y_WP:	0.000	Y_WP:	0.750	X:	-0.012	Y:	-1.005	Z:	0.044	yaw:	-0.157	yaw rate:	1.647	Roll:	-0.104	Pitch:	-29.821	Yaw:	-0.606	Thrust:	100.000
Time:	2.560	Roll Set Point:	0.022	Pitch Set Point:	2.009	Yaw Set Point:	0.003	X_WP:	0.000	Y_WP:	0.000	Y_WP:	0.750	X:	-0.012	Y:	-1.005	Z:	0.044	yaw:	-0.153	yaw rate:	-0.433	Roll:	-0.399	Pitch:	-29.860	Yaw:	-0.320	Thrust:	100.000
Time:	2.583	Roll Set Point:	0.022	Pitch Set Point:	2.009	Yaw Set Point:	0.003	X_WP:	0.000	Y_WP:	0.000	Y_WP:	0.750	X:	-0.012	Y:	-1.005	Z:	0.044	yaw:	-0.166	yaw rate:	1.316	Roll:	-0.141	Pitch:	-29.980	Yaw:	-0.569	Thrust:	100.000
Time:	2.601	Roll Set Point:	0.022	Pitch Set Point:	2.009	Yaw Set Point:	0.003	X_WP:	0.000	Y_WP:	0.000	Y_WP:	0.750	X:	-0.012	Y:	-1.005	Z:	0.044	yaw:	-0.160	yaw rate:	-0.620	Roll:	-0.421	Pitch:	-29.835	Yaw:	-0.288	Thrust:	100.000
Time:	2.620	Roll Set Point:	0.022	Pitch Set Point:	2.009	Yaw Set Point:	0.003	X_WP:	0.000	Y_WP:	0.000	Y_WP:	0.750	X:	-0.012	Y:	-1.005	Z:	0.044	yaw:	-0.163	yaw rate:	0.281	Roll:	-0.302	Pitch:	-29.876	Yaw:	-0.426	Thrust:	100.000
Time:	2.641	Roll Set Point:	0.022	Pitch Set Point:	2.009	Yaw Set Point:	0.002	X_WP:	0.000	Y_WP:	0.000	Y_WP:	0.750	X:	-0.012	Y:	-1.005	Z:	0.044	yaw:	-0.136	yaw rate:	-2.710	Roll:	-0.741	Pitch:	-29.890	Yaw:	-0.005	Thrust:	100.000
Time:	2.660	Roll Set Point:	0.022	Pitch Set Point:	2.010	Yaw Set Point:	0.003	X_WP:	0.000	Y_WP:	0.000	Y_WP:	0.750	X:	-0.012	Y:	-1.005	Z:	0.044	yaw:	-0.161	yaw rate:	2.558	Roll:	0.072	Pitch:	-29.904	Yaw:	-0.732	Thrust:	100.000
Time:	2.681	Roll Set Point:	0.022	Pitch Set Point:	2.009	Yaw Set Point:	0.003	X_WP:	0.000	Y_WP:	0.000	Y_WP:	0.750	X:	-0.012	Y:	-1.005	Z:	0.044	yaw:	-0.168	yaw rate:	0.696	Roll:	-0.264	Pitch:	-29.874	Yaw:	-0.499	Thrust:	100.000
Time:	2.702	Roll Set Point:	0.022	Pitch Set Point:	2.009	Yaw Set Point:	0.003	X_WP:	0.000	Y_WP:	0.000	Y_WP:	0.750	X:	-0.012	Y:	-1.005	Z:	0.044	yaw:	-0.150	yaw rate:	-1.814	Roll:	-0.575	Pitch:	-29.911	Yaw:	-0.168	Thrust:	100.000
Time:	2.723	Roll Set Point:	0.022	Pitch Set Point:	2.009	Yaw Set Point:	0.003	X_WP:	0.000	Y_WP:	0.000	Y_WP:	0.750	X:	-0.012	Y:	-1.005	Z:	0.044	yaw:	-0.149	yaw rate:	-0.125	Roll:	-0.366	Pitch:	-29.949	Yaw:	-0.375	Thrust:	100.000
Time:	2.741	Roll Set Point:	0.022	Pitch Set Point:	2.009	Yaw Set Point:	0.003	X_WP:	0.000	Y_WP:	0.000	Y_WP:	0.750	X:	-0.012	Y:	-1.005	Z:	0.044	yaw:	-0.164	yaw rate:	1.549	Roll:	-0.096	Pitch:	-29.805	Yaw:	-0.611	Thrust:	100.000
Time:	2.760	Roll Set Point:	0.022	Pitch Set Point:	2.009	Yaw Set Point:	0.003	X_WP:	0.000	Y_WP:	0.000	Y_WP:	0.750	X:	-0.012	Y:	-1.005	Z:	0.044	yaw:	-0.158	yaw rate:	-0.597	Roll:	-0.424	Pitch:	-29.876	Yaw:	-0.301	Thrust:	100.000
Time:	2.782	Roll Set Point:	0.022	Pitch Set Point:	2.009	Yaw Set Point:	0.003	X_WP:	0.000	Y_WP:	0.000	Y_WP:	0.750	X:	-0.012	Y:	-1.005	Z:	0.044	yaw:	-0.145	yaw rate:	-1.352	Roll:	-0.534	Pitch:	-29.887	Yaw:	-0.231	Thrust:	100.000
Time:	2.801	Roll Set Point:	0.022	Pitch Set Point:	2.009	Yaw Set Point:	0.003	X_WP:	0.000	Y_WP:	0.000	Y_WP:	0.750	X:	-0.012	Y:	-1.005	Z:	0.044	yaw:	-0.169	yaw rate:	2.434	Roll:	-0.007	Pitch:	-29.925	Yaw:	-0.734	Thrust:	100.000
Time:	2.821	Roll Set Point:	0.022	Pitch Set Point:	2.009	Yaw Set Point:	0.003	X_WP:	0.000	Y_WP:	0.000	Y_WP:	0.750	X:	-0.012	Y:	-1.005	Z:	0.044	yaw:	-0.154	yaw rate:	-1.559	Roll:	-0.576	Pitch:	-29.877	Yaw:	-0.193	Thrust:	100.000
Time:	2.840	Roll Set Point:	0.022	Pitch Set Point:	2.009	Yaw Set Point:	0.003	X_WP:	0.000	Y_WP:	0.000	Y_WP:	0.750	X:	-0.012	Y:	-1.005	Z:	0.044	yaw:	-0.165	yaw rate:	1.153	Roll:	-0.166	Pitch:	-29.850	Yaw:	-0.559	Thrust:	100.000
Time:	2.862	Roll Set Point:	0.022	Pitch Set Point:	2.009	Yaw Set Point:	0.003	X_WP:	0.000	Y_WP:	0.000	Y_WP:	0.750	X:	-0.012	Y:	-1.005	Z:	0.044	yaw:	-0.145	yaw rate:	-2.041	Roll:	-0.653	Pitch:	-29.890	Yaw:	-0.121	Thrust:	100.000
Time:	2.880	Roll Set Point:	0.022	Pitch Set Point:	2.009	Yaw Set Point:	0.003	X_WP:	0.000	Y_WP:	0.000	Y_WP:	0.750	X:	-0.012	Y:	-1.005	Z:	0.044	yaw:	-0.171	yaw rate:	2.594	Roll:	0.041	Pitch:	-29.905	Yaw:	-0.762	Thrust:	100.000
Time:	2.901	Roll Set Point:	0.022	Pitch Set Point:	2.009	Yaw Set Point:	0.003	X_WP:	0.000	Y_WP:	0.000	Y_WP:	0.750	X:	-0.012	Y:	-1.005	Z:	0.044	yaw:	-0.169	yaw rate:	-0.134	Roll:	-0.343	Pitch:	-29.909	Yaw:	-0.404	Thrust:	100.000
Time:	2.924	Roll Set Point:	0.022	Pitch Set Point:	2.009	Yaw Set Point:	0.003	X_WP:	0.000	Y_WP:	0.000	Y_WP:	0.750	X:	-0.012	Y:	-1.005	Z:	0.044	yaw:	-0.162	yaw rate:	-0.683	Roll:	-0.447	Pitch:	-29.959	Yaw:	-0.359	Thrust:	100.000
Time:	2.939	Roll Set Point:	0.022	Pitch Set Point:	2.009	Yaw Set Point:	0.003	X_WP:	0.000	Y_WP:	0.000	Y_WP:	0.750	X:	-0.012	Y:	-1.005	Z:	0.044	yaw:	-0.169	yaw rate:	0.639	Roll:	-0.223	Pitch:	-29.775	Yaw:	-0.487	Thrust:	100.000
Time:	2.959	Roll Set Point:	0.022	Pitch Set Point:	2.009	Yaw Set Point:	0.003	X_WP:	0.000	Y_WP:	0.000	Y_WP:	0.750	X:	-0.012	Y:	-1.005	Z:	0.044	yaw:	-0.150	yaw rate:	-1.923	Roll:	-0.639	Pitch:	-29.842	Yaw:	-0.150	Thrust:	100.000
Time:	2.979	Roll Set Point:	0.022	Pitch Set Point:	2.009	Yaw Set Point:	0.003	X_WP:	0.000	Y_WP:	0.000	Y_WP:	0.750	X:	-0.012	Y:	-1.005	Z:	0.044	yaw:	-0.152	yaw rate:	0.197	Roll:	-0.324	Pitch:	-29.882	Yaw:	-0.417	Thrust:	100.000
Time:	3.001	Roll Set Point:	0.022	Pitch Set Point:	2.009	Yaw Set Point:	0.003	X_WP:	0.000	Y_WP:	0.000	Y_WP:	0.750	X:	-0.012	Y:	-1.005	Z:	0.044	yaw:	-0.153	yaw rate:	0.105	Roll:	-0.323	Pitch:	-29.970	Yaw:	-0.433	Thrust:	100.000
Time:	3.019	Roll Set Point:	0.022	Pitch Set Point:	2.009	Yaw Set Point:	0.003	X_WP:	0.000	Y_WP:	0.000	Y_WP:	0.750	X:	-0.012	Y:	-1.005	Z:	0.044	yaw:	-0.144	yaw rate:	-0.851	Roll:	-0.481	Pitch:	-29.854	Yaw:	-0.256	Thrust:	100.000
Time:	3.039	Roll Set Point:	0.022	Pitch Set Point:	2.009	Yaw Set Point:	0.003	X_WP:	0.000	Y_WP:	0.000	Y_WP:	0.750	X:	-0.012	Y:	-1.005	Z:	0.044	yaw:	-0.152	yaw rate:	0.787	Roll:	-0.232	Pitch:	-29.867	Yaw:	-0.505	Thrust:	100.000
Time:	3.059	Roll Set Point:	0.022	Pitch Set Point:	2.009	Yaw Set Point:	0.003	X_WP:	0.000	Y_WP:	0.000	Y_WP:	0.750	X:	-0.012	Y:	-1.005	Z:	0.044	yaw:	-0.154	yaw rate:	0.180	Roll:	-0.327	Pitch:	-29.879	Yaw:	-0.424	Thrust:	100.000
Time:	3.079	Roll Set Point:	0.022	Pitch Set Point:	2.010	Yaw Set Point:	0.003	X_WP:	0.000	Y_WP:	0.000	Y_WP:	0.750	X:	-0.012	Y:	-1.005	Z:	0.044	yaw:	-0.167	yaw rate:	1.301	Roll:	-0.151	Pitch:	-29.920	Yaw:	-0.597	Thrust:	100.000
Time:	3.098	Roll Set Point:	0.022	Pitch Set Point:	2.009	Yaw Set Point:	0.003	X_WP:	0.000	Y_WP:	0.000	Y_WP:	0.750	X:	-0.012	Y:	-1.005	Z:	0.044	yaw:	-0.160	yaw rate:	-0.677	Roll:	-0.454	Pitch:	-29.857	Yaw:	-0.315	Thrust:	100.000
Time:	3.121	Roll Set Point:	0.022	Pitch Set Point:	2.009	Yaw Set Point:	0.003	X_WP:	0.000	Y_WP:	0.000	Y_WP:	0.750	X:	-0.012	Y:	-1.005	Z:	0.044	yaw:	-0.162	yaw rate:	0.196	Roll:	-0.330	Pitch:	-29.942	Yaw:	-0.466	Thrust:	100.000
Time:	3.139	Roll Set Point:	0.022	Pitch Set Point:	2.009	Yaw Set Point:	0.003	X_WP:	0.000	Y_WP:	0.000	Y_WP:	0.750	X:	-0.012	Y:	-1.005	Z:	0.044	yaw:	-0.154	yaw rate:	-0.841	Roll:	-0.479	Pitch:	-29.847	Yaw:	-0.278	Thrust:	100.000
Time:	3.159	Roll Set Point:	0.022	Pitch Set Point:	2.010	Yaw Set Point:	0.003	X_WP:	0.000	Y_WP:	0.000	Y_WP:	0.750	X:	-0.012	Y:	-1.005	Z:	0.044	yaw:	-0.159	yaw rate:	0.522	Roll:	-0.245	Pitch:	-29.884	Yaw:	-0.486	Thrust:	100.000
Time:	3.180	Roll Set Point:	0.022	Pitch Set Point:	2.009	Yaw Set Point:	0.003	X_WP:	0.000	Y_WP:	0.000	Y_WP:	0.750	X:	-0.012	Y:	-1.005	Z:	0.044	yaw:	-0.159	yaw rate:	0.046	Roll:	-0.344	Pitch:	-29.912	Yaw:	-0.436	Thrust:	100.000
Time:	3.200	Roll Set Point:	0.022	Pitch Set Point:	2.009	Yaw Set Point:	0.003	X_WP:	0.000	Y_WP:	0.000	Y_WP:	0.750	X:	-0.012	Y:	-1.005	Z:	0.044	yaw:	-0.159	yaw rate:	-0.022	Roll:	-0.377	Pitch:	-29.878	Yaw:	-0.410	Thrust:	100.000
Time:	3.219	Roll Set Point:	0.021	Pitch Set Point:	2.010	Yaw Set Point:	0.003	X_WP:	0.000	Y_WP:	0.000	Y_WP:	0.750	X:	-0.012	Y:	-1.005	Z:	0.044	yaw:	-0.179	yaw rate:	1.965	Roll:	-0.025	Pitch:	-29.909	Yaw:	-0.708	Thrust:	100.000
Time:	3.239	Roll Set Point:	0.022	Pitch Set Point:	2.009	Yaw Set Point:	0.003	X_WP:	0.000	Y_WP:	0.000	Y_WP:	0.750	X:	-0.012	Y:	-1.005	Z:	0.044	yaw:	-0.171	yaw rate:	-0.810	Roll:	-0.477	Pitch:	-29.847	Yaw:	-0.334	Thrust:	100.000
Time:	3.259	Roll Set Point:	0.022	Pitch Set Point:	2.009	Yaw Set Point:	0.002	X_WP:	0.000	Y_WP:	0.000	Y_WP:	0.750	X:	-0.012	Y:	-1.005	Z:	0.044	yaw:	-0.143	yaw rate:	-2.800	Roll:	-0.780	Pitch:	-29.869	Yaw:	-0.028	Thrust:	100.000
Time:	3.278	Roll Set Point:	0.022	Pitch Set Point:	2.009	Yaw Set Point:	0.003	X_WP:	0.000	Y_WP:	0.000	Y_WP:	0.750	X:	-0.012	Y:	-1.005	Z:	0.044	yaw:	-0.176	yaw rate:	3.328	Roll:	0.166	Pitch:	-29.909	Yaw:	-0.891	Thrust:	100.000
Time:	3.298	Roll Set Point:	0.022	Pitch Set Point:	2.009	Yaw Set Point:	0.003	X_WP:	0.000	Y_WP:	0.000	Y_WP:	0.750	X:	-0.012	Y:	-1.005	Z:	0.044	yaw:	-0.164	yaw rate:	-1.204	Roll:	-0.511	Pitch:	-29.880	Yaw:	-0.271	Thrust:	100.000
Time:	3.319	Roll Set Point:	0.022	Pitch Set Point:	2.009	Yaw Set Point:	0.003	X_WP:	0.000	Y_WP:	0.000	Y_WP:	0.750	X:	-0.012	Y:	-1.005	Z:	0.044	yaw:	-0.167	yaw rate:	0.272	Roll:	-0.320	Pitch:	-29.923	Yaw:	-0.481	Thrust:	100.000
Time:	3.339	Roll Set Point:	0.022	Pitch Set Point:	2.009	Yaw Set Point:	0.003	X_WP:	0.000	Y_WP:	0.000	Y_WP:	0.750	X:	-0.012	Y:	-1.005	Z:	0.044	yaw:	-0.178	yaw rate:	1.121	Roll:	-0.190	Pitch:	-29.857	Yaw:	-0.601	Thrust:	100.000
Time:	3.372	Roll Set Point:	0.022	Pitch Set Point:	2.010	Yaw Set Point:	0.003	X_WP:	0.000	Y_WP:	0.000	Y_WP:	0.750	X:	-0.012	Y:	-1.005	Z:	0.044	yaw:	-0.174	yaw rate:	-0.361	Roll:	-0.412	Pitch:	-30.000	Yaw:	-0.560	Thrust:	100.000
Time:	3.388	Roll Set Point:	0.022	Pitch Set Point:	2.009	Yaw Set Point:	0.003	X_WP:	0.000	Y_WP:	0.000	Y_WP:	0.750	X:	-0.012	Y:	-1.005	Z:	0.044	yaw:	-0.157	yaw rate:	-1.669	Roll:	-0.633	Pitch:	-29.731	Yaw:	-0.129	Thrust:	100.000
Time:	3.409	Roll Set Point:	0.022	Pitch Set Point:	2.009	Yaw Set Point:	0.003	X_WP:	0.000	Y_WP:	0.000	Y_WP:	0.750	X:	-0.012	Y:	-1.005	Z:	0.044	yaw:	-0.157	yaw rate:	0.002	Roll:	-0.359	Pitch:	-29.891	Yaw:	-0.432	Thrust:	100.000
Time:	3.428	Roll Set Point:	0.022	Pitch Set Point:	2.009	Yaw Set Point:	0.003	X_WP:	0.000	Y_WP:	0.000	Y_WP:	0.750	X:	-0.012	Y:	-1.005	Z:	0.044	yaw:	-0.167	yaw rate:	0.930	Roll:	-0.206	Pitch:	-29.872	Yaw:	-0.563	Thrust:	100.000
Time:	3.451	Roll Set Point:	0.022	Pitch Set Point:	2.009	Yaw Set Point:	0.003	X_WP:	0.000	Y_WP:	0.000	Y_WP:	0.750	X:	-0.012	Y:	-1.005	Z:	0.044	yaw:	-0.166	yaw rate:	-0.051	Roll:	-0.367	Pitch:	-30.000	Yaw:	-0.476	Thrust:	100.000
Time:	3.477	Roll Set Point:	0.022	Pitch Set Point:	2.009	Yaw Set Point:	0.003	X_WP:	0.000	Y_WP:	0.000	Y_WP:	0.750	X:	-0.012	Y:	-1.005	Z:	0.044	yaw:	-0.167	yaw rate:	0.045	Roll:	-0.368	Pitch:	-30.000	Yaw:	-0.511	Thrust:	100.000
Time:	3.488	Roll Set Point:	0.022	Pitch Set Point:	2.009	Yaw Set Point:	0.003	X_WP:	0.000	Y_WP:	0.000	Y_WP:	0.750	X:	-0.012	Y:	-1.005	Z:	0.044	yaw:	-0.153	yaw rate:	-1.365	Roll:	-0.709	Pitch:	-29.552	Yaw:	-0.019	Thrust:	100.000
Time:	3.509	Roll Set Point:	0.022	Pitch Set Point:	2.010	Yaw Set Point:	0.003	X_WP:	0.000	Y_WP:	0.000	Y_WP:	0.750	X:	-0.012	Y:	-1.005	Z:	0.044	yaw:	-0.160	yaw rate:	0.735	Roll:	-0.222	Pitch:	-29.883	Yaw:	-0.539	Thrust:	100.000
Time:	3.528	Roll Set Point:	0.022	Pitch Set Point:	2.010	Yaw Set Point:	0.003	X_WP:	0.000	Y_WP:	0.000	Y_WP:	0.750	X:	-0.012	Y:	-1.005	Z:	0.044	yaw:	-0.170	yaw rate:	0.999	Roll:	-0.205	Pitch:	-29.904	Yaw:	-0.583	Thrust:	100.000
Time:	3.549	Roll Set Point:	0.022	Pitch Set Point:	2.009	Yaw Set Point:	0.003	X_WP:	0.000	Y_WP:	0.000	Y_WP:	0.750	X:	-0.012	Y:	-1.005	Z:	0.044	yaw:	-0.170	yaw rate:	-0.026	Roll:	-0.360	Pitch:	-29.893	Yaw:	-0.458	Thrust:	100.000
Time:	3.569	Roll Set Point:	0.022	Pitch Set Point:	2.009	Yaw Set Point:	0.003	X_WP:	0.000	Y_WP:	0.000	Y_WP:	0.750	X:	-0.012	Y:	-1.005	Z:	0.044	yaw:	-0.172	yaw rate:	0.174	Roll:	-0.334	Pitch:	-29.885	Yaw:	-0.489	Thrust:	100.000
Time:	3.593	Roll Set Point:	0.022	Pitch Set Point:	2.010	Yaw Set Point:	0.003	X_WP:	0.000	Y_WP:	0.000	Y_WP:	0.750	X:	-0.012	Y:	-1.005	Z:	0.044	yaw:	-0.157	yaw rate:	-1.518	Roll:	-0.552	Pitch:	-30.000	Yaw:	-0.310	Thrust:	100.000
Time:	3.619	Roll Set Point:	0.022	Pitch Set Point:	2.009	Yaw Set Point:	0.003	X_WP:	0.000	Y_WP:	0.000	Y_WP:	0.750	X:	-0.012	Y:	-1.005	Z:	0.044	yaw:	-0.168	yaw rate:	1.144	Roll:	-0.270	Pitch:	-30.000	Yaw:	-0.642	Thrust:	100.000
Time:	3.636	Roll Set Point:	0.022	Pitch Set Point:	2.009	Yaw Set Point:	0.003	X_WP:	0.000	Y_WP:	0.000	Y_WP:	0.750	X:	-0.012	Y:	-1.005	Z:	0.044	yaw:	-0.170	yaw rate:	0.176	Roll:	-0.313	Pitch:	-29.746	Yaw:	-0.454	Thrust:	100.000
Time:	3.649	Roll Set Point:	0.022	Pitch Set Point:	2.009	Yaw Set Point:	0.002	X_WP:	0.000	Y_WP:	0.000	Y_WP:	0.750	X:	-0.012	Y:	-1.005	Z:	0.044	yaw:	-0.142	yaw rate:	-2.758	Roll:	-0.935	Pitch:	-29.659	Yaw:	0.248	Thrust:	100.000
Time:	3.669	Roll Set Point:	0.022	Pitch Set Point:	2.009	Yaw Set Point:	0.003	X_WP:	0.000	Y_WP:	0.000	Y_WP:	0.750	X:	-0.012	Y:	-1.005	Z:	0.044	yaw:	-0.152	yaw rate:	0.922	Roll:	-0.213	Pitch:	-29.852	Yaw:	-0.556	Thrust:	100.000
Time:	3.688	Roll Set Point:	0.022	Pitch Set Point:	2.009	Yaw Set Point:	0.003	X_WP:	0.000	Y_WP:	0.000	Y_WP:	0.750	X:	-0.012	Y:	-1.005	Z:	0.044	yaw:	-0.158	yaw rate:	0.628	Roll:	-0.286	Pitch:	-29.876	Yaw:	-0.526	Thrust:	100.000
Time:	3.708	Roll Set Point:	0.022	Pitch Set Point:	2.010	Yaw Set Point:	0.003	X_WP:	0.000	Y_WP:	0.000	Y_WP:	0.750	X:	-0.012	Y:	-1.005	Z:	0.044	yaw:	-0.165	yaw rate:	0.769	Roll:	-0.230	Pitch:	-29.928	Yaw:	-0.561	Thrust:	100.000
Time:	3.728	Roll Set Point:	0.022	Pitch Set Point:	2.010	Yaw Set Point:	0.003	X_WP:	0.000	Y_WP:	0.000	Y_WP:	0.750	X:	-0.012	Y:	-1.005	Z:	0.044	yaw:	-0.172	yaw rate:	0.679	Roll:	-0.247	Pitch:	-29.866	Yaw:	-0.554	Thrust:	100.000
Time:	3.749	Roll Set Point:	0.022	Pitch Set Point:	2.009	Yaw Set Point:	0.003	X_WP:	0.000	Y_WP:	0.000	Y_WP:	0.750	X:	-0.012	Y:	-1.005	Z:	0.044	yaw:	-0.171	yaw rate:	-0.159	Roll:	-0.392	Pitch:	-29.909	Yaw:	-0.460	Thrust:	100.000
Time:	3.770	Roll Set Point:	0.022	Pitch Set Point:	2.009	Yaw Set Point:	0.003	X_WP:	0.000	Y_WP:	0.000	Y_WP:	0.750	X:	-0.012	Y:	-1.005	Z:	0.044	yaw:	-0.169	yaw rate:	-0.209	Roll:	-0.390	Pitch:	-29.885	Yaw:	-0.440	Thrust:	100.000
Time:	3.789	Roll Set Point:	0.022	Pitch Set Point:	2.010	Yaw Set Point:	0.003	X_WP:	0.000	Y_WP:	0.000	Y_WP:	0.750	X:	-0.012	Y:	-1.005	Z:	0.044	yaw:	-0.168	yaw rate:	-0.096	Roll:	-0.348	Pitch:	-29.921	Yaw:	-0.455	Thrust:	100.000
Time:	3.809	Roll Set Point:	0.022	Pitch Set Point:	2.009	Yaw Set Point:	0.003	X_WP:	0.000	Y_WP:	0.000	Y_WP:	0.750	X:	-0.012	Y:	-1.005	Z:	0.044	yaw:	-0.164	yaw rate:	-0.363	Roll:	-0.435	Pitch:	-29.842	Yaw:	-0.409	Thrust:	100.000
Time:	3.834	Roll Set Point:	0.022	Pitch Set Point:	2.009	Yaw Set Point:	0.003	X_WP:	0.000	Y_WP:	0.000	Y_WP:	0.750	X:	-0.012	Y:	-1.005	Z:	0.044	yaw:	-0.169	yaw rate:	0.497	Roll:	-0.319	Pitch:	-30.000	Yaw:	-0.586	Thrust:	100.000
Time:	3.850	Roll Set Point:	0.022	Pitch Set Point:	2.009	Yaw Set Point:	0.003	X_WP:	0.000	Y_WP:	0.000	Y_WP:	0.750	X:	-0.012	Y:	-1.005	Z:	0.044	yaw:	-0.167	yaw rate:	-0.230	Roll:	-0.375	Pitch:	-29.772	Yaw:	-0.378	Thrust:	100.000
Time:	3.869	Roll Set Point:	0.022	Pitch Set Point:	2.009	Yaw Set Point:	0.003	X_WP:	0.000	Y_WP:	0.000	Y_WP:	0.750	X:	-0.012	Y:	-1.005	Z:	0.044	yaw:	-0.172	yaw rate:	0.576	Roll:	-0.267	Pitch:	-29.849	Yaw:	-0.544	Thrust:	100.000
Time:	3.888	Roll Set Point:	0.022	Pitch Set Point:	2.009	Yaw Set Point:	0.003	X_WP:	0.000	Y_WP:	0.000	Y_WP:	0.750	X:	-0.012	Y:	-1.005	Z:	0.044	yaw:	-0.165	yaw rate:	-0.773	Roll:	-0.480	Pitch:	-29.859	Yaw:	-0.358	Thrust:	100.000
Time:	3.908	Roll Set Point:	0.022	Pitch Set Point:	2.009	Yaw Set Point:	0.003	X_WP:	0.000	Y_WP:	0.000	Y_WP:	0.750	X:	-0.012	Y:	-1.005	Z:	0.044	yaw:	-0.168	yaw rate:	0.296	Roll:	-0.316	Pitch:	-29.896	Yaw:	-0.513	Thrust:	100.000
Time:	3.929	Roll Set Point:	0.022	Pitch Set Point:	2.009	Yaw Set Point:	0.003	X_WP:	0.000	Y_WP:	0.000	Y_WP:	0.750	X:	-0.012	Y:	-1.005	Z:	0.044	yaw:	-0.154	yaw rate:	-1.353	Roll:	-0.549	Pitch:	-29.889	Yaw:	-0.291	Thrust:	100.000
Time:	3.949	Roll Set Point:	0.021	Pitch Set Point:	2.009	Yaw Set Point:	0.003	X_WP:	0.000	Y_WP:	0.000	Y_WP:	0.750	X:	-0.012	Y:	-1.005	Z:	0.044	yaw:	-0.185	yaw rate:	3.076	Roll:	0.093	Pitch:	-29.917	Yaw:	-0.900	Thrust:	100.000
Time:	3.969	Roll Set Point:	0.022	Pitch Set Point:	2.009	Yaw Set Point:	0.003	X_WP:	0.000	Y_WP:	0.000	Y_WP:	0.750	X:	-0.012	Y:	-1.005	Z:	0.044	yaw:	-0.177	yaw rate:	-0.812	Roll:	-0.484	Pitch:	-29.892	Yaw:	-0.386	Thrust:	100.000
Time:	3.989	Roll Set Point:	0.021	Pitch Set Point:	2.010	Yaw Set Point:	0.003	X_WP:	0.000	Y_WP:	0.000	Y_WP:	0.750	X:	-0.012	Y:	-1.005	Z:	0.044	yaw:	-0.180	yaw rate:	0.317	Roll:	-0.302	Pitch:	-29.874	Yaw:	-0.528	Thrust:	100.000
Time:	4.009	Roll Set Point:	0.022	Pitch Set Point:	2.009	Yaw Set Point:	0.003	X_WP:	0.000	Y_WP:	0.000	Y_WP:	0.750	X:	-0.012	Y:	-1.005	Z:	0.044	yaw:	-0.169	yaw rate:	-1.050	Roll:	-0.516	Pitch:	-29.881	Yaw:	-0.345	Thrust:	100.000
Time:	4.029	Roll Set Point:	0.022	Pitch Set Point:	2.009	Yaw Set Point:	0.003	X_WP:	0.000	Y_WP:	0.000	Y_WP:	0.750	X:	-0.012	Y:	-1.005	Z:	0.044	yaw:	-0.154	yaw rate:	-1.499	Roll:	-0.586	Pitch:	-29.875	Yaw:	-0.270	Thrust:	100.000
Time:	4.049	Roll Set Point:	0.022	Pitch Set Point:	2.009	Yaw Set Point:	0.003	X_WP:	0.000	Y_WP:	0.000	Y_WP:	0.750	X:	-0.012	Y:	-1.005	Z:	0.044	yaw:	-0.164	yaw rate:	0.961	Roll:	-0.248	Pitch:	-29.872	Yaw:	-0.602	Thrust:	100.000
Time:	4.068	Roll Set Point:	0.022	Pitch Set Point:	2.010	Yaw Set Point:	0.003	X_WP:	0.000	Y_WP:	0.000	Y_WP:	0.750	X:	-0.012	Y:	-1.005	Z:	0.044	yaw:	-0.176	yaw rate:	1.172	Roll:	-0.171	Pitch:	-29.926	Yaw:	-0.646	Thrust:	100.000
Time:	4.089	Roll Set Point:	0.022	Pitch Set Point:	2.009	Yaw Set Point:	0.003	X_WP:	0.000	Y_WP:	0.000	Y_WP:	0.750	X:	-0.012	Y:	-1.005	Z:	0.044	yaw:	-0.167	yaw rate:	-0.839	Roll:	-0.499	Pitch:	-29.867	Yaw:	-0.378	Thrust:	100.000
Time:	4.108	Roll Set Point:	0.022	Pitch Set Point:	2.009	Yaw Set Point:	0.003	X_WP:	0.000	Y_WP:	0.000	Y_WP:	0.750	X:	-0.012	Y:	-1.005	Z:	0.044	yaw:	-0.157	yaw rate:	-1.078	Roll:	-0.535	Pitch:	-29.865	Yaw:	-0.320	Thrust:	100.000
Time:	4.129	Roll Set Point:	0.022	Pitch Set Point:	2.009	Yaw Set Point:	0.003	X_WP:	0.000	Y_WP:	0.000	Y_WP:	0.750	X:	-0.012	Y:	-1.005	Z:	0.044	yaw:	-0.168	yaw rate:	1.158	Roll:	-0.184	Pitch:	-29.888	Yaw:	-0.636	Thrust:	100.000
Time:	4.149	Roll Set Point:	0.022	Pitch Set Point:	2.009	Yaw Set Point:	0.003	X_WP:	0.000	Y_WP:	0.000	Y_WP:	0.750	X:	-0.012	Y:	-1.005	Z:	0.044	yaw:	-0.156	yaw rate:	-1.260	Roll:	-0.554	Pitch:	-29.935	Yaw:	-0.340	Thrust:	100.000
Time:	4.169	Roll Set Point:	0.022	Pitch Set Point:	2.009	Yaw Set Point:	0.003	X_WP:	0.000	Y_WP:	0.000	Y_WP:	0.750	X:	-0.012	Y:	-1.005	Z:	0.044	yaw:	-0.150	yaw rate:	-0.514	Roll:	-0.460	Pitch:	-29.810	Yaw:	-0.365	Thrust:	100.000
Time:	4.190	Roll Set Point:	0.022	Pitch Set Point:	2.009	Yaw Set Point:	0.003	X_WP:	0.000	Y_WP:	0.000	Y_WP:	0.750	X:	-0.012	Y:	-1.005	Z:	0.044	yaw:	-0.162	yaw rate:	1.189	Roll:	-0.222	Pitch:	-29.985	Yaw:	-0.653	Thrust:	100.000
Time:	4.209	Roll Set Point:	0.022	Pitch Set Point:	2.009	Yaw Set Point:	0.003	X_WP:	0.000	Y_WP:	0.000	Y_WP:	0.750	X:	-0.012	Y:	-1.005	Z:	0.044	yaw:	-0.172	yaw rate:	0.988	Roll:	-0.195	Pitch:	-29.847	Yaw:	-0.617	Thrust:	100.000
Time:	4.228	Roll Set Point:	0.022	Pitch Set Point:	2.009	Yaw Set Point:	0.003	X_WP:	0.000	Y_WP:	0.000	Y_WP:	0.750	X:	-0.012	Y:	-1.005	Z:	0.044	yaw:	-0.159	yaw rate:	-1.352	Roll:	-0.573	Pitch:	-29.866	Yaw:	-0.290	Thrust:	100.000
Time:	4.252	Roll Set Point:	0.022	Pitch Set Point:	2.009	Yaw Set Point:	0.003	X_WP:	0.000	Y_WP:	0.000	Y_WP:	0.750	X:	-0.012	Y:	-1.005	Z:	0.044	yaw:	-0.164	yaw rate:	0.496	Roll:	-0.349	Pitch:	-30.000	Yaw:	-0.599	Thrust:	100.000
Time:	4.269	Roll Set Point:	0.022	Pitch Set Point:	2.009	Yaw Set Point:	0.003	X_WP:	0.000	Y_WP:	0.000	Y_WP:	0.750	X:	-0.012	Y:	-1.005	Z:	0.044	yaw:	-0.149	yaw rate:	-1.455	Roll:	-0.602	Pitch:	-29.815	Yaw:	-0.198	Thrust:	100.000
Time:	4.288	Roll Set Point:	0.022	Pitch Set Point:	2.009	Yaw Set Point:	0.003	X_WP:	0.000	Y_WP:	0.000	Y_WP:	0.750	X:	-0.012	Y:	-1.005	Z:	0.044	yaw:	-0.158	yaw rate:	0.885	Roll:	-0.236	Pitch:	-29.869	Yaw:	-0.591	Thrust:	100.000
Time:	4.308	Roll Set Point:	0.022	Pitch Set Point:	2.009	Yaw Set Point:	0.003	X_WP:	0.000	Y_WP:	0.000	Y_WP:	0.750	X:	-0.012	Y:	-1.005	Z:	0.044	yaw:	-0.166	yaw rate:	0.763	Roll:	-0.250	Pitch:	-29.848	Yaw:	-0.588	Thrust:	100.000
Time:	4.329	Roll Set Point:	0.022	Pitch Set Point:	2.009	Yaw Set Point:	0.003	X_WP:	0.000	Y_WP:	0.000	Y_WP:	0.750	X:	-0.012	Y:	-1.005	Z:	0.044	yaw:	-0.178	yaw rate:	1.217	Roll:	-0.202	Pitch:	-29.930	Yaw:	-0.675	Thrust:	100.000
Time:	4.350	Roll Set Point:	0.022	Pitch Set Point:	2.009	Yaw Set Point:	0.003	X_WP:	0.000	Y_WP:	0.000	Y_WP:	0.750	X:	-0.012	Y:	-1.005	Z:	0.044	yaw:	-0.172	yaw rate:	-0.621	Roll:	-0.471	Pitch:	-29.912	Yaw:	-0.437	Thrust:	100.000
Time:	4.370	Roll Set Point:	0.022	Pitch Set Point:	2.009	Yaw Set Point:	0.003	X_WP:	0.000	Y_WP:	0.000	Y_WP:	0.750	X:	-0.012	Y:	-1.005	Z:	0.044	yaw:	-0.158	yaw rate:	-1.314	Roll:	-0.553	Pitch:	-29.878	Yaw:	-0.327	Thrust:	100.000
Time:	4.391	Roll Set Point:	0.022	Pitch Set Point:	2.009	Yaw Set Point:	0.003	X_WP:	0.000	Y_WP:	0.000	Y_WP:	0.750	X:	-0.012	Y:	-1.005	Z:	0.044	yaw:	-0.166	yaw rate:	0.717	Roll:	-0.296	Pitch:	-29.931	Yaw:	-0.595	Thrust:	100.000
Time:	4.409	Roll Set Point:	0.022	Pitch Set Point:	2.009	Yaw Set Point:	0.003	X_WP:	0.000	Y_WP:	0.000	Y_WP:	0.750	X:	-0.012	Y:	-1.005	Z:	0.044	yaw:	-0.174	yaw rate:	0.794	Roll:	-0.219	Pitch:	-29.813	Yaw:	-0.600	Thrust:	100.000
Time:	4.429	Roll Set Point:	0.022	Pitch Set Point:	2.009	Yaw Set Point:	0.003	X_WP:	0.000	Y_WP:	0.000	Y_WP:	0.750	X:	-0.012	Y:	-1.005	Z:	0.044	yaw:	-0.151	yaw rate:	-2.223	Roll:	-0.710	Pitch:	-29.885	Yaw:	-0.201	Thrust:	100.000
Time:	4.450	Roll Set Point:	0.022	Pitch Set Point:	2.009	Yaw Set Point:	0.003	X_WP:	0.000	Y_WP:	0.000	Y_WP:	0.750	X:	-0.012	Y:	-1.005	Z:	0.044	yaw:	-0.172	yaw rate:	2.091	Roll:	-0.070	Pitch:	-29.956	Yaw:	-0.785	Thrust:	100.000
Time:	4.468	Roll Set Point:	0.022	Pitch Set Point:	2.009	Yaw Set Point:	0.003	X_WP:	0.000	Y_WP:	0.000	Y_WP:	0.750	X:	-0.012	Y:	-1.005	Z:	0.044	yaw:	-0.145	yaw rate:	-2.676	Roll:	-0.806	Pitch:	-29.804	Yaw:	-0.080	Thrust:	100.000
Time:	4.489	Roll Set Point:	0.022	Pitch Set Point:	2.009	Yaw Set Point:	0.003	X_WP:	0.000	Y_WP:	0.000	Y_WP:	0.750	X:	-0.012	Y:	-1.005	Z:	0.044	yaw:	-0.165	yaw rate:	1.939	Roll:	-0.081	Pitch:	-29.909	Yaw:	-0.757	Thrust:	100.000
Time:	4.509	Roll Set Point:	0.022	Pitch Set Point:	2.009	Yaw Set Point:	0.003	X_WP:	0.000	Y_WP:	0.000	Y_WP:	0.750	X:	-0.012	Y:	-1.005	Z:	0.044	yaw:	-0.153	yaw rate:	-1.150	Roll:	-0.543	Pitch:	-29.914	Yaw:	-0.336	Thrust:	100.000
Time:	4.528	Roll Set Point:	0.022	Pitch Set Point:	2.009	Yaw Set Point:	0.003	X_WP:	0.000	Y_WP:	0.000	Y_WP:	0.750	X:	-0.012	Y:	-1.005	Z:	0.044	yaw:	-0.153	yaw rate:	-1.150	Roll:	-0.383	Pitch:	-29.857	Yaw:	-0.477	Thrust:	100.000
Time:	4.548	Roll Set Point:	0.022	Pitch Set Point:	2.009	Yaw Set Point:	0.003	X_WP:	0.000	Y_WP:	0.000	Y_WP:	0.750	X:	-0.012	Y:	-1.005	Z:	0.044	yaw:	-0.146	yaw rate:	-0.482	Roll:	-0.520	Pitch:	-29.856	Yaw:	-0.377	Thrust:	100.000
Time:	4.571	Roll Set Point:	0.022	Pitch Set Point:	2.010	Yaw Set Point:	0.003	X_WP:	0.000	Y_WP:	0.000	Y_WP:	0.750	X:	-0.012	Y:	-1.005	Z:	0.044	yaw:	-0.171	yaw rate:	2.489	Roll:	-0.044	Pitch:	-30.000	Yaw:	-0.841	Thrust:	100.000
Time:	4.590	Roll Set Point:	0.022	Pitch Set Point:	2.009	Yaw Set Point:	0.003	X_WP:	0.000	Y_WP:	0.000	Y_WP:	0.750	X:	-0.012	Y:	-1.005	Z:	0.044	yaw:	-0.168	yaw rate:	-0.220	Roll:	-0.417	Pitch:	-29.776	Yaw:	-0.447	Thrust:	100.000
Time:	4.609	Roll Set Point:	0.022	Pitch Set Point:	2.009	Yaw Set Point:	0.003	X_WP:	0.000	Y_WP:	0.000	Y_WP:	0.750	X:	-0.012	Y:	-1.005	Z:	0.044	yaw:	-0.157	yaw rate:	-1.182	Roll:	-0.579	Pitch:	-29.855	Yaw:	-0.337	Thrust:	100.000
Time:	4.628	Roll Set Point:	0.022	Pitch Set Point:	2.009	Yaw Set Point:	0.003	X_WP:	0.000	Y_WP:	0.000	Y_WP:	0.750	X:	-0.012	Y:	-1.005	Z:	0.044	yaw:	-0.169	yaw rate:	1.209	Roll:	-0.169	Pitch:	-29.847	Yaw:	-0.670	Thrust:	100.000
Time:	4.650	Roll Set Point:	0.022	Pitch Set Point:	2.009	Yaw Set Point:	0.003	X_WP:	0.000	Y_WP:	0.000	Y_WP:	0.750	X:	-0.012	Y:	-1.005	Z:	0.044	yaw:	-0.148	yaw rate:	-2.061	Roll:	-0.650	Pitch:	-29.957	Yaw:	-0.249	Thrust:	100.000
Time:	4.670	Roll Set Point:	0.022	Pitch Set Point:	2.009	Yaw Set Point:	0.003	X_WP:	0.000	Y_WP:	0.000	Y_WP:	0.750	X:	-0.012	Y:	-1.005	Z:	0.044	yaw:	-0.153	yaw rate:	0.498	Roll:	-0.348	Pitch:	-29.903	Yaw:	-0.567	Thrust:	100.000
Time:	4.689	Roll Set Point:	0.022	Pitch Set Point:	2.009	Yaw Set Point:	0.003	X_WP:	0.000	Y_WP:	0.000	Y_WP:	0.750	X:	-0.012	Y:	-1.005	Z:	0.044	yaw:	-0.148	yaw rate:	-0.534	Roll:	-0.479	Pitch:	-29.856	Yaw:	-0.398	Thrust:	100.000
Time:	4.708	Roll Set Point:	0.022	Pitch Set Point:	2.009	Yaw Set Point:	0.003	X_WP:	0.000	Y_WP:	0.000	Y_WP:	0.750	X:	-0.012	Y:	-1.005	Z:	0.044	yaw:	-0.148	yaw rate:	-0.534	Roll:	-0.385	Pitch:	-29.833	Yaw:	-0.484	Thrust:	100.000
Time:	4.728	Roll Set Point:	0.022	Pitch Set Point:	2.009	Yaw Set Point:	0.003	X_WP:	0.000	Y_WP:	0.000	Y_WP:	0.750	X:	-0.012	Y:	-1.005	Z:	0.044	yaw:	-0.150	yaw rate:	-1.567	Roll:	-0.349	Pitch:	-29.919	Yaw:	-0.517	Thrust:	100.000
Time:	4.749	Roll Set Point:	0.022	Pitch Set Point:	2.009	Yaw Set Point:	0.003	X_WP:	0.000	Y_WP:	0.000	Y_WP:	0.750	X:	-0.012	Y:	-1.005	Z:	0.044	yaw:	-0.169	yaw rate:	1.972	Roll:	-0.103	Pitch:	-29.926	Yaw:	-0.784	Thrust:	100.000
Time:	4.775	Roll Set Point:	0.022	Pitch Set Point:	2.009	Yaw Set Point:	0.003	X_WP:	0.000	Y_WP:	0.000	Y_WP:	0.750	X:	-0.012	Y:	-1.005	Z:	0.044	yaw:	-0.168	yaw rate:	-0.147	Roll:	-0.391	Pitch:	-29.890	Yaw:	-0.580	Thrust:	100.000
Time:	4.789	Roll Set Point:	0.022	Pitch Set Point:	2.009	Yaw Set Point:	0.003	X_WP:	0.000	Y_WP:	0.000	Y_WP:	0.750	X:	-0.012	Y:	-1.005	Z:	0.044	yaw:	-0.155	yaw rate:	-1.247	Roll:	-0.574	Pitch:	-29.864	Yaw:	-0.187	Thrust:	100.000
Time:	4.809	Roll Set Point:	0.022	Pitch Set Point:	2.009	Yaw Set Point:	0.003	X_WP:	0.000	Y_WP:	0.000	Y_WP:	0.750	X:	-0.012	Y:	-1.005	Z:	0.044	yaw:	-0.153	yaw rate:	-0.191	Roll:	-0.434	Pitch:	-29.875	Yaw:	-0.478	Thrust:	100.000
Time:	4.828	Roll Set Point:	0.022	Pitch Set Point:	2.009	Yaw Set Point:	0.003	X_WP:	0.000	Y_WP:	0.000	Y_WP:	0.750	X:	-0.012	Y:	-1.005	Z:	0.044	yaw:	-0.158	yaw rate:	0.421	Roll:	-0.320	Pitch:	-29.889	Yaw:	-0.558	Thrust:	100.000
Time:	4.851	Roll Set Point:	0.022	Pitch Set Point:	2.009	Yaw Set Point:	0.003	X_WP:	0.000	Y_WP:	0.000	Y_WP:	0.750	X:	-0.012	Y:	-1.005	Z:	0.044	yaw:	-0.150	yaw rate:	-0.752	Roll:	-0.499	Pitch:	-29.959	Yaw:	-0.458	Thrust:	100.000
Time:	4.869	Roll Set Point:	0.022	Pitch Set Point:	2.009	Yaw Set Point:	0.003	X_WP:	0.000	Y_WP:	0.000	Y_WP:	0.750	X:	-0.012	Y:	-1.005	Z:	0.044	yaw:	-0.171	yaw rate:	2.059	Roll:	-0.055	Pitch:	-29.853	Yaw:	-0.801	Thrust:	100.000
Time:	4.889	Roll Set Point:	0.022	Pitch Set Point:	2.009	Yaw Set Point:	0.003	X_WP:	0.000	Y_WP:	0.000	Y_WP:	0.750	X:	-0.012	Y:	-1.005	Z:	0.044	yaw:	-0.160	yaw rate:	-1.063	Roll:	-0.542	Pitch:	-29.876	Yaw:	-0.372	Thrust:	100.000
Time:	4.909	Roll Set Point:	0.022	Pitch Set Point:	2.009	Yaw Set Point:	0.003	X_WP:	0.000	Y_WP:	0.000	Y_WP:	0.750	X:	-0.012	Y:	-1.005	Z:	0.044	yaw:	-0.155	yaw rate:	-0.529	Roll:	-0.466	Pitch:	-29.883	Yaw:	-0.444	Thrust:	100.000
Time:	4.928	Roll Set Point:	0.022	Pitch Set Point:	2.009	Yaw Set Point:	0.003	X_WP:	0.000	Y_WP:	0.000	Y_WP:	0.750	X:	-0.012	Y:	-1.005	Z:	0.044	yaw:	-0.150	yaw rate:	-0.471	Roll:	-0.469	Pitch:	-29.868	Yaw:	-0.433	Thrust:	100.000
Time:	4.948	Roll Set Point:	0.022	Pitch Set Point:	2.009	Yaw Set Point:	0.003	X_WP:	0.000	Y_WP:	0.000	Y_WP:	0.750	X:	-0.012	Y:	-1.005	Z:	0.044	yaw:	-0.154	yaw rate:	0.376	Roll:	-0.347	Pitch:	-29.877	Yaw:	-0.559	Thrust:	100.000
Time:	4.969	Roll Set Point:	0.022	Pitch Set Point:	2.009	Yaw Set Point:	0.002	X_WP:	0.000	Y_WP:	0.000	Y_WP:	0.750	X:	-0.012	Y:	-1.005	Z:	0.044	yaw:	-0.143	yaw rate:	-1.083	Roll:	-0.560	Pitch:	-29.920	Yaw:	-0.372	Thrust:	100.000
Time:	4.989	Roll Set Point:	0.022	Pitch Set Point:	2.009	Yaw Set Point:	0.003	X_WP:	0.000	Y_WP:	0.000	Y_WP:	0.750	X:	-0.012	Y:	-1.005	Z:	0.044	yaw:	-0.151	yaw rate:	0.779	Roll:	-0.285	Pitch:	-29.889	Yaw:	-0.613	Thrust:	100.000
Time:	5.009	Roll Set Point:	0.022	Pitch Set Point:	2.010	Yaw Set Point:	0.003	X_WP:	0.000	Y_WP:	0.000	Y_WP:	0.750	X:	-0.012	Y:	-1.005	Z:	0.044	yaw:	-0.155	yaw rate:	0.470	Roll:	-0.307	Pitch:	-29.894	Yaw:	-0.578	Thrust:	100.000
Time:	5.029	Roll Set Point:	0.022	Pitch Set Point:	2.010	Yaw Set Point:	0.003	X_WP:	0.000	Y_WP:	0.000	Y_WP:	0.750	X:	-0.012	Y:	-1.005	Z:	0.044	yaw:	-0.155	yaw rate:	0.470	Roll:	-0.392	Pitch:	-29.876	Yaw:	-0.506	Thrust:	100.000
Time:	5.051	Roll Set Point:	0.022	Pitch Set Point:	2.009	Yaw Set Point:	0.003	X_WP:	0.000	Y_WP:	0.000	Y_WP:	0.750	X:	-0.012	Y:	-1.005	Z:	0.044	yaw:	-0.162	yaw rate:	-1.452	Roll:	-0.333	Pitch:	-29.978	Yaw:	-0.648	Thrust:	100.000
Time:	5.077	Roll Set Point:	0.022	Pitch Set Point:	2.009	Yaw Set Point:	0.002	X_WP:	0.000	Y_WP:	0.000	Y_WP:	0.750	X:	-0.012	Y:	-1.005	Z:	0.044	yaw:	-0.143	yaw rate:	-1.868	Roll:	-0.646	Pitch:	-30.000	Yaw:	-0.416	Thrust:	100.000
Time:	5.090	Roll Set Point:	0.022	Pitch Set Point:	2.009	Yaw Set Point:	0.003	X_WP:	0.000	Y_WP:	0.000	Y_WP:	0.750	X:	-0.012	Y:	-1.005	Z:	0.044	yaw:	-0.161	yaw rate:	1.731	Roll:	0.099	Pitch:	-29.609	Yaw:	-0.777	Thrust:	100.000
Time:	5.109	Roll Set Point:	0.022	Pitch Set Point:	2.009	Yaw Set Point:	0.003	X_WP:	0.000	Y_WP:	0.000	Y_WP:	0.750	X:	-0.012	Y:	-1.005	Z:	0.044	yaw:	-0.149	yaw rate:	-1.155	Roll:	-0.593	Pitch:	-29.821	Yaw:	-0.353	Thrust:	100.000
Time:	5.129	Roll Set Point:	0.021	Pitch Set Point:	2.010	Yaw Set Point:	0.004	X_WP:	0.000	Y_WP:	0.000	Y_WP:	0.750	X:	-0.012	Y:	-1.005	Z:	0.044	yaw:	-0.211	yaw rate:	6.184	Roll:	0.554	Pitch:	-29.938	Yaw:	-1.413	Thrust:	100.000
Time:	5.149	Roll Set Point:	0.014	Pitch Set Point:	2.010	Yaw Set Point:	0.010	X_WP:	0.000	Y_WP:	0.000	Y_WP:	0.750	X:	-0.012	Y:	-1.005	Z:	0.045	yaw:	-0.592	yaw rate:	38.074	Roll:	5.431	Pitch:	-30.000	Yaw:	-6.096	Thrust:	100.000
Time:	5.170	Roll Set Point:	0.015	Pitch Set Point:	2.010	Yaw Set Point:	0.010	X_WP:	0.000	Y_WP:	0.000	Y_WP:	0.750	X:	-0.012	Y:	-1.005	Z:	0.045	yaw:	-0.581	yaw rate:	-1.034	Roll:	-0.318	Pitch:	-29.899	Yaw:	-1.000	Thrust:	100.000
Time:	5.190	Roll Set Point:	0.015	Pitch Set Point:	2.010	Yaw Set Point:	0.010	X_WP:	0.000	Y_WP:	0.000	Y_WP:	0.750	X:	-0.012	Y:	-1.005	Z:	0.045	yaw:	-0.575	yaw rate:	-0.626	Roll:	-0.307	Pitch:	-29.912	Yaw:	-1.042	Thrust:	100.000
Time:	5.209	Roll Set Point:	0.015	Pitch Set Point:	2.010	Yaw Set Point:	0.010	X_WP:	0.000	Y_WP:	0.000	Y_WP:	0.750	X:	-0.012	Y:	-1.005	Z:	0.045	yaw:	-0.575	yaw rate:	0.016	Roll:	-0.145	Pitch:	-29.897	Yaw:	-1.109	Thrust:	100.000
Time:	5.229	Roll Set Point:	0.017	Pitch Set Point:	2.010	Yaw Set Point:	0.007	X_WP:	0.000	Y_WP:	0.000	Y_WP:	0.750	X:	-0.012	Y:	-1.005	Z:	0.045	yaw:	-0.418	yaw rate:	-15.690	Roll:	-2.679	Pitch:	-29.688	Yaw:	1.120	Thrust:	100.000
Time:	5.252	Roll Set Point:	0.013	Pitch Set Point:	2.010	Yaw Set Point:	0.012	X_WP:	0.000	Y_WP:	0.000	Y_WP:	0.750	X:	-0.012	Y:	-1.005	Z:	0.045	yaw:	-0.699	yaw rate:	28.077	Roll:	3.868	Pitch:	-29.933	Yaw:	-4.763	Thrust:	100.000
Time:	5.270	Roll Set Point:	0.009	Pitch Set Point:	2.011	Yaw Set Point:	0.016	X_WP:	0.000	Y_WP:	0.000	Y_WP:	0.750	X:	-0.012	Y:	-1.006	Z:	0.045	yaw:	-0.895	yaw rate:	19.624	Roll:	2.998	Pitch:	-30.000	Yaw:	-4.214	Thrust:	100.000
Time:	5.290	Roll Set Point:	0.009	Pitch Set Point:	2.011	Yaw Set Point:	0.016	X_WP:	0.000	Y_WP:	0.000	Y_WP:	0.750	X:	-0.012	Y:	-1.006	Z:	0.045	yaw:	-0.910	yaw rate:	1.525	Roll:	0.199	Pitch:	-29.936	Yaw:	-1.807	Thrust:	100.000
Time:	5.309	Roll Set Point:	-0.002	Pitch Set Point:	2.012	Yaw Set Point:	0.027	X_WP:	0.000	Y_WP:	0.000	Y_WP:	0.750	X:	-0.012	Y:	-1.006	Z:	0.046	yaw:	-1.526	yaw rate:	61.583	Roll:	9.833	Pitch:	-29.980	Yaw:	-10.698	Thrust:	100.000
