Time:	0.040	Roll Set Point:	-0.033	Pitch Set Point:	-0.024	Yaw Set Point:	-0.061	X_WP:	0.000	Y_WP:	0.000	Y_WP:	0.750	X:	0.016	Y:	0.012	Z:	0.049	yaw:	3.508	yaw rate:	2.862	Roll:	0.494	Pitch:	0.326	Yaw:	4.898	Thrust:	38.538
Time:	0.061	Roll Set Point:	-0.033	Pitch Set Point:	-0.023	Yaw Set Point:	-0.061	X_WP:	0.000	Y_WP:	0.000	Y_WP:	0.750	X:	0.016	Y:	0.012	Z:	0.049	yaw:	3.514	yaw rate:	-0.606	Roll:	0.504	Pitch:	0.319	Yaw:	5.008	Thrust:	40.247
Time:	0.081	Roll Set Point:	-0.034	Pitch Set Point:	-0.023	Yaw Set Point:	-0.069	X_WP:	0.000	Y_WP:	0.000	Y_WP:	0.750	X:	0.017	Y:	0.012	Z:	0.049	yaw:	3.940	yaw rate:	-42.527	Roll:	0.727	Pitch:	-0.032	Yaw:	11.103	Thrust:	42.236
Time:	0.100	Roll Set Point:	-0.033	Pitch Set Point:	-0.023	Yaw Set Point:	-0.069	X_WP:	0.000	Y_WP:	0.000	Y_WP:	0.750	X:	0.016	Y:	0.012	Z:	0.049	yaw:	3.927	yaw rate:	1.290	Roll:	0.069	Pitch:	0.551	Yaw:	5.378	Thrust:	43.156
Time:	0.120	Roll Set Point:	-0.034	Pitch Set Point:	-0.022	Yaw Set Point:	-0.084	X_WP:	0.000	Y_WP:	0.000	Y_WP:	0.750	X:	0.017	Y:	0.012	Z:	0.049	yaw:	4.796	yaw rate:	-86.914	Roll:	1.120	Pitch:	-0.556	Yaw:	18.148	Thrust:	44.834
Time:	0.140	Roll Set Point:	-0.034	Pitch Set Point:	-0.021	Yaw Set Point:	-0.082	X_WP:	0.000	Y_WP:	0.000	Y_WP:	0.750	X:	0.017	Y:	0.011	Z:	0.049	yaw:	4.679	yaw rate:	11.677	Roll:	0.461	Pitch:	0.187	Yaw:	5.147	Thrust:	47.048
Time:	0.162	Roll Set Point:	-0.034	Pitch Set Point:	-0.021	Yaw Set Point:	-0.090	X_WP:	0.000	Y_WP:	0.000	Y_WP:	0.750	X:	0.017	Y:	0.011	Z:	0.049	yaw:	5.160	yaw rate:	-48.123	Roll:	0.492	Pitch:	0.110	Yaw:	13.367	Thrust:	49.224
Time:	0.180	Roll Set Point:	-0.034	Pitch Set Point:	-0.022	Yaw Set Point:	-0.086	X_WP:	0.000	Y_WP:	0.000	Y_WP:	0.750	X:	0.017	Y:	0.012	Z:	0.049	yaw:	4.952	yaw rate:	20.850	Roll:	0.620	Pitch:	0.571	Yaw:	4.245	Thrust:	49.609
Time:	0.200	Roll Set Point:	-0.034	Pitch Set Point:	-0.021	Yaw Set Point:	-0.095	X_WP:	0.000	Y_WP:	0.000	Y_WP:	0.750	X:	0.017	Y:	0.011	Z:	0.050	yaw:	5.443	yaw rate:	-49.176	Roll:	0.438	Pitch:	-0.027	Yaw:	14.588	Thrust:	50.489
Time:	0.221	Roll Set Point:	-0.034	Pitch Set Point:	-0.021	Yaw Set Point:	-0.094	X_WP:	0.000	Y_WP:	0.000	Y_WP:	0.750	X:	0.017	Y:	0.011	Z:	0.050	yaw:	5.364	yaw rate:	7.902	Roll:	0.663	Pitch:	0.303	Yaw:	6.801	Thrust:	54.078
Time:	0.241	Roll Set Point:	-0.034	Pitch Set Point:	-0.021	Yaw Set Point:	-0.096	X_WP:	0.000	Y_WP:	0.000	Y_WP:	0.750	X:	0.017	Y:	0.011	Z:	0.050	yaw:	5.495	yaw rate:	-13.080	Roll:	0.496	Pitch:	0.288	Yaw:	9.697	Thrust:	55.257
Time:	0.264	Roll Set Point:	-0.034	Pitch Set Point:	-0.021	Yaw Set Point:	-0.089	X_WP:	0.000	Y_WP:	0.000	Y_WP:	0.750	X:	0.017	Y:	0.011	Z:	0.050	yaw:	5.116	yaw rate:	37.921	Roll:	0.399	Pitch:	0.370	Yaw:	3.037	Thrust:	60.184
Time:	0.281	Roll Set Point:	-0.034	Pitch Set Point:	-0.021	Yaw Set Point:	-0.095	X_WP:	0.000	Y_WP:	0.000	Y_WP:	0.750	X:	0.017	Y:	0.012	Z:	0.050	yaw:	5.430	yaw rate:	-31.377	Roll:	0.661	Pitch:	0.346	Yaw:	12.489	Thrust:	55.482
Time:	0.300	Roll Set Point:	-0.034	Pitch Set Point:	-0.021	Yaw Set Point:	-0.087	X_WP:	0.000	Y_WP:	0.000	Y_WP:	0.750	X:	0.017	Y:	0.011	Z:	0.050	yaw:	4.975	yaw rate:	45.529	Roll:	0.461	Pitch:	0.372	Yaw:	1.096	Thrust:	60.539
Time:	0.321	Roll Set Point:	-0.035	Pitch Set Point:	-0.022	Yaw Set Point:	-0.093	X_WP:	0.000	Y_WP:	0.000	Y_WP:	0.750	X:	0.017	Y:	0.012	Z:	0.050	yaw:	5.352	yaw rate:	-37.786	Roll:	0.808	Pitch:	0.270	Yaw:	12.658	Thrust:	61.273
Time:	0.341	Roll Set Point:	-0.035	Pitch Set Point:	-0.022	Yaw Set Point:	-0.087	X_WP:	0.000	Y_WP:	0.000	Y_WP:	0.750	X:	0.017	Y:	0.012	Z:	0.050	yaw:	4.983	yaw rate:	36.933	Roll:	0.633	Pitch:	0.465	Yaw:	2.326	Thrust:	63.233
Time:	0.365	Roll Set Point:	-0.035	Pitch Set Point:	-0.022	Yaw Set Point:	-0.084	X_WP:	0.000	Y_WP:	0.000	Y_WP:	0.750	X:	0.017	Y:	0.012	Z:	0.051	yaw:	4.797	yaw rate:	18.616	Roll:	0.668	Pitch:	0.381	Yaw:	5.281	Thrust:	69.284
Time:	0.381	Roll Set Point:	-0.036	Pitch Set Point:	-0.022	Yaw Set Point:	-0.089	X_WP:	0.000	Y_WP:	0.000	Y_WP:	0.750	X:	0.017	Y:	0.012	Z:	0.052	yaw:	5.090	yaw rate:	-29.302	Roll:	0.804	Pitch:	0.144	Yaw:	12.095	Thrust:	59.715
Time:	0.400	Roll Set Point:	-0.036	Pitch Set Point:	-0.023	Yaw Set Point:	-0.089	X_WP:	0.000	Y_WP:	0.000	Y_WP:	0.750	X:	0.018	Y:	0.012	Z:	0.053	yaw:	5.119	yaw rate:	-2.871	Roll:	0.765	Pitch:	0.620	Yaw:	8.117	Thrust:	64.120
Time:	0.421	Roll Set Point:	-0.038	Pitch Set Point:	-0.022	Yaw Set Point:	-0.096	X_WP:	0.000	Y_WP:	0.000	Y_WP:	0.750	X:	0.018	Y:	0.012	Z:	0.056	yaw:	5.525	yaw rate:	-40.682	Roll:	1.222	Pitch:	0.217	Yaw:	13.668	Thrust:	64.764
Time:	0.441	Roll Set Point:	-0.038	Pitch Set Point:	-0.023	Yaw Set Point:	-0.089	X_WP:	0.000	Y_WP:	0.000	Y_WP:	0.750	X:	0.019	Y:	0.012	Z:	0.059	yaw:	5.126	yaw rate:	39.977	Roll:	0.833	Pitch:	0.673	Yaw:	2.618	Thrust:	64.087
Time:	0.462	Roll Set Point:	-0.040	Pitch Set Point:	-0.024	Yaw Set Point:	-0.087	X_WP:	0.000	Y_WP:	0.000	Y_WP:	0.750	X:	0.019	Y:	0.013	Z:	0.063	yaw:	4.966	yaw rate:	16.003	Roll:	1.139	Pitch:	0.716	Yaw:	5.823	Thrust:	67.571
Time:	0.481	Roll Set Point:	-0.042	Pitch Set Point:	-0.026	Yaw Set Point:	-0.084	X_WP:	0.000	Y_WP:	0.000	Y_WP:	0.750	X:	0.020	Y:	0.014	Z:	0.069	yaw:	4.806	yaw rate:	15.966	Roll:	1.444	Pitch:	0.998	Yaw:	5.070	Thrust:	56.590
Time:	0.500	Roll Set Point:	-0.043	Pitch Set Point:	-0.027	Yaw Set Point:	-0.091	X_WP:	0.000	Y_WP:	0.000	Y_WP:	0.750	X:	0.021	Y:	0.014	Z:	0.076	yaw:	5.193	yaw rate:	-38.683	Roll:	1.461	Pitch:	0.836	Yaw:	13.087	Thrust:	60.129
Time:	0.520	Roll Set Point:	-0.045	Pitch Set Point:	-0.029	Yaw Set Point:	-0.094	X_WP:	0.000	Y_WP:	0.000	Y_WP:	0.750	X:	0.022	Y:	0.015	Z:	0.084	yaw:	5.370	yaw rate:	-17.699	Roll:	1.665	Pitch:	1.054	Yaw:	10.629	Thrust:	58.827
Time:	0.541	Roll Set Point:	-0.048	Pitch Set Point:	-0.031	Yaw Set Point:	-0.094	X_WP:	0.000	Y_WP:	0.000	Y_WP:	0.750	X:	0.023	Y:	0.016	Z:	0.093	yaw:	5.364	yaw rate:	0.531	Roll:	1.720	Pitch:	1.166	Yaw:	8.280	Thrust:	58.949
Time:	0.564	Roll Set Point:	-0.051	Pitch Set Point:	-0.033	Yaw Set Point:	-0.095	X_WP:	0.000	Y_WP:	0.000	Y_WP:	0.750	X:	0.025	Y:	0.018	Z:	0.102	yaw:	5.433	yaw rate:	-6.900	Roll:	1.957	Pitch:	1.230	Yaw:	9.412	Thrust:	70.422
Time:	0.582	Roll Set Point:	-0.053	Pitch Set Point:	-0.035	Yaw Set Point:	-0.102	X_WP:	0.000	Y_WP:	0.000	Y_WP:	0.750	X:	0.026	Y:	0.019	Z:	0.112	yaw:	5.835	yaw rate:	-40.114	Roll:	2.195	Pitch:	1.434	Yaw:	14.806	Thrust:	49.798
Time:	0.600	Roll Set Point:	-0.056	Pitch Set Point:	-0.038	Yaw Set Point:	-0.093	X_WP:	0.000	Y_WP:	0.000	Y_WP:	0.750	X:	0.027	Y:	0.020	Z:	0.123	yaw:	5.345	yaw rate:	48.959	Roll:	2.062	Pitch:	1.949	Yaw:	1.238	Thrust:	50.368
Time:	0.620	Roll Set Point:	-0.059	Pitch Set Point:	-0.041	Yaw Set Point:	-0.097	X_WP:	0.000	Y_WP:	0.000	Y_WP:	0.750	X:	0.028	Y:	0.022	Z:	0.134	yaw:	5.548	yaw rate:	-20.312	Roll:	2.213	Pitch:	1.659	Yaw:	11.410	Thrust:	57.488
Time:	0.640	Roll Set Point:	-0.062	Pitch Set Point:	-0.043	Yaw Set Point:	-0.097	X_WP:	0.000	Y_WP:	0.000	Y_WP:	0.750	X:	0.030	Y:	0.023	Z:	0.145	yaw:	5.584	yaw rate:	-3.595	Roll:	2.495	Pitch:	1.669	Yaw:	9.317	Thrust:	57.084
Time:	0.662	Roll Set Point:	-0.066	Pitch Set Point:	-0.046	Yaw Set Point:	-0.105	X_WP:	0.000	Y_WP:	0.000	Y_WP:	0.750	X:	0.032	Y:	0.025	Z:	0.157	yaw:	6.033	yaw rate:	-44.857	Roll:	2.530	Pitch:	1.456	Yaw:	15.143	Thrust:	60.790
Time:	0.681	Roll Set Point:	-0.069	Pitch Set Point:	-0.049	Yaw Set Point:	-0.104	X_WP:	0.000	Y_WP:	0.000	Y_WP:	0.750	X:	0.033	Y:	0.026	Z:	0.169	yaw:	5.970	yaw rate:	6.250	Roll:	2.588	Pitch:	1.898	Yaw:	8.652	Thrust:	56.319
Time:	0.699	Roll Set Point:	-0.073	Pitch Set Point:	-0.052	Yaw Set Point:	-0.100	X_WP:	0.000	Y_WP:	0.000	Y_WP:	0.750	X:	0.035	Y:	0.028	Z:	0.182	yaw:	5.746	yaw rate:	22.449	Roll:	2.695	Pitch:	2.130	Yaw:	5.821	Thrust:	47.617
Time:	0.720	Roll Set Point:	-0.076	Pitch Set Point:	-0.055	Yaw Set Point:	-0.097	X_WP:	0.000	Y_WP:	0.000	Y_WP:	0.750	X:	0.037	Y:	0.029	Z:	0.195	yaw:	5.567	yaw rate:	17.860	Roll:	2.724	Pitch:	2.006	Yaw:	6.656	Thrust:	56.338
Time:	0.741	Roll Set Point:	-0.080	Pitch Set Point:	-0.058	Yaw Set Point:	-0.093	X_WP:	0.000	Y_WP:	0.000	Y_WP:	0.750	X:	0.039	Y:	0.031	Z:	0.209	yaw:	5.308	yaw rate:	25.871	Roll:	2.798	Pitch:	2.236	Yaw:	5.511	Thrust:	60.501
Time:	0.763	Roll Set Point:	-0.083	Pitch Set Point:	-0.061	Yaw Set Point:	-0.090	X_WP:	0.000	Y_WP:	0.000	Y_WP:	0.750	X:	0.040	Y:	0.033	Z:	0.222	yaw:	5.150	yaw rate:	15.862	Roll:	2.688	Pitch:	1.965	Yaw:	6.574	Thrust:	61.007
Time:	0.782	Roll Set Point:	-0.087	Pitch Set Point:	-0.064	Yaw Set Point:	-0.102	X_WP:	0.000	Y_WP:	0.000	Y_WP:	0.750	X:	0.042	Y:	0.034	Z:	0.236	yaw:	5.841	yaw rate:	-69.078	Roll:	3.033	Pitch:	1.577	Yaw:	18.505	Thrust:	54.895
Time:	0.800	Roll Set Point:	-0.090	Pitch Set Point:	-0.067	Yaw Set Point:	-0.088	X_WP:	0.000	Y_WP:	0.000	Y_WP:	0.750	X:	0.044	Y:	0.035	Z:	0.249	yaw:	5.047	yaw rate:	79.357	Roll:	2.751	Pitch:	2.668	Yaw:	-2.883	Thrust:	53.766
Time:	0.820	Roll Set Point:	-0.094	Pitch Set Point:	-0.069	Yaw Set Point:	-0.092	X_WP:	0.000	Y_WP:	0.000	Y_WP:	0.750	X:	0.045	Y:	0.037	Z:	0.262	yaw:	5.296	yaw rate:	-24.867	Roll:	3.149	Pitch:	1.847	Yaw:	12.043	Thrust:	58.663
Time:	0.840	Roll Set Point:	-0.097	Pitch Set Point:	-0.072	Yaw Set Point:	-0.095	X_WP:	0.000	Y_WP:	0.000	Y_WP:	0.750	X:	0.047	Y:	0.038	Z:	0.275	yaw:	5.419	yaw rate:	-12.365	Roll:	2.884	Pitch:	1.902	Yaw:	10.634	Thrust:	54.769
Time:	0.861	Roll Set Point:	-0.100	Pitch Set Point:	-0.074	Yaw Set Point:	-0.086	X_WP:	0.000	Y_WP:	0.000	Y_WP:	0.750	X:	0.048	Y:	0.039	Z:	0.288	yaw:	4.956	yaw rate:	46.328	Roll:	2.618	Pitch:	2.196	Yaw:	3.045	Thrust:	64.515
Time:	0.880	Roll Set Point:	-0.103	Pitch Set Point:	-0.076	Yaw Set Point:	-0.091	X_WP:	0.000	Y_WP:	0.000	Y_WP:	0.750	X:	0.050	Y:	0.040	Z:	0.301	yaw:	5.218	yaw rate:	-26.193	Roll:	3.337	Pitch:	1.709	Yaw:	12.322	Thrust:	60.698
Time:	0.899	Roll Set Point:	-0.106	Pitch Set Point:	-0.079	Yaw Set Point:	-0.079	X_WP:	0.000	Y_WP:	0.000	Y_WP:	0.750	X:	0.051	Y:	0.041	Z:	0.314	yaw:	4.523	yaw rate:	69.468	Roll:	2.562	Pitch:	2.558	Yaw:	-1.759	Thrust:	56.435
Time:	0.920	Roll Set Point:	-0.109	Pitch Set Point:	-0.081	Yaw Set Point:	-0.075	X_WP:	0.000	Y_WP:	0.000	Y_WP:	0.750	X:	0.053	Y:	0.042	Z:	0.327	yaw:	4.321	yaw rate:	20.225	Roll:	2.773	Pitch:	1.971	Yaw:	4.973	Thrust:	61.744
Time:	0.941	Roll Set Point:	-0.109	Pitch Set Point:	-0.088	Yaw Set Point:	-0.018	X_WP:	0.000	Y_WP:	0.000	Y_WP:	0.750	X:	0.054	Y:	0.045	Z:	0.339	yaw:	1.017	yaw rate:	330.436	Roll:	1.004	Pitch:	5.785	Yaw:	-40.107	Thrust:	63.584
Time:	0.963	Roll Set Point:	-0.112	Pitch Set Point:	-0.089	Yaw Set Point:	-0.017	X_WP:	0.000	Y_WP:	0.000	Y_WP:	0.750	X:	0.055	Y:	0.045	Z:	0.352	yaw:	0.990	yaw rate:	2.657	Roll:	2.717	Pitch:	1.841	Yaw:	2.850	Thrust:	71.563
Time:	0.981	Roll Set Point:	-0.114	Pitch Set Point:	-0.091	Yaw Set Point:	-0.016	X_WP:	0.000	Y_WP:	0.000	Y_WP:	0.750	X:	0.057	Y:	0.046	Z:	0.365	yaw:	0.889	yaw rate:	10.093	Roll:	2.786	Pitch:	1.952	Yaw:	1.393	Thrust:	56.819
Time:	1.002	Roll Set Point:	-0.792	Pitch Set Point:	0.703	Yaw Set Point:	-0.013	X_WP:	-0.685	Y_WP:	0.786	Y_WP:	0.750	X:	0.058	Y:	0.046	Z:	0.378	yaw:	0.732	yaw rate:	15.764	Roll:	30.000	Pitch:	-30.000	Yaw:	0.595	Thrust:	61.954
Time:	1.021	Roll Set Point:	-0.789	Pitch Set Point:	0.706	Yaw Set Point:	-0.019	X_WP:	-0.685	Y_WP:	0.786	Y_WP:	0.750	X:	0.059	Y:	0.047	Z:	0.391	yaw:	1.087	yaw rate:	-35.587	Roll:	18.222	Pitch:	-25.567	Yaw:	7.836	Thrust:	57.376
Time:	1.040	Roll Set Point:	-0.795	Pitch Set Point:	0.703	Yaw Set Point:	-0.015	X_WP:	-0.685	Y_WP:	0.786	Y_WP:	0.750	X:	0.060	Y:	0.047	Z:	0.405	yaw:	0.832	yaw rate:	25.560	Roll:	25.444	Pitch:	-18.899	Yaw:	-0.657	Thrust:	60.715
Time:	1.061	Roll Set Point:	-0.799	Pitch Set Point:	0.701	Yaw Set Point:	-0.011	X_WP:	-0.685	Y_WP:	0.786	Y_WP:	0.750	X:	0.061	Y:	0.047	Z:	0.420	yaw:	0.656	yaw rate:	17.553	Roll:	24.320	Pitch:	-19.775	Yaw:	0.466	Thrust:	59.347
Time:	1.081	Roll Set Point:	-0.804	Pitch Set Point:	0.699	Yaw Set Point:	-0.008	X_WP:	-0.685	Y_WP:	0.786	Y_WP:	0.750	X:	0.062	Y:	0.047	Z:	0.434	yaw:	0.485	yaw rate:	17.160	Roll:	24.338	Pitch:	-20.112	Yaw:	0.091	Thrust:	63.885
Time:	1.100	Roll Set Point:	-0.790	Pitch Set Point:	0.712	Yaw Set Point:	-0.028	X_WP:	-0.685	Y_WP:	0.786	Y_WP:	0.750	X:	0.063	Y:	0.047	Z:	0.450	yaw:	1.608	yaw rate:	-112.359	Roll:	8.516	Pitch:	-30.000	Yaw:	19.259	Thrust:	51.507
Time:	1.120	Roll Set Point:	-0.793	Pitch Set Point:	0.710	Yaw Set Point:	-0.026	X_WP:	-0.685	Y_WP:	0.786	Y_WP:	0.750	X:	0.063	Y:	0.047	Z:	0.465	yaw:	1.497	yaw rate:	11.080	Roll:	23.304	Pitch:	-20.735	Yaw:	2.188	Thrust:	52.848
Time:	1.140	Roll Set Point:	-0.787	Pitch Set Point:	0.713	Yaw Set Point:	-0.033	X_WP:	-0.685	Y_WP:	0.786	Y_WP:	0.750	X:	0.063	Y:	0.049	Z:	0.481	yaw:	1.879	yaw rate:	-38.149	Roll:	16.682	Pitch:	-25.365	Yaw:	9.283	Thrust:	55.037
Time:	1.163	Roll Set Point:	-0.793	Pitch Set Point:	0.700	Yaw Set Point:	-0.022	X_WP:	-0.685	Y_WP:	0.786	Y_WP:	0.750	X:	0.062	Y:	0.051	Z:	0.498	yaw:	1.242	yaw rate:	63.692	Roll:	27.518	Pitch:	-14.188	Yaw:	-3.959	Thrust:	65.427
Time:	1.181	Roll Set Point:	-0.795	Pitch Set Point:	0.688	Yaw Set Point:	-0.013	X_WP:	-0.685	Y_WP:	0.786	Y_WP:	0.750	X:	0.060	Y:	0.054	Z:	0.514	yaw:	0.755	yaw rate:	48.683	Roll:	25.411	Pitch:	-13.180	Yaw:	-4.023	Thrust:	48.495
Time:	1.201	Roll Set Point:	-0.767	Pitch Set Point:	0.701	Yaw Set Point:	-0.041	X_WP:	-0.685	Y_WP:	0.786	Y_WP:	0.750	X:	0.057	Y:	0.057	Z:	0.530	yaw:	2.375	yaw rate:	-162.031	Roll:	1.541	Pitch:	-30.000	Yaw:	26.175	Thrust:	54.330
Time:	1.221	Roll Set Point:	-0.770	Pitch Set Point:	0.682	Yaw Set Point:	-0.028	X_WP:	-0.685	Y_WP:	0.786	Y_WP:	0.750	X:	0.053	Y:	0.062	Z:	0.546	yaw:	1.581	yaw rate:	79.411	Roll:	27.137	Pitch:	-8.717	Yaw:	-7.069	Thrust:	48.136
Time:	1.240	Roll Set Point:	-0.750	Pitch Set Point:	0.679	Yaw Set Point:	-0.041	X_WP:	-0.685	Y_WP:	0.786	Y_WP:	0.750	X:	0.048	Y:	0.068	Z:	0.562	yaw:	2.362	yaw rate:	-78.080	Roll:	8.365	Pitch:	-25.161	Yaw:	15.226	Thrust:	53.449
Time:	1.261	Roll Set Point:	-0.740	Pitch Set Point:	0.665	Yaw Set Point:	-0.040	X_WP:	-0.685	Y_WP:	0.786	Y_WP:	0.750	X:	0.042	Y:	0.075	Z:	0.578	yaw:	2.302	yaw rate:	5.983	Roll:	16.854	Pitch:	-15.190	Yaw:	4.185	Thrust:	54.035
Time:	1.281	Roll Set Point:	-0.725	Pitch Set Point:	0.650	Yaw Set Point:	-0.042	X_WP:	-0.685	Y_WP:	0.786	Y_WP:	0.750	X:	0.035	Y:	0.083	Z:	0.593	yaw:	2.434	yaw rate:	-13.170	Roll:	13.947	Pitch:	-16.473	Yaw:	6.891	Thrust:	59.928
Time:	1.300	Roll Set Point:	-0.716	Pitch Set Point:	0.627	Yaw Set Point:	-0.035	X_WP:	-0.685	Y_WP:	0.786	Y_WP:	0.750	X:	0.027	Y:	0.092	Z:	0.608	yaw:	2.006	yaw rate:	42.764	Roll:	18.897	Pitch:	-8.421	Yaw:	-1.381	Thrust:	49.366
Time:	1.320	Roll Set Point:	-0.700	Pitch Set Point:	0.605	Yaw Set Point:	-0.034	X_WP:	-0.685	Y_WP:	0.786	Y_WP:	0.750	X:	0.019	Y:	0.102	Z:	0.622	yaw:	1.924	yaw rate:	8.273	Roll:	13.886	Pitch:	-11.523	Yaw:	3.404	Thrust:	55.900
Time:	1.340	Roll Set Point:	-0.686	Pitch Set Point:	0.578	Yaw Set Point:	-0.026	X_WP:	-0.685	Y_WP:	0.786	Y_WP:	0.750	X:	0.009	Y:	0.113	Z:	0.636	yaw:	1.486	yaw rate:	43.802	Roll:	16.971	Pitch:	-5.948	Yaw:	-2.222	Thrust:	51.441
Time:	1.362	Roll Set Point:	-0.674	Pitch Set Point:	0.546	Yaw Set Point:	-0.014	X_WP:	-0.685	Y_WP:	0.786	Y_WP:	0.750	X:	-0.001	Y:	0.125	Z:	0.649	yaw:	0.807	yaw rate:	67.818	Roll:	18.936	Pitch:	-5.161	Yaw:	-4.475	Thrust:	73.574
Time:	1.380	Roll Set Point:	-0.640	Pitch Set Point:	0.530	Yaw Set Point:	-0.032	X_WP:	-0.685	Y_WP:	0.786	Y_WP:	0.750	X:	-0.012	Y:	0.138	Z:	0.662	yaw:	1.811	yaw rate:	-100.321	Roll:	-1.614	Pitch:	-18.201	Yaw:	18.731	Thrust:	46.066
Time:	1.401	Roll Set Point:	-0.620	Pitch Set Point:	0.499	Yaw Set Point:	-0.028	X_WP:	-0.685	Y_WP:	0.786	Y_WP:	0.750	X:	-0.024	Y:	0.153	Z:	0.675	yaw:	1.594	yaw rate:	21.675	Roll:	12.430	Pitch:	-4.996	Yaw:	1.237	Thrust:	58.154
Time:	1.420	Roll Set Point:	-0.597	Pitch Set Point:	0.467	Yaw Set Point:	-0.026	X_WP:	-0.685	Y_WP:	0.786	Y_WP:	0.750	X:	-0.036	Y:	0.168	Z:	0.687	yaw:	1.504	yaw rate:	9.028	Roll:	9.267	Pitch:	-4.303	Yaw:	2.617	Thrust:	52.668
Time:	1.440	Roll Set Point:	-0.575	Pitch Set Point:	0.431	Yaw Set Point:	-0.020	X_WP:	-0.685	Y_WP:	0.786	Y_WP:	0.750	X:	-0.049	Y:	0.184	Z:	0.699	yaw:	1.141	yaw rate:	36.297	Roll:	11.386	Pitch:	-1.388	Yaw:	-1.283	Thrust:	58.566
Time:	1.461	Roll Set Point:	-0.545	Pitch Set Point:	0.399	Yaw Set Point:	-0.023	X_WP:	-0.685	Y_WP:	0.786	Y_WP:	0.750	X:	-0.064	Y:	0.201	Z:	0.710	yaw:	1.295	yaw rate:	-15.393	Roll:	5.785	Pitch:	-5.715	Yaw:	5.691	Thrust:	69.417
Time:	1.481	Roll Set Point:	-0.509	Pitch Set Point:	0.370	Yaw Set Point:	-0.033	X_WP:	-0.685	Y_WP:	0.786	Y_WP:	0.750	X:	-0.079	Y:	0.218	Z:	0.722	yaw:	1.916	yaw rate:	-62.118	Roll:	-1.070	Pitch:	-7.618	Yaw:	13.382	Thrust:	47.331
Time:	1.501	Roll Set Point:	-0.487	Pitch Set Point:	0.324	Yaw Set Point:	-0.018	X_WP:	-0.685	Y_WP:	0.786	Y_WP:	0.750	X:	-0.094	Y:	0.236	Z:	0.733	yaw:	1.029	yaw rate:	88.688	Roll:	12.706	Pitch:	5.171	Yaw:	-7.603	Thrust:	63.003
Time:	1.521	Roll Set Point:	-0.459	Pitch Set Point:	0.281	Yaw Set Point:	-0.009	X_WP:	-0.685	Y_WP:	0.786	Y_WP:	0.750	X:	-0.111	Y:	0.255	Z:	0.745	yaw:	0.508	yaw rate:	52.097	Roll:	7.288	Pitch:	5.244	Yaw:	-4.187	Thrust:	56.837
Time:	1.540	Roll Set Point:	-0.419	Pitch Set Point:	0.250	Yaw Set Point:	-0.022	X_WP:	-0.685	Y_WP:	0.786	Y_WP:	0.750	X:	-0.128	Y:	0.274	Z:	0.757	yaw:	1.251	yaw rate:	-74.296	Roll:	-3.376	Pitch:	-5.507	Yaw:	13.770	Thrust:	50.512
Time:	1.562	Roll Set Point:	-0.393	Pitch Set Point:	0.201	Yaw Set Point:	-0.004	X_WP:	-0.685	Y_WP:	0.786	Y_WP:	0.750	X:	-0.145	Y:	0.294	Z:	0.768	yaw:	0.237	yaw rate:	101.366	Roll:	9.458	Pitch:	8.716	Yaw:	-10.258	Thrust:	60.908
Time:	1.581	Roll Set Point:	-0.360	Pitch Set Point:	0.157	Yaw Set Point:	0.003	X_WP:	-0.685	Y_WP:	0.786	Y_WP:	0.750	X:	-0.163	Y:	0.314	Z:	0.780	yaw:	-0.144	yaw rate:	38.093	Roll:	3.932	Pitch:	5.588	Yaw:	-3.263	Thrust:	54.024
Time:	1.601	Roll Set Point:	-0.314	Pitch Set Point:	0.127	Yaw Set Point:	-0.018	X_WP:	-0.685	Y_WP:	0.786	Y_WP:	0.750	X:	-0.182	Y:	0.334	Z:	0.792	yaw:	1.021	yaw rate:	-116.499	Roll:	-9.835	Pitch:	-5.062	Yaw:	18.547	Thrust:	53.422
Time:	1.620	Roll Set Point:	-0.283	Pitch Set Point:	0.078	Yaw Set Point:	-0.003	X_WP:	-0.685	Y_WP:	0.786	Y_WP:	0.750	X:	-0.200	Y:	0.354	Z:	0.804	yaw:	0.182	yaw rate:	83.942	Roll:	4.666	Pitch:	10.258	Yaw:	-9.458	Thrust:	47.343
Time:	1.640	Roll Set Point:	-0.255	Pitch Set Point:	0.027	Yaw Set Point:	0.019	X_WP:	-0.685	Y_WP:	0.786	Y_WP:	0.750	X:	-0.219	Y:	0.375	Z:	0.816	yaw:	-1.081	yaw rate:	126.308	Roll:	6.282	Pitch:	13.961	Yaw:	-16.079	Thrust:	51.986
Time:	1.662	Roll Set Point:	-0.207	Pitch Set Point:	-0.005	Yaw Set Point:	-0.002	X_WP:	-0.685	Y_WP:	0.786	Y_WP:	0.750	X:	-0.239	Y:	0.396	Z:	0.828	yaw:	0.109	yaw rate:	-119.033	Roll:	-8.865	Pitch:	-3.363	Yaw:	16.960	Thrust:	57.005
Time:	1.681	Roll Set Point:	-0.173	Pitch Set Point:	-0.050	Yaw Set Point:	0.007	X_WP:	-0.685	Y_WP:	0.786	Y_WP:	0.750	X:	-0.258	Y:	0.416	Z:	0.839	yaw:	-0.399	yaw rate:	50.840	Roll:	-0.013	Pitch:	9.343	Yaw:	-5.281	Thrust:	50.321
Time:	1.700	Roll Set Point:	-0.133	Pitch Set Point:	-0.090	Yaw Set Point:	0.006	X_WP:	-0.685	Y_WP:	0.786	Y_WP:	0.750	X:	-0.277	Y:	0.437	Z:	0.851	yaw:	-0.360	yaw rate:	-3.918	Roll:	-5.188	Pitch:	7.139	Yaw:	1.851	Thrust:	43.948
Time:	1.720	Roll Set Point:	-0.101	Pitch Set Point:	-0.138	Yaw Set Point:	0.025	X_WP:	-0.685	Y_WP:	0.786	Y_WP:	0.750	X:	-0.296	Y:	0.457	Z:	0.863	yaw:	-1.425	yaw rate:	106.488	Roll:	0.419	Pitch:	13.417	Yaw:	-13.983	Thrust:	49.892
Time:	1.739	Roll Set Point:	-0.057	Pitch Set Point:	-0.173	Yaw Set Point:	0.010	X_WP:	-0.685	Y_WP:	0.786	Y_WP:	0.750	X:	-0.315	Y:	0.477	Z:	0.874	yaw:	-0.575	yaw rate:	-85.041	Roll:	-8.901	Pitch:	2.958	Yaw:	12.689	Thrust:	44.442
Time:	1.761	Roll Set Point:	-0.022	Pitch Set Point:	-0.216	Yaw Set Point:	0.020	X_WP:	-0.685	Y_WP:	0.786	Y_WP:	0.750	X:	-0.335	Y:	0.497	Z:	0.884	yaw:	-1.140	yaw rate:	56.556	Roll:	-2.281	Pitch:	9.726	Yaw:	-6.218	Thrust:	55.148
Time:	1.780	Roll Set Point:	0.015	Pitch Set Point:	-0.255	Yaw Set Point:	0.024	X_WP:	-0.685	Y_WP:	0.786	Y_WP:	0.750	X:	-0.354	Y:	0.516	Z:	0.894	yaw:	-1.379	yaw rate:	23.884	Roll:	-5.738	Pitch:	8.906	Yaw:	-3.417	Thrust:	49.644
Time:	1.800	Roll Set Point:	0.048	Pitch Set Point:	-0.299	Yaw Set Point:	0.044	X_WP:	-0.685	Y_WP:	0.786	Y_WP:	0.750	X:	-0.372	Y:	0.535	Z:	0.904	yaw:	-2.509	yaw rate:	112.970	Roll:	-1.117	Pitch:	13.558	Yaw:	-16.367	Thrust:	50.708
Time:	1.821	Roll Set Point:	0.091	Pitch Set Point:	-0.330	Yaw Set Point:	0.026	X_WP:	-0.685	Y_WP:	0.786	Y_WP:	0.750	X:	-0.391	Y:	0.554	Z:	0.914	yaw:	-1.466	yaw rate:	-104.255	Roll:	-10.722	Pitch:	2.922	Yaw:	13.427	Thrust:	48.798
Time:	1.840	Roll Set Point:	0.129	Pitch Set Point:	-0.364	Yaw Set Point:	0.020	X_WP:	-0.685	Y_WP:	0.786	Y_WP:	0.750	X:	-0.409	Y:	0.572	Z:	0.923	yaw:	-1.173	yaw rate:	-29.284	Roll:	-8.881	Pitch:	6.893	Yaw:	4.034	Thrust:	50.004
Time:	1.861	Roll Set Point:	0.165	Pitch Set Point:	-0.398	Yaw Set Point:	0.018	X_WP:	-0.685	Y_WP:	0.786	Y_WP:	0.750	X:	-0.427	Y:	0.589	Z:	0.931	yaw:	-1.045	yaw rate:	-12.852	Roll:	-6.582	Pitch:	7.768	Yaw:	2.060	Thrust:	49.881
Time:	1.881	Roll Set Point:	0.199	Pitch Set Point:	-0.433	Yaw Set Point:	0.026	X_WP:	-0.685	Y_WP:	0.786	Y_WP:	0.750	X:	-0.444	Y:	0.606	Z:	0.939	yaw:	-1.480	yaw rate:	43.561	Roll:	-5.966	Pitch:	9.801	Yaw:	-5.921	Thrust:	51.025
Time:	1.901	Roll Set Point:	0.232	Pitch Set Point:	-0.468	Yaw Set Point:	0.036	X_WP:	-0.685	Y_WP:	0.786	Y_WP:	0.750	X:	-0.461	Y:	0.623	Z:	0.946	yaw:	-2.059	yaw rate:	57.853	Roll:	-5.990	Pitch:	10.205	Yaw:	-8.609	Thrust:	50.674
Time:	1.921	Roll Set Point:	0.265	Pitch Set Point:	-0.499	Yaw Set Point:	0.036	X_WP:	-0.685	Y_WP:	0.786	Y_WP:	0.750	X:	-0.478	Y:	0.638	Z:	0.953	yaw:	-2.048	yaw rate:	-1.086	Roll:	-8.503	Pitch:	8.738	Yaw:	-0.992	Thrust:	46.069
Time:	1.940	Roll Set Point:	0.307	Pitch Set Point:	-0.517	Yaw Set Point:	-0.019	X_WP:	-0.685	Y_WP:	0.786	Y_WP:	0.750	X:	-0.495	Y:	0.653	Z:	0.959	yaw:	1.084	yaw rate:	-313.171	Roll:	-14.639	Pitch:	-1.790	Yaw:	44.191	Thrust:	52.662
Time:	1.963	Roll Set Point:	0.329	Pitch Set Point:	-0.559	Yaw Set Point:	0.046	X_WP:	-0.685	Y_WP:	0.786	Y_WP:	0.750	X:	-0.510	Y:	0.668	Z:	0.965	yaw:	-2.616	yaw rate:	369.961	Roll:	0.537	Pitch:	16.753	Yaw:	-45.565	Thrust:	59.814
Time:	1.981	Roll Set Point:	0.355	Pitch Set Point:	-0.593	Yaw Set Point:	0.085	X_WP:	-0.685	Y_WP:	0.786	Y_WP:	0.750	X:	-0.524	Y:	0.682	Z:	0.971	yaw:	-4.860	yaw rate:	224.455	Roll:	-5.180	Pitch:	15.572	Yaw:	-37.721	Thrust:	42.215
Time:	2.001	Roll Set Point:	0.393	Pitch Set Point:	-0.607	Yaw Set Point:	0.015	X_WP:	-0.685	Y_WP:	0.786	Y_WP:	0.750	X:	-0.540	Y:	0.695	Z:	0.976	yaw:	-0.836	yaw rate:	-402.480	Roll:	-13.014	Pitch:	-2.452	Yaw:	50.759	Thrust:	57.253
Time:	2.020	Roll Set Point:	0.417	Pitch Set Point:	-0.638	Yaw Set Point:	0.054	X_WP:	-0.685	Y_WP:	0.786	Y_WP:	0.750	X:	-0.553	Y:	0.708	Z:	0.980	yaw:	-3.082	yaw rate:	224.662	Roll:	-4.915	Pitch:	13.246	Yaw:	-33.516	Thrust:	49.425
Time:	2.044	Roll Set Point:	0.443	Pitch Set Point:	-0.663	Yaw Set Point:	0.069	X_WP:	-0.685	Y_WP:	0.786	Y_WP:	0.750	X:	-0.566	Y:	0.720	Z:	0.984	yaw:	-3.982	yaw rate:	89.921	Roll:	-6.575	Pitch:	8.940	Yaw:	-15.576	Thrust:	51.704
Time:	2.061	Roll Set Point:	0.468	Pitch Set Point:	-0.686	Yaw Set Point:	0.080	X_WP:	-0.685	Y_WP:	0.786	Y_WP:	0.750	X:	-0.579	Y:	0.732	Z:	0.988	yaw:	-4.586	yaw rate:	60.474	Roll:	-6.981	Pitch:	7.758	Yaw:	-12.144	Thrust:	56.186
Time:	2.083	Roll Set Point:	0.493	Pitch Set Point:	-0.707	Yaw Set Point:	0.087	X_WP:	-0.685	Y_WP:	0.786	Y_WP:	0.750	X:	-0.591	Y:	0.742	Z:	0.991	yaw:	-5.007	yaw rate:	42.067	Roll:	-6.111	Pitch:	6.202	Yaw:	-10.473	Thrust:	56.626
Time:	2.100	Roll Set Point:	0.517	Pitch Set Point:	-0.724	Yaw Set Point:	0.064	X_WP:	-0.685	Y_WP:	0.786	Y_WP:	0.750	X:	-0.602	Y:	0.752	Z:	0.994	yaw:	-3.644	yaw rate:	-136.259	Roll:	-9.046	Pitch:	4.933	Yaw:	16.515	Thrust:	42.909
Time:	2.120	Roll Set Point:	0.539	Pitch Set Point:	-0.742	Yaw Set Point:	0.077	X_WP:	-0.685	Y_WP:	0.786	Y_WP:	0.750	X:	-0.613	Y:	0.761	Z:	0.997	yaw:	-4.435	yaw rate:	79.067	Roll:	-6.392	Pitch:	6.700	Yaw:	-14.911	Thrust:	52.569
Time:	2.141	Roll Set Point:	0.560	Pitch Set Point:	-0.758	Yaw Set Point:	0.070	X_WP:	-0.685	Y_WP:	0.786	Y_WP:	0.750	X:	-0.623	Y:	0.770	Z:	0.999	yaw:	-4.016	yaw rate:	-41.888	Roll:	-6.737	Pitch:	4.919	Yaw:	1.432	Thrust:	53.092
Time:	2.162	Roll Set Point:	0.580	Pitch Set Point:	-0.772	Yaw Set Point:	0.057	X_WP:	-0.685	Y_WP:	0.786	Y_WP:	0.750	X:	-0.633	Y:	0.777	Z:	1.001	yaw:	-3.263	yaw rate:	-75.278	Roll:	-6.066	Pitch:	4.108	Yaw:	6.412	Thrust:	56.435
Time:	2.181	Roll Set Point:	0.599	Pitch Set Point:	-0.785	Yaw Set Point:	0.062	X_WP:	-0.685	Y_WP:	0.786	Y_WP:	0.750	X:	-0.642	Y:	0.784	Z:	1.003	yaw:	-3.540	yaw rate:	27.712	Roll:	-6.472	Pitch:	5.252	Yaw:	-7.049	Thrust:	49.023
Time:	2.201	Roll Set Point:	0.616	Pitch Set Point:	-0.797	Yaw Set Point:	0.047	X_WP:	-0.685	Y_WP:	0.786	Y_WP:	0.750	X:	-0.651	Y:	0.791	Z:	1.005	yaw:	-2.721	yaw rate:	-81.906	Roll:	-5.701	Pitch:	3.951	Yaw:	8.389	Thrust:	56.348
Time:	2.220	Roll Set Point:	0.632	Pitch Set Point:	-0.808	Yaw Set Point:	0.042	X_WP:	-0.685	Y_WP:	0.786	Y_WP:	0.750	X:	-0.659	Y:	0.796	Z:	1.006	yaw:	-2.389	yaw rate:	-33.217	Roll:	-5.830	Pitch:	3.889	Yaw:	2.631	Thrust:	49.095
Time:	2.240	Roll Set Point:	0.647	Pitch Set Point:	-0.818	Yaw Set Point:	0.050	X_WP:	-0.685	Y_WP:	0.786	Y_WP:	0.750	X:	-0.666	Y:	0.801	Z:	1.006	yaw:	-2.879	yaw rate:	48.937	Roll:	-5.174	Pitch:	4.350	Yaw:	-9.355	Thrust:	49.166
Time:	2.263	Roll Set Point:	0.661	Pitch Set Point:	-0.827	Yaw Set Point:	0.045	X_WP:	-0.685	Y_WP:	0.786	Y_WP:	0.750	X:	-0.673	Y:	0.806	Z:	1.007	yaw:	-2.579	yaw rate:	-29.934	Roll:	-4.116	Pitch:	3.000	Yaw:	1.452	Thrust:	59.705
Time:	2.281	Roll Set Point:	0.674	Pitch Set Point:	-0.834	Yaw Set Point:	-0.009	X_WP:	-0.685	Y_WP:	0.786	Y_WP:	0.750	X:	-0.680	Y:	0.810	Z:	1.007	yaw:	0.489	yaw rate:	-306.855	Roll:	-4.340	Pitch:	2.536	Yaw:	44.213	Thrust:	53.120
Time:	2.300	Roll Set Point:	0.685	Pitch Set Point:	-0.841	Yaw Set Point:	0.018	X_WP:	-0.685	Y_WP:	0.786	Y_WP:	0.750	X:	-0.685	Y:	0.813	Z:	1.007	yaw:	-1.003	yaw rate:	149.257	Roll:	-4.579	Pitch:	3.621	Yaw:	-21.770	Thrust:	46.261
Time:	2.319	Roll Set Point:	0.695	Pitch Set Point:	-0.847	Yaw Set Point:	0.025	X_WP:	-0.685	Y_WP:	0.786	Y_WP:	0.750	X:	-0.690	Y:	0.817	Z:	1.006	yaw:	-1.418	yaw rate:	41.503	Roll:	-3.942	Pitch:	2.733	Yaw:	-5.981	Thrust:	53.073
Time:	2.340	Roll Set Point:	0.705	Pitch Set Point:	-0.852	Yaw Set Point:	0.035	X_WP:	-0.685	Y_WP:	0.786	Y_WP:	0.750	X:	-0.695	Y:	0.819	Z:	1.006	yaw:	-2.020	yaw rate:	60.207	Roll:	-3.667	Pitch:	2.131	Yaw:	-8.826	Thrust:	56.446
Time:	2.361	Roll Set Point:	0.713	Pitch Set Point:	-0.857	Yaw Set Point:	0.043	X_WP:	-0.685	Y_WP:	0.786	Y_WP:	0.750	X:	-0.698	Y:	0.821	Z:	1.004	yaw:	-2.489	yaw rate:	46.870	Roll:	-3.350	Pitch:	2.051	Yaw:	-7.837	Thrust:	53.945
Time:	2.381	Roll Set Point:	0.721	Pitch Set Point:	-0.860	Yaw Set Point:	0.048	X_WP:	-0.685	Y_WP:	0.786	Y_WP:	0.750	X:	-0.702	Y:	0.823	Z:	1.003	yaw:	-2.732	yaw rate:	24.318	Roll:	-2.915	Pitch:	1.759	Yaw:	-5.673	Thrust:	56.173
Time:	2.401	Roll Set Point:	0.727	Pitch Set Point:	-0.864	Yaw Set Point:	0.026	X_WP:	-0.685	Y_WP:	0.786	Y_WP:	0.750	X:	-0.706	Y:	0.825	Z:	1.001	yaw:	-1.516	yaw rate:	-121.637	Roll:	-2.424	Pitch:	1.881	Yaw:	15.490	Thrust:	53.177
Time:	2.420	Roll Set Point:	0.733	Pitch Set Point:	-0.866	Yaw Set Point:	0.064	X_WP:	-0.685	Y_WP:	0.786	Y_WP:	0.750	X:	-0.708	Y:	0.826	Z:	0.999	yaw:	-3.665	yaw rate:	214.895	Roll:	-2.959	Pitch:	0.943	Yaw:	-33.369	Thrust:	51.015
Time:	2.440	Roll Set Point:	0.737	Pitch Set Point:	-0.867	Yaw Set Point:	0.018	X_WP:	-0.685	Y_WP:	0.786	Y_WP:	0.750	X:	-0.711	Y:	0.827	Z:	0.996	yaw:	-1.049	yaw rate:	-261.611	Roll:	-1.055	Pitch:	1.551	Yaw:	34.010	Thrust:	54.916
Time:	2.463	Roll Set Point:	0.742	Pitch Set Point:	-0.869	Yaw Set Point:	0.048	X_WP:	-0.685	Y_WP:	0.786	Y_WP:	0.750	X:	-0.712	Y:	0.828	Z:	0.993	yaw:	-2.764	yaw rate:	171.568	Roll:	-2.576	Pitch:	0.614	Yaw:	-23.189	Thrust:	59.198
Time:	2.481	Roll Set Point:	0.745	Pitch Set Point:	-0.869	Yaw Set Point:	0.068	X_WP:	-0.685	Y_WP:	0.786	Y_WP:	0.750	X:	-0.714	Y:	0.828	Z:	0.990	yaw:	-3.917	yaw rate:	115.244	Roll:	-1.937	Pitch:	0.231	Yaw:	-20.081	Thrust:	52.604
Time:	2.500	Roll Set Point:	0.747	Pitch Set Point:	-0.869	Yaw Set Point:	0.066	X_WP:	-0.685	Y_WP:	0.786	Y_WP:	0.750	X:	-0.715	Y:	0.828	Z:	0.987	yaw:	-3.806	yaw rate:	-11.064	Roll:	-1.206	Pitch:	0.595	Yaw:	-2.591	Thrust:	52.635
Time:	2.520	Roll Set Point:	0.749	Pitch Set Point:	-0.869	Yaw Set Point:	0.066	X_WP:	-0.685	Y_WP:	0.786	Y_WP:	0.750	X:	-0.716	Y:	0.828	Z:	0.983	yaw:	-3.761	yaw rate:	-4.533	Roll:	-0.915	Pitch:	0.377	Yaw:	-3.419	Thrust:	55.375
Time:	2.540	Roll Set Point:	0.750	Pitch Set Point:	-0.868	Yaw Set Point:	0.065	X_WP:	-0.685	Y_WP:	0.786	Y_WP:	0.750	X:	-0.716	Y:	0.828	Z:	0.979	yaw:	-3.740	yaw rate:	-2.052	Roll:	-0.564	Pitch:	0.101	Yaw:	-3.740	Thrust:	55.470
Time:	2.561	Roll Set Point:	0.750	Pitch Set Point:	-0.867	Yaw Set Point:	0.064	X_WP:	-0.685	Y_WP:	0.786	Y_WP:	0.750	X:	-0.716	Y:	0.828	Z:	0.975	yaw:	-3.660	yaw rate:	-8.073	Roll:	-0.200	Pitch:	0.054	Yaw:	-2.859	Thrust:	58.166
Time:	2.581	Roll Set Point:	0.750	Pitch Set Point:	-0.865	Yaw Set Point:	0.079	X_WP:	-0.685	Y_WP:	0.786	Y_WP:	0.750	X:	-0.716	Y:	0.827	Z:	0.971	yaw:	-4.528	yaw rate:	86.887	Roll:	-0.477	Pitch:	-0.692	Yaw:	-16.513	Thrust:	56.041
Time:	2.600	Roll Set Point:	0.749	Pitch Set Point:	-0.864	Yaw Set Point:	0.065	X_WP:	-0.685	Y_WP:	0.786	Y_WP:	0.750	X:	-0.716	Y:	0.826	Z:	0.967	yaw:	-3.745	yaw rate:	-78.330	Roll:	0.463	Pitch:	0.036	Yaw:	6.608	Thrust:	53.670
Time:	2.620	Roll Set Point:	0.747	Pitch Set Point:	-0.862	Yaw Set Point:	0.073	X_WP:	-0.685	Y_WP:	0.786	Y_WP:	0.750	X:	-0.715	Y:	0.825	Z:	0.962	yaw:	-4.182	yaw rate:	43.724	Roll:	0.298	Pitch:	-0.676	Yaw:	-10.444	Thrust:	56.491
Time:	2.640	Roll Set Point:	0.746	Pitch Set Point:	-0.859	Yaw Set Point:	0.066	X_WP:	-0.685	Y_WP:	0.786	Y_WP:	0.750	X:	-0.714	Y:	0.824	Z:	0.957	yaw:	-3.793	yaw rate:	-38.893	Roll:	0.563	Pitch:	-0.551	Yaw:	0.855	Thrust:	56.069
Time:	2.660	Roll Set Point:	0.742	Pitch Set Point:	-0.857	Yaw Set Point:	0.061	X_WP:	-0.685	Y_WP:	0.786	Y_WP:	0.750	X:	-0.713	Y:	0.822	Z:	0.952	yaw:	-3.523	yaw rate:	-27.061	Roll:	1.436	Pitch:	-0.425	Yaw:	-0.339	Thrust:	56.442
Time:	2.680	Roll Set Point:	0.740	Pitch Set Point:	-0.855	Yaw Set Point:	0.049	X_WP:	-0.685	Y_WP:	0.786	Y_WP:	0.750	X:	-0.712	Y:	0.821	Z:	0.947	yaw:	-2.830	yaw rate:	-69.325	Roll:	1.199	Pitch:	-0.484	Yaw:	6.546	Thrust:	54.588
Time:	2.699	Roll Set Point:	0.736	Pitch Set Point:	-0.852	Yaw Set Point:	0.058	X_WP:	-0.685	Y_WP:	0.786	Y_WP:	0.750	X:	-0.710	Y:	0.820	Z:	0.942	yaw:	-3.300	yaw rate:	47.087	Roll:	1.467	Pitch:	-1.002	Yaw:	-9.758	Thrust:	56.339
Time:	2.719	Roll Set Point:	0.733	Pitch Set Point:	-0.849	Yaw Set Point:	0.072	X_WP:	-0.685	Y_WP:	0.786	Y_WP:	0.750	X:	-0.708	Y:	0.818	Z:	0.937	yaw:	-4.118	yaw rate:	81.798	Roll:	1.223	Pitch:	-1.193	Yaw:	-15.449	Thrust:	56.236
Time:	2.739	Roll Set Point:	0.729	Pitch Set Point:	-0.847	Yaw Set Point:	0.052	X_WP:	-0.685	Y_WP:	0.786	Y_WP:	0.750	X:	-0.706	Y:	0.817	Z:	0.932	yaw:	-2.990	yaw rate:	-112.810	Roll:	2.225	Pitch:	-0.585	Yaw:	11.503	Thrust:	56.400
Time:	2.760	Roll Set Point:	0.725	Pitch Set Point:	-0.844	Yaw Set Point:	0.066	X_WP:	-0.685	Y_WP:	0.786	Y_WP:	0.750	X:	-0.704	Y:	0.815	Z:	0.926	yaw:	-3.786	yaw rate:	79.592	Roll:	1.671	Pitch:	-1.280	Yaw:	-14.747	Thrust:	56.730
Time:	2.782	Roll Set Point:	0.720	Pitch Set Point:	-0.841	Yaw Set Point:	0.070	X_WP:	-0.685	Y_WP:	0.786	Y_WP:	0.750	X:	-0.702	Y:	0.814	Z:	0.921	yaw:	-4.021	yaw rate:	23.455	Roll:	2.145	Pitch:	-1.140	Yaw:	-7.236	Thrust:	62.760
Time:	2.800	Roll Set Point:	0.715	Pitch Set Point:	-0.838	Yaw Set Point:	0.050	X_WP:	-0.685	Y_WP:	0.786	Y_WP:	0.750	X:	-0.699	Y:	0.812	Z:	0.915	yaw:	-2.857	yaw rate:	-116.419	Roll:	2.647	Pitch:	-0.755	Yaw:	13.693	Thrust:	52.323
Time:	2.820	Roll Set Point:	0.710	Pitch Set Point:	-0.835	Yaw Set Point:	0.053	X_WP:	-0.685	Y_WP:	0.786	Y_WP:	0.750	X:	-0.697	Y:	0.811	Z:	0.910	yaw:	-3.064	yaw rate:	20.741	Roll:	2.558	Pitch:	-1.261	Yaw:	-6.285	Thrust:	54.816
Time:	2.840	Roll Set Point:	0.705	Pitch Set Point:	-0.833	Yaw Set Point:	0.055	X_WP:	-0.685	Y_WP:	0.786	Y_WP:	0.750	X:	-0.694	Y:	0.809	Z:	0.904	yaw:	-3.177	yaw rate:	11.312	Roll:	2.757	Pitch:	-1.172	Yaw:	-5.075	Thrust:	56.534
Time:	2.860	Roll Set Point:	0.699	Pitch Set Point:	-0.830	Yaw Set Point:	0.061	X_WP:	-0.685	Y_WP:	0.786	Y_WP:	0.750	X:	-0.692	Y:	0.808	Z:	0.899	yaw:	-3.486	yaw rate:	30.925	Roll:	2.656	Pitch:	-1.277	Yaw:	-8.353	Thrust:	54.328
Time:	2.880	Roll Set Point:	0.694	Pitch Set Point:	-0.827	Yaw Set Point:	0.054	X_WP:	-0.685	Y_WP:	0.786	Y_WP:	0.750	X:	-0.689	Y:	0.807	Z:	0.893	yaw:	-3.097	yaw rate:	-38.921	Roll:	2.952	Pitch:	-1.092	Yaw:	1.342	Thrust:	58.345
Time:	2.899	Roll Set Point:	0.688	Pitch Set Point:	-0.824	Yaw Set Point:	0.049	X_WP:	-0.685	Y_WP:	0.786	Y_WP:	0.750	X:	-0.686	Y:	0.805	Z:	0.888	yaw:	-2.781	yaw rate:	-31.644	Roll:	3.182	Pitch:	-1.239	Yaw:	1.194	Thrust:	54.460
Time:	2.923	Roll Set Point:	0.683	Pitch Set Point:	-0.822	Yaw Set Point:	0.055	X_WP:	-0.685	Y_WP:	0.786	Y_WP:	0.750	X:	-0.684	Y:	0.804	Z:	0.882	yaw:	-3.177	yaw rate:	39.581	Roll:	2.796	Pitch:	-1.236	Yaw:	-8.856	Thrust:	56.339
Time:	2.939	Roll Set Point:	0.677	Pitch Set Point:	-0.819	Yaw Set Point:	0.059	X_WP:	-0.685	Y_WP:	0.786	Y_WP:	0.750	X:	-0.681	Y:	0.802	Z:	0.876	yaw:	-3.389	yaw rate:	21.248	Roll:	3.372	Pitch:	-1.175	Yaw:	-6.781	Thrust:	56.755
Time:	2.961	Roll Set Point:	0.672	Pitch Set Point:	-0.817	Yaw Set Point:	0.045	X_WP:	-0.685	Y_WP:	0.786	Y_WP:	0.750	X:	-0.678	Y:	0.801	Z:	0.871	yaw:	-2.582	yaw rate:	-80.703	Roll:	3.446	Pitch:	-1.233	Yaw:	7.632	Thrust:	56.808
Time:	2.982	Roll Set Point:	0.666	Pitch Set Point:	-0.815	Yaw Set Point:	0.047	X_WP:	-0.685	Y_WP:	0.786	Y_WP:	0.750	X:	-0.675	Y:	0.800	Z:	0.865	yaw:	-2.718	yaw rate:	13.632	Roll:	3.279	Pitch:	-1.126	Yaw:	-4.662	Thrust:	60.795
Time:	2.999	Roll Set Point:	0.661	Pitch Set Point:	-0.813	Yaw Set Point:	0.056	X_WP:	-0.685	Y_WP:	0.786	Y_WP:	0.750	X:	-0.673	Y:	0.799	Z:	0.859	yaw:	-3.217	yaw rate:	49.904	Roll:	3.394	Pitch:	-1.029	Yaw:	-11.134	Thrust:	54.374
Time:	3.019	Roll Set Point:	0.655	Pitch Set Point:	-0.811	Yaw Set Point:	0.052	X_WP:	-0.685	Y_WP:	0.786	Y_WP:	0.750	X:	-0.670	Y:	0.798	Z:	0.853	yaw:	-2.996	yaw rate:	-22.154	Roll:	3.484	Pitch:	-1.246	Yaw:	-0.649	Thrust:	56.578
Time:	3.039	Roll Set Point:	0.650	Pitch Set Point:	-0.809	Yaw Set Point:	0.046	X_WP:	-0.685	Y_WP:	0.786	Y_WP:	0.750	X:	-0.667	Y:	0.797	Z:	0.847	yaw:	-2.644	yaw rate:	-35.161	Roll:	3.668	Pitch:	-1.102	Yaw:	1.518	Thrust:	58.161
Time:	3.060	Roll Set Point:	0.645	Pitch Set Point:	-0.807	Yaw Set Point:	0.058	X_WP:	-0.685	Y_WP:	0.786	Y_WP:	0.750	X:	-0.665	Y:	0.796	Z:	0.841	yaw:	-3.309	yaw rate:	66.503	Roll:	3.322	Pitch:	-0.942	Yaw:	-12.701	Thrust:	57.656
Time:	3.080	Roll Set Point:	0.639	Pitch Set Point:	-0.805	Yaw Set Point:	0.047	X_WP:	-0.685	Y_WP:	0.786	Y_WP:	0.750	X:	-0.662	Y:	0.795	Z:	0.835	yaw:	-2.710	yaw rate:	-59.887	Roll:	3.723	Pitch:	-1.226	Yaw:	4.269	Thrust:	59.603
Time:	3.099	Roll Set Point:	0.635	Pitch Set Point:	-0.804	Yaw Set Point:	0.051	X_WP:	-0.685	Y_WP:	0.786	Y_WP:	0.750	X:	-0.660	Y:	0.794	Z:	0.829	yaw:	-2.897	yaw rate:	18.624	Roll:	3.613	Pitch:	-0.864	Yaw:	-6.072	Thrust:	54.551
Time:	3.119	Roll Set Point:	0.630	Pitch Set Point:	-0.802	Yaw Set Point:	0.044	X_WP:	-0.685	Y_WP:	0.786	Y_WP:	0.750	X:	-0.657	Y:	0.793	Z:	0.823	yaw:	-2.524	yaw rate:	-37.271	Roll:	3.499	Pitch:	-1.161	Yaw:	1.881	Thrust:	59.344
Time:	3.140	Roll Set Point:	0.625	Pitch Set Point:	-0.801	Yaw Set Point:	0.056	X_WP:	-0.685	Y_WP:	0.786	Y_WP:	0.750	X:	-0.655	Y:	0.792	Z:	0.817	yaw:	-3.191	yaw rate:	66.683	Roll:	3.676	Pitch:	-0.711	Yaw:	-13.101	Thrust:	56.466
Time:	3.160	Roll Set Point:	0.620	Pitch Set Point:	-0.800	Yaw Set Point:	0.051	X_WP:	-0.685	Y_WP:	0.786	Y_WP:	0.750	X:	-0.653	Y:	0.792	Z:	0.811	yaw:	-2.907	yaw rate:	-28.380	Roll:	3.619	Pitch:	-1.008	Yaw:	0.000	Thrust:	59.768
Time:	3.181	Roll Set Point:	0.616	Pitch Set Point:	-0.799	Yaw Set Point:	0.045	X_WP:	-0.685	Y_WP:	0.786	Y_WP:	0.750	X:	-0.651	Y:	0.791	Z:	0.805	yaw:	-2.606	yaw rate:	-30.127	Roll:	3.523	Pitch:	-1.004	Yaw:	0.772	Thrust:	58.019
Time:	3.200	Roll Set Point:	0.612	Pitch Set Point:	-0.797	Yaw Set Point:	0.045	X_WP:	-0.685	Y_WP:	0.786	Y_WP:	0.750	X:	-0.648	Y:	0.791	Z:	0.800	yaw:	-2.582	yaw rate:	-2.371	Roll:	3.626	Pitch:	-0.970	Yaw:	-2.842	Thrust:	56.277
Time:	3.220	Roll Set Point:	0.608	Pitch Set Point:	-0.797	Yaw Set Point:	0.055	X_WP:	-0.685	Y_WP:	0.786	Y_WP:	0.750	X:	-0.646	Y:	0.790	Z:	0.794	yaw:	-3.169	yaw rate:	58.667	Roll:	3.542	Pitch:	-0.452	Yaw:	-11.641	Thrust:	58.398
Time:	3.239	Roll Set Point:	0.604	Pitch Set Point:	-0.796	Yaw Set Point:	0.044	X_WP:	-0.685	Y_WP:	0.786	Y_WP:	0.750	X:	-0.645	Y:	0.790	Z:	0.788	yaw:	-2.537	yaw rate:	-63.160	Roll:	3.559	Pitch:	-1.161	Yaw:	5.124	Thrust:	58.105
Time:	3.260	Roll Set Point:	0.601	Pitch Set Point:	-0.795	Yaw Set Point:	0.052	X_WP:	-0.685	Y_WP:	0.786	Y_WP:	0.750	X:	-0.643	Y:	0.789	Z:	0.783	yaw:	-2.964	yaw rate:	42.658	Roll:	3.467	Pitch:	-0.495	Yaw:	-9.305	Thrust:	58.154
Time:	3.280	Roll Set Point:	0.597	Pitch Set Point:	-0.795	Yaw Set Point:	0.044	X_WP:	-0.685	Y_WP:	0.786	Y_WP:	0.750	X:	-0.641	Y:	0.789	Z:	0.778	yaw:	-2.538	yaw rate:	-42.594	Roll:	3.447	Pitch:	-0.895	Yaw:	2.032	Thrust:	60.838
Time:	3.300	Roll Set Point:	0.594	Pitch Set Point:	-0.794	Yaw Set Point:	0.042	X_WP:	-0.685	Y_WP:	0.786	Y_WP:	0.750	X:	-0.639	Y:	0.789	Z:	0.772	yaw:	-2.416	yaw rate:	-12.180	Roll:	3.504	Pitch:	-0.806	Yaw:	-1.362	Thrust:	54.839
Time:	3.320	Roll Set Point:	0.591	Pitch Set Point:	-0.794	Yaw Set Point:	0.035	X_WP:	-0.685	Y_WP:	0.786	Y_WP:	0.750	X:	-0.638	Y:	0.789	Z:	0.767	yaw:	-1.992	yaw rate:	-42.375	Roll:	3.363	Pitch:	-0.945	Yaw:	3.301	Thrust:	58.629
Time:	3.339	Roll Set Point:	0.588	Pitch Set Point:	-0.794	Yaw Set Point:	0.051	X_WP:	-0.685	Y_WP:	0.786	Y_WP:	0.750	X:	-0.637	Y:	0.789	Z:	0.762	yaw:	-2.907	yaw rate:	91.484	Roll:	3.288	Pitch:	0.059	Yaw:	-15.668	Thrust:	58.078
Time:	3.360	Roll Set Point:	0.585	Pitch Set Point:	-0.794	Yaw Set Point:	0.044	X_WP:	-0.685	Y_WP:	0.786	Y_WP:	0.750	X:	-0.635	Y:	0.789	Z:	0.757	yaw:	-2.497	yaw rate:	-41.039	Roll:	3.441	Pitch:	-0.826	Yaw:	2.161	Thrust:	58.435
Time:	3.380	Roll Set Point:	0.583	Pitch Set Point:	-0.794	Yaw Set Point:	0.048	X_WP:	-0.685	Y_WP:	0.786	Y_WP:	0.750	X:	-0.634	Y:	0.788	Z:	0.752	yaw:	-2.747	yaw rate:	25.044	Roll:	3.259	Pitch:	-0.393	Yaw:	-6.639	Thrust:	59.992
Time:	3.401	Roll Set Point:	0.581	Pitch Set Point:	-0.794	Yaw Set Point:	0.043	X_WP:	-0.685	Y_WP:	0.786	Y_WP:	0.750	X:	-0.633	Y:	0.789	Z:	0.747	yaw:	-2.462	yaw rate:	-28.466	Roll:	3.245	Pitch:	-0.690	Yaw:	0.391	Thrust:	59.978
Time:	3.419	Roll Set Point:	0.579	Pitch Set Point:	-0.794	Yaw Set Point:	0.037	X_WP:	-0.685	Y_WP:	0.786	Y_WP:	0.750	X:	-0.632	Y:	0.789	Z:	0.743	yaw:	-2.098	yaw rate:	-36.463	Roll:	3.089	Pitch:	-0.657	Yaw:	2.593	Thrust:	54.442
Time:	3.439	Roll Set Point:	0.577	Pitch Set Point:	-0.794	Yaw Set Point:	0.048	X_WP:	-0.685	Y_WP:	0.786	Y_WP:	0.750	X:	-0.631	Y:	0.789	Z:	0.738	yaw:	-2.761	yaw rate:	66.288	Roll:	3.202	Pitch:	-0.020	Yaw:	-12.264	Thrust:	58.345
Time:	3.460	Roll Set Point:	0.575	Pitch Set Point:	-0.794	Yaw Set Point:	0.030	X_WP:	-0.685	Y_WP:	0.786	Y_WP:	0.750	X:	-0.630	Y:	0.789	Z:	0.734	yaw:	-1.708	yaw rate:	-105.306	Roll:	3.088	Pitch:	-1.241	Yaw:	11.589	Thrust:	58.110
Time:	3.479	Roll Set Point:	0.573	Pitch Set Point:	-0.795	Yaw Set Point:	0.044	X_WP:	-0.685	Y_WP:	0.786	Y_WP:	0.750	X:	-0.629	Y:	0.789	Z:	0.730	yaw:	-2.544	yaw rate:	83.612	Roll:	3.003	Pitch:	0.262	Yaw:	-14.235	Thrust:	58.344
Time:	3.500	Roll Set Point:	0.572	Pitch Set Point:	-0.795	Yaw Set Point:	0.036	X_WP:	-0.685	Y_WP:	0.786	Y_WP:	0.750	X:	-0.628	Y:	0.789	Z:	0.725	yaw:	-2.051	yaw rate:	-49.258	Roll:	3.080	Pitch:	-0.646	Yaw:	3.774	Thrust:	56.280
Time:	3.520	Roll Set Point:	0.570	Pitch Set Point:	-0.795	Yaw Set Point:	0.037	X_WP:	-0.685	Y_WP:	0.786	Y_WP:	0.750	X:	-0.628	Y:	0.789	Z:	0.721	yaw:	-2.109	yaw rate:	5.786	Roll:	3.076	Pitch:	-0.175	Yaw:	-3.568	Thrust:	58.308
Time:	3.540	Roll Set Point:	0.569	Pitch Set Point:	-0.796	Yaw Set Point:	0.042	X_WP:	-0.685	Y_WP:	0.786	Y_WP:	0.750	X:	-0.627	Y:	0.790	Z:	0.717	yaw:	-2.400	yaw rate:	29.111	Roll:	2.896	Pitch:	-0.029	Yaw:	-6.974	Thrust:	58.518
Time:	3.560	Roll Set Point:	0.568	Pitch Set Point:	-0.796	Yaw Set Point:	0.038	X_WP:	-0.685	Y_WP:	0.786	Y_WP:	0.750	X:	-0.627	Y:	0.790	Z:	0.713	yaw:	-2.150	yaw rate:	-24.993	Roll:	2.840	Pitch:	-0.521	Yaw:	0.269	Thrust:	60.653
Time:	3.581	Roll Set Point:	0.568	Pitch Set Point:	-0.796	Yaw Set Point:	0.031	X_WP:	-0.685	Y_WP:	0.786	Y_WP:	0.750	X:	-0.626	Y:	0.790	Z:	0.709	yaw:	-1.799	yaw rate:	-35.166	Roll:	2.731	Pitch:	-0.663	Yaw:	2.216	Thrust:	59.109
Time:	3.600	Roll Set Point:	0.567	Pitch Set Point:	-0.797	Yaw Set Point:	0.032	X_WP:	-0.685	Y_WP:	0.786	Y_WP:	0.750	X:	-0.626	Y:	0.790	Z:	0.705	yaw:	-1.823	yaw rate:	2.483	Roll:	2.798	Pitch:	-0.147	Yaw:	-2.748	Thrust:	58.944
Time:	3.620	Roll Set Point:	0.566	Pitch Set Point:	-0.798	Yaw Set Point:	0.032	X_WP:	-0.685	Y_WP:	0.786	Y_WP:	0.750	X:	-0.626	Y:	0.791	Z:	0.702	yaw:	-1.859	yaw rate:	3.614	Roll:	2.827	Pitch:	-0.144	Yaw:	-2.959	Thrust:	59.351
Time:	3.639	Roll Set Point:	0.566	Pitch Set Point:	-0.799	Yaw Set Point:	0.044	X_WP:	-0.685	Y_WP:	0.786	Y_WP:	0.750	X:	-0.625	Y:	0.791	Z:	0.698	yaw:	-2.518	yaw rate:	65.810	Roll:	2.591	Pitch:	0.451	Yaw:	-12.469	Thrust:	57.572
Time:	3.661	Roll Set Point:	0.565	Pitch Set Point:	-0.800	Yaw Set Point:	0.040	X_WP:	-0.685	Y_WP:	0.786	Y_WP:	0.750	X:	-0.625	Y:	0.792	Z:	0.694	yaw:	-2.272	yaw rate:	-24.582	Roll:	2.730	Pitch:	-0.299	Yaw:	-0.034	Thrust:	61.425
Time:	3.681	Roll Set Point:	0.565	Pitch Set Point:	-0.801	Yaw Set Point:	0.038	X_WP:	-0.685	Y_WP:	0.786	Y_WP:	0.750	X:	-0.625	Y:	0.792	Z:	0.691	yaw:	-2.170	yaw rate:	-10.191	Roll:	2.703	Pitch:	-0.096	Yaw:	-1.696	Thrust:	59.358
Time:	3.699	Roll Set Point:	0.564	Pitch Set Point:	-0.801	Yaw Set Point:	0.035	X_WP:	-0.685	Y_WP:	0.786	Y_WP:	0.750	X:	-0.625	Y:	0.792	Z:	0.687	yaw:	-2.009	yaw rate:	-16.073	Roll:	2.561	Pitch:	-0.232	Yaw:	-0.431	Thrust:	57.405
Time:	3.720	Roll Set Point:	0.564	Pitch Set Point:	-0.802	Yaw Set Point:	0.033	X_WP:	-0.685	Y_WP:	0.786	Y_WP:	0.750	X:	-0.625	Y:	0.793	Z:	0.684	yaw:	-1.907	yaw rate:	-10.175	Roll:	2.587	Pitch:	-0.146	Yaw:	-1.301	Thrust:	59.415
Time:	3.739	Roll Set Point:	0.564	Pitch Set Point:	-0.802	Yaw Set Point:	0.031	X_WP:	-0.685	Y_WP:	0.786	Y_WP:	0.750	X:	-0.625	Y:	0.793	Z:	0.681	yaw:	-1.764	yaw rate:	-14.338	Roll:	2.434	Pitch:	-0.268	Yaw:	-0.571	Thrust:	59.511
Time:	3.761	Roll Set Point:	0.564	Pitch Set Point:	-0.804	Yaw Set Point:	0.036	X_WP:	-0.685	Y_WP:	0.786	Y_WP:	0.750	X:	-0.625	Y:	0.794	Z:	0.678	yaw:	-2.042	yaw rate:	27.842	Roll:	2.583	Pitch:	0.238	Yaw:	-6.304	Thrust:	61.576
Time:	3.781	Roll Set Point:	0.564	Pitch Set Point:	-0.804	Yaw Set Point:	0.036	X_WP:	-0.685	Y_WP:	0.786	Y_WP:	0.750	X:	-0.625	Y:	0.794	Z:	0.675	yaw:	-2.049	yaw rate:	0.617	Roll:	2.484	Pitch:	-0.064	Yaw:	-2.948	Thrust:	59.552
Time:	3.799	Roll Set Point:	0.564	Pitch Set Point:	-0.805	Yaw Set Point:	0.032	X_WP:	-0.685	Y_WP:	0.786	Y_WP:	0.750	X:	-0.625	Y:	0.794	Z:	0.673	yaw:	-1.806	yaw rate:	-24.239	Roll:	2.408	Pitch:	-0.259	Yaw:	0.791	Thrust:	57.483
Time:	3.819	Roll Set Point:	0.565	Pitch Set Point:	-0.806	Yaw Set Point:	0.035	X_WP:	-0.685	Y_WP:	0.786	Y_WP:	0.750	X:	-0.625	Y:	0.795	Z:	0.670	yaw:	-2.005	yaw rate:	19.923	Roll:	2.320	Pitch:	0.029	Yaw:	-5.435	Thrust:	59.475
Time:	3.839	Roll Set Point:	0.565	Pitch Set Point:	-0.807	Yaw Set Point:	0.041	X_WP:	-0.685	Y_WP:	0.786	Y_WP:	0.750	X:	-0.625	Y:	0.795	Z:	0.668	yaw:	-2.365	yaw rate:	35.908	Roll:	2.467	Pitch:	0.396	Yaw:	-8.038	Thrust:	59.467
Time:	3.860	Roll Set Point:	0.565	Pitch Set Point:	-0.808	Yaw Set Point:	0.045	X_WP:	-0.685	Y_WP:	0.786	Y_WP:	0.750	X:	-0.625	Y:	0.795	Z:	0.666	yaw:	-2.588	yaw rate:	22.332	Roll:	2.405	Pitch:	0.152	Yaw:	-6.457	Thrust:	61.542
Time:	3.881	Roll Set Point:	0.565	Pitch Set Point:	-0.808	Yaw Set Point:	0.039	X_WP:	-0.685	Y_WP:	0.786	Y_WP:	0.750	X:	-0.625	Y:	0.796	Z:	0.664	yaw:	-2.228	yaw rate:	-35.987	Roll:	2.467	Pitch:	-0.309	Yaw:	1.505	Thrust:	59.232
Time:	3.900	Roll Set Point:	0.565	Pitch Set Point:	-0.809	Yaw Set Point:	0.033	X_WP:	-0.685	Y_WP:	0.786	Y_WP:	0.750	X:	-0.625	Y:	0.796	Z:	0.662	yaw:	-1.908	yaw rate:	-31.971	Roll:	2.324	Pitch:	-0.278	Yaw:	1.636	Thrust:	56.968
Time:	3.920	Roll Set Point:	0.566	Pitch Set Point:	-0.809	Yaw Set Point:	0.033	X_WP:	-0.685	Y_WP:	0.786	Y_WP:	0.750	X:	-0.625	Y:	0.796	Z:	0.660	yaw:	-1.876	yaw rate:	-3.201	Roll:	2.346	Pitch:	-0.083	Yaw:	-2.313	Thrust:	56.820
Time:	3.940	Roll Set Point:	0.566	Pitch Set Point:	-0.809	Yaw Set Point:	0.026	X_WP:	-0.685	Y_WP:	0.786	Y_WP:	0.750	X:	-0.626	Y:	0.797	Z:	0.659	yaw:	-1.503	yaw rate:	-37.317	Roll:	2.313	Pitch:	-0.468	Yaw:	2.911	Thrust:	59.000
Time:	3.960	Roll Set Point:	0.566	Pitch Set Point:	-0.810	Yaw Set Point:	0.028	X_WP:	-0.685	Y_WP:	0.786	Y_WP:	0.750	X:	-0.625	Y:	0.797	Z:	0.658	yaw:	-1.594	yaw rate:	9.053	Roll:	2.525	Pitch:	0.083	Yaw:	-3.492	Thrust:	59.127
Time:	3.982	Roll Set Point:	0.566	Pitch Set Point:	-0.811	Yaw Set Point:	0.031	X_WP:	-0.685	Y_WP:	0.786	Y_WP:	0.750	X:	-0.626	Y:	0.797	Z:	0.656	yaw:	-1.788	yaw rate:	19.429	Roll:	2.365	Pitch:	-0.074	Yaw:	-4.962	Thrust:	66.488
Time:	4.000	Roll Set Point:	0.567	Pitch Set Point:	-0.811	Yaw Set Point:	0.025	X_WP:	-0.685	Y_WP:	0.786	Y_WP:	0.750	X:	-0.626	Y:	0.797	Z:	0.655	yaw:	-1.413	yaw rate:	-37.489	Roll:	2.194	Pitch:	-0.414	Yaw:	3.654	Thrust:	52.229
Time:	4.019	Roll Set Point:	0.567	Pitch Set Point:	-0.811	Yaw Set Point:	0.027	X_WP:	-0.685	Y_WP:	0.786	Y_WP:	0.750	X:	-0.626	Y:	0.798	Z:	0.654	yaw:	-1.519	yaw rate:	10.561	Roll:	2.449	Pitch:	0.033	Yaw:	-3.668	Thrust:	59.235
Time:	4.040	Roll Set Point:	0.567	Pitch Set Point:	-0.812	Yaw Set Point:	0.025	X_WP:	-0.685	Y_WP:	0.786	Y_WP:	0.750	X:	-0.626	Y:	0.798	Z:	0.653	yaw:	-1.433	yaw rate:	-8.593	Roll:	2.296	Pitch:	-0.198	Yaw:	-1.120	Thrust:	59.483
Time:	4.060	Roll Set Point:	0.568	Pitch Set Point:	-0.811	Yaw Set Point:	0.022	X_WP:	-0.685	Y_WP:	0.786	Y_WP:	0.750	X:	-0.626	Y:	0.798	Z:	0.652	yaw:	-1.254	yaw rate:	-17.881	Roll:	2.283	Pitch:	-0.395	Yaw:	0.394	Thrust:	61.867
Time:	4.080	Roll Set Point:	0.568	Pitch Set Point:	-0.813	Yaw Set Point:	0.028	X_WP:	-0.685	Y_WP:	0.786	Y_WP:	0.750	X:	-0.626	Y:	0.798	Z:	0.651	yaw:	-1.576	yaw rate:	32.187	Roll:	2.381	Pitch:	0.386	Yaw:	-6.601	Thrust:	59.884
Time:	4.099	Roll Set Point:	0.568	Pitch Set Point:	-0.813	Yaw Set Point:	0.024	X_WP:	-0.685	Y_WP:	0.786	Y_WP:	0.750	X:	-0.627	Y:	0.798	Z:	0.650	yaw:	-1.369	yaw rate:	-20.717	Roll:	2.345	Pitch:	-0.398	Yaw:	0.738	Thrust:	58.092
Time:	4.119	Roll Set Point:	0.569	Pitch Set Point:	-0.813	Yaw Set Point:	0.026	X_WP:	-0.685	Y_WP:	0.786	Y_WP:	0.750	X:	-0.627	Y:	0.799	Z:	0.649	yaw:	-1.500	yaw rate:	13.121	Roll:	2.222	Pitch:	-0.025	Yaw:	-4.026	Thrust:	60.264
Time:	4.139	Roll Set Point:	0.569	Pitch Set Point:	-0.813	Yaw Set Point:	0.023	X_WP:	-0.685	Y_WP:	0.786	Y_WP:	0.750	X:	-0.627	Y:	0.799	Z:	0.648	yaw:	-1.337	yaw rate:	-16.292	Roll:	2.250	Pitch:	-0.238	Yaw:	0.031	Thrust:	60.531
Time:	4.160	Roll Set Point:	0.569	Pitch Set Point:	-0.814	Yaw Set Point:	0.038	X_WP:	-0.685	Y_WP:	0.786	Y_WP:	0.750	X:	-0.627	Y:	0.799	Z:	0.648	yaw:	-2.196	yaw rate:	85.964	Roll:	2.215	Pitch:	0.483	Yaw:	-14.527	Thrust:	60.380
Time:	4.181	Roll Set Point:	0.569	Pitch Set Point:	-0.814	Yaw Set Point:	0.028	X_WP:	-0.685	Y_WP:	0.786	Y_WP:	0.750	X:	-0.627	Y:	0.799	Z:	0.647	yaw:	-1.584	yaw rate:	-61.258	Roll:	2.471	Pitch:	-0.657	Yaw:	4.776	Thrust:	65.602
Time:	4.199	Roll Set Point:	0.570	Pitch Set Point:	-0.814	Yaw Set Point:	0.029	X_WP:	-0.685	Y_WP:	0.786	Y_WP:	0.750	X:	-0.627	Y:	0.799	Z:	0.647	yaw:	-1.641	yaw rate:	5.754	Roll:	2.328	Pitch:	-0.018	Yaw:	-3.365	Thrust:	54.579
Time:	4.219	Roll Set Point:	0.570	Pitch Set Point:	-0.814	Yaw Set Point:	0.025	X_WP:	-0.685	Y_WP:	0.786	Y_WP:	0.750	X:	-0.627	Y:	0.799	Z:	0.647	yaw:	-1.454	yaw rate:	-18.779	Roll:	2.310	Pitch:	-0.394	Yaw:	0.145	Thrust:	60.595
Time:	4.239	Roll Set Point:	0.570	Pitch Set Point:	-0.814	Yaw Set Point:	0.022	X_WP:	-0.685	Y_WP:	0.786	Y_WP:	0.750	X:	-0.627	Y:	0.799	Z:	0.647	yaw:	-1.285	yaw rate:	-16.905	Roll:	2.318	Pitch:	-0.314	Yaw:	0.127	Thrust:	60.002
Time:	4.261	Roll Set Point:	0.570	Pitch Set Point:	-0.814	Yaw Set Point:	0.020	X_WP:	-0.685	Y_WP:	0.786	Y_WP:	0.750	X:	-0.628	Y:	0.799	Z:	0.647	yaw:	-1.165	yaw rate:	-11.977	Roll:	2.447	Pitch:	-0.333	Yaw:	-0.448	Thrust:	62.711
Time:	4.281	Roll Set Point:	0.570	Pitch Set Point:	-0.814	Yaw Set Point:	0.025	X_WP:	-0.685	Y_WP:	0.786	Y_WP:	0.750	X:	-0.628	Y:	0.799	Z:	0.647	yaw:	-1.435	yaw rate:	27.024	Roll:	2.264	Pitch:	0.022	Yaw:	-6.006	Thrust:	57.033
Time:	4.300	Roll Set Point:	0.571	Pitch Set Point:	-0.814	Yaw Set Point:	0.030	X_WP:	-0.685	Y_WP:	0.786	Y_WP:	0.750	X:	-0.628	Y:	0.799	Z:	0.648	yaw:	-1.700	yaw rate:	26.470	Roll:	2.283	Pitch:	-0.193	Yaw:	-6.144	Thrust:	59.428
Time:	4.320	Roll Set Point:	0.571	Pitch Set Point:	-0.814	Yaw Set Point:	0.023	X_WP:	-0.685	Y_WP:	0.786	Y_WP:	0.750	X:	-0.628	Y:	0.799	Z:	0.648	yaw:	-1.296	yaw rate:	-40.333	Roll:	2.493	Pitch:	-0.445	Yaw:	3.130	Thrust:	59.319
Time:	4.339	Roll Set Point:	0.571	Pitch Set Point:	-0.813	Yaw Set Point:	0.018	X_WP:	-0.685	Y_WP:	0.786	Y_WP:	0.750	X:	-0.628	Y:	0.799	Z:	0.649	yaw:	-1.038	yaw rate:	-25.862	Roll:	2.342	Pitch:	-0.477	Yaw:	1.787	Thrust:	55.857
Time:	4.361	Roll Set Point:	0.570	Pitch Set Point:	-0.813	Yaw Set Point:	0.011	X_WP:	-0.685	Y_WP:	0.786	Y_WP:	0.750	X:	-0.628	Y:	0.799	Z:	0.650	yaw:	-0.644	yaw rate:	-39.334	Roll:	2.610	Pitch:	-0.731	Yaw:	3.708	Thrust:	61.038
Time:	4.381	Roll Set Point:	0.571	Pitch Set Point:	-0.813	Yaw Set Point:	0.019	X_WP:	-0.685	Y_WP:	0.786	Y_WP:	0.750	X:	-0.628	Y:	0.799	Z:	0.652	yaw:	-1.073	yaw rate:	42.851	Roll:	2.280	Pitch:	0.055	Yaw:	-7.190	Thrust:	61.400
Time:	4.400	Roll Set Point:	0.570	Pitch Set Point:	-0.813	Yaw Set Point:	0.018	X_WP:	-0.685	Y_WP:	0.786	Y_WP:	0.750	X:	-0.628	Y:	0.799	Z:	0.653	yaw:	-1.054	yaw rate:	-1.856	Roll:	2.470	Pitch:	-0.293	Yaw:	-1.554	Thrust:	52.514
Time:	4.420	Roll Set Point:	0.571	Pitch Set Point:	-0.813	Yaw Set Point:	0.020	X_WP:	-0.685	Y_WP:	0.786	Y_WP:	0.750	X:	-0.628	Y:	0.799	Z:	0.655	yaw:	-1.128	yaw rate:	7.336	Roll:	2.370	Pitch:	-0.348	Yaw:	-2.894	Thrust:	61.547
Time:	4.440	Roll Set Point:	0.571	Pitch Set Point:	-0.812	Yaw Set Point:	0.016	X_WP:	-0.685	Y_WP:	0.786	Y_WP:	0.750	X:	-0.628	Y:	0.798	Z:	0.656	yaw:	-0.906	yaw rate:	-22.221	Roll:	2.386	Pitch:	-0.512	Yaw:	1.268	Thrust:	55.452
Time:	4.460	Roll Set Point:	0.570	Pitch Set Point:	-0.812	Yaw Set Point:	0.021	X_WP:	-0.685	Y_WP:	0.786	Y_WP:	0.750	X:	-0.628	Y:	0.798	Z:	0.658	yaw:	-1.232	yaw rate:	32.602	Roll:	2.542	Pitch:	-0.062	Yaw:	-6.351	Thrust:	61.464
Time:	4.480	Roll Set Point:	0.570	Pitch Set Point:	-0.812	Yaw Set Point:	0.024	X_WP:	-0.685	Y_WP:	0.786	Y_WP:	0.750	X:	-0.628	Y:	0.798	Z:	0.659	yaw:	-1.361	yaw rate:	12.890	Roll:	2.423	Pitch:	-0.338	Yaw:	-3.967	Thrust:	58.681
Time:	4.500	Roll Set Point:	0.570	Pitch Set Point:	-0.812	Yaw Set Point:	0.017	X_WP:	-0.685	Y_WP:	0.786	Y_WP:	0.750	X:	-0.628	Y:	0.798	Z:	0.661	yaw:	-0.970	yaw rate:	-39.002	Roll:	2.411	Pitch:	-0.644	Yaw:	3.343	Thrust:	55.176
Time:	4.520	Roll Set Point:	0.570	Pitch Set Point:	-0.811	Yaw Set Point:	0.017	X_WP:	-0.685	Y_WP:	0.786	Y_WP:	0.750	X:	-0.627	Y:	0.798	Z:	0.663	yaw:	-0.973	yaw rate:	0.213	Roll:	2.585	Pitch:	-0.319	Yaw:	-1.786	Thrust:	61.945
Time:	4.539	Roll Set Point:	0.570	Pitch Set Point:	-0.811	Yaw Set Point:	0.016	X_WP:	-0.685	Y_WP:	0.786	Y_WP:	0.750	X:	-0.627	Y:	0.798	Z:	0.664	yaw:	-0.918	yaw rate:	-5.500	Roll:	2.396	Pitch:	-0.464	Yaw:	-0.912	Thrust:	55.510
Time:	4.560	Roll Set Point:	0.570	Pitch Set Point:	-0.811	Yaw Set Point:	0.014	X_WP:	-0.685	Y_WP:	0.786	Y_WP:	0.750	X:	-0.627	Y:	0.798	Z:	0.666	yaw:	-0.812	yaw rate:	-10.543	Roll:	2.547	Pitch:	-0.505	Yaw:	-0.172	Thrust:	59.062
Time:	4.580	Roll Set Point:	0.570	Pitch Set Point:	-0.811	Yaw Set Point:	0.018	X_WP:	-0.685	Y_WP:	0.786	Y_WP:	0.750	X:	-0.627	Y:	0.798	Z:	0.668	yaw:	-1.012	yaw rate:	19.940	Roll:	2.479	Pitch:	-0.211	Yaw:	-4.332	Thrust:	61.932
Time:	4.599	Roll Set Point:	0.569	Pitch Set Point:	-0.810	Yaw Set Point:	0.015	X_WP:	-0.685	Y_WP:	0.786	Y_WP:	0.750	X:	-0.627	Y:	0.797	Z:	0.669	yaw:	-0.866	yaw rate:	-14.515	Roll:	2.451	Pitch:	-0.510	Yaw:	0.379	Thrust:	56.304
Time:	4.620	Roll Set Point:	0.569	Pitch Set Point:	-0.810	Yaw Set Point:	0.015	X_WP:	-0.685	Y_WP:	0.786	Y_WP:	0.750	X:	-0.627	Y:	0.797	Z:	0.671	yaw:	-0.866	yaw rate:	-0.077	Roll:	2.486	Pitch:	-0.457	Yaw:	-1.653	Thrust:	62.424
Time:	4.639	Roll Set Point:	0.569	Pitch Set Point:	-0.810	Yaw Set Point:	0.020	X_WP:	-0.685	Y_WP:	0.786	Y_WP:	0.750	X:	-0.627	Y:	0.797	Z:	0.673	yaw:	-1.148	yaw rate:	28.275	Roll:	2.439	Pitch:	-0.047	Yaw:	-5.906	Thrust:	55.983
Time:	4.663	Roll Set Point:	0.569	Pitch Set Point:	-0.809	Yaw Set Point:	0.013	X_WP:	-0.685	Y_WP:	0.786	Y_WP:	0.750	X:	-0.627	Y:	0.797	Z:	0.674	yaw:	-0.744	yaw rate:	-40.434	Roll:	2.541	Pitch:	-0.864	Yaw:	3.034	Thrust:	69.202
Time:	4.689	Roll Set Point:	0.569	Pitch Set Point:	-0.809	Yaw Set Point:	0.021	X_WP:	-0.685	Y_WP:	0.786	Y_WP:	0.750	X:	-0.627	Y:	0.797	Z:	0.677	yaw:	-1.198	yaw rate:	45.408	Roll:	2.701	Pitch:	-0.351	Yaw:	-6.676	Thrust:	79.782
Time:	4.711	Roll Set Point:	0.569	Pitch Set Point:	-0.809	Yaw Set Point:	0.023	X_WP:	-0.685	Y_WP:	0.786	Y_WP:	0.750	X:	-0.627	Y:	0.797	Z:	0.678	yaw:	-1.311	yaw rate:	11.235	Roll:	2.494	Pitch:	-0.344	Yaw:	-3.710	Thrust:	62.964
Time:	4.731	Roll Set Point:	0.569	Pitch Set Point:	-0.808	Yaw Set Point:	0.011	X_WP:	-0.685	Y_WP:	0.786	Y_WP:	0.750	X:	-0.627	Y:	0.797	Z:	0.680	yaw:	-0.655	yaw rate:	-65.535	Roll:	2.640	Pitch:	-0.835	Yaw:	7.170	Thrust:	59.048
Time:	4.754	Roll Set Point:	0.569	Pitch Set Point:	-0.809	Yaw Set Point:	0.021	X_WP:	-0.685	Y_WP:	0.786	Y_WP:	0.750	X:	-0.627	Y:	0.796	Z:	0.682	yaw:	-1.209	yaw rate:	55.377	Roll:	2.252	Pitch:	0.018	Yaw:	-8.523	Thrust:	68.054
Time:	4.770	Roll Set Point:	0.569	Pitch Set Point:	-0.805	Yaw Set Point:	-0.026	X_WP:	-0.685	Y_WP:	0.786	Y_WP:	0.750	X:	-0.627	Y:	0.796	Z:	0.685	yaw:	1.484	yaw rate:	-269.339	Roll:	2.452	Pitch:	-3.120	Yaw:	45.643	Thrust:	43.341
Time:	4.790	Roll Set Point:	0.569	Pitch Set Point:	-0.808	Yaw Set Point:	0.012	X_WP:	-0.685	Y_WP:	0.786	Y_WP:	0.750	X:	-0.627	Y:	0.796	Z:	0.688	yaw:	-0.710	yaw rate:	219.489	Roll:	2.639	Pitch:	2.126	Yaw:	-30.118	Thrust:	52.924
Time:	4.812	Roll Set Point:	0.568	Pitch Set Point:	-0.808	Yaw Set Point:	0.008	X_WP:	-0.685	Y_WP:	0.786	Y_WP:	0.750	X:	-0.627	Y:	0.796	Z:	0.692	yaw:	-0.449	yaw rate:	-26.109	Roll:	2.636	Pitch:	-0.601	Yaw:	1.940	Thrust:	61.256
Time:	4.830	Roll Set Point:	0.568	Pitch Set Point:	-0.808	Yaw Set Point:	0.007	X_WP:	-0.685	Y_WP:	0.786	Y_WP:	0.750	X:	-0.627	Y:	0.796	Z:	0.697	yaw:	-0.419	yaw rate:	-3.052	Roll:	2.427	Pitch:	-0.302	Yaw:	-0.573	Thrust:	49.858
Time:	4.850	Roll Set Point:	0.568	Pitch Set Point:	-0.808	Yaw Set Point:	0.006	X_WP:	-0.685	Y_WP:	0.786	Y_WP:	0.750	X:	-0.627	Y:	0.796	Z:	0.701	yaw:	-0.341	yaw rate:	-7.759	Roll:	2.497	Pitch:	-0.421	Yaw:	0.053	Thrust:	53.106
Time:	4.870	Roll Set Point:	0.568	Pitch Set Point:	-0.809	Yaw Set Point:	0.021	X_WP:	-0.685	Y_WP:	0.786	Y_WP:	0.750	X:	-0.626	Y:	0.797	Z:	0.706	yaw:	-1.176	yaw rate:	83.496	Roll:	2.450	Pitch:	0.585	Yaw:	-13.029	Thrust:	52.545
Time:	4.890	Roll Set Point:	0.568	Pitch Set Point:	-0.808	Yaw Set Point:	0.003	X_WP:	-0.685	Y_WP:	0.786	Y_WP:	0.750	X:	-0.626	Y:	0.797	Z:	0.710	yaw:	-0.189	yaw rate:	-98.752	Roll:	2.741	Pitch:	-1.093	Yaw:	12.134	Thrust:	53.127
Time:	4.910	Roll Set Point:	0.567	Pitch Set Point:	-0.809	Yaw Set Point:	0.008	X_WP:	-0.685	Y_WP:	0.786	Y_WP:	0.750	X:	-0.626	Y:	0.797	Z:	0.714	yaw:	-0.459	yaw rate:	27.013	Roll:	2.436	Pitch:	0.151	Yaw:	-4.823	Thrust:	49.887
Time:	4.931	Roll Set Point:	0.567	Pitch Set Point:	-0.808	Yaw Set Point:	0.004	X_WP:	-0.685	Y_WP:	0.786	Y_WP:	0.750	X:	-0.626	Y:	0.797	Z:	0.718	yaw:	-0.203	yaw rate:	-25.585	Roll:	2.684	Pitch:	-0.525	Yaw:	2.205	Thrust:	61.179
Time:	4.949	Roll Set Point:	0.567	Pitch Set Point:	-0.809	Yaw Set Point:	0.007	X_WP:	-0.685	Y_WP:	0.786	Y_WP:	0.750	X:	-0.626	Y:	0.797	Z:	0.721	yaw:	-0.400	yaw rate:	19.659	Roll:	2.500	Pitch:	0.052	Yaw:	-3.859	Thrust:	47.448
Time:	4.970	Roll Set Point:	0.567	Pitch Set Point:	-0.809	Yaw Set Point:	0.005	X_WP:	-0.685	Y_WP:	0.786	Y_WP:	0.750	X:	-0.626	Y:	0.797	Z:	0.725	yaw:	-0.297	yaw rate:	-10.208	Roll:	2.626	Pitch:	-0.307	Yaw:	0.326	Thrust:	58.641
Time:	4.989	Roll Set Point:	0.566	Pitch Set Point:	-0.810	Yaw Set Point:	0.007	X_WP:	-0.685	Y_WP:	0.786	Y_WP:	0.750	X:	-0.626	Y:	0.797	Z:	0.727	yaw:	-0.373	yaw rate:	7.522	Roll:	2.559	Pitch:	0.019	Yaw:	-2.033	Thrust:	52.557
Time:	5.010	Roll Set Point:	0.566	Pitch Set Point:	-0.810	Yaw Set Point:	0.003	X_WP:	-0.685	Y_WP:	0.786	Y_WP:	0.750	X:	-0.626	Y:	0.798	Z:	0.730	yaw:	-0.180	yaw rate:	-19.296	Roll:	2.599	Pitch:	-0.353	Yaw:	1.761	Thrust:	56.780
Time:	5.030	Roll Set Point:	0.566	Pitch Set Point:	-0.810	Yaw Set Point:	0.005	X_WP:	-0.685	Y_WP:	0.786	Y_WP:	0.750	X:	-0.626	Y:	0.798	Z:	0.732	yaw:	-0.279	yaw rate:	9.915	Roll:	2.593	Pitch:	-0.054	Yaw:	-2.156	Thrust:	60.688
Time:	5.052	Roll Set Point:	0.566	Pitch Set Point:	-0.810	Yaw Set Point:	0.003	X_WP:	-0.685	Y_WP:	0.786	Y_WP:	0.750	X:	-0.626	Y:	0.798	Z:	0.734	yaw:	-0.197	yaw rate:	-8.146	Roll:	2.502	Pitch:	-0.261	Yaw:	0.201	Thrust:	61.416
Time:	5.070	Roll Set Point:	0.566	Pitch Set Point:	-0.811	Yaw Set Point:	0.010	X_WP:	-0.685	Y_WP:	0.786	Y_WP:	0.750	X:	-0.625	Y:	0.798	Z:	0.735	yaw:	-0.555	yaw rate:	35.716	Roll:	2.552	Pitch:	0.302	Yaw:	-6.169	Thrust:	55.845
Time:	5.090	Roll Set Point:	0.565	Pitch Set Point:	-0.811	Yaw Set Point:	0.009	X_WP:	-0.685	Y_WP:	0.786	Y_WP:	0.750	X:	-0.625	Y:	0.798	Z:	0.736	yaw:	-0.503	yaw rate:	-5.177	Roll:	2.593	Pitch:	-0.175	Yaw:	-0.543	Thrust:	56.218
Time:	5.115	Roll Set Point:	0.565	Pitch Set Point:	-0.812	Yaw Set Point:	0.011	X_WP:	-0.685	Y_WP:	0.786	Y_WP:	0.750	X:	-0.625	Y:	0.798	Z:	0.737	yaw:	-0.638	yaw rate:	13.480	Roll:	2.525	Pitch:	0.032	Yaw:	-3.062	Thrust:	66.414
Time:	5.131	Roll Set Point:	0.565	Pitch Set Point:	-0.811	Yaw Set Point:	0.004	X_WP:	-0.685	Y_WP:	0.786	Y_WP:	0.750	X:	-0.625	Y:	0.798	Z:	0.738	yaw:	-0.228	yaw rate:	-41.012	Roll:	2.606	Pitch:	-0.608	Yaw:	4.941	Thrust:	58.542
Time:	5.149	Roll Set Point:	0.565	Pitch Set Point:	-0.812	Yaw Set Point:	0.008	X_WP:	-0.685	Y_WP:	0.786	Y_WP:	0.750	X:	-0.625	Y:	0.799	Z:	0.739	yaw:	-0.451	yaw rate:	22.383	Roll:	2.395	Pitch:	0.270	Yaw:	-4.350	Thrust:	53.731
Time:	5.170	Roll Set Point:	0.565	Pitch Set Point:	-0.812	Yaw Set Point:	0.008	X_WP:	-0.685	Y_WP:	0.786	Y_WP:	0.750	X:	-0.625	Y:	0.799	Z:	0.740	yaw:	-0.472	yaw rate:	2.029	Roll:	2.629	Pitch:	-0.112	Yaw:	-1.466	Thrust:	60.265
Time:	5.190	Roll Set Point:	0.565	Pitch Set Point:	-0.813	Yaw Set Point:	0.007	X_WP:	-0.685	Y_WP:	0.786	Y_WP:	0.750	X:	-0.625	Y:	0.799	Z:	0.740	yaw:	-0.387	yaw rate:	-8.425	Roll:	2.543	Pitch:	-0.193	Yaw:	0.027	Thrust:	63.328
Time:	5.215	Roll Set Point:	0.565	Pitch Set Point:	-0.813	Yaw Set Point:	0.007	X_WP:	-0.685	Y_WP:	0.786	Y_WP:	0.750	X:	-0.625	Y:	0.799	Z:	0.741	yaw:	-0.395	yaw rate:	0.737	Roll:	2.555	Pitch:	-0.271	Yaw:	-1.273	Thrust:	69.545
Time:	5.231	Roll Set Point:	0.565	Pitch Set Point:	-0.813	Yaw Set Point:	0.008	X_WP:	-0.685	Y_WP:	0.786	Y_WP:	0.750	X:	-0.625	Y:	0.799	Z:	0.742	yaw:	-0.452	yaw rate:	5.734	Roll:	2.533	Pitch:	0.074	Yaw:	-1.997	Thrust:	51.064
Time:	5.251	Roll Set Point:	0.564	Pitch Set Point:	-0.813	Yaw Set Point:	0.006	X_WP:	-0.685	Y_WP:	0.786	Y_WP:	0.750	X:	-0.625	Y:	0.799	Z:	0.743	yaw:	-0.359	yaw rate:	-9.352	Roll:	2.574	Pitch:	-0.276	Yaw:	0.180	Thrust:	57.210
Time:	5.271	Roll Set Point:	0.564	Pitch Set Point:	-0.813	Yaw Set Point:	0.002	X_WP:	-0.685	Y_WP:	0.786	Y_WP:	0.750	X:	-0.625	Y:	0.799	Z:	0.743	yaw:	-0.105	yaw rate:	-25.322	Roll:	2.503	Pitch:	-0.362	Yaw:	2.817	Thrust:	60.263
Time:	5.293	Roll Set Point:	0.565	Pitch Set Point:	-0.814	Yaw Set Point:	0.009	X_WP:	-0.685	Y_WP:	0.786	Y_WP:	0.750	X:	-0.625	Y:	0.799	Z:	0.744	yaw:	-0.488	yaw rate:	38.273	Roll:	2.418	Pitch:	0.087	Yaw:	-5.821	Thrust:	66.459
Time:	5.314	Roll Set Point:	0.565	Pitch Set Point:	-0.814	Yaw Set Point:	0.015	X_WP:	-0.685	Y_WP:	0.786	Y_WP:	0.750	X:	-0.625	Y:	0.799	Z:	0.745	yaw:	-0.882	yaw rate:	39.401	Roll:	2.361	Pitch:	0.187	Yaw:	-6.703	Thrust:	60.177
Time:	5.332	Roll Set Point:	0.564	Pitch Set Point:	-0.814	Yaw Set Point:	0.007	X_WP:	-0.685	Y_WP:	0.786	Y_WP:	0.750	X:	-0.625	Y:	0.799	Z:	0.745	yaw:	-0.401	yaw rate:	-48.117	Roll:	2.730	Pitch:	-0.566	Yaw:	5.532	Thrust:	60.110
