Time:	0.037	Roll Set Point:	-0.941	Pitch Set Point:	-0.146	Yaw Set Point:	0.073	X_WP:	0.000	Y_WP:	0.000	Y_WP:	0.750	X:	0.473	Y:	0.056	Z:	0.778	yaw:	-4.198	yaw rate:	3.955	Roll:	13.563	Pitch:	2.618	Yaw:	-5.861	Thrust:	0.000
Time:	0.058	Roll Set Point:	-0.940	Pitch Set Point:	-0.153	Yaw Set Point:	0.087	X_WP:	0.000	Y_WP:	0.000	Y_WP:	0.750	X:	0.473	Y:	0.056	Z:	0.778	yaw:	-4.992	yaw rate:	79.462	Roll:	12.546	Pitch:	7.987	Yaw:	-16.773	Thrust:	0.000
Time:	0.076	Roll Set Point:	-0.939	Pitch Set Point:	-0.153	Yaw Set Point:	0.091	X_WP:	0.000	Y_WP:	0.000	Y_WP:	0.750	X:	0.473	Y:	0.055	Z:	0.778	yaw:	-5.236	yaw rate:	24.358	Roll:	13.011	Pitch:	4.132	Yaw:	-10.804	Thrust:	0.000
Time:	0.097	Roll Set Point:	-0.938	Pitch Set Point:	-0.154	Yaw Set Point:	0.093	X_WP:	0.000	Y_WP:	0.000	Y_WP:	0.750	X:	0.473	Y:	0.055	Z:	0.778	yaw:	-5.313	yaw rate:	7.711	Roll:	13.376	Pitch:	3.290	Yaw:	-8.549	Thrust:	0.000
Time:	0.116	Roll Set Point:	-0.938	Pitch Set Point:	-0.153	Yaw Set Point:	0.091	X_WP:	0.000	Y_WP:	0.000	Y_WP:	0.750	X:	0.473	Y:	0.055	Z:	0.778	yaw:	-5.224	yaw rate:	-8.877	Roll:	13.652	Pitch:	2.266	Yaw:	-6.241	Thrust:	0.000
Time:	0.137	Roll Set Point:	-0.938	Pitch Set Point:	-0.154	Yaw Set Point:	0.092	X_WP:	0.000	Y_WP:	0.000	Y_WP:	0.750	X:	0.473	Y:	0.055	Z:	0.778	yaw:	-5.262	yaw rate:	3.832	Roll:	13.558	Pitch:	3.196	Yaw:	-8.015	Thrust:	0.000
Time:	0.158	Roll Set Point:	-0.938	Pitch Set Point:	-0.154	Yaw Set Point:	0.093	X_WP:	0.000	Y_WP:	0.000	Y_WP:	0.750	X:	0.473	Y:	0.055	Z:	0.778	yaw:	-5.347	yaw rate:	8.432	Roll:	13.580	Pitch:	3.434	Yaw:	-8.702	Thrust:	0.000
Time:	0.177	Roll Set Point:	-0.938	Pitch Set Point:	-0.156	Yaw Set Point:	0.096	X_WP:	0.000	Y_WP:	0.000	Y_WP:	0.750	X:	0.473	Y:	0.055	Z:	0.777	yaw:	-5.475	yaw rate:	12.835	Roll:	13.424	Pitch:	4.020	Yaw:	-9.685	Thrust:	0.000
Time:	0.196	Roll Set Point:	-0.938	Pitch Set Point:	-0.155	Yaw Set Point:	0.095	X_WP:	0.000	Y_WP:	0.000	Y_WP:	0.750	X:	0.473	Y:	0.055	Z:	0.777	yaw:	-5.458	yaw rate:	-1.734	Roll:	13.579	Pitch:	2.755	Yaw:	-7.671	Thrust:	0.000
Time:	0.216	Roll Set Point:	-0.938	Pitch Set Point:	-0.155	Yaw Set Point:	0.095	X_WP:	0.000	Y_WP:	0.000	Y_WP:	0.750	X:	0.472	Y:	0.055	Z:	0.777	yaw:	-5.431	yaw rate:	-2.671	Roll:	13.625	Pitch:	2.754	Yaw:	-7.562	Thrust:	0.000
Time:	0.236	Roll Set Point:	-0.938	Pitch Set Point:	-0.154	Yaw Set Point:	0.093	X_WP:	0.000	Y_WP:	0.000	Y_WP:	0.750	X:	0.472	Y:	0.055	Z:	0.777	yaw:	-5.323	yaw rate:	-10.839	Roll:	13.818	Pitch:	2.194	Yaw:	-6.315	Thrust:	0.000
Time:	0.257	Roll Set Point:	-0.937	Pitch Set Point:	-0.154	Yaw Set Point:	0.093	X_WP:	0.000	Y_WP:	0.000	Y_WP:	0.750	X:	0.472	Y:	0.055	Z:	0.777	yaw:	-5.340	yaw rate:	1.758	Roll:	13.625	Pitch:	3.027	Yaw:	-8.092	Thrust:	0.000
Time:	0.277	Roll Set Point:	-0.937	Pitch Set Point:	-0.156	Yaw Set Point:	0.096	X_WP:	0.000	Y_WP:	0.000	Y_WP:	0.750	X:	0.472	Y:	0.055	Z:	0.777	yaw:	-5.485	yaw rate:	14.449	Roll:	13.491	Pitch:	3.969	Yaw:	-9.940	Thrust:	0.000
Time:	0.296	Roll Set Point:	-0.937	Pitch Set Point:	-0.155	Yaw Set Point:	0.095	X_WP:	0.000	Y_WP:	0.000	Y_WP:	0.750	X:	0.472	Y:	0.055	Z:	0.777	yaw:	-5.459	yaw rate:	-2.591	Roll:	13.775	Pitch:	2.736	Yaw:	-7.733	Thrust:	0.000
Time:	0.317	Roll Set Point:	-0.938	Pitch Set Point:	-0.149	Yaw Set Point:	0.080	X_WP:	0.000	Y_WP:	0.000	Y_WP:	0.750	X:	0.472	Y:	0.056	Z:	0.776	yaw:	-4.593	yaw rate:	-86.546	Roll:	14.991	Pitch:	-2.944	Yaw:	4.311	Thrust:	0.000
Time:	0.336	Roll Set Point:	-0.938	Pitch Set Point:	-0.147	Yaw Set Point:	0.076	X_WP:	0.000	Y_WP:	0.000	Y_WP:	0.750	X:	0.472	Y:	0.056	Z:	0.776	yaw:	-4.354	yaw rate:	-23.913	Roll:	14.058	Pitch:	1.118	Yaw:	-3.432	Thrust:	0.000
Time:	0.357	Roll Set Point:	-0.939	Pitch Set Point:	-0.145	Yaw Set Point:	0.072	X_WP:	0.000	Y_WP:	0.000	Y_WP:	0.750	X:	0.472	Y:	0.056	Z:	0.776	yaw:	-4.139	yaw rate:	-21.572	Roll:	14.268	Pitch:	1.165	Yaw:	-3.629	Thrust:	0.000
Time:	0.377	Roll Set Point:	-0.938	Pitch Set Point:	-0.145	Yaw Set Point:	0.073	X_WP:	0.000	Y_WP:	0.000	Y_WP:	0.750	X:	0.472	Y:	0.055	Z:	0.776	yaw:	-4.184	yaw rate:	4.499	Roll:	13.771	Pitch:	2.734	Yaw:	-7.035	Thrust:	0.000
Time:	0.397	Roll Set Point:	-0.938	Pitch Set Point:	-0.146	Yaw Set Point:	0.076	X_WP:	0.000	Y_WP:	0.000	Y_WP:	0.750	X:	0.472	Y:	0.055	Z:	0.775	yaw:	-4.344	yaw rate:	16.077	Roll:	13.580	Pitch:	3.671	Yaw:	-8.756	Thrust:	0.000
Time:	0.416	Roll Set Point:	-0.937	Pitch Set Point:	-0.145	Yaw Set Point:	0.074	X_WP:	0.000	Y_WP:	0.000	Y_WP:	0.750	X:	0.471	Y:	0.055	Z:	0.775	yaw:	-4.237	yaw rate:	-10.685	Roll:	13.912	Pitch:	1.869	Yaw:	-4.988	Thrust:	0.000
Time:	0.436	Roll Set Point:	-0.937	Pitch Set Point:	-0.145	Yaw Set Point:	0.074	X_WP:	0.000	Y_WP:	0.000	Y_WP:	0.750	X:	0.471	Y:	0.055	Z:	0.775	yaw:	-4.221	yaw rate:	-1.694	Roll:	13.662	Pitch:	2.607	Yaw:	-6.395	Thrust:	0.000
Time:	0.457	Roll Set Point:	-0.936	Pitch Set Point:	-0.145	Yaw Set Point:	0.074	X_WP:	0.000	Y_WP:	0.000	Y_WP:	0.750	X:	0.471	Y:	0.055	Z:	0.775	yaw:	-4.253	yaw rate:	3.297	Roll:	13.622	Pitch:	2.898	Yaw:	-7.102	Thrust:	0.000
Time:	0.476	Roll Set Point:	-0.935	Pitch Set Point:	-0.147	Yaw Set Point:	0.078	X_WP:	0.000	Y_WP:	0.000	Y_WP:	0.750	X:	0.470	Y:	0.055	Z:	0.775	yaw:	-4.458	yaw rate:	20.470	Roll:	13.352	Pitch:	4.133	Yaw:	-9.718	Thrust:	0.000
Time:	0.498	Roll Set Point:	-0.934	Pitch Set Point:	-0.145	Yaw Set Point:	0.076	X_WP:	0.000	Y_WP:	0.000	Y_WP:	0.750	X:	0.470	Y:	0.055	Z:	0.775	yaw:	-4.348	yaw rate:	-11.056	Roll:	13.993	Pitch:	1.788	Yaw:	-5.626	Thrust:	0.000
Time:	0.516	Roll Set Point:	-0.934	Pitch Set Point:	-0.143	Yaw Set Point:	0.074	X_WP:	0.000	Y_WP:	0.000	Y_WP:	0.750	X:	0.470	Y:	0.054	Z:	0.775	yaw:	-4.236	yaw rate:	-11.198	Roll:	13.885	Pitch:	1.364	Yaw:	-4.927	Thrust:	0.000
Time:	0.537	Roll Set Point:	-0.933	Pitch Set Point:	-0.141	Yaw Set Point:	0.072	X_WP:	0.000	Y_WP:	0.000	Y_WP:	0.750	X:	0.469	Y:	0.054	Z:	0.774	yaw:	-4.132	yaw rate:	-10.357	Roll:	13.951	Pitch:	1.546	Yaw:	-5.372	Thrust:	0.000
Time:	0.557	Roll Set Point:	-0.932	Pitch Set Point:	-0.141	Yaw Set Point:	0.075	X_WP:	0.000	Y_WP:	0.000	Y_WP:	0.750	X:	0.469	Y:	0.053	Z:	0.774	yaw:	-4.284	yaw rate:	15.227	Roll:	13.536	Pitch:	3.139	Yaw:	-8.810	Thrust:	0.000
Time:	0.577	Roll Set Point:	-0.932	Pitch Set Point:	-0.140	Yaw Set Point:	0.076	X_WP:	0.000	Y_WP:	0.000	Y_WP:	0.750	X:	0.469	Y:	0.052	Z:	0.773	yaw:	-4.351	yaw rate:	6.648	Roll:	13.765	Pitch:	2.400	Yaw:	-7.848	Thrust:	0.000
Time:	0.597	Roll Set Point:	-0.934	Pitch Set Point:	-0.130	Yaw Set Point:	0.056	X_WP:	0.000	Y_WP:	0.000	Y_WP:	0.750	X:	0.469	Y:	0.052	Z:	0.772	yaw:	-3.180	yaw rate:	-117.062	Roll:	15.619	Pitch:	-5.653	Yaw:	9.495	Thrust:	0.072
Time:	0.617	Roll Set Point:	-0.933	Pitch Set Point:	-0.135	Yaw Set Point:	0.069	X_WP:	0.000	Y_WP:	0.000	Y_WP:	0.750	X:	0.469	Y:	0.051	Z:	0.772	yaw:	-3.966	yaw rate:	78.571	Roll:	13.275	Pitch:	7.579	Yaw:	-16.658	Thrust:	0.000
Time:	0.637	Roll Set Point:	-0.933	Pitch Set Point:	-0.136	Yaw Set Point:	0.074	X_WP:	0.000	Y_WP:	0.000	Y_WP:	0.750	X:	0.469	Y:	0.051	Z:	0.772	yaw:	-4.241	yaw rate:	27.499	Roll:	14.020	Pitch:	4.199	Yaw:	-10.567	Thrust:	0.000
Time:	0.658	Roll Set Point:	-0.933	Pitch Set Point:	-0.135	Yaw Set Point:	0.073	X_WP:	0.000	Y_WP:	0.000	Y_WP:	0.750	X:	0.469	Y:	0.051	Z:	0.772	yaw:	-4.208	yaw rate:	-3.299	Roll:	14.340	Pitch:	2.178	Yaw:	-6.445	Thrust:	0.000
Time:	0.678	Roll Set Point:	-0.934	Pitch Set Point:	-0.133	Yaw Set Point:	0.072	X_WP:	0.000	Y_WP:	0.000	Y_WP:	0.750	X:	0.469	Y:	0.050	Z:	0.772	yaw:	-4.142	yaw rate:	-6.589	Roll:	14.549	Pitch:	1.392	Yaw:	-6.083	Thrust:	0.000
Time:	0.701	Roll Set Point:	-0.937	Pitch Set Point:	-0.120	Yaw Set Point:	0.045	X_WP:	0.000	Y_WP:	0.000	Y_WP:	0.750	X:	0.470	Y:	0.050	Z:	0.770	yaw:	-2.579	yaw rate:	-156.345	Roll:	16.556	Pitch:	-7.610	Yaw:	13.764	Thrust:	1.340
Time:	0.717	Roll Set Point:	-0.939	Pitch Set Point:	-0.121	Yaw Set Point:	0.050	X_WP:	0.000	Y_WP:	0.000	Y_WP:	0.750	X:	0.471	Y:	0.049	Z:	0.770	yaw:	-2.858	yaw rate:	27.903	Roll:	14.714	Pitch:	3.958	Yaw:	-9.304	Thrust:	0.000
Time:	0.738	Roll Set Point:	-0.940	Pitch Set Point:	-0.119	Yaw Set Point:	0.044	X_WP:	0.000	Y_WP:	0.000	Y_WP:	0.750	X:	0.471	Y:	0.049	Z:	0.770	yaw:	-2.513	yaw rate:	-34.499	Roll:	15.185	Pitch:	-0.176	Yaw:	-0.389	Thrust:	0.000
Time:	0.758	Roll Set Point:	-0.944	Pitch Set Point:	-0.104	Yaw Set Point:	0.014	X_WP:	0.000	Y_WP:	0.000	Y_WP:	0.750	X:	0.472	Y:	0.049	Z:	0.770	yaw:	-0.782	yaw rate:	-173.101	Roll:	16.806	Pitch:	-10.564	Yaw:	20.337	Thrust:	0.000
Time:	0.777	Roll Set Point:	-0.946	Pitch Set Point:	-0.099	Yaw Set Point:	0.003	X_WP:	0.000	Y_WP:	0.000	Y_WP:	0.750	X:	0.473	Y:	0.049	Z:	0.769	yaw:	-0.199	yaw rate:	-58.274	Roll:	15.424	Pitch:	-2.785	Yaw:	6.857	Thrust:	0.000
Time:	0.796	Roll Set Point:	-0.945	Pitch Set Point:	-0.107	Yaw Set Point:	0.022	X_WP:	0.000	Y_WP:	0.000	Y_WP:	0.750	X:	0.473	Y:	0.048	Z:	0.769	yaw:	-1.276	yaw rate:	107.679	Roll:	13.614	Pitch:	9.457	Yaw:	-17.118	Thrust:	0.000
Time:	0.816	Roll Set Point:	-0.944	Pitch Set Point:	-0.110	Yaw Set Point:	0.027	X_WP:	0.000	Y_WP:	0.000	Y_WP:	0.750	X:	0.473	Y:	0.049	Z:	0.770	yaw:	-1.572	yaw rate:	29.680	Roll:	13.864	Pitch:	4.273	Yaw:	-7.255	Thrust:	0.000
Time:	0.836	Roll Set Point:	-0.944	Pitch Set Point:	-0.115	Yaw Set Point:	0.035	X_WP:	0.000	Y_WP:	0.000	Y_WP:	0.750	X:	0.473	Y:	0.049	Z:	0.770	yaw:	-1.992	yaw rate:	41.958	Roll:	14.218	Pitch:	5.256	Yaw:	-9.353	Thrust:	0.000
Time:	0.856	Roll Set Point:	-0.946	Pitch Set Point:	-0.104	Yaw Set Point:	0.010	X_WP:	0.000	Y_WP:	0.000	Y_WP:	0.750	X:	0.473	Y:	0.050	Z:	0.771	yaw:	-0.547	yaw rate:	-144.501	Roll:	16.026	Pitch:	-7.564	Yaw:	17.004	Thrust:	0.000
Time:	0.876	Roll Set Point:	-0.947	Pitch Set Point:	-0.101	Yaw Set Point:	0.001	X_WP:	0.000	Y_WP:	0.000	Y_WP:	0.750	X:	0.473	Y:	0.050	Z:	0.772	yaw:	-0.046	yaw rate:	-50.091	Roll:	14.937	Pitch:	-1.518	Yaw:	5.344	Thrust:	0.000
Time:	0.896	Roll Set Point:	-0.947	Pitch Set Point:	-0.096	Yaw Set Point:	-0.011	X_WP:	0.000	Y_WP:	0.000	Y_WP:	0.750	X:	0.473	Y:	0.051	Z:	0.773	yaw:	0.636	yaw rate:	-68.175	Roll:	14.761	Pitch:	-2.951	Yaw:	8.615	Thrust:	0.000
Time:	0.916	Roll Set Point:	-0.946	Pitch Set Point:	-0.092	Yaw Set Point:	-0.026	X_WP:	0.000	Y_WP:	0.000	Y_WP:	0.750	X:	0.472	Y:	0.052	Z:	0.773	yaw:	1.476	yaw rate:	-84.080	Roll:	14.298	Pitch:	-3.663	Yaw:	12.025	Thrust:	0.000
Time:	0.937	Roll Set Point:	-0.942	Pitch Set Point:	-0.104	Yaw Set Point:	-0.003	X_WP:	0.000	Y_WP:	0.000	Y_WP:	0.750	X:	0.471	Y:	0.053	Z:	0.774	yaw:	0.193	yaw rate:	128.340	Roll:	12.640	Pitch:	11.573	Yaw:	-17.180	Thrust:	0.000
Time:	0.959	Roll Set Point:	-0.943	Pitch Set Point:	-0.103	Yaw Set Point:	-0.008	X_WP:	0.000	Y_WP:	0.000	Y_WP:	0.750	X:	0.471	Y:	0.054	Z:	0.776	yaw:	0.464	yaw rate:	-27.135	Roll:	14.686	Pitch:	0.285	Yaw:	2.627	Thrust:	0.000
Time:	0.977	Roll Set Point:	-0.944	Pitch Set Point:	-0.102	Yaw Set Point:	-0.012	X_WP:	0.000	Y_WP:	0.000	Y_WP:	0.750	X:	0.472	Y:	0.054	Z:	0.777	yaw:	0.672	yaw rate:	-20.739	Roll:	15.156	Pitch:	0.128	Yaw:	2.992	Thrust:	0.000
Time:	0.996	Roll Set Point:	-0.947	Pitch Set Point:	-0.102	Yaw Set Point:	-0.014	X_WP:	0.000	Y_WP:	0.000	Y_WP:	0.750	X:	0.473	Y:	0.054	Z:	0.778	yaw:	0.782	yaw rate:	-11.034	Roll:	15.576	Pitch:	1.299	Yaw:	1.390	Thrust:	0.000
Time:	1.016	Roll Set Point:	-0.948	Pitch Set Point:	-0.101	Yaw Set Point:	-0.017	X_WP:	0.000	Y_WP:	0.000	Y_WP:	0.750	X:	0.473	Y:	0.055	Z:	0.780	yaw:	1.000	yaw rate:	-21.818	Roll:	15.024	Pitch:	0.371	Yaw:	3.303	Thrust:	0.000
Time:	1.036	Roll Set Point:	-0.947	Pitch Set Point:	-0.099	Yaw Set Point:	-0.022	X_WP:	0.000	Y_WP:	0.000	Y_WP:	0.750	X:	0.473	Y:	0.055	Z:	0.782	yaw:	1.259	yaw rate:	-25.862	Roll:	14.392	Pitch:	-0.274	Yaw:	3.840	Thrust:	0.000
Time:	1.057	Roll Set Point:	-0.945	Pitch Set Point:	-0.105	Yaw Set Point:	-0.009	X_WP:	0.000	Y_WP:	0.000	Y_WP:	0.750	X:	0.472	Y:	0.054	Z:	0.784	yaw:	0.496	yaw rate:	76.311	Roll:	13.179	Pitch:	6.919	Yaw:	-10.718	Thrust:	0.000
Time:	1.077	Roll Set Point:	-0.942	Pitch Set Point:	-0.102	Yaw Set Point:	-0.013	X_WP:	0.000	Y_WP:	0.000	Y_WP:	0.750	X:	0.471	Y:	0.054	Z:	0.786	yaw:	0.733	yaw rate:	-23.741	Roll:	13.322	Pitch:	-0.182	Yaw:	2.812	Thrust:	0.000
Time:	1.096	Roll Set Point:	-0.938	Pitch Set Point:	-0.105	Yaw Set Point:	-0.004	X_WP:	0.000	Y_WP:	0.000	Y_WP:	0.750	X:	0.469	Y:	0.053	Z:	0.789	yaw:	0.230	yaw rate:	50.286	Roll:	12.656	Pitch:	4.756	Yaw:	-7.533	Thrust:	0.000
Time:	1.116	Roll Set Point:	-0.935	Pitch Set Point:	-0.105	Yaw Set Point:	-0.004	X_WP:	0.000	Y_WP:	0.000	Y_WP:	0.750	X:	0.467	Y:	0.053	Z:	0.789	yaw:	0.207	yaw rate:	2.376	Roll:	12.526	Pitch:	1.591	Yaw:	-1.146	Thrust:	0.000
Time:	1.136	Roll Set Point:	-0.933	Pitch Set Point:	-0.089	Yaw Set Point:	-0.035	X_WP:	0.000	Y_WP:	0.000	Y_WP:	0.750	X:	0.466	Y:	0.053	Z:	0.790	yaw:	1.978	yaw rate:	-177.106	Roll:	14.117	Pitch:	-11.646	Yaw:	25.388	Thrust:	0.000
Time:	1.158	Roll Set Point:	-0.930	Pitch Set Point:	-0.089	Yaw Set Point:	-0.034	X_WP:	0.000	Y_WP:	0.000	Y_WP:	0.750	X:	0.464	Y:	0.052	Z:	0.791	yaw:	1.937	yaw rate:	4.022	Roll:	13.009	Pitch:	1.224	Yaw:	1.025	Thrust:	0.000
Time:	1.179	Roll Set Point:	-0.925	Pitch Set Point:	-0.093	Yaw Set Point:	-0.025	X_WP:	0.000	Y_WP:	0.000	Y_WP:	0.750	X:	0.462	Y:	0.052	Z:	0.791	yaw:	1.430	yaw rate:	50.744	Roll:	12.362	Pitch:	4.500	Yaw:	-5.558	Thrust:	0.000
Time:	1.197	Roll Set Point:	-0.920	Pitch Set Point:	-0.104	Yaw Set Point:	-0.001	X_WP:	0.000	Y_WP:	0.000	Y_WP:	0.750	X:	0.460	Y:	0.052	Z:	0.792	yaw:	0.051	yaw rate:	137.862	Roll:	11.042	Pitch:	12.568	Yaw:	-20.433	Thrust:	0.000
Time:	1.217	Roll Set Point:	-0.917	Pitch Set Point:	-0.107	Yaw Set Point:	0.006	X_WP:	0.000	Y_WP:	0.000	Y_WP:	0.750	X:	0.459	Y:	0.052	Z:	0.792	yaw:	-0.343	yaw rate:	39.404	Roll:	12.779	Pitch:	4.273	Yaw:	-6.618	Thrust:	0.000
Time:	1.236	Roll Set Point:	-0.915	Pitch Set Point:	-0.106	Yaw Set Point:	0.003	X_WP:	0.000	Y_WP:	0.000	Y_WP:	0.750	X:	0.458	Y:	0.052	Z:	0.792	yaw:	-0.182	yaw rate:	-16.048	Roll:	13.265	Pitch:	0.686	Yaw:	0.954	Thrust:	0.000
Time:	1.257	Roll Set Point:	-0.914	Pitch Set Point:	-0.106	Yaw Set Point:	0.000	X_WP:	0.000	Y_WP:	0.000	Y_WP:	0.750	X:	0.457	Y:	0.053	Z:	0.791	yaw:	-0.020	yaw rate:	-16.198	Roll:	13.620	Pitch:	1.220	Yaw:	0.889	Thrust:	0.000
Time:	1.276	Roll Set Point:	-0.914	Pitch Set Point:	-0.104	Yaw Set Point:	-0.007	X_WP:	0.000	Y_WP:	0.000	Y_WP:	0.750	X:	0.457	Y:	0.054	Z:	0.791	yaw:	0.374	yaw rate:	-39.454	Roll:	13.843	Pitch:	-0.565	Yaw:	4.939	Thrust:	0.000
Time:	1.298	Roll Set Point:	-0.914	Pitch Set Point:	-0.103	Yaw Set Point:	-0.010	X_WP:	0.000	Y_WP:	0.000	Y_WP:	0.750	X:	0.457	Y:	0.054	Z:	0.791	yaw:	0.550	yaw rate:	-17.619	Roll:	14.215	Pitch:	0.768	Yaw:	1.702	Thrust:	0.000
Time:	1.316	Roll Set Point:	-0.915	Pitch Set Point:	-0.107	Yaw Set Point:	-0.003	X_WP:	0.000	Y_WP:	0.000	Y_WP:	0.750	X:	0.457	Y:	0.054	Z:	0.791	yaw:	0.152	yaw rate:	39.878	Roll:	14.126	Pitch:	4.953	Yaw:	-6.541	Thrust:	0.000
Time:	1.338	Roll Set Point:	-0.916	Pitch Set Point:	-0.109	Yaw Set Point:	-0.002	X_WP:	0.000	Y_WP:	0.000	Y_WP:	0.750	X:	0.458	Y:	0.055	Z:	0.791	yaw:	0.137	yaw rate:	1.439	Roll:	14.439	Pitch:	2.389	Yaw:	-1.157	Thrust:	0.000
Time:	1.356	Roll Set Point:	-0.916	Pitch Set Point:	-0.109	Yaw Set Point:	-0.004	X_WP:	0.000	Y_WP:	0.000	Y_WP:	0.750	X:	0.458	Y:	0.055	Z:	0.791	yaw:	0.225	yaw rate:	-8.771	Roll:	14.244	Pitch:	1.485	Yaw:	0.537	Thrust:	0.000
Time:	1.377	Roll Set Point:	-0.915	Pitch Set Point:	-0.110	Yaw Set Point:	-0.001	X_WP:	0.000	Y_WP:	0.000	Y_WP:	0.750	X:	0.458	Y:	0.056	Z:	0.790	yaw:	0.074	yaw rate:	15.142	Roll:	13.726	Pitch:	3.170	Yaw:	-2.963	Thrust:	0.000
Time:	1.399	Roll Set Point:	-0.914	Pitch Set Point:	-0.114	Yaw Set Point:	0.007	X_WP:	0.000	Y_WP:	0.000	Y_WP:	0.750	X:	0.457	Y:	0.055	Z:	0.790	yaw:	-0.425	yaw rate:	49.855	Roll:	13.244	Pitch:	4.815	Yaw:	-7.586	Thrust:	0.000
Time:	1.416	Roll Set Point:	-0.911	Pitch Set Point:	-0.117	Yaw Set Point:	0.015	X_WP:	0.000	Y_WP:	0.000	Y_WP:	0.750	X:	0.456	Y:	0.055	Z:	0.790	yaw:	-0.838	yaw rate:	41.354	Roll:	12.135	Pitch:	4.985	Yaw:	-8.429	Thrust:	0.000
Time:	1.436	Roll Set Point:	-0.910	Pitch Set Point:	-0.111	Yaw Set Point:	0.002	X_WP:	0.000	Y_WP:	0.000	Y_WP:	0.750	X:	0.455	Y:	0.055	Z:	0.789	yaw:	-0.134	yaw rate:	-70.424	Roll:	13.985	Pitch:	-3.095	Yaw:	7.841	Thrust:	0.000
Time:	1.456	Roll Set Point:	-0.909	Pitch Set Point:	-0.113	Yaw Set Point:	0.007	X_WP:	0.000	Y_WP:	0.000	Y_WP:	0.750	X:	0.454	Y:	0.055	Z:	0.788	yaw:	-0.415	yaw rate:	28.051	Roll:	13.164	Pitch:	3.951	Yaw:	-5.439	Thrust:	0.000
Time:	1.476	Roll Set Point:	-0.906	Pitch Set Point:	-0.123	Yaw Set Point:	0.027	X_WP:	0.000	Y_WP:	0.000	Y_WP:	0.750	X:	0.454	Y:	0.055	Z:	0.788	yaw:	-1.549	yaw rate:	113.388	Roll:	12.395	Pitch:	9.896	Yaw:	-17.313	Thrust:	0.000
Time:	1.497	Roll Set Point:	-0.908	Pitch Set Point:	-0.114	Yaw Set Point:	0.009	X_WP:	0.000	Y_WP:	0.000	Y_WP:	0.750	X:	0.454	Y:	0.055	Z:	0.787	yaw:	-0.534	yaw rate:	-101.483	Roll:	15.008	Pitch:	-4.596	Yaw:	11.148	Thrust:	0.000
Time:	1.516	Roll Set Point:	-0.907	Pitch Set Point:	-0.120	Yaw Set Point:	0.020	X_WP:	0.000	Y_WP:	0.000	Y_WP:	0.750	X:	0.454	Y:	0.056	Z:	0.787	yaw:	-1.137	yaw rate:	60.290	Roll:	13.141	Pitch:	7.257	Yaw:	-10.965	Thrust:	0.000
Time:	1.535	Roll Set Point:	-0.909	Pitch Set Point:	-0.118	Yaw Set Point:	0.012	X_WP:	0.000	Y_WP:	0.000	Y_WP:	0.750	X:	0.455	Y:	0.056	Z:	0.786	yaw:	-0.676	yaw rate:	-46.114	Roll:	15.113	Pitch:	-0.599	Yaw:	4.137	Thrust:	0.000
Time:	1.557	Roll Set Point:	-0.912	Pitch Set Point:	-0.110	Yaw Set Point:	-0.003	X_WP:	0.000	Y_WP:	0.000	Y_WP:	0.750	X:	0.456	Y:	0.056	Z:	0.786	yaw:	0.179	yaw rate:	-85.465	Roll:	15.635	Pitch:	-4.041	Yaw:	10.051	Thrust:	0.000
Time:	1.577	Roll Set Point:	-0.911	Pitch Set Point:	-0.119	Yaw Set Point:	0.015	X_WP:	0.000	Y_WP:	0.000	Y_WP:	0.750	X:	0.456	Y:	0.056	Z:	0.786	yaw:	-0.888	yaw rate:	106.717	Roll:	13.228	Pitch:	9.107	Yaw:	-15.783	Thrust:	0.000
Time:	1.597	Roll Set Point:	-0.912	Pitch Set Point:	-0.119	Yaw Set Point:	0.015	X_WP:	0.000	Y_WP:	0.000	Y_WP:	0.750	X:	0.456	Y:	0.056	Z:	0.786	yaw:	-0.873	yaw rate:	-1.495	Roll:	14.090	Pitch:	1.890	Yaw:	-2.129	Thrust:	0.000
Time:	1.616	Roll Set Point:	-0.914	Pitch Set Point:	-0.110	Yaw Set Point:	-0.004	X_WP:	0.000	Y_WP:	0.000	Y_WP:	0.750	X:	0.457	Y:	0.056	Z:	0.786	yaw:	0.240	yaw rate:	-111.337	Roll:	15.398	Pitch:	-5.954	Yaw:	14.508	Thrust:	0.000
Time:	1.636	Roll Set Point:	-0.915	Pitch Set Point:	-0.110	Yaw Set Point:	-0.004	X_WP:	0.000	Y_WP:	0.000	Y_WP:	0.750	X:	0.457	Y:	0.056	Z:	0.786	yaw:	0.235	yaw rate:	0.542	Roll:	14.575	Pitch:	2.060	Yaw:	-0.898	Thrust:	0.000
Time:	1.656	Roll Set Point:	-0.915	Pitch Set Point:	-0.118	Yaw Set Point:	0.013	X_WP:	0.000	Y_WP:	0.000	Y_WP:	0.750	X:	0.458	Y:	0.056	Z:	0.786	yaw:	-0.732	yaw rate:	96.658	Roll:	13.510	Pitch:	9.270	Yaw:	-14.705	Thrust:	0.000
Time:	1.676	Roll Set Point:	-0.916	Pitch Set Point:	-0.118	Yaw Set Point:	0.010	X_WP:	0.000	Y_WP:	0.000	Y_WP:	0.750	X:	0.458	Y:	0.057	Z:	0.786	yaw:	-0.573	yaw rate:	-15.848	Roll:	14.661	Pitch:	1.270	Yaw:	0.203	Thrust:	0.000
Time:	1.697	Roll Set Point:	-0.916	Pitch Set Point:	-0.119	Yaw Set Point:	0.013	X_WP:	0.000	Y_WP:	0.000	Y_WP:	0.750	X:	0.459	Y:	0.057	Z:	0.786	yaw:	-0.736	yaw rate:	16.249	Roll:	14.009	Pitch:	3.148	Yaw:	-4.249	Thrust:	0.000
Time:	1.716	Roll Set Point:	-0.916	Pitch Set Point:	-0.123	Yaw Set Point:	0.023	X_WP:	0.000	Y_WP:	0.000	Y_WP:	0.750	X:	0.458	Y:	0.056	Z:	0.785	yaw:	-1.294	yaw rate:	55.799	Roll:	13.330	Pitch:	6.090	Yaw:	-10.784	Thrust:	0.000
Time:	1.736	Roll Set Point:	-0.917	Pitch Set Point:	-0.117	Yaw Set Point:	0.010	X_WP:	0.000	Y_WP:	0.000	Y_WP:	0.750	X:	0.459	Y:	0.056	Z:	0.785	yaw:	-0.593	yaw rate:	-70.057	Roll:	14.898	Pitch:	-2.852	Yaw:	6.932	Thrust:	0.000
Time:	1.755	Roll Set Point:	-0.917	Pitch Set Point:	-0.116	Yaw Set Point:	0.008	X_WP:	0.000	Y_WP:	0.000	Y_WP:	0.750	X:	0.459	Y:	0.056	Z:	0.784	yaw:	-0.454	yaw rate:	-13.885	Roll:	14.341	Pitch:	1.125	Yaw:	0.084	Thrust:	0.000
Time:	1.776	Roll Set Point:	-0.918	Pitch Set Point:	-0.115	Yaw Set Point:	0.008	X_WP:	0.000	Y_WP:	0.000	Y_WP:	0.750	X:	0.459	Y:	0.056	Z:	0.784	yaw:	-0.439	yaw rate:	-1.525	Roll:	14.146	Pitch:	1.837	Yaw:	-1.580	Thrust:	0.000
Time:	1.798	Roll Set Point:	-0.918	Pitch Set Point:	-0.116	Yaw Set Point:	0.010	X_WP:	0.000	Y_WP:	0.000	Y_WP:	0.750	X:	0.459	Y:	0.056	Z:	0.783	yaw:	-0.576	yaw rate:	13.717	Roll:	14.092	Pitch:	2.655	Yaw:	-3.707	Thrust:	0.000
Time:	1.817	Roll Set Point:	-0.917	Pitch Set Point:	-0.123	Yaw Set Point:	0.027	X_WP:	0.000	Y_WP:	0.000	Y_WP:	0.750	X:	0.459	Y:	0.055	Z:	0.783	yaw:	-1.526	yaw rate:	95.020	Roll:	12.990	Pitch:	9.154	Yaw:	-16.928	Thrust:	0.000
Time:	1.838	Roll Set Point:	-0.918	Pitch Set Point:	-0.122	Yaw Set Point:	0.026	X_WP:	0.000	Y_WP:	0.000	Y_WP:	0.750	X:	0.460	Y:	0.055	Z:	0.782	yaw:	-1.506	yaw rate:	-2.057	Roll:	14.482	Pitch:	1.706	Yaw:	-3.168	Thrust:	0.000
Time:	1.856	Roll Set Point:	-0.918	Pitch Set Point:	-0.122	Yaw Set Point:	0.029	X_WP:	0.000	Y_WP:	0.000	Y_WP:	0.750	X:	0.460	Y:	0.055	Z:	0.781	yaw:	-1.651	yaw rate:	14.486	Roll:	14.317	Pitch:	3.135	Yaw:	-5.486	Thrust:	0.528
Time:	1.876	Roll Set Point:	-0.920	Pitch Set Point:	-0.122	Yaw Set Point:	0.027	X_WP:	0.000	Y_WP:	0.000	Y_WP:	0.750	X:	0.461	Y:	0.055	Z:	0.780	yaw:	-1.573	yaw rate:	-7.796	Roll:	14.636	Pitch:	1.717	Yaw:	-2.415	Thrust:	0.000
Time:	1.897	Roll Set Point:	-0.921	Pitch Set Point:	-0.119	Yaw Set Point:	0.021	X_WP:	0.000	Y_WP:	0.000	Y_WP:	0.750	X:	0.461	Y:	0.055	Z:	0.779	yaw:	-1.230	yaw rate:	-34.282	Roll:	14.683	Pitch:	0.140	Yaw:	1.294	Thrust:	0.000
Time:	1.916	Roll Set Point:	-0.921	Pitch Set Point:	-0.120	Yaw Set Point:	0.022	X_WP:	0.000	Y_WP:	0.000	Y_WP:	0.750	X:	0.461	Y:	0.055	Z:	0.778	yaw:	-1.283	yaw rate:	5.296	Roll:	14.073	Pitch:	2.691	Yaw:	-3.657	Thrust:	0.000
Time:	1.936	Roll Set Point:	-0.922	Pitch Set Point:	-0.113	Yaw Set Point:	0.009	X_WP:	0.000	Y_WP:	0.000	Y_WP:	0.750	X:	0.461	Y:	0.055	Z:	0.778	yaw:	-0.500	yaw rate:	-78.268	Roll:	15.050	Pitch:	-3.359	Yaw:	8.240	Thrust:	0.000
Time:	1.958	Roll Set Point:	-0.920	Pitch Set Point:	-0.121	Yaw Set Point:	0.024	X_WP:	0.000	Y_WP:	0.000	Y_WP:	0.750	X:	0.461	Y:	0.055	Z:	0.778	yaw:	-1.368	yaw rate:	86.726	Roll:	12.953	Pitch:	8.324	Yaw:	-14.084	Thrust:	0.000
Time:	1.976	Roll Set Point:	-0.921	Pitch Set Point:	-0.113	Yaw Set Point:	0.006	X_WP:	0.000	Y_WP:	0.000	Y_WP:	0.750	X:	0.461	Y:	0.055	Z:	0.777	yaw:	-0.325	yaw rate:	-104.265	Roll:	14.986	Pitch:	-5.114	Yaw:	12.109	Thrust:	0.000
Time:	1.997	Roll Set Point:	-0.919	Pitch Set Point:	-0.121	Yaw Set Point:	0.021	X_WP:	0.000	Y_WP:	0.000	Y_WP:	0.750	X:	0.460	Y:	0.056	Z:	0.777	yaw:	-1.224	yaw rate:	89.941	Roll:	12.681	Pitch:	8.740	Yaw:	-14.635	Thrust:	0.000
Time:	2.017	Roll Set Point:	-0.920	Pitch Set Point:	-0.115	Yaw Set Point:	0.009	X_WP:	0.000	Y_WP:	0.000	Y_WP:	0.750	X:	0.460	Y:	0.055	Z:	0.778	yaw:	-0.532	yaw rate:	-69.208	Roll:	14.631	Pitch:	-2.850	Yaw:	7.146	Thrust:	0.000
Time:	2.037	Roll Set Point:	-0.918	Pitch Set Point:	-0.116	Yaw Set Point:	0.008	X_WP:	0.000	Y_WP:	0.000	Y_WP:	0.750	X:	0.459	Y:	0.056	Z:	0.777	yaw:	-0.462	yaw rate:	-6.989	Roll:	13.579	Pitch:	2.245	Yaw:	-0.987	Thrust:	0.000
Time:	2.058	Roll Set Point:	-0.917	Pitch Set Point:	-0.115	Yaw Set Point:	0.004	X_WP:	0.000	Y_WP:	0.000	Y_WP:	0.750	X:	0.459	Y:	0.056	Z:	0.778	yaw:	-0.232	yaw rate:	-22.995	Roll:	13.813	Pitch:	0.720	Yaw:	1.113	Thrust:	0.000
Time:	2.076	Roll Set Point:	-0.916	Pitch Set Point:	-0.115	Yaw Set Point:	0.002	X_WP:	0.000	Y_WP:	0.000	Y_WP:	0.750	X:	0.458	Y:	0.057	Z:	0.778	yaw:	-0.118	yaw rate:	-11.468	Roll:	13.537	Pitch:	1.465	Yaw:	0.443	Thrust:	0.000
Time:	2.096	Roll Set Point:	-0.915	Pitch Set Point:	-0.114	Yaw Set Point:	-0.000	X_WP:	0.000	Y_WP:	0.000	Y_WP:	0.750	X:	0.458	Y:	0.057	Z:	0.777	yaw:	0.025	yaw rate:	-14.231	Roll:	13.627	Pitch:	1.275	Yaw:	0.627	Thrust:	0.000
Time:	2.117	Roll Set Point:	-0.914	Pitch Set Point:	-0.115	Yaw Set Point:	0.003	X_WP:	0.000	Y_WP:	0.000	Y_WP:	0.750	X:	0.457	Y:	0.057	Z:	0.777	yaw:	-0.149	yaw rate:	17.356	Roll:	13.297	Pitch:	3.107	Yaw:	-3.702	Thrust:	0.000
Time:	2.136	Roll Set Point:	-0.913	Pitch Set Point:	-0.116	Yaw Set Point:	0.004	X_WP:	0.000	Y_WP:	0.000	Y_WP:	0.750	X:	0.456	Y:	0.057	Z:	0.777	yaw:	-0.250	yaw rate:	10.072	Roll:	13.408	Pitch:	2.699	Yaw:	-2.922	Thrust:	0.000
Time:	2.157	Roll Set Point:	-0.911	Pitch Set Point:	-0.116	Yaw Set Point:	0.006	X_WP:	0.000	Y_WP:	0.000	Y_WP:	0.750	X:	0.456	Y:	0.057	Z:	0.777	yaw:	-0.338	yaw rate:	8.793	Roll:	13.477	Pitch:	2.608	Yaw:	-2.879	Thrust:	0.000
Time:	2.178	Roll Set Point:	-0.911	Pitch Set Point:	-0.116	Yaw Set Point:	0.006	X_WP:	0.000	Y_WP:	0.000	Y_WP:	0.750	X:	0.456	Y:	0.057	Z:	0.777	yaw:	-0.344	yaw rate:	0.605	Roll:	13.831	Pitch:	2.013	Yaw:	-1.923	Thrust:	0.000
Time:	2.199	Roll Set Point:	-0.911	Pitch Set Point:	-0.116	Yaw Set Point:	0.007	X_WP:	0.000	Y_WP:	0.000	Y_WP:	0.750	X:	0.456	Y:	0.056	Z:	0.777	yaw:	-0.401	yaw rate:	5.705	Roll:	13.804	Pitch:	2.335	Yaw:	-2.558	Thrust:	0.000
Time:	2.216	Roll Set Point:	-0.909	Pitch Set Point:	-0.124	Yaw Set Point:	0.024	X_WP:	0.000	Y_WP:	0.000	Y_WP:	0.750	X:	0.455	Y:	0.057	Z:	0.777	yaw:	-1.348	yaw rate:	94.704	Roll:	12.445	Pitch:	9.624	Yaw:	-16.967	Thrust:	0.000
Time:	2.237	Roll Set Point:	-0.910	Pitch Set Point:	-0.117	Yaw Set Point:	0.008	X_WP:	0.000	Y_WP:	0.000	Y_WP:	0.750	X:	0.455	Y:	0.056	Z:	0.777	yaw:	-0.480	yaw rate:	-86.804	Roll:	14.925	Pitch:	-3.611	Yaw:	8.996	Thrust:	0.000
Time:	2.256	Roll Set Point:	-0.910	Pitch Set Point:	-0.118	Yaw Set Point:	0.010	X_WP:	0.000	Y_WP:	0.000	Y_WP:	0.750	X:	0.455	Y:	0.057	Z:	0.777	yaw:	-0.585	yaw rate:	10.551	Roll:	13.833	Pitch:	3.052	Yaw:	-3.472	Thrust:	0.000
Time:	2.276	Roll Set Point:	-0.910	Pitch Set Point:	-0.118	Yaw Set Point:	0.010	X_WP:	0.000	Y_WP:	0.000	Y_WP:	0.750	X:	0.455	Y:	0.057	Z:	0.777	yaw:	-0.562	yaw rate:	-2.354	Roll:	14.071	Pitch:	2.122	Yaw:	-1.766	Thrust:	0.000
Time:	2.298	Roll Set Point:	-0.910	Pitch Set Point:	-0.118	Yaw Set Point:	0.009	X_WP:	0.000	Y_WP:	0.000	Y_WP:	0.750	X:	0.456	Y:	0.057	Z:	0.777	yaw:	-0.510	yaw rate:	-5.138	Roll:	14.046	Pitch:	1.844	Yaw:	-1.435	Thrust:	0.000
Time:	2.316	Roll Set Point:	-0.911	Pitch Set Point:	-0.117	Yaw Set Point:	0.007	X_WP:	0.000	Y_WP:	0.000	Y_WP:	0.750	X:	0.456	Y:	0.057	Z:	0.777	yaw:	-0.415	yaw rate:	-9.495	Roll:	14.177	Pitch:	1.444	Yaw:	-0.359	Thrust:	0.000
Time:	2.336	Roll Set Point:	-0.911	Pitch Set Point:	-0.118	Yaw Set Point:	0.009	X_WP:	0.000	Y_WP:	0.000	Y_WP:	0.750	X:	0.456	Y:	0.057	Z:	0.778	yaw:	-0.520	yaw rate:	10.440	Roll:	13.927	Pitch:	2.961	Yaw:	-3.378	Thrust:	0.000
Time:	2.356	Roll Set Point:	-0.911	Pitch Set Point:	-0.117	Yaw Set Point:	0.006	X_WP:	0.000	Y_WP:	0.000	Y_WP:	0.750	X:	0.456	Y:	0.057	Z:	0.777	yaw:	-0.362	yaw rate:	-15.773	Roll:	14.121	Pitch:	1.058	Yaw:	0.234	Thrust:	0.000
Time:	2.377	Roll Set Point:	-0.911	Pitch Set Point:	-0.116	Yaw Set Point:	0.004	X_WP:	0.000	Y_WP:	0.000	Y_WP:	0.750	X:	0.456	Y:	0.057	Z:	0.777	yaw:	-0.238	yaw rate:	-12.396	Roll:	14.146	Pitch:	1.345	Yaw:	-0.151	Thrust:	0.000
Time:	2.397	Roll Set Point:	-0.912	Pitch Set Point:	-0.115	Yaw Set Point:	0.004	X_WP:	0.000	Y_WP:	0.000	Y_WP:	0.750	X:	0.456	Y:	0.057	Z:	0.777	yaw:	-0.256	yaw rate:	1.797	Roll:	14.041	Pitch:	1.848	Yaw:	-1.870	Thrust:	0.000
Time:	2.415	Roll Set Point:	-0.912	Pitch Set Point:	-0.116	Yaw Set Point:	0.008	X_WP:	0.000	Y_WP:	0.000	Y_WP:	0.750	X:	0.456	Y:	0.056	Z:	0.776	yaw:	-0.458	yaw rate:	20.209	Roll:	13.904	Pitch:	2.956	Yaw:	-4.713	Thrust:	0.000
Time:	2.436	Roll Set Point:	-0.912	Pitch Set Point:	-0.116	Yaw Set Point:	0.012	X_WP:	0.000	Y_WP:	0.000	Y_WP:	0.750	X:	0.456	Y:	0.055	Z:	0.776	yaw:	-0.665	yaw rate:	20.679	Roll:	14.045	Pitch:	3.131	Yaw:	-4.876	Thrust:	0.000
Time:	2.457	Roll Set Point:	-0.912	Pitch Set Point:	-0.114	Yaw Set Point:	0.009	X_WP:	0.000	Y_WP:	0.000	Y_WP:	0.750	X:	0.456	Y:	0.055	Z:	0.775	yaw:	-0.497	yaw rate:	-16.812	Roll:	13.908	Pitch:	0.933	Yaw:	0.092	Thrust:	0.000
Time:	2.477	Roll Set Point:	-0.912	Pitch Set Point:	-0.116	Yaw Set Point:	0.013	X_WP:	0.000	Y_WP:	0.000	Y_WP:	0.750	X:	0.456	Y:	0.055	Z:	0.775	yaw:	-0.741	yaw rate:	24.472	Roll:	13.770	Pitch:	3.449	Yaw:	-5.540	Thrust:	0.000
Time:	2.496	Roll Set Point:	-0.913	Pitch Set Point:	-0.114	Yaw Set Point:	0.011	X_WP:	0.000	Y_WP:	0.000	Y_WP:	0.750	X:	0.457	Y:	0.054	Z:	0.774	yaw:	-0.643	yaw rate:	-9.890	Roll:	14.427	Pitch:	0.999	Yaw:	-0.754	Thrust:	0.000
Time:	2.516	Roll Set Point:	-0.912	Pitch Set Point:	-0.120	Yaw Set Point:	0.025	X_WP:	0.000	Y_WP:	0.000	Y_WP:	0.750	X:	0.457	Y:	0.054	Z:	0.774	yaw:	-1.436	yaw rate:	79.308	Roll:	13.280	Pitch:	7.696	Yaw:	-13.469	Thrust:	0.000
Time:	2.536	Roll Set Point:	-0.913	Pitch Set Point:	-0.119	Yaw Set Point:	0.025	X_WP:	0.000	Y_WP:	0.000	Y_WP:	0.750	X:	0.457	Y:	0.054	Z:	0.773	yaw:	-1.408	yaw rate:	-2.742	Roll:	14.263	Pitch:	1.937	Yaw:	-2.934	Thrust:	0.000
Time:	2.557	Roll Set Point:	-0.913	Pitch Set Point:	-0.120	Yaw Set Point:	0.026	X_WP:	0.000	Y_WP:	0.000	Y_WP:	0.750	X:	0.457	Y:	0.054	Z:	0.773	yaw:	-1.517	yaw rate:	10.904	Roll:	13.853	Pitch:	3.009	Yaw:	-4.882	Thrust:	0.000
Time:	2.577	Roll Set Point:	-0.913	Pitch Set Point:	-0.120	Yaw Set Point:	0.027	X_WP:	0.000	Y_WP:	0.000	Y_WP:	0.750	X:	0.457	Y:	0.054	Z:	0.772	yaw:	-1.546	yaw rate:	2.856	Roll:	14.187	Pitch:	2.383	Yaw:	-3.847	Thrust:	0.000
Time:	2.601	Roll Set Point:	-0.914	Pitch Set Point:	-0.120	Yaw Set Point:	0.027	X_WP:	0.000	Y_WP:	0.000	Y_WP:	0.750	X:	0.458	Y:	0.054	Z:	0.772	yaw:	-1.568	yaw rate:	2.171	Roll:	14.374	Pitch:	2.485	Yaw:	-4.086	Thrust:	0.000
Time:	2.616	Roll Set Point:	-0.914	Pitch Set Point:	-0.120	Yaw Set Point:	0.027	X_WP:	0.000	Y_WP:	0.000	Y_WP:	0.750	X:	0.458	Y:	0.054	Z:	0.772	yaw:	-1.563	yaw rate:	-0.461	Roll:	14.114	Pitch:	2.395	Yaw:	-3.181	Thrust:	0.000
Time:	2.637	Roll Set Point:	-0.915	Pitch Set Point:	-0.118	Yaw Set Point:	0.022	X_WP:	0.000	Y_WP:	0.000	Y_WP:	0.750	X:	0.458	Y:	0.054	Z:	0.772	yaw:	-1.259	yaw rate:	-30.428	Roll:	14.463	Pitch:	0.596	Yaw:	0.744	Thrust:	0.000
Time:	2.656	Roll Set Point:	-0.917	Pitch Set Point:	-0.110	Yaw Set Point:	0.003	X_WP:	0.000	Y_WP:	0.000	Y_WP:	0.750	X:	0.459	Y:	0.054	Z:	0.772	yaw:	-0.163	yaw rate:	-109.527	Roll:	15.383	Pitch:	-5.659	Yaw:	13.356	Thrust:	0.000
Time:	2.678	Roll Set Point:	-0.916	Pitch Set Point:	-0.119	Yaw Set Point:	0.022	X_WP:	0.000	Y_WP:	0.000	Y_WP:	0.750	X:	0.459	Y:	0.054	Z:	0.772	yaw:	-1.238	yaw rate:	107.432	Roll:	13.395	Pitch:	9.393	Yaw:	-15.981	Thrust:	0.000
Time:	2.697	Roll Set Point:	-0.919	Pitch Set Point:	-0.111	Yaw Set Point:	0.005	X_WP:	0.000	Y_WP:	0.000	Y_WP:	0.750	X:	0.460	Y:	0.054	Z:	0.772	yaw:	-0.303	yaw rate:	-93.438	Roll:	15.517	Pitch:	-4.690	Yaw:	10.905	Thrust:	0.000
Time:	2.716	Roll Set Point:	-0.919	Pitch Set Point:	-0.113	Yaw Set Point:	0.008	X_WP:	0.000	Y_WP:	0.000	Y_WP:	0.750	X:	0.460	Y:	0.055	Z:	0.772	yaw:	-0.436	yaw rate:	13.279	Roll:	14.119	Pitch:	3.357	Yaw:	-3.764	Thrust:	0.000
Time:	2.736	Roll Set Point:	-0.919	Pitch Set Point:	-0.111	Yaw Set Point:	0.003	X_WP:	0.000	Y_WP:	0.000	Y_WP:	0.750	X:	0.460	Y:	0.055	Z:	0.773	yaw:	-0.164	yaw rate:	-27.163	Roll:	14.227	Pitch:	0.539	Yaw:	1.995	Thrust:	0.000
Time:	2.756	Roll Set Point:	-0.920	Pitch Set Point:	-0.109	Yaw Set Point:	-0.003	X_WP:	0.000	Y_WP:	0.000	Y_WP:	0.750	X:	0.460	Y:	0.055	Z:	0.773	yaw:	0.178	yaw rate:	-34.216	Roll:	14.473	Pitch:	-0.148	Yaw:	3.281	Thrust:	0.000
Time:	2.776	Roll Set Point:	-0.920	Pitch Set Point:	-0.110	Yaw Set Point:	-0.001	X_WP:	0.000	Y_WP:	0.000	Y_WP:	0.750	X:	0.460	Y:	0.055	Z:	0.773	yaw:	0.034	yaw rate:	14.394	Roll:	14.097	Pitch:	2.999	Yaw:	-3.240	Thrust:	0.000
Time:	2.798	Roll Set Point:	-0.920	Pitch Set Point:	-0.110	Yaw Set Point:	-0.001	X_WP:	0.000	Y_WP:	0.000	Y_WP:	0.750	X:	0.460	Y:	0.055	Z:	0.773	yaw:	0.060	yaw rate:	-2.660	Roll:	14.177	Pitch:	2.011	Yaw:	-1.094	Thrust:	0.000
Time:	2.816	Roll Set Point:	-0.920	Pitch Set Point:	-0.110	Yaw Set Point:	-0.001	X_WP:	0.000	Y_WP:	0.000	Y_WP:	0.750	X:	0.460	Y:	0.055	Z:	0.773	yaw:	0.084	yaw rate:	-2.363	Roll:	14.276	Pitch:	2.073	Yaw:	-0.808	Thrust:	0.000
Time:	2.836	Roll Set Point:	-0.921	Pitch Set Point:	-0.113	Yaw Set Point:	0.003	X_WP:	0.000	Y_WP:	0.000	Y_WP:	0.750	X:	0.461	Y:	0.056	Z:	0.773	yaw:	-0.149	yaw rate:	23.331	Roll:	14.256	Pitch:	3.956	Yaw:	-4.652	Thrust:	0.000
Time:	2.857	Roll Set Point:	-0.921	Pitch Set Point:	-0.115	Yaw Set Point:	0.007	X_WP:	0.000	Y_WP:	0.000	Y_WP:	0.750	X:	0.461	Y:	0.056	Z:	0.774	yaw:	-0.420	yaw rate:	27.023	Roll:	14.157	Pitch:	4.103	Yaw:	-5.417	Thrust:	0.000
Time:	2.878	Roll Set Point:	-0.922	Pitch Set Point:	-0.115	Yaw Set Point:	0.008	X_WP:	0.000	Y_WP:	0.000	Y_WP:	0.750	X:	0.461	Y:	0.056	Z:	0.774	yaw:	-0.447	yaw rate:	2.753	Roll:	14.323	Pitch:	2.477	Yaw:	-2.457	Thrust:	0.000
Time:	2.897	Roll Set Point:	-0.922	Pitch Set Point:	-0.115	Yaw Set Point:	0.007	X_WP:	0.000	Y_WP:	0.000	Y_WP:	0.750	X:	0.461	Y:	0.056	Z:	0.774	yaw:	-0.378	yaw rate:	-6.897	Roll:	14.221	Pitch:	1.829	Yaw:	-0.876	Thrust:	0.000
Time:	2.916	Roll Set Point:	-0.922	Pitch Set Point:	-0.115	Yaw Set Point:	0.005	X_WP:	0.000	Y_WP:	0.000	Y_WP:	0.750	X:	0.461	Y:	0.056	Z:	0.774	yaw:	-0.311	yaw rate:	-6.697	Roll:	14.226	Pitch:	1.830	Yaw:	-0.813	Thrust:	0.000
Time:	2.936	Roll Set Point:	-0.923	Pitch Set Point:	-0.116	Yaw Set Point:	0.006	X_WP:	0.000	Y_WP:	0.000	Y_WP:	0.750	X:	0.462	Y:	0.057	Z:	0.775	yaw:	-0.322	yaw rate:	1.057	Roll:	14.373	Pitch:	2.608	Yaw:	-2.046	Thrust:	0.000
Time:	2.956	Roll Set Point:	-0.923	Pitch Set Point:	-0.116	Yaw Set Point:	0.005	X_WP:	0.000	Y_WP:	0.000	Y_WP:	0.750	X:	0.462	Y:	0.057	Z:	0.775	yaw:	-0.266	yaw rate:	-5.554	Roll:	14.390	Pitch:	1.988	Yaw:	-0.997	Thrust:	0.000
Time:	2.976	Roll Set Point:	-0.924	Pitch Set Point:	-0.117	Yaw Set Point:	0.009	X_WP:	0.000	Y_WP:	0.000	Y_WP:	0.750	X:	0.462	Y:	0.056	Z:	0.775	yaw:	-0.511	yaw rate:	24.463	Roll:	14.465	Pitch:	3.551	Yaw:	-5.301	Thrust:	0.000
Time:	2.997	Roll Set Point:	-0.925	Pitch Set Point:	-0.117	Yaw Set Point:	0.009	X_WP:	0.000	Y_WP:	0.000	Y_WP:	0.750	X:	0.463	Y:	0.056	Z:	0.775	yaw:	-0.497	yaw rate:	-1.383	Roll:	14.450	Pitch:	2.037	Yaw:	-2.007	Thrust:	0.000
Time:	3.016	Roll Set Point:	-0.925	Pitch Set Point:	-0.116	Yaw Set Point:	0.006	X_WP:	0.000	Y_WP:	0.000	Y_WP:	0.750	X:	0.463	Y:	0.057	Z:	0.775	yaw:	-0.330	yaw rate:	-16.746	Roll:	14.267	Pitch:	1.246	Yaw:	0.578	Thrust:	0.000
Time:	3.037	Roll Set Point:	-0.926	Pitch Set Point:	-0.114	Yaw Set Point:	0.001	X_WP:	0.000	Y_WP:	0.000	Y_WP:	0.750	X:	0.463	Y:	0.057	Z:	0.775	yaw:	-0.045	yaw rate:	-28.427	Roll:	14.489	Pitch:	0.301	Yaw:	1.962	Thrust:	0.000
Time:	3.056	Roll Set Point:	-0.926	Pitch Set Point:	-0.114	Yaw Set Point:	0.002	X_WP:	0.000	Y_WP:	0.000	Y_WP:	0.750	X:	0.463	Y:	0.057	Z:	0.775	yaw:	-0.138	yaw rate:	9.254	Roll:	14.211	Pitch:	2.715	Yaw:	-2.829	Thrust:	0.000
Time:	3.076	Roll Set Point:	-0.925	Pitch Set Point:	-0.124	Yaw Set Point:	0.022	X_WP:	0.000	Y_WP:	0.000	Y_WP:	0.750	X:	0.463	Y:	0.057	Z:	0.775	yaw:	-1.259	yaw rate:	112.096	Roll:	13.178	Pitch:	10.338	Yaw:	-17.820	Thrust:	0.000
Time:	3.097	Roll Set Point:	-0.926	Pitch Set Point:	-0.114	Yaw Set Point:	0.004	X_WP:	0.000	Y_WP:	0.000	Y_WP:	0.750	X:	0.463	Y:	0.056	Z:	0.775	yaw:	-0.236	yaw rate:	-102.325	Roll:	15.382	Pitch:	-4.977	Yaw:	11.063	Thrust:	0.000
Time:	3.116	Roll Set Point:	-0.926	Pitch Set Point:	-0.114	Yaw Set Point:	0.003	X_WP:	0.000	Y_WP:	0.000	Y_WP:	0.750	X:	0.463	Y:	0.056	Z:	0.774	yaw:	-0.149	yaw rate:	-8.623	Roll:	14.119	Pitch:	1.658	Yaw:	-0.328	Thrust:	0.000
Time:	3.137	Roll Set Point:	-0.926	Pitch Set Point:	-0.113	Yaw Set Point:	0.001	X_WP:	0.000	Y_WP:	0.000	Y_WP:	0.750	X:	0.463	Y:	0.056	Z:	0.775	yaw:	-0.046	yaw rate:	-10.313	Roll:	14.320	Pitch:	1.511	Yaw:	-0.251	Thrust:	0.000
Time:	3.156	Roll Set Point:	-0.927	Pitch Set Point:	-0.113	Yaw Set Point:	0.001	X_WP:	0.000	Y_WP:	0.000	Y_WP:	0.750	X:	0.463	Y:	0.056	Z:	0.775	yaw:	-0.059	yaw rate:	1.298	Roll:	14.228	Pitch:	2.259	Yaw:	-1.670	Thrust:	0.000
Time:	3.177	Roll Set Point:	-0.927	Pitch Set Point:	-0.113	Yaw Set Point:	0.000	X_WP:	0.000	Y_WP:	0.000	Y_WP:	0.750	X:	0.463	Y:	0.057	Z:	0.775	yaw:	-0.022	yaw rate:	-3.671	Roll:	14.271	Pitch:	2.059	Yaw:	-1.046	Thrust:	0.000
Time:	3.197	Roll Set Point:	-0.925	Pitch Set Point:	-0.122	Yaw Set Point:	0.017	X_WP:	0.000	Y_WP:	0.000	Y_WP:	0.750	X:	0.463	Y:	0.057	Z:	0.775	yaw:	-0.962	yaw rate:	93.956	Roll:	13.222	Pitch:	9.083	Yaw:	-14.957	Thrust:	0.000
Time:	3.215	Roll Set Point:	-0.927	Pitch Set Point:	-0.115	Yaw Set Point:	0.003	X_WP:	0.000	Y_WP:	0.000	Y_WP:	0.750	X:	0.464	Y:	0.057	Z:	0.775	yaw:	-0.192	yaw rate:	-76.998	Roll:	15.236	Pitch:	-3.646	Yaw:	9.301	Thrust:	0.000
Time:	3.236	Roll Set Point:	-0.926	Pitch Set Point:	-0.122	Yaw Set Point:	0.016	X_WP:	0.000	Y_WP:	0.000	Y_WP:	0.750	X:	0.463	Y:	0.057	Z:	0.775	yaw:	-0.888	yaw rate:	69.623	Roll:	13.448	Pitch:	7.375	Yaw:	-11.479	Thrust:	0.000
Time:	3.259	Roll Set Point:	-0.926	Pitch Set Point:	-0.123	Yaw Set Point:	0.019	X_WP:	0.000	Y_WP:	0.000	Y_WP:	0.750	X:	0.463	Y:	0.057	Z:	0.775	yaw:	-1.070	yaw rate:	18.134	Roll:	14.034	Pitch:	3.552	Yaw:	-5.244	Thrust:	0.000
Time:	3.276	Roll Set Point:	-0.925	Pitch Set Point:	-0.125	Yaw Set Point:	0.023	X_WP:	0.000	Y_WP:	0.000	Y_WP:	0.750	X:	0.463	Y:	0.057	Z:	0.775	yaw:	-1.322	yaw rate:	25.266	Roll:	13.716	Pitch:	4.558	Yaw:	-6.911	Thrust:	0.000
Time:	3.297	Roll Set Point:	-0.926	Pitch Set Point:	-0.123	Yaw Set Point:	0.017	X_WP:	0.000	Y_WP:	0.000	Y_WP:	0.750	X:	0.463	Y:	0.057	Z:	0.775	yaw:	-0.956	yaw rate:	-36.596	Roll:	14.531	Pitch:	0.030	Yaw:	1.865	Thrust:	0.000
Time:	3.317	Roll Set Point:	-0.926	Pitch Set Point:	-0.122	Yaw Set Point:	0.014	X_WP:	0.000	Y_WP:	0.000	Y_WP:	0.750	X:	0.463	Y:	0.058	Z:	0.775	yaw:	-0.828	yaw rate:	-12.799	Roll:	14.443	Pitch:	1.660	Yaw:	-0.994	Thrust:	0.000
Time:	3.336	Roll Set Point:	-0.927	Pitch Set Point:	-0.115	Yaw Set Point:	0.002	X_WP:	0.000	Y_WP:	0.000	Y_WP:	0.750	X:	0.464	Y:	0.057	Z:	0.775	yaw:	-0.110	yaw rate:	-71.785	Roll:	15.065	Pitch:	-3.106	Yaw:	7.931	Thrust:	0.000
Time:	3.356	Roll Set Point:	-0.927	Pitch Set Point:	-0.116	Yaw Set Point:	0.004	X_WP:	0.000	Y_WP:	0.000	Y_WP:	0.750	X:	0.464	Y:	0.057	Z:	0.775	yaw:	-0.201	yaw rate:	9.013	Roll:	14.004	Pitch:	2.960	Yaw:	-2.938	Thrust:	0.000
Time:	3.377	Roll Set Point:	-0.927	Pitch Set Point:	-0.116	Yaw Set Point:	0.003	X_WP:	0.000	Y_WP:	0.000	Y_WP:	0.750	X:	0.464	Y:	0.057	Z:	0.775	yaw:	-0.184	yaw rate:	-1.642	Roll:	14.134	Pitch:	2.274	Yaw:	-1.629	Thrust:	0.000
Time:	3.397	Roll Set Point:	-0.928	Pitch Set Point:	-0.113	Yaw Set Point:	-0.004	X_WP:	0.000	Y_WP:	0.000	Y_WP:	0.750	X:	0.464	Y:	0.058	Z:	0.775	yaw:	0.250	yaw rate:	-43.425	Roll:	14.677	Pitch:	-0.679	Yaw:	4.562	Thrust:	0.000
Time:	3.416	Roll Set Point:	-0.927	Pitch Set Point:	-0.118	Yaw Set Point:	0.005	X_WP:	0.000	Y_WP:	0.000	Y_WP:	0.750	X:	0.464	Y:	0.058	Z:	0.775	yaw:	-0.296	yaw rate:	54.613	Roll:	13.780	Pitch:	6.284	Yaw:	-9.259	Thrust:	0.000
Time:	3.436	Roll Set Point:	-0.928	Pitch Set Point:	-0.115	Yaw Set Point:	0.000	X_WP:	0.000	Y_WP:	0.000	Y_WP:	0.750	X:	0.464	Y:	0.058	Z:	0.775	yaw:	-0.005	yaw rate:	-29.123	Roll:	14.518	Pitch:	0.193	Yaw:	2.291	Thrust:	0.000
Time:	3.457	Roll Set Point:	-0.928	Pitch Set Point:	-0.115	Yaw Set Point:	-0.001	X_WP:	0.000	Y_WP:	0.000	Y_WP:	0.750	X:	0.464	Y:	0.057	Z:	0.775	yaw:	0.046	yaw rate:	-5.092	Roll:	14.238	Pitch:	1.727	Yaw:	-0.867	Thrust:	0.000
Time:	3.478	Roll Set Point:	-0.928	Pitch Set Point:	-0.115	Yaw Set Point:	-0.001	X_WP:	0.000	Y_WP:	0.000	Y_WP:	0.750	X:	0.464	Y:	0.058	Z:	0.775	yaw:	0.064	yaw rate:	-1.783	Roll:	14.279	Pitch:	2.294	Yaw:	-1.225	Thrust:	0.000
Time:	3.500	Roll Set Point:	-0.926	Pitch Set Point:	-0.124	Yaw Set Point:	0.018	X_WP:	0.000	Y_WP:	0.000	Y_WP:	0.750	X:	0.464	Y:	0.058	Z:	0.775	yaw:	-1.036	yaw rate:	110.026	Roll:	13.136	Pitch:	9.604	Yaw:	-16.485	Thrust:	0.000
Time:	3.516	Roll Set Point:	-0.928	Pitch Set Point:	-0.113	Yaw Set Point:	-0.006	X_WP:	0.000	Y_WP:	0.000	Y_WP:	0.750	X:	0.464	Y:	0.058	Z:	0.776	yaw:	0.336	yaw rate:	-137.190	Roll:	15.935	Pitch:	-9.206	Yaw:	20.609	Thrust:	0.000
Time:	3.536	Roll Set Point:	-0.927	Pitch Set Point:	-0.125	Yaw Set Point:	0.017	X_WP:	0.000	Y_WP:	0.000	Y_WP:	0.750	X:	0.464	Y:	0.058	Z:	0.775	yaw:	-0.979	yaw rate:	131.445	Roll:	12.929	Pitch:	12.076	Yaw:	-20.021	Thrust:	0.000
Time:	3.560	Roll Set Point:	-0.927	Pitch Set Point:	-0.125	Yaw Set Point:	0.018	X_WP:	0.000	Y_WP:	0.000	Y_WP:	0.750	X:	0.464	Y:	0.059	Z:	0.776	yaw:	-1.005	yaw rate:	2.589	Roll:	14.264	Pitch:	2.850	Yaw:	-3.443	Thrust:	0.000
Time:	3.577	Roll Set Point:	-0.927	Pitch Set Point:	-0.126	Yaw Set Point:	0.017	X_WP:	0.000	Y_WP:	0.000	Y_WP:	0.750	X:	0.464	Y:	0.059	Z:	0.775	yaw:	-0.969	yaw rate:	-3.608	Roll:	14.064	Pitch:	2.412	Yaw:	-2.094	Thrust:	0.000
Time:	3.596	Roll Set Point:	-0.928	Pitch Set Point:	-0.120	Yaw Set Point:	0.006	X_WP:	0.000	Y_WP:	0.000	Y_WP:	0.750	X:	0.464	Y:	0.059	Z:	0.776	yaw:	-0.328	yaw rate:	-64.021	Roll:	15.076	Pitch:	-2.359	Yaw:	6.708	Thrust:	0.000
Time:	3.616	Roll Set Point:	-0.928	Pitch Set Point:	-0.120	Yaw Set Point:	0.005	X_WP:	0.000	Y_WP:	0.000	Y_WP:	0.750	X:	0.464	Y:	0.059	Z:	0.776	yaw:	-0.308	yaw rate:	-2.049	Roll:	14.101	Pitch:	2.271	Yaw:	-1.684	Thrust:	0.000
Time:	3.636	Roll Set Point:	-0.928	Pitch Set Point:	-0.119	Yaw Set Point:	0.003	X_WP:	0.000	Y_WP:	0.000	Y_WP:	0.750	X:	0.464	Y:	0.059	Z:	0.776	yaw:	-0.200	yaw rate:	-10.820	Roll:	14.163	Pitch:	1.625	Yaw:	-0.397	Thrust:	0.000
Time:	3.657	Roll Set Point:	-0.928	Pitch Set Point:	-0.120	Yaw Set Point:	0.005	X_WP:	0.000	Y_WP:	0.000	Y_WP:	0.750	X:	0.464	Y:	0.059	Z:	0.776	yaw:	-0.304	yaw rate:	10.448	Roll:	14.149	Pitch:	3.244	Yaw:	-3.316	Thrust:	0.000
Time:	3.677	Roll Set Point:	-0.928	Pitch Set Point:	-0.120	Yaw Set Point:	0.005	X_WP:	0.000	Y_WP:	0.000	Y_WP:	0.750	X:	0.464	Y:	0.059	Z:	0.776	yaw:	-0.292	yaw rate:	-1.190	Roll:	14.166	Pitch:	2.277	Yaw:	-1.779	Thrust:	0.000
Time:	3.697	Roll Set Point:	-0.927	Pitch Set Point:	-0.121	Yaw Set Point:	0.005	X_WP:	0.000	Y_WP:	0.000	Y_WP:	0.750	X:	0.464	Y:	0.059	Z:	0.776	yaw:	-0.284	yaw rate:	-0.804	Roll:	14.049	Pitch:	2.464	Yaw:	-1.813	Thrust:	0.000
Time:	3.717	Roll Set Point:	-0.927	Pitch Set Point:	-0.119	Yaw Set Point:	-0.000	X_WP:	0.000	Y_WP:	0.000	Y_WP:	0.750	X:	0.464	Y:	0.059	Z:	0.776	yaw:	0.010	yaw rate:	-29.383	Roll:	14.411	Pitch:	0.329	Yaw:	2.595	Thrust:	0.000
Time:	3.737	Roll Set Point:	-0.928	Pitch Set Point:	-0.119	Yaw Set Point:	-0.000	X_WP:	0.000	Y_WP:	0.000	Y_WP:	0.750	X:	0.464	Y:	0.059	Z:	0.776	yaw:	0.006	yaw rate:	0.349	Roll:	14.242	Pitch:	2.454	Yaw:	-1.611	Thrust:	0.000
Time:	3.758	Roll Set Point:	-0.928	Pitch Set Point:	-0.118	Yaw Set Point:	-0.004	X_WP:	0.000	Y_WP:	0.000	Y_WP:	0.750	X:	0.464	Y:	0.060	Z:	0.776	yaw:	0.222	yaw rate:	-21.578	Roll:	14.327	Pitch:	1.058	Yaw:	1.312	Thrust:	0.000
Time:	3.777	Roll Set Point:	-0.927	Pitch Set Point:	-0.118	Yaw Set Point:	-0.006	X_WP:	0.000	Y_WP:	0.000	Y_WP:	0.750	X:	0.463	Y:	0.060	Z:	0.775	yaw:	0.333	yaw rate:	-11.148	Roll:	14.145	Pitch:	1.845	Yaw:	0.603	Thrust:	0.000
Time:	3.797	Roll Set Point:	-0.927	Pitch Set Point:	-0.118	Yaw Set Point:	-0.005	X_WP:	0.000	Y_WP:	0.000	Y_WP:	0.750	X:	0.463	Y:	0.060	Z:	0.775	yaw:	0.297	yaw rate:	3.607	Roll:	14.164	Pitch:	2.694	Yaw:	-1.585	Thrust:	0.000
Time:	3.816	Roll Set Point:	-0.927	Pitch Set Point:	-0.118	Yaw Set Point:	-0.005	X_WP:	0.000	Y_WP:	0.000	Y_WP:	0.750	X:	0.463	Y:	0.060	Z:	0.776	yaw:	0.309	yaw rate:	-1.146	Roll:	14.159	Pitch:	2.353	Yaw:	-0.898	Thrust:	0.000
Time:	3.837	Roll Set Point:	-0.927	Pitch Set Point:	-0.117	Yaw Set Point:	-0.009	X_WP:	0.000	Y_WP:	0.000	Y_WP:	0.750	X:	0.463	Y:	0.061	Z:	0.776	yaw:	0.497	yaw rate:	-18.798	Roll:	14.181	Pitch:	1.059	Yaw:	1.582	Thrust:	0.000
Time:	3.859	Roll Set Point:	-0.927	Pitch Set Point:	-0.118	Yaw Set Point:	-0.008	X_WP:	0.000	Y_WP:	0.000	Y_WP:	0.750	X:	0.463	Y:	0.061	Z:	0.776	yaw:	0.436	yaw rate:	6.022	Roll:	14.014	Pitch:	2.803	Yaw:	-1.739	Thrust:	0.000
Time:	3.877	Roll Set Point:	-0.927	Pitch Set Point:	-0.118	Yaw Set Point:	-0.008	X_WP:	0.000	Y_WP:	0.000	Y_WP:	0.750	X:	0.463	Y:	0.061	Z:	0.776	yaw:	0.472	yaw rate:	-3.601	Roll:	14.237	Pitch:	2.105	Yaw:	-0.314	Thrust:	0.000
Time:	3.897	Roll Set Point:	-0.926	Pitch Set Point:	-0.119	Yaw Set Point:	-0.006	X_WP:	0.000	Y_WP:	0.000	Y_WP:	0.750	X:	0.463	Y:	0.061	Z:	0.776	yaw:	0.368	yaw rate:	10.447	Roll:	14.041	Pitch:	3.125	Yaw:	-2.359	Thrust:	0.000
Time:	3.917	Roll Set Point:	-0.926	Pitch Set Point:	-0.120	Yaw Set Point:	-0.005	X_WP:	0.000	Y_WP:	0.000	Y_WP:	0.750	X:	0.463	Y:	0.061	Z:	0.776	yaw:	0.268	yaw rate:	10.027	Roll:	14.008	Pitch:	3.141	Yaw:	-2.445	Thrust:	0.000
Time:	3.937	Roll Set Point:	-0.926	Pitch Set Point:	-0.120	Yaw Set Point:	-0.005	X_WP:	0.000	Y_WP:	0.000	Y_WP:	0.750	X:	0.463	Y:	0.061	Z:	0.776	yaw:	0.266	yaw rate:	0.211	Roll:	14.111	Pitch:	2.435	Yaw:	-1.169	Thrust:	0.000
Time:	3.958	Roll Set Point:	-0.926	Pitch Set Point:	-0.121	Yaw Set Point:	-0.004	X_WP:	0.000	Y_WP:	0.000	Y_WP:	0.750	X:	0.463	Y:	0.061	Z:	0.776	yaw:	0.227	yaw rate:	3.909	Roll:	14.099	Pitch:	2.766	Yaw:	-1.753	Thrust:	0.000
Time:	3.977	Roll Set Point:	-0.926	Pitch Set Point:	-0.120	Yaw Set Point:	-0.007	X_WP:	0.000	Y_WP:	0.000	Y_WP:	0.750	X:	0.463	Y:	0.061	Z:	0.776	yaw:	0.387	yaw rate:	-16.076	Roll:	14.256	Pitch:	1.204	Yaw:	1.265	Thrust:	0.000
Time:	3.997	Roll Set Point:	-0.926	Pitch Set Point:	-0.120	Yaw Set Point:	-0.006	X_WP:	0.000	Y_WP:	0.000	Y_WP:	0.750	X:	0.463	Y:	0.062	Z:	0.776	yaw:	0.362	yaw rate:	2.542	Roll:	14.178	Pitch:	2.599	Yaw:	-1.295	Thrust:	0.000
Time:	4.019	Roll Set Point:	-0.926	Pitch Set Point:	-0.119	Yaw Set Point:	-0.008	X_WP:	0.000	Y_WP:	0.000	Y_WP:	0.750	X:	0.463	Y:	0.062	Z:	0.776	yaw:	0.450	yaw rate:	-8.767	Roll:	14.574	Pitch:	1.854	Yaw:	0.024	Thrust:	0.000
Time:	4.037	Roll Set Point:	-0.927	Pitch Set Point:	-0.121	Yaw Set Point:	-0.006	X_WP:	0.000	Y_WP:	0.000	Y_WP:	0.750	X:	0.463	Y:	0.062	Z:	0.776	yaw:	0.344	yaw rate:	10.585	Roll:	14.117	Pitch:	3.232	Yaw:	-2.401	Thrust:	0.000
Time:	4.058	Roll Set Point:	-0.927	Pitch Set Point:	-0.120	Yaw Set Point:	-0.009	X_WP:	0.000	Y_WP:	0.000	Y_WP:	0.750	X:	0.463	Y:	0.062	Z:	0.777	yaw:	0.502	yaw rate:	-15.829	Roll:	14.468	Pitch:	1.488	Yaw:	1.279	Thrust:	0.000
Time:	4.077	Roll Set Point:	-0.927	Pitch Set Point:	-0.119	Yaw Set Point:	-0.011	X_WP:	0.000	Y_WP:	0.000	Y_WP:	0.750	X:	0.463	Y:	0.062	Z:	0.777	yaw:	0.658	yaw rate:	-15.643	Roll:	14.417	Pitch:	1.277	Yaw:	1.525	Thrust:	0.000
Time:	4.096	Roll Set Point:	-0.928	Pitch Set Point:	-0.118	Yaw Set Point:	-0.014	X_WP:	0.000	Y_WP:	0.000	Y_WP:	0.750	X:	0.464	Y:	0.062	Z:	0.776	yaw:	0.803	yaw rate:	-14.502	Roll:	14.452	Pitch:	1.247	Yaw:	1.586	Thrust:	0.000
Time:	4.118	Roll Set Point:	-0.929	Pitch Set Point:	-0.118	Yaw Set Point:	-0.012	X_WP:	0.000	Y_WP:	0.000	Y_WP:	0.750	X:	0.464	Y:	0.062	Z:	0.776	yaw:	0.703	yaw rate:	10.036	Roll:	14.561	Pitch:	2.939	Yaw:	-1.823	Thrust:	0.000
Time:	4.136	Roll Set Point:	-0.929	Pitch Set Point:	-0.118	Yaw Set Point:	-0.012	X_WP:	0.000	Y_WP:	0.000	Y_WP:	0.750	X:	0.464	Y:	0.062	Z:	0.776	yaw:	0.683	yaw rate:	1.966	Roll:	14.384	Pitch:	2.330	Yaw:	-0.700	Thrust:	0.000
Time:	4.160	Roll Set Point:	-0.930	Pitch Set Point:	-0.119	Yaw Set Point:	-0.009	X_WP:	0.000	Y_WP:	0.000	Y_WP:	0.750	X:	0.465	Y:	0.062	Z:	0.777	yaw:	0.538	yaw rate:	14.541	Roll:	14.752	Pitch:	3.050	Yaw:	-2.591	Thrust:	0.000
Time:	4.177	Roll Set Point:	-0.931	Pitch Set Point:	-0.118	Yaw Set Point:	-0.011	X_WP:	0.000	Y_WP:	0.000	Y_WP:	0.750	X:	0.465	Y:	0.062	Z:	0.777	yaw:	0.627	yaw rate:	-8.880	Roll:	14.591	Pitch:	1.600	Yaw:	0.986	Thrust:	0.000
Time:	4.198	Roll Set Point:	-0.932	Pitch Set Point:	-0.117	Yaw Set Point:	-0.015	X_WP:	0.000	Y_WP:	0.000	Y_WP:	0.750	X:	0.465	Y:	0.062	Z:	0.776	yaw:	0.838	yaw rate:	-21.100	Roll:	14.551	Pitch:	1.147	Yaw:	2.283	Thrust:	0.000
Time:	4.217	Roll Set Point:	-0.930	Pitch Set Point:	-0.128	Yaw Set Point:	0.005	X_WP:	0.000	Y_WP:	0.000	Y_WP:	0.750	X:	0.465	Y:	0.063	Z:	0.777	yaw:	-0.312	yaw rate:	114.947	Roll:	13.053	Pitch:	11.150	Yaw:	-17.619	Thrust:	0.000
Time:	4.236	Roll Set Point:	-0.931	Pitch Set Point:	-0.126	Yaw Set Point:	0.001	X_WP:	0.000	Y_WP:	0.000	Y_WP:	0.750	X:	0.466	Y:	0.063	Z:	0.777	yaw:	-0.034	yaw rate:	-27.798	Roll:	14.800	Pitch:	0.894	Yaw:	2.288	Thrust:	0.000
Time:	4.257	Roll Set Point:	-0.932	Pitch Set Point:	-0.127	Yaw Set Point:	0.002	X_WP:	0.000	Y_WP:	0.000	Y_WP:	0.750	X:	0.466	Y:	0.063	Z:	0.777	yaw:	-0.140	yaw rate:	10.671	Roll:	14.358	Pitch:	3.336	Yaw:	-3.049	Thrust:	0.000
Time:	4.277	Roll Set Point:	-0.932	Pitch Set Point:	-0.127	Yaw Set Point:	0.000	X_WP:	0.000	Y_WP:	0.000	Y_WP:	0.750	X:	0.466	Y:	0.063	Z:	0.777	yaw:	-0.022	yaw rate:	-11.882	Roll:	14.565	Pitch:	1.900	Yaw:	0.028	Thrust:	0.000
Time:	4.297	Roll Set Point:	-0.933	Pitch Set Point:	-0.126	Yaw Set Point:	-0.001	X_WP:	0.000	Y_WP:	0.000	Y_WP:	0.750	X:	0.466	Y:	0.063	Z:	0.777	yaw:	0.050	yaw rate:	-7.188	Roll:	14.458	Pitch:	1.869	Yaw:	-0.445	Thrust:	0.000
Time:	4.317	Roll Set Point:	-0.933	Pitch Set Point:	-0.126	Yaw Set Point:	-0.001	X_WP:	0.000	Y_WP:	0.000	Y_WP:	0.750	X:	0.466	Y:	0.063	Z:	0.777	yaw:	0.033	yaw rate:	1.715	Roll:	14.263	Pitch:	2.576	Yaw:	-1.624	Thrust:	0.000
Time:	4.337	Roll Set Point:	-0.933	Pitch Set Point:	-0.125	Yaw Set Point:	-0.002	X_WP:	0.000	Y_WP:	0.000	Y_WP:	0.750	X:	0.466	Y:	0.063	Z:	0.776	yaw:	0.118	yaw rate:	-8.524	Roll:	14.559	Pitch:	1.813	Yaw:	-0.231	Thrust:	0.000
Time:	4.358	Roll Set Point:	-0.933	Pitch Set Point:	-0.125	Yaw Set Point:	-0.002	X_WP:	0.000	Y_WP:	0.000	Y_WP:	0.750	X:	0.467	Y:	0.063	Z:	0.776	yaw:	0.120	yaw rate:	-0.146	Roll:	14.456	Pitch:	2.494	Yaw:	-1.346	Thrust:	0.000
Time:	4.377	Roll Set Point:	-0.934	Pitch Set Point:	-0.125	Yaw Set Point:	-0.001	X_WP:	0.000	Y_WP:	0.000	Y_WP:	0.750	X:	0.467	Y:	0.063	Z:	0.776	yaw:	0.081	yaw rate:	3.882	Roll:	14.367	Pitch:	2.793	Yaw:	-1.797	Thrust:	0.000
Time:	4.397	Roll Set Point:	-0.934	Pitch Set Point:	-0.125	Yaw Set Point:	-0.002	X_WP:	0.000	Y_WP:	0.000	Y_WP:	0.750	X:	0.467	Y:	0.063	Z:	0.776	yaw:	0.089	yaw rate:	-0.840	Roll:	14.519	Pitch:	2.392	Yaw:	-1.248	Thrust:	0.000
Time:	4.417	Roll Set Point:	-0.935	Pitch Set Point:	-0.126	Yaw Set Point:	0.001	X_WP:	0.000	Y_WP:	0.000	Y_WP:	0.750	X:	0.467	Y:	0.063	Z:	0.776	yaw:	-0.053	yaw rate:	14.235	Roll:	14.419	Pitch:	3.607	Yaw:	-3.406	Thrust:	0.000
Time:	4.437	Roll Set Point:	-0.935	Pitch Set Point:	-0.129	Yaw Set Point:	0.006	X_WP:	0.000	Y_WP:	0.000	Y_WP:	0.750	X:	0.468	Y:	0.063	Z:	0.776	yaw:	-0.369	yaw rate:	31.608	Roll:	14.283	Pitch:	4.695	Yaw:	-6.074	Thrust:	0.000
Time:	4.457	Roll Set Point:	-0.936	Pitch Set Point:	-0.126	Yaw Set Point:	0.002	X_WP:	0.000	Y_WP:	0.000	Y_WP:	0.750	X:	0.468	Y:	0.063	Z:	0.777	yaw:	-0.113	yaw rate:	-25.605	Roll:	14.777	Pitch:	0.715	Yaw:	1.803	Thrust:	0.000
Time:	4.476	Roll Set Point:	-0.936	Pitch Set Point:	-0.124	Yaw Set Point:	-0.003	X_WP:	0.000	Y_WP:	0.000	Y_WP:	0.750	X:	0.468	Y:	0.063	Z:	0.777	yaw:	0.173	yaw rate:	-28.639	Roll:	14.752	Pitch:	0.615	Yaw:	2.581	Thrust:	0.000
Time:	4.496	Roll Set Point:	-0.937	Pitch Set Point:	-0.124	Yaw Set Point:	-0.004	X_WP:	0.000	Y_WP:	0.000	Y_WP:	0.750	X:	0.469	Y:	0.063	Z:	0.777	yaw:	0.215	yaw rate:	-4.147	Roll:	14.718	Pitch:	2.349	Yaw:	-0.602	Thrust:	0.000
Time:	4.516	Roll Set Point:	-0.938	Pitch Set Point:	-0.125	Yaw Set Point:	-0.003	X_WP:	0.000	Y_WP:	0.000	Y_WP:	0.750	X:	0.469	Y:	0.063	Z:	0.777	yaw:	0.160	yaw rate:	5.497	Roll:	14.637	Pitch:	3.011	Yaw:	-1.947	Thrust:	0.000
Time:	4.536	Roll Set Point:	-0.939	Pitch Set Point:	-0.126	Yaw Set Point:	-0.002	X_WP:	0.000	Y_WP:	0.000	Y_WP:	0.750	X:	0.469	Y:	0.063	Z:	0.777	yaw:	0.088	yaw rate:	7.216	Roll:	14.772	Pitch:	3.189	Yaw:	-2.275	Thrust:	0.000
Time:	4.559	Roll Set Point:	-0.940	Pitch Set Point:	-0.127	Yaw Set Point:	-0.000	X_WP:	0.000	Y_WP:	0.000	Y_WP:	0.750	X:	0.470	Y:	0.063	Z:	0.777	yaw:	0.024	yaw rate:	6.372	Roll:	14.749	Pitch:	3.064	Yaw:	-2.370	Thrust:	0.000
Time:	4.577	Roll Set Point:	-0.940	Pitch Set Point:	-0.129	Yaw Set Point:	0.006	X_WP:	0.000	Y_WP:	0.000	Y_WP:	0.750	X:	0.470	Y:	0.063	Z:	0.777	yaw:	-0.347	yaw rate:	37.104	Roll:	14.151	Pitch:	5.323	Yaw:	-7.283	Thrust:	0.000
Time:	4.597	Roll Set Point:	-0.941	Pitch Set Point:	-0.124	Yaw Set Point:	-0.005	X_WP:	0.000	Y_WP:	0.000	Y_WP:	0.750	X:	0.470	Y:	0.063	Z:	0.777	yaw:	0.271	yaw rate:	-61.846	Roll:	15.255	Pitch:	-2.035	Yaw:	7.015	Thrust:	0.000
Time:	4.617	Roll Set Point:	-0.942	Pitch Set Point:	-0.123	Yaw Set Point:	-0.007	X_WP:	0.000	Y_WP:	0.000	Y_WP:	0.750	X:	0.471	Y:	0.063	Z:	0.776	yaw:	0.403	yaw rate:	-13.133	Roll:	14.739	Pitch:	1.380	Yaw:	0.900	Thrust:	0.000
Time:	4.637	Roll Set Point:	-0.943	Pitch Set Point:	-0.123	Yaw Set Point:	-0.005	X_WP:	0.000	Y_WP:	0.000	Y_WP:	0.750	X:	0.471	Y:	0.063	Z:	0.775	yaw:	0.304	yaw rate:	9.873	Roll:	14.652	Pitch:	2.880	Yaw:	-2.317	Thrust:	0.000
Time:	4.659	Roll Set Point:	-0.945	Pitch Set Point:	-0.114	Yaw Set Point:	-0.022	X_WP:	0.000	Y_WP:	0.000	Y_WP:	0.750	X:	0.472	Y:	0.062	Z:	0.775	yaw:	1.245	yaw rate:	-94.109	Roll:	15.838	Pitch:	-4.015	Yaw:	11.357	Thrust:	0.000
Time:	4.677	Roll Set Point:	-0.944	Pitch Set Point:	-0.124	Yaw Set Point:	-0.001	X_WP:	0.000	Y_WP:	0.000	Y_WP:	0.750	X:	0.472	Y:	0.062	Z:	0.775	yaw:	0.055	yaw rate:	119.060	Roll:	13.292	Pitch:	12.021	Yaw:	-18.577	Thrust:	0.000
Time:	4.697	Roll Set Point:	-0.946	Pitch Set Point:	-0.112	Yaw Set Point:	-0.023	X_WP:	0.000	Y_WP:	0.000	Y_WP:	0.750	X:	0.472	Y:	0.061	Z:	0.775	yaw:	1.324	yaw rate:	-126.994	Roll:	15.840	Pitch:	-7.111	Yaw:	16.760	Thrust:	0.000
Time:	4.716	Roll Set Point:	-0.946	Pitch Set Point:	-0.113	Yaw Set Point:	-0.020	X_WP:	0.000	Y_WP:	0.000	Y_WP:	0.750	X:	0.472	Y:	0.061	Z:	0.775	yaw:	1.128	yaw rate:	19.602	Roll:	14.366	Pitch:	3.587	Yaw:	-2.447	Thrust:	0.000
Time:	4.737	Roll Set Point:	-0.945	Pitch Set Point:	-0.115	Yaw Set Point:	-0.017	X_WP:	0.000	Y_WP:	0.000	Y_WP:	0.750	X:	0.472	Y:	0.061	Z:	0.775	yaw:	0.971	yaw rate:	15.772	Roll:	14.306	Pitch:	3.561	Yaw:	-2.140	Thrust:	0.000
Time:	4.767	Roll Set Point:	-0.944	Pitch Set Point:	-0.125	Yaw Set Point:	0.002	X_WP:	0.000	Y_WP:	0.000	Y_WP:	0.750	X:	0.472	Y:	0.062	Z:	0.775	yaw:	-0.114	yaw rate:	108.457	Roll:	13.827	Pitch:	8.900	Yaw:	-11.470	Thrust:	0.000
Time:	4.779	Roll Set Point:	-0.944	Pitch Set Point:	-0.124	Yaw Set Point:	-0.000	X_WP:	0.000	Y_WP:	0.000	Y_WP:	0.750	X:	0.472	Y:	0.062	Z:	0.776	yaw:	0.000	yaw rate:	-11.423	Roll:	14.566	Pitch:	1.645	Yaw:	1.635	Thrust:	0.000
Time:	4.798	Roll Set Point:	-0.944	Pitch Set Point:	-0.124	Yaw Set Point:	-0.001	X_WP:	0.000	Y_WP:	0.000	Y_WP:	0.750	X:	0.472	Y:	0.062	Z:	0.776	yaw:	0.081	yaw rate:	-8.094	Roll:	14.430	Pitch:	1.959	Yaw:	-0.016	Thrust:	0.000
Time:	4.816	Roll Set Point:	-0.944	Pitch Set Point:	-0.125	Yaw Set Point:	0.001	X_WP:	0.000	Y_WP:	0.000	Y_WP:	0.750	X:	0.472	Y:	0.062	Z:	0.776	yaw:	-0.036	yaw rate:	11.691	Roll:	14.171	Pitch:	3.405	Yaw:	-3.009	Thrust:	0.000
Time:	4.836	Roll Set Point:	-0.944	Pitch Set Point:	-0.125	Yaw Set Point:	0.001	X_WP:	0.000	Y_WP:	0.000	Y_WP:	0.750	X:	0.472	Y:	0.062	Z:	0.776	yaw:	-0.044	yaw rate:	0.865	Roll:	14.328	Pitch:	2.573	Yaw:	-1.576	Thrust:	0.000
Time:	4.857	Roll Set Point:	-0.943	Pitch Set Point:	-0.126	Yaw Set Point:	0.004	X_WP:	0.000	Y_WP:	0.000	Y_WP:	0.750	X:	0.472	Y:	0.062	Z:	0.776	yaw:	-0.207	yaw rate:	16.287	Roll:	14.278	Pitch:	3.527	Yaw:	-3.802	Thrust:	0.000
Time:	4.876	Roll Set Point:	-0.943	Pitch Set Point:	-0.127	Yaw Set Point:	0.007	X_WP:	0.000	Y_WP:	0.000	Y_WP:	0.750	X:	0.472	Y:	0.062	Z:	0.776	yaw:	-0.391	yaw rate:	18.378	Roll:	14.163	Pitch:	3.781	Yaw:	-4.432	Thrust:	0.000
Time:	4.896	Roll Set Point:	-0.943	Pitch Set Point:	-0.126	Yaw Set Point:	0.006	X_WP:	0.000	Y_WP:	0.000	Y_WP:	0.750	X:	0.472	Y:	0.062	Z:	0.775	yaw:	-0.336	yaw rate:	-5.436	Roll:	14.430	Pitch:	2.134	Yaw:	-1.179	Thrust:	0.000
Time:	4.917	Roll Set Point:	-0.943	Pitch Set Point:	-0.129	Yaw Set Point:	0.012	X_WP:	0.000	Y_WP:	0.000	Y_WP:	0.750	X:	0.472	Y:	0.062	Z:	0.776	yaw:	-0.708	yaw rate:	37.171	Roll:	14.087	Pitch:	5.004	Yaw:	-7.094	Thrust:	0.000
Time:	4.937	Roll Set Point:	-0.943	Pitch Set Point:	-0.127	Yaw Set Point:	0.007	X_WP:	0.000	Y_WP:	0.000	Y_WP:	0.750	X:	0.472	Y:	0.062	Z:	0.775	yaw:	-0.405	yaw rate:	-30.348	Roll:	14.672	Pitch:	0.648	Yaw:	1.943	Thrust:	0.000
Time:	4.958	Roll Set Point:	-0.943	Pitch Set Point:	-0.127	Yaw Set Point:	0.007	X_WP:	0.000	Y_WP:	0.000	Y_WP:	0.750	X:	0.472	Y:	0.062	Z:	0.776	yaw:	-0.403	yaw rate:	-0.141	Roll:	14.580	Pitch:	2.668	Yaw:	-2.007	Thrust:	0.000
Time:	4.977	Roll Set Point:	-0.944	Pitch Set Point:	-0.127	Yaw Set Point:	0.008	X_WP:	0.000	Y_WP:	0.000	Y_WP:	0.750	X:	0.472	Y:	0.061	Z:	0.776	yaw:	-0.472	yaw rate:	6.893	Roll:	14.641	Pitch:	2.863	Yaw:	-2.973	Thrust:	0.000
Time:	5.000	Roll Set Point:	-0.945	Pitch Set Point:	-0.125	Yaw Set Point:	0.005	X_WP:	0.000	Y_WP:	0.000	Y_WP:	0.750	X:	0.473	Y:	0.061	Z:	0.776	yaw:	-0.309	yaw rate:	-16.339	Roll:	15.008	Pitch:	1.636	Yaw:	-0.108	Thrust:	0.000
Time:	5.018	Roll Set Point:	-0.946	Pitch Set Point:	-0.123	Yaw Set Point:	0.000	X_WP:	0.000	Y_WP:	0.000	Y_WP:	0.750	X:	0.473	Y:	0.062	Z:	0.776	yaw:	-0.020	yaw rate:	-28.922	Roll:	15.071	Pitch:	0.293	Yaw:	3.126	Thrust:	0.000
Time:	5.039	Roll Set Point:	-0.947	Pitch Set Point:	-0.126	Yaw Set Point:	0.006	X_WP:	0.000	Y_WP:	0.000	Y_WP:	0.750	X:	0.473	Y:	0.062	Z:	0.776	yaw:	-0.325	yaw rate:	30.568	Roll:	14.534	Pitch:	5.002	Yaw:	-5.711	Thrust:	0.000
Time:	5.063	Roll Set Point:	-0.948	Pitch Set Point:	-0.125	Yaw Set Point:	0.003	X_WP:	0.000	Y_WP:	0.000	Y_WP:	0.750	X:	0.474	Y:	0.062	Z:	0.776	yaw:	-0.155	yaw rate:	-16.986	Roll:	15.330	Pitch:	1.629	Yaw:	-0.103	Thrust:	0.000
Time:	5.081	Roll Set Point:	-0.951	Pitch Set Point:	-0.116	Yaw Set Point:	-0.014	X_WP:	0.000	Y_WP:	0.000	Y_WP:	0.750	X:	0.475	Y:	0.061	Z:	0.777	yaw:	0.802	yaw rate:	-95.786	Roll:	16.149	Pitch:	-5.614	Yaw:	13.787	Thrust:	0.000
Time:	5.100	Roll Set Point:	-0.952	Pitch Set Point:	-0.114	Yaw Set Point:	-0.018	X_WP:	0.000	Y_WP:	0.000	Y_WP:	0.750	X:	0.475	Y:	0.061	Z:	0.776	yaw:	1.018	yaw rate:	-21.594	Roll:	15.030	Pitch:	0.815	Yaw:	2.905	Thrust:	0.000
Time:	5.118	Roll Set Point:	-0.953	Pitch Set Point:	-0.113	Yaw Set Point:	-0.020	X_WP:	0.000	Y_WP:	0.000	Y_WP:	0.750	X:	0.476	Y:	0.061	Z:	0.776	yaw:	1.153	yaw rate:	-13.496	Roll:	15.111	Pitch:	1.025	Yaw:	2.270	Thrust:	0.000
Time:	5.139	Roll Set Point:	-0.955	Pitch Set Point:	-0.112	Yaw Set Point:	-0.021	X_WP:	0.000	Y_WP:	0.000	Y_WP:	0.750	X:	0.477	Y:	0.061	Z:	0.776	yaw:	1.177	yaw rate:	-2.371	Roll:	15.269	Pitch:	2.048	Yaw:	0.495	Thrust:	0.000
Time:	5.160	Roll Set Point:	-0.956	Pitch Set Point:	-0.111	Yaw Set Point:	-0.022	X_WP:	0.000	Y_WP:	0.000	Y_WP:	0.750	X:	0.477	Y:	0.061	Z:	0.776	yaw:	1.276	yaw rate:	-9.863	Roll:	15.150	Pitch:	1.400	Yaw:	1.510	Thrust:	0.000
Time:	5.179	Roll Set Point:	-0.957	Pitch Set Point:	-0.110	Yaw Set Point:	-0.022	X_WP:	0.000	Y_WP:	0.000	Y_WP:	0.750	X:	0.478	Y:	0.060	Z:	0.776	yaw:	1.282	yaw rate:	-0.627	Roll:	15.006	Pitch:	1.695	Yaw:	0.562	Thrust:	0.000
Time:	5.200	Roll Set Point:	-0.956	Pitch Set Point:	-0.120	Yaw Set Point:	-0.004	X_WP:	0.000	Y_WP:	0.000	Y_WP:	0.750	X:	0.478	Y:	0.061	Z:	0.776	yaw:	0.240	yaw rate:	104.159	Roll:	13.815	Pitch:	9.738	Yaw:	-14.236	Thrust:	0.000
Time:	5.220	Roll Set Point:	-0.958	Pitch Set Point:	-0.109	Yaw Set Point:	-0.025	X_WP:	0.000	Y_WP:	0.000	Y_WP:	0.750	X:	0.478	Y:	0.060	Z:	0.775	yaw:	1.411	yaw rate:	-117.075	Roll:	16.077	Pitch:	-6.720	Yaw:	15.855	Thrust:	0.000
Time:	5.239	Roll Set Point:	-0.957	Pitch Set Point:	-0.119	Yaw Set Point:	-0.004	X_WP:	0.000	Y_WP:	0.000	Y_WP:	0.750	X:	0.478	Y:	0.061	Z:	0.775	yaw:	0.241	yaw rate:	117.051	Roll:	13.515	Pitch:	11.112	Yaw:	-16.675	Thrust:	0.000
Time:	5.261	Roll Set Point:	-0.959	Pitch Set Point:	-0.107	Yaw Set Point:	-0.027	X_WP:	0.000	Y_WP:	0.000	Y_WP:	0.750	X:	0.479	Y:	0.060	Z:	0.775	yaw:	1.550	yaw rate:	-130.919	Roll:	16.099	Pitch:	-7.360	Yaw:	16.725	Thrust:	0.000
Time:	5.278	Roll Set Point:	-0.959	Pitch Set Point:	-0.108	Yaw Set Point:	-0.026	X_WP:	0.000	Y_WP:	0.000	Y_WP:	0.750	X:	0.479	Y:	0.060	Z:	0.776	yaw:	1.464	yaw rate:	8.545	Roll:	14.890	Pitch:	2.491	Yaw:	-0.432	Thrust:	0.000
Time:	5.300	Roll Set Point:	-0.959	Pitch Set Point:	-0.108	Yaw Set Point:	-0.024	X_WP:	0.000	Y_WP:	0.000	Y_WP:	0.750	X:	0.479	Y:	0.060	Z:	0.776	yaw:	1.373	yaw rate:	9.091	Roll:	14.795	Pitch:	2.695	Yaw:	-0.673	Thrust:	0.000
Time:	5.318	Roll Set Point:	-0.957	Pitch Set Point:	-0.119	Yaw Set Point:	-0.003	X_WP:	0.000	Y_WP:	0.000	Y_WP:	0.750	X:	0.478	Y:	0.060	Z:	0.775	yaw:	0.146	yaw rate:	122.698	Roll:	12.900	Pitch:	12.966	Yaw:	-19.640	Thrust:	0.000
Time:	5.337	Roll Set Point:	-0.957	Pitch Set Point:	-0.118	Yaw Set Point:	-0.003	X_WP:	0.000	Y_WP:	0.000	Y_WP:	0.750	X:	0.479	Y:	0.060	Z:	0.775	yaw:	0.170	yaw rate:	-2.375	Roll:	14.682	Pitch:	2.238	Yaw:	-0.777	Thrust:	0.000
Time:	5.358	Roll Set Point:	-0.957	Pitch Set Point:	-0.117	Yaw Set Point:	-0.004	X_WP:	0.000	Y_WP:	0.000	Y_WP:	0.750	X:	0.479	Y:	0.060	Z:	0.775	yaw:	0.257	yaw rate:	-8.671	Roll:	14.772	Pitch:	1.738	Yaw:	0.113	Thrust:	0.000
