Time:	0.038	Roll Set Point:	-0.428	Pitch Set Point:	-1.879	Yaw Set Point:	-1.010	X_WP:	0.000	Y_WP:	0.000	Y_WP:	0.500	X:	-0.305	Y:	1.058	Z:	0.052	yaw:	57.866	yaw rate:	16.738	Roll:	21.273	Pitch:	23.819	Yaw:	80.796	Thrust:	24.643
Time:	0.054	Roll Set Point:	-0.428	Pitch Set Point:	-1.881	Yaw Set Point:	-1.010	X_WP:	0.000	Y_WP:	0.000	Y_WP:	0.500	X:	-0.306	Y:	1.059	Z:	0.052	yaw:	57.857	yaw rate:	0.888	Roll:	21.450	Pitch:	24.729	Yaw:	80.992	Thrust:	25.195
Time:	0.071	Roll Set Point:	-0.423	Pitch Set Point:	-1.885	Yaw Set Point:	-1.003	X_WP:	0.000	Y_WP:	0.000	Y_WP:	0.500	X:	-0.305	Y:	1.058	Z:	0.052	yaw:	57.481	yaw rate:	37.608	Roll:	16.090	Pitch:	28.207	Yaw:	75.357	Thrust:	26.871
Time:	0.093	Roll Set Point:	-0.424	Pitch Set Point:	-1.884	Yaw Set Point:	-1.005	X_WP:	0.000	Y_WP:	0.000	Y_WP:	0.500	X:	-0.306	Y:	1.058	Z:	0.052	yaw:	57.604	yaw rate:	-12.341	Roll:	22.708	Pitch:	22.942	Yaw:	83.238	Thrust:	28.221
Time:	0.114	Roll Set Point:	-0.421	Pitch Set Point:	-1.886	Yaw Set Point:	-1.001	X_WP:	0.000	Y_WP:	0.000	Y_WP:	0.500	X:	-0.305	Y:	1.058	Z:	0.052	yaw:	57.341	yaw rate:	26.340	Roll:	17.662	Pitch:	26.334	Yaw:	78.246	Thrust:	29.430
Time:	0.132	Roll Set Point:	-0.427	Pitch Set Point:	-1.880	Yaw Set Point:	-1.009	X_WP:	0.000	Y_WP:	0.000	Y_WP:	0.500	X:	-0.305	Y:	1.058	Z:	0.052	yaw:	57.803	yaw rate:	-46.225	Roll:	27.448	Pitch:	18.885	Yaw:	89.189	Thrust:	28.494
Time:	0.152	Roll Set Point:	-0.424	Pitch Set Point:	-1.884	Yaw Set Point:	-1.005	X_WP:	0.000	Y_WP:	0.000	Y_WP:	0.500	X:	-0.306	Y:	1.059	Z:	0.052	yaw:	57.586	yaw rate:	21.662	Roll:	19.126	Pitch:	26.735	Yaw:	79.932	Thrust:	31.844
Time:	0.172	Roll Set Point:	-0.416	Pitch Set Point:	-1.891	Yaw Set Point:	-0.995	X_WP:	0.000	Y_WP:	0.000	Y_WP:	0.500	X:	-0.306	Y:	1.058	Z:	0.052	yaw:	57.024	yaw rate:	56.290	Roll:	13.957	Pitch:	30.000	Yaw:	73.792	Thrust:	31.506
Time:	0.193	Roll Set Point:	-0.410	Pitch Set Point:	-1.897	Yaw Set Point:	-0.988	X_WP:	0.000	Y_WP:	0.000	Y_WP:	0.500	X:	-0.306	Y:	1.059	Z:	0.052	yaw:	56.599	yaw rate:	42.430	Roll:	15.964	Pitch:	29.120	Yaw:	75.860	Thrust:	33.511
Time:	0.213	Roll Set Point:	-0.422	Pitch Set Point:	-1.886	Yaw Set Point:	-1.004	X_WP:	0.000	Y_WP:	0.000	Y_WP:	0.500	X:	-0.306	Y:	1.059	Z:	0.053	yaw:	57.514	yaw rate:	-91.481	Roll:	30.000	Pitch:	15.341	Yaw:	94.001	Thrust:	33.808
Time:	0.234	Roll Set Point:	-0.427	Pitch Set Point:	-1.880	Yaw Set Point:	-1.009	X_WP:	0.000	Y_WP:	0.000	Y_WP:	0.500	X:	-0.305	Y:	1.058	Z:	0.052	yaw:	57.806	yaw rate:	-29.234	Roll:	24.873	Pitch:	20.036	Yaw:	86.493	Thrust:	36.839
Time:	0.253	Roll Set Point:	-0.409	Pitch Set Point:	-1.897	Yaw Set Point:	-0.986	X_WP:	0.000	Y_WP:	0.000	Y_WP:	0.500	X:	-0.306	Y:	1.059	Z:	0.052	yaw:	56.521	yaw rate:	128.570	Roll:	5.066	Pitch:	30.000	Yaw:	63.665	Thrust:	35.283
Time:	0.270	Roll Set Point:	-0.410	Pitch Set Point:	-1.896	Yaw Set Point:	-0.988	X_WP:	0.000	Y_WP:	0.000	Y_WP:	0.500	X:	-0.306	Y:	1.058	Z:	0.052	yaw:	56.626	yaw rate:	-10.511	Roll:	22.646	Pitch:	23.269	Yaw:	82.383	Thrust:	35.949
Time:	0.292	Roll Set Point:	-0.409	Pitch Set Point:	-1.897	Yaw Set Point:	-0.987	X_WP:	0.000	Y_WP:	0.000	Y_WP:	0.500	X:	-0.306	Y:	1.058	Z:	0.052	yaw:	56.561	yaw rate:	6.486	Roll:	20.483	Pitch:	25.538	Yaw:	80.363	Thrust:	39.543
Time:	0.316	Roll Set Point:	-0.425	Pitch Set Point:	-1.883	Yaw Set Point:	-1.006	X_WP:	0.000	Y_WP:	0.000	Y_WP:	0.500	X:	-0.306	Y:	1.058	Z:	0.052	yaw:	57.652	yaw rate:	-109.115	Roll:	30.000	Pitch:	14.721	Yaw:	95.046	Thrust:	42.517
Time:	0.331	Roll Set Point:	-0.418	Pitch Set Point:	-1.888	Yaw Set Point:	-0.998	X_WP:	0.000	Y_WP:	0.000	Y_WP:	0.500	X:	-0.305	Y:	1.058	Z:	0.052	yaw:	57.174	yaw rate:	47.847	Roll:	14.399	Pitch:	30.000	Yaw:	73.648	Thrust:	38.156
Time:	0.352	Roll Set Point:	-0.407	Pitch Set Point:	-1.898	Yaw Set Point:	-0.984	X_WP:	0.000	Y_WP:	0.000	Y_WP:	0.500	X:	-0.305	Y:	1.058	Z:	0.052	yaw:	56.382	yaw rate:	79.164	Roll:	11.862	Pitch:	30.000	Yaw:	70.851	Thrust:	41.630
Time:	0.371	Roll Set Point:	-0.406	Pitch Set Point:	-1.899	Yaw Set Point:	-0.984	X_WP:	0.000	Y_WP:	0.000	Y_WP:	0.500	X:	-0.306	Y:	1.058	Z:	0.052	yaw:	56.362	yaw rate:	2.014	Roll:	21.003	Pitch:	25.477	Yaw:	80.324	Thrust:	41.922
Time:	0.392	Roll Set Point:	-0.389	Pitch Set Point:	-1.912	Yaw Set Point:	-0.962	X_WP:	0.000	Y_WP:	0.000	Y_WP:	0.500	X:	-0.304	Y:	1.057	Z:	0.052	yaw:	55.106	yaw rate:	125.601	Roll:	4.990	Pitch:	30.000	Yaw:	63.007	Thrust:	45.200
Time:	0.414	Roll Set Point:	-0.393	Pitch Set Point:	-1.908	Yaw Set Point:	-0.966	X_WP:	0.000	Y_WP:	0.000	Y_WP:	0.500	X:	-0.304	Y:	1.057	Z:	0.052	yaw:	55.328	yaw rate:	-22.228	Roll:	23.517	Pitch:	22.627	Yaw:	82.122	Thrust:	46.957
Time:	0.431	Roll Set Point:	-0.369	Pitch Set Point:	-1.926	Yaw Set Point:	-0.938	X_WP:	0.000	Y_WP:	0.000	Y_WP:	0.500	X:	-0.303	Y:	1.057	Z:	0.052	yaw:	53.716	yaw rate:	161.187	Roll:	-2.005	Pitch:	30.000	Yaw:	53.432	Thrust:	43.332
Time:	0.452	Roll Set Point:	-0.378	Pitch Set Point:	-1.920	Yaw Set Point:	-0.947	X_WP:	0.000	Y_WP:	0.000	Y_WP:	0.500	X:	-0.303	Y:	1.057	Z:	0.052	yaw:	54.237	yaw rate:	-52.029	Roll:	27.405	Pitch:	20.636	Yaw:	84.298	Thrust:	47.143
Time:	0.471	Roll Set Point:	-0.363	Pitch Set Point:	-1.932	Yaw Set Point:	-0.930	X_WP:	0.000	Y_WP:	0.000	Y_WP:	0.500	X:	-0.303	Y:	1.057	Z:	0.053	yaw:	53.276	yaw rate:	96.094	Roll:	7.935	Pitch:	30.000	Yaw:	63.099	Thrust:	46.859
Time:	0.492	Roll Set Point:	-0.337	Pitch Set Point:	-1.950	Yaw Set Point:	-0.898	X_WP:	0.000	Y_WP:	0.000	Y_WP:	0.500	X:	-0.302	Y:	1.056	Z:	0.053	yaw:	51.465	yaw rate:	181.048	Roll:	-4.025	Pitch:	30.000	Yaw:	51.067	Thrust:	50.575
Time:	0.513	Roll Set Point:	-0.339	Pitch Set Point:	-1.948	Yaw Set Point:	-0.899	X_WP:	0.000	Y_WP:	0.000	Y_WP:	0.500	X:	-0.300	Y:	1.056	Z:	0.053	yaw:	51.516	yaw rate:	-5.071	Roll:	20.353	Pitch:	25.192	Yaw:	74.701	Thrust:	52.385
Time:	0.531	Roll Set Point:	-0.343	Pitch Set Point:	-1.946	Yaw Set Point:	-0.902	X_WP:	0.000	Y_WP:	0.000	Y_WP:	0.500	X:	-0.300	Y:	1.056	Z:	0.053	yaw:	51.705	yaw rate:	-18.916	Roll:	22.526	Pitch:	24.233	Yaw:	76.771	Thrust:	46.491
Time:	0.554	Roll Set Point:	-0.319	Pitch Set Point:	-1.963	Yaw Set Point:	-0.874	X_WP:	0.000	Y_WP:	0.000	Y_WP:	0.500	X:	-0.299	Y:	1.056	Z:	0.054	yaw:	50.096	yaw rate:	160.884	Roll:	0.260	Pitch:	30.000	Yaw:	53.751	Thrust:	55.858
Time:	0.575	Roll Set Point:	-0.290	Pitch Set Point:	-1.981	Yaw Set Point:	-0.841	X_WP:	0.000	Y_WP:	0.000	Y_WP:	0.500	X:	-0.298	Y:	1.055	Z:	0.054	yaw:	48.170	yaw rate:	192.622	Roll:	-7.965	Pitch:	30.000	Yaw:	44.784	Thrust:	52.803
Time:	0.593	Roll Set Point:	-0.264	Pitch Set Point:	-1.995	Yaw Set Point:	-0.810	X_WP:	0.000	Y_WP:	0.000	Y_WP:	0.500	X:	-0.296	Y:	1.054	Z:	0.055	yaw:	46.409	yaw rate:	176.043	Roll:	-8.798	Pitch:	30.000	Yaw:	41.824	Thrust:	49.961
Time:	0.616	Roll Set Point:	-0.245	Pitch Set Point:	-2.005	Yaw Set Point:	-0.787	X_WP:	0.000	Y_WP:	0.000	Y_WP:	0.500	X:	-0.294	Y:	1.053	Z:	0.057	yaw:	45.119	yaw rate:	129.095	Roll:	0.366	Pitch:	30.000	Yaw:	49.883	Thrust:	56.412
Time:	0.631	Roll Set Point:	-0.232	Pitch Set Point:	-2.010	Yaw Set Point:	-0.771	X_WP:	0.000	Y_WP:	0.000	Y_WP:	0.500	X:	-0.292	Y:	1.052	Z:	0.057	yaw:	44.178	yaw rate:	94.058	Roll:	0.350	Pitch:	30.000	Yaw:	47.395	Thrust:	47.717
Time:	0.652	Roll Set Point:	-0.173	Pitch Set Point:	-2.036	Yaw Set Point:	-0.706	X_WP:	0.000	Y_WP:	0.000	Y_WP:	0.500	X:	-0.289	Y:	1.050	Z:	0.059	yaw:	40.464	yaw rate:	371.388	Roll:	-30.000	Pitch:	30.000	Yaw:	13.453	Thrust:	54.931
Time:	0.671	Roll Set Point:	-0.150	Pitch Set Point:	-2.042	Yaw Set Point:	-0.681	X_WP:	0.000	Y_WP:	0.000	Y_WP:	0.500	X:	-0.286	Y:	1.048	Z:	0.061	yaw:	39.007	yaw rate:	145.663	Roll:	-7.799	Pitch:	30.000	Yaw:	36.655	Thrust:	54.864
Time:	0.692	Roll Set Point:	-0.109	Pitch Set Point:	-2.053	Yaw Set Point:	-0.636	X_WP:	0.000	Y_WP:	0.000	Y_WP:	0.500	X:	-0.284	Y:	1.044	Z:	0.062	yaw:	36.442	yaw rate:	256.509	Roll:	-25.679	Pitch:	30.000	Yaw:	19.392	Thrust:	55.591
Time:	0.716	Roll Set Point:	-0.021	Pitch Set Point:	-2.072	Yaw Set Point:	-0.546	X_WP:	0.000	Y_WP:	0.000	Y_WP:	0.500	X:	-0.279	Y:	1.039	Z:	0.064	yaw:	31.272	yaw rate:	517.083	Roll:	-30.000	Pitch:	30.000	Yaw:	-8.945	Thrust:	66.003
Time:	0.731	Roll Set Point:	0.034	Pitch Set Point:	-2.074	Yaw Set Point:	-0.489	X_WP:	0.000	Y_WP:	0.000	Y_WP:	0.500	X:	-0.275	Y:	1.033	Z:	0.065	yaw:	27.989	yaw rate:	328.249	Roll:	-30.000	Pitch:	30.000	Yaw:	-16.043	Thrust:	48.771
Time:	0.753	Roll Set Point:	0.081	Pitch Set Point:	-2.069	Yaw Set Point:	-0.438	X_WP:	0.000	Y_WP:	0.000	Y_WP:	0.500	X:	-0.271	Y:	1.026	Z:	0.066	yaw:	25.122	yaw rate:	286.684	Roll:	-30.000	Pitch:	30.000	Yaw:	2.752	Thrust:	63.447
Time:	0.775	Roll Set Point:	0.115	Pitch Set Point:	-2.056	Yaw Set Point:	-0.400	X_WP:	0.000	Y_WP:	0.000	Y_WP:	0.500	X:	-0.266	Y:	1.016	Z:	0.068	yaw:	22.940	yaw rate:	218.222	Roll:	-26.213	Pitch:	27.933	Yaw:	7.592	Thrust:	62.965
Time:	0.791	Roll Set Point:	0.118	Pitch Set Point:	-2.034	Yaw Set Point:	-0.390	X_WP:	0.000	Y_WP:	0.000	Y_WP:	0.500	X:	-0.260	Y:	1.005	Z:	0.069	yaw:	22.336	yaw rate:	60.408	Roll:	-4.449	Pitch:	18.942	Yaw:	23.513	Thrust:	54.995
Time:	0.815	Roll Set Point:	0.071	Pitch Set Point:	-2.001	Yaw Set Point:	-0.427	X_WP:	0.000	Y_WP:	0.000	Y_WP:	0.500	X:	-0.252	Y:	0.993	Z:	0.070	yaw:	24.468	yaw rate:	-213.166	Roll:	30.000	Pitch:	14.447	Yaw:	62.208	Thrust:	65.967
Time:	0.831	Roll Set Point:	0.038	Pitch Set Point:	-1.964	Yaw Set Point:	-0.448	X_WP:	0.000	Y_WP:	0.000	Y_WP:	0.500	X:	-0.243	Y:	0.978	Z:	0.071	yaw:	25.682	yaw rate:	-121.409	Roll:	27.551	Pitch:	8.472	Yaw:	55.388	Thrust:	59.427
Time:	0.852	Roll Set Point:	0.005	Pitch Set Point:	-1.925	Yaw Set Point:	-0.471	X_WP:	0.000	Y_WP:	0.000	Y_WP:	0.500	X:	-0.233	Y:	0.962	Z:	0.071	yaw:	26.960	yaw rate:	-127.863	Roll:	26.271	Pitch:	9.851	Yaw:	55.253	Thrust:	69.393
Time:	0.870	Roll Set Point:	-0.026	Pitch Set Point:	-1.881	Yaw Set Point:	-0.490	X_WP:	0.000	Y_WP:	0.000	Y_WP:	0.500	X:	-0.222	Y:	0.944	Z:	0.071	yaw:	28.082	yaw rate:	-112.156	Roll:	26.609	Pitch:	4.103	Yaw:	57.496	Thrust:	65.525
Time:	0.892	Roll Set Point:	-0.015	Pitch Set Point:	-1.844	Yaw Set Point:	-0.461	X_WP:	0.000	Y_WP:	0.000	Y_WP:	0.500	X:	-0.209	Y:	0.924	Z:	0.070	yaw:	26.412	yaw rate:	167.029	Roll:	-12.568	Pitch:	13.408	Yaw:	19.252	Thrust:	75.477
Time:	0.913	Roll Set Point:	0.033	Pitch Set Point:	-1.807	Yaw Set Point:	-0.389	X_WP:	0.000	Y_WP:	0.000	Y_WP:	0.500	X:	-0.195	Y:	0.900	Z:	0.070	yaw:	22.270	yaw rate:	414.195	Roll:	-30.000	Pitch:	16.394	Yaw:	-19.533	Thrust:	70.587
Time:	0.931	Roll Set Point:	0.107	Pitch Set Point:	-1.766	Yaw Set Point:	-0.287	X_WP:	0.000	Y_WP:	0.000	Y_WP:	0.500	X:	-0.181	Y:	0.875	Z:	0.069	yaw:	16.429	yaw rate:	584.019	Roll:	-30.000	Pitch:	12.020	Yaw:	-58.682	Thrust:	71.540
Time:	0.952	Roll Set Point:	0.210	Pitch Set Point:	-1.716	Yaw Set Point:	-0.150	X_WP:	0.000	Y_WP:	0.000	Y_WP:	0.500	X:	-0.169	Y:	0.850	Z:	0.070	yaw:	8.575	yaw rate:	785.405	Roll:	-30.000	Pitch:	5.396	Yaw:	-84.048	Thrust:	71.649
Time:	0.971	Roll Set Point:	0.306	Pitch Set Point:	-1.647	Yaw Set Point:	-0.009	X_WP:	0.000	Y_WP:	0.000	Y_WP:	0.500	X:	-0.157	Y:	0.823	Z:	0.071	yaw:	0.531	yaw rate:	804.475	Roll:	-30.000	Pitch:	-11.623	Yaw:	-108.029	Thrust:	69.883
Time:	0.992	Roll Set Point:	0.362	Pitch Set Point:	-1.570	Yaw Set Point:	0.093	X_WP:	0.000	Y_WP:	0.000	Y_WP:	0.500	X:	-0.145	Y:	0.794	Z:	0.072	yaw:	-5.317	yaw rate:	584.800	Roll:	-30.000	Pitch:	-15.877	Yaw:	-79.837	Thrust:	72.854
Time:	1.013	Roll Set Point:	0.390	Pitch Set Point:	-1.495	Yaw Set Point:	0.167	X_WP:	0.000	Y_WP:	0.000	Y_WP:	0.500	X:	-0.132	Y:	0.764	Z:	0.074	yaw:	-9.552	yaw rate:	423.482	Roll:	-30.000	Pitch:	-14.798	Yaw:	-63.920	Thrust:	75.099
Time:	1.031	Roll Set Point:	0.394	Pitch Set Point:	-1.420	Yaw Set Point:	0.218	X_WP:	0.000	Y_WP:	0.000	Y_WP:	0.500	X:	-0.119	Y:	0.732	Z:	0.076	yaw:	-12.465	yaw rate:	291.266	Roll:	-23.510	Pitch:	-19.477	Yaw:	-57.985	Thrust:	66.459
Time:	1.051	Roll Set Point:	0.382	Pitch Set Point:	-1.348	Yaw Set Point:	0.253	X_WP:	0.000	Y_WP:	0.000	Y_WP:	0.500	X:	-0.106	Y:	0.698	Z:	0.078	yaw:	-14.474	yaw rate:	200.881	Roll:	-9.402	Pitch:	-13.242	Yaw:	-44.429	Thrust:	72.977
Time:	1.071	Roll Set Point:	0.384	Pitch Set Point:	-1.265	Yaw Set Point:	0.316	X_WP:	0.000	Y_WP:	0.000	Y_WP:	0.500	X:	-0.091	Y:	0.663	Z:	0.081	yaw:	-18.123	yaw rate:	364.959	Roll:	-21.759	Pitch:	-21.854	Yaw:	-70.788	Thrust:	72.410
Time:	1.093	Roll Set Point:	0.342	Pitch Set Point:	-1.200	Yaw Set Point:	0.314	X_WP:	0.000	Y_WP:	0.000	Y_WP:	0.500	X:	-0.076	Y:	0.627	Z:	0.083	yaw:	-17.989	yaw rate:	-13.390	Roll:	13.929	Pitch:	-5.215	Yaw:	-21.787	Thrust:	78.317
Time:	1.116	Roll Set Point:	0.298	Pitch Set Point:	-1.133	Yaw Set Point:	0.316	X_WP:	0.000	Y_WP:	0.000	Y_WP:	0.500	X:	-0.059	Y:	0.590	Z:	0.086	yaw:	-18.086	yaw rate:	9.688	Roll:	14.265	Pitch:	-7.057	Yaw:	-24.661	Thrust:	81.136
Time:	1.133	Roll Set Point:	0.228	Pitch Set Point:	-1.073	Yaw Set Point:	0.275	X_WP:	0.000	Y_WP:	0.000	Y_WP:	0.500	X:	-0.040	Y:	0.552	Z:	0.088	yaw:	-15.774	yaw rate:	-231.218	Roll:	30.000	Pitch:	-4.807	Yaw:	14.683	Thrust:	67.878
Time:	1.152	Roll Set Point:	0.167	Pitch Set Point:	-1.010	Yaw Set Point:	0.249	X_WP:	0.000	Y_WP:	0.000	Y_WP:	0.500	X:	-0.020	Y:	0.515	Z:	0.089	yaw:	-14.243	yaw rate:	-153.109	Roll:	30.000	Pitch:	-9.013	Yaw:	2.516	Thrust:	77.486
Time:	1.172	Roll Set Point:	0.105	Pitch Set Point:	-0.942	Yaw Set Point:	0.226	X_WP:	0.000	Y_WP:	0.000	Y_WP:	0.500	X:	0.001	Y:	0.477	Z:	0.091	yaw:	-12.957	yaw rate:	-128.568	Roll:	30.000	Pitch:	-10.047	Yaw:	-0.359	Thrust:	77.270
Time:	1.191	Roll Set Point:	0.041	Pitch Set Point:	-0.872	Yaw Set Point:	0.199	X_WP:	0.000	Y_WP:	0.000	Y_WP:	0.500	X:	0.023	Y:	0.438	Z:	0.094	yaw:	-11.412	yaw rate:	-154.575	Roll:	30.000	Pitch:	-15.142	Yaw:	6.887	Thrust:	71.413
Time:	1.213	Roll Set Point:	-0.016	Pitch Set Point:	-0.798	Yaw Set Point:	0.190	X_WP:	0.000	Y_WP:	0.000	Y_WP:	0.500	X:	0.046	Y:	0.398	Z:	0.099	yaw:	-10.874	yaw rate:	-53.765	Roll:	27.212	Pitch:	-13.746	Yaw:	-7.796	Thrust:	82.397
Time:	1.231	Roll Set Point:	-0.076	Pitch Set Point:	-0.723	Yaw Set Point:	0.168	X_WP:	0.000	Y_WP:	0.000	Y_WP:	0.500	X:	0.069	Y:	0.358	Z:	0.104	yaw:	-9.642	yaw rate:	-123.227	Roll:	30.000	Pitch:	-22.512	Yaw:	5.169	Thrust:	66.113
Time:	1.251	Roll Set Point:	-0.133	Pitch Set Point:	-0.649	Yaw Set Point:	0.144	X_WP:	0.000	Y_WP:	0.000	Y_WP:	0.500	X:	0.090	Y:	0.320	Z:	0.110	yaw:	-8.247	yaw rate:	-139.495	Roll:	30.000	Pitch:	-19.457	Yaw:	7.714	Thrust:	71.455
Time:	1.271	Roll Set Point:	-0.181	Pitch Set Point:	-0.574	Yaw Set Point:	0.137	X_WP:	0.000	Y_WP:	0.000	Y_WP:	0.500	X:	0.110	Y:	0.281	Z:	0.117	yaw:	-7.825	yaw rate:	-42.120	Roll:	26.087	Pitch:	-20.717	Yaw:	-4.767	Thrust:	70.777
Time:	1.291	Roll Set Point:	-0.225	Pitch Set Point:	-0.501	Yaw Set Point:	0.120	X_WP:	0.000	Y_WP:	0.000	Y_WP:	0.500	X:	0.127	Y:	0.244	Z:	0.124	yaw:	-6.894	yaw rate:	-93.102	Roll:	25.161	Pitch:	-22.615	Yaw:	3.152	Thrust:	68.678
Time:	1.321	Roll Set Point:	-0.272	Pitch Set Point:	-0.426	Yaw Set Point:	0.070	X_WP:	0.000	Y_WP:	0.000	Y_WP:	0.500	X:	0.143	Y:	0.208	Z:	0.132	yaw:	-4.005	yaw rate:	-288.956	Roll:	22.727	Pitch:	-15.211	Yaw:	21.034	Thrust:	100.000
Time:	1.332	Roll Set Point:	-0.300	Pitch Set Point:	-0.358	Yaw Set Point:	0.074	X_WP:	0.000	Y_WP:	0.000	Y_WP:	0.500	X:	0.157	Y:	0.173	Z:	0.140	yaw:	-4.261	yaw rate:	25.573	Roll:	27.613	Pitch:	-30.000	Yaw:	-11.649	Thrust:	23.253
Time:	1.352	Roll Set Point:	-0.330	Pitch Set Point:	-0.288	Yaw Set Point:	0.040	X_WP:	0.000	Y_WP:	0.000	Y_WP:	0.500	X:	0.168	Y:	0.140	Z:	0.149	yaw:	-2.314	yaw rate:	-194.696	Roll:	21.485	Pitch:	-26.680	Yaw:	22.836	Thrust:	69.279
Time:	1.370	Roll Set Point:	-0.355	Pitch Set Point:	-0.219	Yaw Set Point:	0.007	X_WP:	0.000	Y_WP:	0.000	Y_WP:	0.500	X:	0.178	Y:	0.109	Z:	0.157	yaw:	-0.403	yaw rate:	-191.093	Roll:	18.656	Pitch:	-29.221	Yaw:	26.934	Thrust:	62.399
Time:	1.393	Roll Set Point:	-0.372	Pitch Set Point:	-0.150	Yaw Set Point:	-0.044	X_WP:	0.000	Y_WP:	0.000	Y_WP:	0.500	X:	0.185	Y:	0.079	Z:	0.165	yaw:	2.494	yaw rate:	-289.710	Roll:	14.589	Pitch:	-26.980	Yaw:	37.671	Thrust:	79.837
Time:	1.416	Roll Set Point:	-0.383	Pitch Set Point:	-0.089	Yaw Set Point:	-0.070	X_WP:	0.000	Y_WP:	0.000	Y_WP:	0.500	X:	0.190	Y:	0.051	Z:	0.173	yaw:	4.037	yaw rate:	-154.303	Roll:	10.395	Pitch:	-23.146	Yaw:	24.547	Thrust:	82.951
Time:	1.431	Roll Set Point:	-0.388	Pitch Set Point:	-0.029	Yaw Set Point:	-0.108	X_WP:	0.000	Y_WP:	0.000	Y_WP:	0.500	X:	0.193	Y:	0.025	Z:	0.180	yaw:	6.197	yaw rate:	-216.012	Roll:	7.800	Pitch:	-30.000	Yaw:	45.222	Thrust:	52.774
Time:	1.452	Roll Set Point:	-0.386	Pitch Set Point:	0.024	Yaw Set Point:	-0.131	X_WP:	0.000	Y_WP:	0.000	Y_WP:	0.500	X:	0.194	Y:	0.001	Z:	0.186	yaw:	7.480	yaw rate:	-128.287	Roll:	4.321	Pitch:	-23.592	Yaw:	27.517	Thrust:	76.863
Time:	1.471	Roll Set Point:	-0.380	Pitch Set Point:	0.076	Yaw Set Point:	-0.170	X_WP:	0.000	Y_WP:	0.000	Y_WP:	0.500	X:	0.194	Y:	-0.022	Z:	0.193	yaw:	9.761	yaw rate:	-228.033	Roll:	1.474	Pitch:	-27.218	Yaw:	45.272	Thrust:	71.103
Time:	1.492	Roll Set Point:	-0.370	Pitch Set Point:	0.120	Yaw Set Point:	-0.188	X_WP:	0.000	Y_WP:	0.000	Y_WP:	0.500	X:	0.191	Y:	-0.042	Z:	0.200	yaw:	10.751	yaw rate:	-99.033	Roll:	-0.269	Pitch:	-19.855	Yaw:	28.129	Thrust:	80.226
Time:	1.514	Roll Set Point:	-0.361	Pitch Set Point:	0.146	Yaw Set Point:	-0.139	X_WP:	0.000	Y_WP:	0.000	Y_WP:	0.500	X:	0.186	Y:	-0.060	Z:	0.207	yaw:	7.961	yaw rate:	279.018	Roll:	2.662	Pitch:	-8.350	Yaw:	-21.048	Thrust:	80.173
Time:	1.531	Roll Set Point:	-0.340	Pitch Set Point:	0.187	Yaw Set Point:	-0.200	X_WP:	0.000	Y_WP:	0.000	Y_WP:	0.500	X:	0.179	Y:	-0.077	Z:	0.214	yaw:	11.442	yaw rate:	-348.091	Roll:	-8.600	Pitch:	-26.188	Yaw:	70.206	Thrust:	66.347
Time:	1.552	Roll Set Point:	-0.318	Pitch Set Point:	0.217	Yaw Set Point:	-0.229	X_WP:	0.000	Y_WP:	0.000	Y_WP:	0.500	X:	0.171	Y:	-0.090	Z:	0.221	yaw:	13.132	yaw rate:	-169.026	Roll:	-6.694	Pitch:	-16.415	Yaw:	40.263	Thrust:	79.727
Time:	1.571	Roll Set Point:	-0.300	Pitch Set Point:	0.233	Yaw Set Point:	-0.196	X_WP:	0.000	Y_WP:	0.000	Y_WP:	0.500	X:	0.161	Y:	-0.102	Z:	0.229	yaw:	11.210	yaw rate:	192.247	Roll:	-2.276	Pitch:	-6.828	Yaw:	-10.418	Thrust:	66.976
Time:	1.594	Roll Set Point:	-0.276	Pitch Set Point:	0.253	Yaw Set Point:	-0.210	X_WP:	0.000	Y_WP:	0.000	Y_WP:	0.500	X:	0.151	Y:	-0.112	Z:	0.239	yaw:	12.036	yaw rate:	-82.694	Roll:	-6.068	Pitch:	-10.782	Yaw:	27.450	Thrust:	82.756
Time:	1.614	Roll Set Point:	-0.249	Pitch Set Point:	0.267	Yaw Set Point:	-0.213	X_WP:	0.000	Y_WP:	0.000	Y_WP:	0.500	X:	0.139	Y:	-0.120	Z:	0.249	yaw:	12.188	yaw rate:	-15.150	Roll:	-9.335	Pitch:	-8.439	Yaw:	20.305	Thrust:	65.028
Time:	1.631	Roll Set Point:	-0.226	Pitch Set Point:	0.273	Yaw Set Point:	-0.185	X_WP:	0.000	Y_WP:	0.000	Y_WP:	0.500	X:	0.125	Y:	-0.126	Z:	0.260	yaw:	10.583	yaw rate:	160.472	Roll:	-5.278	Pitch:	-3.949	Yaw:	-6.935	Thrust:	58.041
Time:	1.651	Roll Set Point:	-0.195	Pitch Set Point:	0.282	Yaw Set Point:	-0.199	X_WP:	0.000	Y_WP:	0.000	Y_WP:	0.500	X:	0.112	Y:	-0.131	Z:	0.272	yaw:	11.392	yaw rate:	-80.824	Roll:	-10.917	Pitch:	-6.802	Yaw:	27.656	Thrust:	68.394
Time:	1.670	Roll Set Point:	-0.163	Pitch Set Point:	0.288	Yaw Set Point:	-0.216	X_WP:	0.000	Y_WP:	0.000	Y_WP:	0.500	X:	0.097	Y:	-0.135	Z:	0.284	yaw:	12.349	yaw rate:	-95.793	Roll:	-12.836	Pitch:	-5.304	Yaw:	31.876	Thrust:	57.229
Time:	1.691	Roll Set Point:	-0.132	Pitch Set Point:	0.289	Yaw Set Point:	-0.211	X_WP:	0.000	Y_WP:	0.000	Y_WP:	0.500	X:	0.081	Y:	-0.137	Z:	0.298	yaw:	12.076	yaw rate:	27.383	Roll:	-10.037	Pitch:	-2.621	Yaw:	15.122	Thrust:	64.623
Time:	1.713	Roll Set Point:	-0.102	Pitch Set Point:	0.288	Yaw Set Point:	-0.201	X_WP:	0.000	Y_WP:	0.000	Y_WP:	0.500	X:	0.066	Y:	-0.139	Z:	0.311	yaw:	11.500	yaw rate:	57.514	Roll:	-9.498	Pitch:	-1.752	Yaw:	11.028	Thrust:	68.570
Time:	1.731	Roll Set Point:	-0.073	Pitch Set Point:	0.284	Yaw Set Point:	-0.178	X_WP:	0.000	Y_WP:	0.000	Y_WP:	0.500	X:	0.049	Y:	-0.139	Z:	0.325	yaw:	10.206	yaw rate:	129.468	Roll:	-10.437	Pitch:	-0.329	Yaw:	-3.479	Thrust:	51.994
Time:	1.752	Roll Set Point:	-0.040	Pitch Set Point:	0.281	Yaw Set Point:	-0.185	X_WP:	0.000	Y_WP:	0.000	Y_WP:	0.500	X:	0.033	Y:	-0.139	Z:	0.340	yaw:	10.597	yaw rate:	-39.142	Roll:	-13.258	Pitch:	-0.970	Yaw:	21.601	Thrust:	58.851
Time:	1.771	Roll Set Point:	-0.010	Pitch Set Point:	0.277	Yaw Set Point:	-0.162	X_WP:	0.000	Y_WP:	0.000	Y_WP:	0.500	X:	0.016	Y:	-0.138	Z:	0.354	yaw:	9.266	yaw rate:	133.118	Roll:	-10.361	Pitch:	-0.286	Yaw:	-3.348	Thrust:	55.502
Time:	1.791	Roll Set Point:	0.023	Pitch Set Point:	0.272	Yaw Set Point:	-0.174	X_WP:	0.000	Y_WP:	0.000	Y_WP:	0.500	X:	0.000	Y:	-0.137	Z:	0.370	yaw:	9.972	yaw rate:	-70.624	Roll:	-15.092	Pitch:	0.121	Yaw:	25.049	Thrust:	54.391
Time:	1.814	Roll Set Point:	0.056	Pitch Set Point:	0.265	Yaw Set Point:	-0.186	X_WP:	0.000	Y_WP:	0.000	Y_WP:	0.500	X:	-0.016	Y:	-0.135	Z:	0.386	yaw:	10.680	yaw rate:	-70.814	Roll:	-12.867	Pitch:	0.639	Yaw:	25.469	Thrust:	66.516
Time:	1.832	Roll Set Point:	0.084	Pitch Set Point:	0.259	Yaw Set Point:	-0.161	X_WP:	0.000	Y_WP:	0.000	Y_WP:	0.500	X:	-0.031	Y:	-0.133	Z:	0.402	yaw:	9.235	yaw rate:	144.557	Roll:	-12.236	Pitch:	0.537	Yaw:	-6.484	Thrust:	40.571
Time:	1.853	Roll Set Point:	0.112	Pitch Set Point:	0.253	Yaw Set Point:	-0.142	X_WP:	0.000	Y_WP:	0.000	Y_WP:	0.500	X:	-0.047	Y:	-0.130	Z:	0.417	yaw:	8.132	yaw rate:	110.265	Roll:	-11.568	Pitch:	0.012	Yaw:	-0.210	Thrust:	59.094
Time:	1.871	Roll Set Point:	0.142	Pitch Set Point:	0.245	Yaw Set Point:	-0.151	X_WP:	0.000	Y_WP:	0.000	Y_WP:	0.500	X:	-0.062	Y:	-0.128	Z:	0.433	yaw:	8.656	yaw rate:	-52.371	Roll:	-15.312	Pitch:	1.915	Yaw:	21.336	Thrust:	42.250
Time:	1.891	Roll Set Point:	0.169	Pitch Set Point:	0.240	Yaw Set Point:	-0.132	X_WP:	0.000	Y_WP:	0.000	Y_WP:	0.500	X:	-0.076	Y:	-0.125	Z:	0.449	yaw:	7.586	yaw rate:	106.985	Roll:	-12.428	Pitch:	0.065	Yaw:	-1.855	Thrust:	47.756
Time:	1.913	Roll Set Point:	0.199	Pitch Set Point:	0.229	Yaw Set Point:	-0.160	X_WP:	0.000	Y_WP:	0.000	Y_WP:	0.500	X:	-0.090	Y:	-0.123	Z:	0.464	yaw:	9.164	yaw rate:	-157.813	Roll:	-15.203	Pitch:	3.456	Yaw:	33.232	Thrust:	66.015
Time:	1.932	Roll Set Point:	0.223	Pitch Set Point:	0.224	Yaw Set Point:	-0.137	X_WP:	0.000	Y_WP:	0.000	Y_WP:	0.500	X:	-0.104	Y:	-0.120	Z:	0.480	yaw:	7.858	yaw rate:	130.635	Roll:	-12.420	Pitch:	-0.498	Yaw:	-6.432	Thrust:	36.553
Time:	1.952	Roll Set Point:	0.248	Pitch Set Point:	0.217	Yaw Set Point:	-0.134	X_WP:	0.000	Y_WP:	0.000	Y_WP:	0.500	X:	-0.117	Y:	-0.117	Z:	0.495	yaw:	7.658	yaw rate:	20.018	Roll:	-13.513	Pitch:	1.129	Yaw:	10.061	Thrust:	49.176
Time:	1.971	Roll Set Point:	0.272	Pitch Set Point:	0.211	Yaw Set Point:	-0.128	X_WP:	0.000	Y_WP:	0.000	Y_WP:	0.500	X:	-0.129	Y:	-0.114	Z:	0.510	yaw:	7.313	yaw rate:	34.424	Roll:	-13.305	Pitch:	0.906	Yaw:	7.759	Thrust:	45.195
Time:	1.992	Roll Set Point:	0.295	Pitch Set Point:	0.205	Yaw Set Point:	-0.123	X_WP:	0.000	Y_WP:	0.000	Y_WP:	0.500	X:	-0.141	Y:	-0.111	Z:	0.523	yaw:	7.048	yaw rate:	26.534	Roll:	-12.578	Pitch:	0.823	Yaw:	8.647	Thrust:	60.469
Time:	2.018	Roll Set Point:	0.318	Pitch Set Point:	0.196	Yaw Set Point:	-0.137	X_WP:	0.000	Y_WP:	0.000	Y_WP:	0.500	X:	-0.152	Y:	-0.109	Z:	0.537	yaw:	7.826	yaw rate:	-77.844	Roll:	-11.719	Pitch:	2.420	Yaw:	21.333	Thrust:	87.067
Time:	2.031	Roll Set Point:	0.337	Pitch Set Point:	0.193	Yaw Set Point:	-0.111	X_WP:	0.000	Y_WP:	0.000	Y_WP:	0.500	X:	-0.163	Y:	-0.106	Z:	0.549	yaw:	6.343	yaw rate:	148.317	Roll:	-15.118	Pitch:	-2.706	Yaw:	-20.037	Thrust:	7.951
Time:	2.056	Roll Set Point:	0.359	Pitch Set Point:	0.182	Yaw Set Point:	-0.139	X_WP:	0.000	Y_WP:	0.000	Y_WP:	0.500	X:	-0.173	Y:	-0.104	Z:	0.561	yaw:	7.947	yaw rate:	-160.390	Roll:	-12.545	Pitch:	4.321	Yaw:	30.288	Thrust:	77.949
Time:	2.071	Roll Set Point:	0.379	Pitch Set Point:	0.172	Yaw Set Point:	-0.152	X_WP:	0.000	Y_WP:	0.000	Y_WP:	0.500	X:	-0.183	Y:	-0.101	Z:	0.572	yaw:	8.681	yaw rate:	-73.397	Roll:	-16.897	Pitch:	5.982	Yaw:	26.712	Thrust:	26.095
Time:	2.094	Roll Set Point:	0.394	Pitch Set Point:	0.170	Yaw Set Point:	-0.140	X_WP:	0.000	Y_WP:	0.000	Y_WP:	0.500	X:	-0.191	Y:	-0.099	Z:	0.583	yaw:	8.029	yaw rate:	65.176	Roll:	-10.298	Pitch:	-0.895	Yaw:	6.202	Thrust:	71.745
Time:	2.115	Roll Set Point:	0.410	Pitch Set Point:	0.167	Yaw Set Point:	-0.127	X_WP:	0.000	Y_WP:	0.000	Y_WP:	0.500	X:	-0.199	Y:	-0.097	Z:	0.593	yaw:	7.286	yaw rate:	74.358	Roll:	-11.007	Pitch:	-0.894	Yaw:	2.962	Thrust:	60.092
Time:	2.133	Roll Set Point:	0.424	Pitch Set Point:	0.162	Yaw Set Point:	-0.128	X_WP:	0.000	Y_WP:	0.000	Y_WP:	0.500	X:	-0.207	Y:	-0.095	Z:	0.602	yaw:	7.327	yaw rate:	-4.125	Roll:	-13.042	Pitch:	1.495	Yaw:	12.599	Thrust:	41.080
Time:	2.152	Roll Set Point:	0.439	Pitch Set Point:	0.154	Yaw Set Point:	-0.143	X_WP:	0.000	Y_WP:	0.000	Y_WP:	0.500	X:	-0.214	Y:	-0.093	Z:	0.609	yaw:	8.207	yaw rate:	-88.035	Roll:	-12.429	Pitch:	4.105	Yaw:	25.197	Thrust:	61.085
Time:	2.174	Roll Set Point:	0.450	Pitch Set Point:	0.154	Yaw Set Point:	-0.122	X_WP:	0.000	Y_WP:	0.000	Y_WP:	0.500	X:	-0.220	Y:	-0.091	Z:	0.616	yaw:	6.963	yaw rate:	124.409	Roll:	-9.691	Pitch:	-3.132	Yaw:	-2.832	Thrust:	69.196
Time:	2.198	Roll Set Point:	0.461	Pitch Set Point:	0.152	Yaw Set Point:	-0.117	X_WP:	0.000	Y_WP:	0.000	Y_WP:	0.500	X:	-0.226	Y:	-0.089	Z:	0.622	yaw:	6.688	yaw rate:	27.577	Roll:	-9.916	Pitch:	-0.437	Yaw:	8.522	Thrust:	76.060
Time:	2.216	Roll Set Point:	0.471	Pitch Set Point:	0.145	Yaw Set Point:	-0.134	X_WP:	0.000	Y_WP:	0.000	Y_WP:	0.500	X:	-0.231	Y:	-0.088	Z:	0.627	yaw:	7.670	yaw rate:	-98.221	Roll:	-11.649	Pitch:	4.633	Yaw:	26.776	Thrust:	48.856
Time:	2.234	Roll Set Point:	0.479	Pitch Set Point:	0.143	Yaw Set Point:	-0.130	X_WP:	0.000	Y_WP:	0.000	Y_WP:	0.500	X:	-0.235	Y:	-0.087	Z:	0.632	yaw:	7.426	yaw rate:	24.420	Roll:	-9.965	Pitch:	-0.810	Yaw:	8.632	Thrust:	59.355
Time:	2.253	Roll Set Point:	0.484	Pitch Set Point:	0.147	Yaw Set Point:	-0.109	X_WP:	0.000	Y_WP:	0.000	Y_WP:	0.500	X:	-0.238	Y:	-0.087	Z:	0.637	yaw:	6.227	yaw rate:	119.879	Roll:	-8.563	Pitch:	-4.846	Yaw:	-5.862	Thrust:	56.755
Time:	2.272	Roll Set Point:	0.489	Pitch Set Point:	0.146	Yaw Set Point:	-0.105	X_WP:	0.000	Y_WP:	0.000	Y_WP:	0.500	X:	-0.241	Y:	-0.086	Z:	0.642	yaw:	6.003	yaw rate:	22.367	Roll:	-8.750	Pitch:	-1.298	Yaw:	7.343	Thrust:	59.395
Time:	2.296	Roll Set Point:	0.493	Pitch Set Point:	0.147	Yaw Set Point:	-0.099	X_WP:	0.000	Y_WP:	0.000	Y_WP:	0.500	X:	-0.243	Y:	-0.086	Z:	0.648	yaw:	5.663	yaw rate:	34.008	Roll:	-7.598	Pitch:	-1.962	Yaw:	6.493	Thrust:	76.065
Time:	2.318	Roll Set Point:	0.494	Pitch Set Point:	0.148	Yaw Set Point:	-0.093	X_WP:	0.000	Y_WP:	0.000	Y_WP:	0.500	X:	-0.244	Y:	-0.086	Z:	0.654	yaw:	5.357	yaw rate:	30.622	Roll:	-7.222	Pitch:	-2.149	Yaw:	5.979	Thrust:	65.950
Time:	2.331	Roll Set Point:	0.494	Pitch Set Point:	0.149	Yaw Set Point:	-0.090	X_WP:	0.000	Y_WP:	0.000	Y_WP:	0.500	X:	-0.244	Y:	-0.086	Z:	0.660	yaw:	5.145	yaw rate:	21.227	Roll:	-6.785	Pitch:	-2.732	Yaw:	4.224	Thrust:	21.263
Time:	2.357	Roll Set Point:	0.495	Pitch Set Point:	0.142	Yaw Set Point:	-0.123	X_WP:	0.000	Y_WP:	0.000	Y_WP:	0.500	X:	-0.243	Y:	-0.086	Z:	0.667	yaw:	7.040	yaw rate:	-189.566	Roll:	-7.500	Pitch:	4.327	Yaw:	31.810	Thrust:	80.004
Time:	2.381	Roll Set Point:	0.485	Pitch Set Point:	0.177	Yaw Set Point:	0.012	X_WP:	0.000	Y_WP:	0.000	Y_WP:	0.500	X:	-0.243	Y:	-0.087	Z:	0.674	yaw:	-0.673	yaw rate:	771.285	Roll:	0.698	Pitch:	-28.830	Yaw:	-80.496	Thrust:	69.999
Time:	2.392	Roll Set Point:	0.488	Pitch Set Point:	0.154	Yaw Set Point:	-0.081	X_WP:	0.000	Y_WP:	0.000	Y_WP:	0.500	X:	-0.241	Y:	-0.087	Z:	0.681	yaw:	4.642	yaw rate:	-531.422	Roll:	-12.854	Pitch:	26.689	Yaw:	133.619	Thrust:	13.025
Time:	2.419	Roll Set Point:	0.485	Pitch Set Point:	0.146	Yaw Set Point:	-0.121	X_WP:	0.000	Y_WP:	0.000	Y_WP:	0.500	X:	-0.238	Y:	-0.088	Z:	0.687	yaw:	6.961	yaw rate:	-231.892	Roll:	-6.514	Pitch:	4.639	Yaw:	34.482	Thrust:	84.896
Time:	2.431	Roll Set Point:	0.478	Pitch Set Point:	0.157	Yaw Set Point:	-0.079	X_WP:	0.000	Y_WP:	0.000	Y_WP:	0.500	X:	-0.236	Y:	-0.088	Z:	0.693	yaw:	4.543	yaw rate:	241.750	Roll:	0.322	Pitch:	-17.980	Yaw:	-47.392	Thrust:	8.598
Time:	2.458	Roll Set Point:	0.472	Pitch Set Point:	0.160	Yaw Set Point:	-0.072	X_WP:	0.000	Y_WP:	0.000	Y_WP:	0.500	X:	-0.233	Y:	-0.089	Z:	0.700	yaw:	4.151	yaw rate:	39.216	Roll:	-4.167	Pitch:	-3.015	Yaw:	4.613	Thrust:	82.634
Time:	2.470	Roll Set Point:	0.457	Pitch Set Point:	0.188	Yaw Set Point:	0.032	X_WP:	0.000	Y_WP:	0.000	Y_WP:	0.500	X:	-0.230	Y:	-0.090	Z:	0.707	yaw:	-1.847	yaw rate:	599.749	Roll:	8.567	Pitch:	-30.000	Yaw:	-128.306	Thrust:	10.615
Time:	2.491	Roll Set Point:	0.449	Pitch Set Point:	0.191	Yaw Set Point:	0.035	X_WP:	0.000	Y_WP:	0.000	Y_WP:	0.500	X:	-0.226	Y:	-0.092	Z:	0.713	yaw:	-2.028	yaw rate:	18.115	Roll:	-2.556	Pitch:	-3.784	Yaw:	-2.966	Thrust:	56.407
Time:	2.515	Roll Set Point:	0.449	Pitch Set Point:	0.165	Yaw Set Point:	-0.089	X_WP:	0.000	Y_WP:	0.000	Y_WP:	0.500	X:	-0.221	Y:	-0.092	Z:	0.718	yaw:	5.119	yaw rate:	-714.710	Roll:	-10.223	Pitch:	18.035	Yaw:	88.668	Thrust:	67.528
Time:	2.532	Roll Set Point:	0.441	Pitch Set Point:	0.166	Yaw Set Point:	-0.099	X_WP:	0.000	Y_WP:	0.000	Y_WP:	0.500	X:	-0.216	Y:	-0.094	Z:	0.722	yaw:	5.693	yaw rate:	-57.409	Roll:	-2.698	Pitch:	-1.203	Yaw:	18.358	Thrust:	39.852
Time:	2.553	Roll Set Point:	0.432	Pitch Set Point:	0.170	Yaw Set Point:	-0.097	X_WP:	0.000	Y_WP:	0.000	Y_WP:	0.500	X:	-0.212	Y:	-0.095	Z:	0.726	yaw:	5.584	yaw rate:	10.937	Roll:	-2.446	Pitch:	-3.436	Yaw:	8.558	Thrust:	59.113
Time:	2.572	Roll Set Point:	0.421	Pitch Set Point:	0.179	Yaw Set Point:	-0.076	X_WP:	0.000	Y_WP:	0.000	Y_WP:	0.500	X:	-0.207	Y:	-0.097	Z:	0.731	yaw:	4.362	yaw rate:	122.187	Roll:	0.019	Pitch:	-8.883	Yaw:	-9.261	Thrust:	41.216
Time:	2.593	Roll Set Point:	0.410	Pitch Set Point:	0.190	Yaw Set Point:	-0.040	X_WP:	0.000	Y_WP:	0.000	Y_WP:	0.500	X:	-0.203	Y:	-0.099	Z:	0.734	yaw:	2.273	yaw rate:	208.931	Roll:	0.281	Pitch:	-9.437	Yaw:	-21.312	Thrust:	59.752
Time:	2.616	Roll Set Point:	0.400	Pitch Set Point:	0.191	Yaw Set Point:	-0.053	X_WP:	0.000	Y_WP:	0.000	Y_WP:	0.500	X:	-0.198	Y:	-0.101	Z:	0.737	yaw:	3.061	yaw rate:	-78.770	Roll:	-2.461	Pitch:	-1.821	Yaw:	15.828	Thrust:	61.838
Time:	2.633	Roll Set Point:	0.389	Pitch Set Point:	0.198	Yaw Set Point:	-0.038	X_WP:	0.000	Y_WP:	0.000	Y_WP:	0.500	X:	-0.193	Y:	-0.103	Z:	0.739	yaw:	2.177	yaw rate:	88.392	Roll:	0.674	Pitch:	-7.346	Yaw:	-7.958	Thrust:	46.259
Time:	2.653	Roll Set Point:	0.380	Pitch Set Point:	0.199	Yaw Set Point:	-0.056	X_WP:	0.000	Y_WP:	0.000	Y_WP:	0.500	X:	-0.187	Y:	-0.105	Z:	0.741	yaw:	3.183	yaw rate:	-100.656	Roll:	-2.383	Pitch:	-1.330	Yaw:	19.309	Thrust:	55.383
Time:	2.671	Roll Set Point:	0.369	Pitch Set Point:	0.206	Yaw Set Point:	-0.044	X_WP:	0.000	Y_WP:	0.000	Y_WP:	0.500	X:	-0.182	Y:	-0.107	Z:	0.743	yaw:	2.506	yaw rate:	67.741	Roll:	1.047	Pitch:	-6.723	Yaw:	-4.834	Thrust:	43.839
Time:	2.694	Roll Set Point:	0.360	Pitch Set Point:	0.205	Yaw Set Point:	-0.068	X_WP:	0.000	Y_WP:	0.000	Y_WP:	0.500	X:	-0.176	Y:	-0.109	Z:	0.745	yaw:	3.887	yaw rate:	-138.137	Roll:	-2.518	Pitch:	-0.650	Yaw:	23.478	Thrust:	63.516
Time:	2.711	Roll Set Point:	0.348	Pitch Set Point:	0.214	Yaw Set Point:	-0.036	X_WP:	0.000	Y_WP:	0.000	Y_WP:	0.500	X:	-0.172	Y:	-0.110	Z:	0.746	yaw:	2.068	yaw rate:	181.907	Roll:	2.673	Pitch:	-9.996	Yaw:	-23.340	Thrust:	44.583
Time:	2.733	Roll Set Point:	0.337	Pitch Set Point:	0.217	Yaw Set Point:	-0.041	X_WP:	0.000	Y_WP:	0.000	Y_WP:	0.500	X:	-0.166	Y:	-0.112	Z:	0.747	yaw:	2.375	yaw rate:	-30.688	Roll:	-0.670	Pitch:	-3.371	Yaw:	9.198	Thrust:	59.937
Time:	2.751	Roll Set Point:	0.326	Pitch Set Point:	0.221	Yaw Set Point:	-0.040	X_WP:	0.000	Y_WP:	0.000	Y_WP:	0.500	X:	-0.161	Y:	-0.114	Z:	0.747	yaw:	2.294	yaw rate:	8.123	Roll:	0.490	Pitch:	-4.606	Yaw:	3.922	Thrust:	50.013
Time:	2.772	Roll Set Point:	0.316	Pitch Set Point:	0.225	Yaw Set Point:	-0.030	X_WP:	0.000	Y_WP:	0.000	Y_WP:	0.500	X:	-0.156	Y:	-0.115	Z:	0.747	yaw:	1.726	yaw rate:	56.767	Roll:	0.468	Pitch:	-5.158	Yaw:	-2.723	Thrust:	57.249
Time:	2.792	Roll Set Point:	0.307	Pitch Set Point:	0.226	Yaw Set Point:	-0.042	X_WP:	0.000	Y_WP:	0.000	Y_WP:	0.500	X:	-0.151	Y:	-0.116	Z:	0.746	yaw:	2.395	yaw rate:	-66.939	Roll:	-1.004	Pitch:	-2.498	Yaw:	13.896	Thrust:	56.887
Time:	2.815	Roll Set Point:	0.296	Pitch Set Point:	0.229	Yaw Set Point:	-0.031	X_WP:	0.000	Y_WP:	0.000	Y_WP:	0.500	X:	-0.146	Y:	-0.117	Z:	0.745	yaw:	1.776	yaw rate:	61.971	Roll:	0.208	Pitch:	-4.811	Yaw:	-2.443	Thrust:	64.212
Time:	2.832	Roll Set Point:	0.287	Pitch Set Point:	0.231	Yaw Set Point:	-0.030	X_WP:	0.000	Y_WP:	0.000	Y_WP:	0.500	X:	-0.142	Y:	-0.118	Z:	0.744	yaw:	1.702	yaw rate:	7.341	Roll:	0.889	Pitch:	-3.882	Yaw:	3.039	Thrust:	48.287
Time:	2.858	Roll Set Point:	0.280	Pitch Set Point:	0.229	Yaw Set Point:	-0.067	X_WP:	0.000	Y_WP:	0.000	Y_WP:	0.500	X:	-0.136	Y:	-0.119	Z:	0.743	yaw:	3.841	yaw rate:	-213.874	Roll:	-2.990	Pitch:	-0.066	Yaw:	30.212	Thrust:	70.133
Time:	2.870	Roll Set Point:	0.268	Pitch Set Point:	0.234	Yaw Set Point:	-0.035	X_WP:	0.000	Y_WP:	0.000	Y_WP:	0.500	X:	-0.132	Y:	-0.119	Z:	0.741	yaw:	2.018	yaw rate:	182.335	Roll:	5.318	Pitch:	-8.855	Yaw:	-32.885	Thrust:	36.744
Time:	2.893	Roll Set Point:	0.256	Pitch Set Point:	0.239	Yaw Set Point:	0.002	X_WP:	0.000	Y_WP:	0.000	Y_WP:	0.500	X:	-0.128	Y:	-0.119	Z:	0.738	yaw:	-0.122	yaw rate:	213.999	Roll:	2.761	Pitch:	-6.906	Yaw:	-22.538	Thrust:	65.099
Time:	2.912	Roll Set Point:	0.253	Pitch Set Point:	0.232	Yaw Set Point:	-0.063	X_WP:	0.000	Y_WP:	0.000	Y_WP:	0.500	X:	-0.123	Y:	-0.120	Z:	0.737	yaw:	3.636	yaw rate:	-375.863	Roll:	-5.459	Pitch:	4.397	Yaw:	62.472	Thrust:	47.492
Time:	2.932	Roll Set Point:	0.244	Pitch Set Point:	0.233	Yaw Set Point:	-0.048	X_WP:	0.000	Y_WP:	0.000	Y_WP:	0.500	X:	-0.119	Y:	-0.120	Z:	0.734	yaw:	2.725	yaw rate:	91.141	Roll:	1.031	Pitch:	-4.319	Yaw:	-6.244	Thrust:	58.404
Time:	2.952	Roll Set Point:	0.233	Pitch Set Point:	0.236	Yaw Set Point:	-0.013	X_WP:	0.000	Y_WP:	0.000	Y_WP:	0.500	X:	-0.116	Y:	-0.119	Z:	0.732	yaw:	0.720	yaw rate:	200.520	Roll:	3.008	Pitch:	-5.975	Yaw:	-22.262	Thrust:	58.462
Time:	2.971	Roll Set Point:	0.227	Pitch Set Point:	0.234	Yaw Set Point:	-0.032	X_WP:	0.000	Y_WP:	0.000	Y_WP:	0.500	X:	-0.112	Y:	-0.119	Z:	0.728	yaw:	1.832	yaw rate:	-111.237	Roll:	-1.551	Pitch:	-1.047	Yaw:	19.753	Thrust:	54.259
Time:	2.992	Roll Set Point:	0.219	Pitch Set Point:	0.233	Yaw Set Point:	-0.039	X_WP:	0.000	Y_WP:	0.000	Y_WP:	0.500	X:	-0.107	Y:	-0.119	Z:	0.725	yaw:	2.221	yaw rate:	-38.873	Roll:	-0.218	Pitch:	-2.118	Yaw:	10.107	Thrust:	58.886
Time:	3.016	Roll Set Point:	0.214	Pitch Set Point:	0.230	Yaw Set Point:	-0.052	X_WP:	0.000	Y_WP:	0.000	Y_WP:	0.500	X:	-0.104	Y:	-0.118	Z:	0.721	yaw:	2.961	yaw rate:	-74.009	Roll:	-1.663	Pitch:	-1.290	Yaw:	14.577	Thrust:	67.102
Time:	3.031	Roll Set Point:	0.205	Pitch Set Point:	0.231	Yaw Set Point:	-0.015	X_WP:	0.000	Y_WP:	0.000	Y_WP:	0.500	X:	-0.102	Y:	-0.116	Z:	0.716	yaw:	0.872	yaw rate:	208.912	Roll:	4.698	Pitch:	-5.906	Yaw:	-34.012	Thrust:	49.069
Time:	3.057	Roll Set Point:	0.202	Pitch Set Point:	0.227	Yaw Set Point:	-0.050	X_WP:	0.000	Y_WP:	0.000	Y_WP:	0.500	X:	-0.098	Y:	-0.116	Z:	0.712	yaw:	2.857	yaw rate:	-198.548	Roll:	-2.926	Pitch:	-0.006	Yaw:	26.918	Thrust:	73.313
Time:	3.071	Roll Set Point:	0.195	Pitch Set Point:	0.225	Yaw Set Point:	-0.038	X_WP:	0.000	Y_WP:	0.000	Y_WP:	0.500	X:	-0.095	Y:	-0.114	Z:	0.707	yaw:	2.180	yaw rate:	67.726	Roll:	2.159	Pitch:	-2.964	Yaw:	-7.578	Thrust:	46.600
Time:	3.093	Roll Set Point:	0.188	Pitch Set Point:	0.224	Yaw Set Point:	-0.016	X_WP:	0.000	Y_WP:	0.000	Y_WP:	0.500	X:	-0.093	Y:	-0.113	Z:	0.702	yaw:	0.903	yaw rate:	127.735	Roll:	1.178	Pitch:	-3.356	Yaw:	-12.154	Thrust:	61.148
Time:	3.117	Roll Set Point:	0.184	Pitch Set Point:	0.220	Yaw Set Point:	-0.038	X_WP:	0.000	Y_WP:	0.000	Y_WP:	0.500	X:	-0.090	Y:	-0.112	Z:	0.698	yaw:	2.195	yaw rate:	-129.223	Roll:	-2.172	Pitch:	-0.356	Yaw:	19.343	Thrust:	70.501
Time:	3.131	Roll Set Point:	0.180	Pitch Set Point:	0.216	Yaw Set Point:	-0.043	X_WP:	0.000	Y_WP:	0.000	Y_WP:	0.500	X:	-0.088	Y:	-0.110	Z:	0.693	yaw:	2.452	yaw rate:	-25.736	Roll:	-0.263	Pitch:	-0.712	Yaw:	9.663	Thrust:	45.336
Time:	3.156	Roll Set Point:	0.175	Pitch Set Point:	0.213	Yaw Set Point:	-0.031	X_WP:	0.000	Y_WP:	0.000	Y_WP:	0.500	X:	-0.086	Y:	-0.108	Z:	0.689	yaw:	1.766	yaw rate:	68.634	Roll:	-0.119	Pitch:	-2.078	Yaw:	-2.300	Thrust:	69.608
Time:	3.171	Roll Set Point:	0.171	Pitch Set Point:	0.210	Yaw Set Point:	-0.035	X_WP:	0.000	Y_WP:	0.000	Y_WP:	0.500	X:	-0.084	Y:	-0.106	Z:	0.684	yaw:	1.997	yaw rate:	-23.105	Roll:	-0.552	Pitch:	-0.451	Yaw:	8.298	Thrust:	47.285
Time:	3.194	Roll Set Point:	0.167	Pitch Set Point:	0.206	Yaw Set Point:	-0.033	X_WP:	0.000	Y_WP:	0.000	Y_WP:	0.500	X:	-0.082	Y:	-0.104	Z:	0.679	yaw:	1.909	yaw rate:	8.775	Roll:	-0.785	Pitch:	-1.169	Yaw:	3.905	Thrust:	64.614
Time:	3.214	Roll Set Point:	0.164	Pitch Set Point:	0.202	Yaw Set Point:	-0.035	X_WP:	0.000	Y_WP:	0.000	Y_WP:	0.500	X:	-0.080	Y:	-0.102	Z:	0.673	yaw:	1.986	yaw rate:	-7.698	Roll:	-0.882	Pitch:	-0.900	Yaw:	5.814	Thrust:	60.222
Time:	3.231	Roll Set Point:	0.160	Pitch Set Point:	0.198	Yaw Set Point:	-0.023	X_WP:	0.000	Y_WP:	0.000	Y_WP:	0.500	X:	-0.079	Y:	-0.100	Z:	0.668	yaw:	1.327	yaw rate:	65.891	Roll:	0.502	Pitch:	-1.264	Yaw:	-6.619	Thrust:	52.830
Time:	3.252	Roll Set Point:	0.158	Pitch Set Point:	0.193	Yaw Set Point:	-0.036	X_WP:	0.000	Y_WP:	0.000	Y_WP:	0.500	X:	-0.077	Y:	-0.098	Z:	0.662	yaw:	2.075	yaw rate:	-74.815	Roll:	-1.893	Pitch:	0.032	Yaw:	14.466	Thrust:	61.443
Time:	3.275	Roll Set Point:	0.154	Pitch Set Point:	0.189	Yaw Set Point:	-0.026	X_WP:	0.000	Y_WP:	0.000	Y_WP:	0.500	X:	-0.076	Y:	-0.095	Z:	0.656	yaw:	1.492	yaw rate:	58.372	Roll:	-0.497	Pitch:	-1.192	Yaw:	-1.996	Thrust:	65.693
Time:	3.294	Roll Set Point:	0.152	Pitch Set Point:	0.184	Yaw Set Point:	-0.035	X_WP:	0.000	Y_WP:	0.000	Y_WP:	0.500	X:	-0.074	Y:	-0.093	Z:	0.650	yaw:	2.030	yaw rate:	-53.865	Roll:	-1.554	Pitch:	0.157	Yaw:	12.445	Thrust:	59.368
Time:	3.317	Roll Set Point:	0.149	Pitch Set Point:	0.181	Yaw Set Point:	-0.019	X_WP:	0.000	Y_WP:	0.000	Y_WP:	0.500	X:	-0.074	Y:	-0.091	Z:	0.644	yaw:	1.089	yaw rate:	94.098	Roll:	-0.244	Pitch:	-1.460	Yaw:	-6.626	Thrust:	67.456
Time:	3.331	Roll Set Point:	0.147	Pitch Set Point:	0.176	Yaw Set Point:	-0.024	X_WP:	0.000	Y_WP:	0.000	Y_WP:	0.500	X:	-0.073	Y:	-0.089	Z:	0.637	yaw:	1.360	yaw rate:	-27.104	Roll:	-1.267	Pitch:	0.788	Yaw:	8.351	Thrust:	51.976
Time:	3.357	Roll Set Point:	0.145	Pitch Set Point:	0.171	Yaw Set Point:	-0.024	X_WP:	0.000	Y_WP:	0.000	Y_WP:	0.500	X:	-0.072	Y:	-0.086	Z:	0.631	yaw:	1.402	yaw rate:	-4.113	Roll:	-1.293	Pitch:	-0.511	Yaw:	4.946	Thrust:	72.042
Time:	3.372	Roll Set Point:	0.143	Pitch Set Point:	0.167	Yaw Set Point:	-0.021	X_WP:	0.000	Y_WP:	0.000	Y_WP:	0.500	X:	-0.071	Y:	-0.084	Z:	0.625	yaw:	1.203	yaw rate:	19.826	Roll:	-0.720	Pitch:	-0.021	Yaw:	-0.179	Thrust:	52.796
Time:	3.393	Roll Set Point:	0.141	Pitch Set Point:	0.162	Yaw Set Point:	-0.022	X_WP:	0.000	Y_WP:	0.000	Y_WP:	0.500	X:	-0.070	Y:	-0.082	Z:	0.619	yaw:	1.279	yaw rate:	-7.586	Roll:	-1.272	Pitch:	-0.009	Yaw:	4.809	Thrust:	61.583
Time:	3.414	Roll Set Point:	0.139	Pitch Set Point:	0.158	Yaw Set Point:	-0.016	X_WP:	0.000	Y_WP:	0.000	Y_WP:	0.500	X:	-0.069	Y:	-0.079	Z:	0.613	yaw:	0.889	yaw rate:	39.063	Roll:	-0.776	Pitch:	-0.599	Yaw:	-1.658	Thrust:	61.054
Time:	3.433	Roll Set Point:	0.137	Pitch Set Point:	0.154	Yaw Set Point:	-0.013	X_WP:	0.000	Y_WP:	0.000	Y_WP:	0.500	X:	-0.068	Y:	-0.077	Z:	0.607	yaw:	0.760	yaw rate:	12.889	Roll:	-0.798	Pitch:	-0.256	Yaw:	1.345	Thrust:	58.094
Time:	3.451	Roll Set Point:	0.136	Pitch Set Point:	0.149	Yaw Set Point:	-0.012	X_WP:	0.000	Y_WP:	0.000	Y_WP:	0.500	X:	-0.068	Y:	-0.075	Z:	0.602	yaw:	0.709	yaw rate:	5.047	Roll:	-1.425	Pitch:	0.220	Yaw:	2.069	Thrust:	55.982
Time:	3.472	Roll Set Point:	0.134	Pitch Set Point:	0.145	Yaw Set Point:	-0.011	X_WP:	0.000	Y_WP:	0.000	Y_WP:	0.500	X:	-0.067	Y:	-0.073	Z:	0.597	yaw:	0.604	yaw rate:	10.506	Roll:	-1.124	Pitch:	-0.182	Yaw:	1.562	Thrust:	59.483
Time:	3.494	Roll Set Point:	0.133	Pitch Set Point:	0.141	Yaw Set Point:	-0.010	X_WP:	0.000	Y_WP:	0.000	Y_WP:	0.500	X:	-0.066	Y:	-0.071	Z:	0.592	yaw:	0.567	yaw rate:	3.707	Roll:	-1.253	Pitch:	-0.250	Yaw:	2.621	Thrust:	63.683
Time:	3.512	Roll Set Point:	0.132	Pitch Set Point:	0.137	Yaw Set Point:	-0.013	X_WP:	0.000	Y_WP:	0.000	Y_WP:	0.500	X:	-0.065	Y:	-0.069	Z:	0.587	yaw:	0.763	yaw rate:	-19.594	Roll:	-1.281	Pitch:	0.388	Yaw:	5.762	Thrust:	52.479
Time:	3.533	Roll Set Point:	0.130	Pitch Set Point:	0.133	Yaw Set Point:	-0.015	X_WP:	0.000	Y_WP:	0.000	Y_WP:	0.500	X:	-0.065	Y:	-0.067	Z:	0.582	yaw:	0.876	yaw rate:	-11.336	Roll:	-1.323	Pitch:	0.022	Yaw:	4.739	Thrust:	60.247
Time:	3.552	Roll Set Point:	0.129	Pitch Set Point:	0.129	Yaw Set Point:	-0.020	X_WP:	0.000	Y_WP:	0.000	Y_WP:	0.500	X:	-0.064	Y:	-0.065	Z:	0.577	yaw:	1.152	yaw rate:	-27.515	Roll:	-1.366	Pitch:	0.203	Yaw:	7.272	Thrust:	56.401
Time:	3.572	Roll Set Point:	0.126	Pitch Set Point:	0.127	Yaw Set Point:	0.012	X_WP:	0.000	Y_WP:	0.000	Y_WP:	0.500	X:	-0.064	Y:	-0.063	Z:	0.573	yaw:	-0.676	yaw rate:	182.710	Roll:	0.377	Pitch:	-1.562	Yaw:	-22.634	Thrust:	56.164
Time:	3.592	Roll Set Point:	0.125	Pitch Set Point:	0.124	Yaw Set Point:	0.014	X_WP:	0.000	Y_WP:	0.000	Y_WP:	0.500	X:	-0.063	Y:	-0.062	Z:	0.568	yaw:	-0.827	yaw rate:	15.163	Roll:	-1.024	Pitch:	-0.429	Yaw:	-1.131	Thrust:	58.931
Time:	3.616	Roll Set Point:	0.123	Pitch Set Point:	0.121	Yaw Set Point:	0.013	X_WP:	0.000	Y_WP:	0.000	Y_WP:	0.500	X:	-0.062	Y:	-0.060	Z:	0.563	yaw:	-0.745	yaw rate:	-8.257	Roll:	-1.165	Pitch:	-0.263	Yaw:	2.164	Thrust:	64.268
Time:	3.631	Roll Set Point:	0.122	Pitch Set Point:	0.117	Yaw Set Point:	0.008	X_WP:	0.000	Y_WP:	0.000	Y_WP:	0.500	X:	-0.061	Y:	-0.059	Z:	0.558	yaw:	-0.444	yaw rate:	-30.078	Roll:	-1.197	Pitch:	0.328	Yaw:	5.831	Thrust:	51.399
Time:	3.654	Roll Set Point:	0.121	Pitch Set Point:	0.113	Yaw Set Point:	-0.003	X_WP:	0.000	Y_WP:	0.000	Y_WP:	0.500	X:	-0.061	Y:	-0.056	Z:	0.554	yaw:	0.152	yaw rate:	-59.555	Roll:	-1.592	Pitch:	0.629	Yaw:	9.390	Thrust:	61.844
Time:	3.671	Roll Set Point:	0.120	Pitch Set Point:	0.110	Yaw Set Point:	-0.007	X_WP:	0.000	Y_WP:	0.000	Y_WP:	0.500	X:	-0.060	Y:	-0.055	Z:	0.550	yaw:	0.402	yaw rate:	-25.046	Roll:	-1.050	Pitch:	0.300	Yaw:	6.036	Thrust:	52.234
Time:	3.695	Roll Set Point:	0.118	Pitch Set Point:	0.107	Yaw Set Point:	0.004	X_WP:	0.000	Y_WP:	0.000	Y_WP:	0.500	X:	-0.059	Y:	-0.054	Z:	0.545	yaw:	-0.220	yaw rate:	62.195	Roll:	-0.743	Pitch:	-0.701	Yaw:	-4.598	Thrust:	68.331
Time:	3.712	Roll Set Point:	0.116	Pitch Set Point:	0.106	Yaw Set Point:	0.015	X_WP:	0.000	Y_WP:	0.000	Y_WP:	0.500	X:	-0.058	Y:	-0.053	Z:	0.540	yaw:	-0.883	yaw rate:	66.346	Roll:	-0.308	Pitch:	-1.005	Yaw:	-10.098	Thrust:	52.914
Time:	3.733	Roll Set Point:	0.115	Pitch Set Point:	0.102	Yaw Set Point:	0.002	X_WP:	0.000	Y_WP:	0.000	Y_WP:	0.500	X:	-0.058	Y:	-0.051	Z:	0.535	yaw:	-0.105	yaw rate:	-77.873	Roll:	-1.489	Pitch:	0.605	Yaw:	11.434	Thrust:	64.073
Time:	3.751	Roll Set Point:	0.114	Pitch Set Point:	0.099	Yaw Set Point:	-0.006	X_WP:	0.000	Y_WP:	0.000	Y_WP:	0.500	X:	-0.057	Y:	-0.050	Z:	0.529	yaw:	0.367	yaw rate:	-47.156	Roll:	-1.110	Pitch:	0.238	Yaw:	9.280	Thrust:	56.327
Time:	3.779	Roll Set Point:	0.111	Pitch Set Point:	0.099	Yaw Set Point:	0.021	X_WP:	0.000	Y_WP:	0.000	Y_WP:	0.500	X:	-0.056	Y:	-0.049	Z:	0.524	yaw:	-1.193	yaw rate:	155.959	Roll:	-0.208	Pitch:	-1.516	Yaw:	-13.716	Thrust:	74.514
Time:	3.792	Roll Set Point:	0.110	Pitch Set Point:	0.095	Yaw Set Point:	0.008	X_WP:	0.000	Y_WP:	0.000	Y_WP:	0.500	X:	-0.055	Y:	-0.047	Z:	0.519	yaw:	-0.448	yaw rate:	-74.495	Roll:	-1.539	Pitch:	1.530	Yaw:	15.364	Thrust:	51.182
Time:	3.816	Roll Set Point:	0.109	Pitch Set Point:	0.093	Yaw Set Point:	0.001	X_WP:	0.000	Y_WP:	0.000	Y_WP:	0.500	X:	-0.054	Y:	-0.047	Z:	0.513	yaw:	-0.066	yaw rate:	-38.210	Roll:	-1.034	Pitch:	-0.252	Yaw:	6.429	Thrust:	70.377
Time:	3.831	Roll Set Point:	0.106	Pitch Set Point:	0.093	Yaw Set Point:	0.028	X_WP:	0.000	Y_WP:	0.000	Y_WP:	0.500	X:	-0.054	Y:	-0.046	Z:	0.507	yaw:	-1.576	yaw rate:	151.049	Roll:	0.417	Pitch:	-1.697	Yaw:	-27.119	Thrust:	54.890
Time:	3.858	Roll Set Point:	0.105	Pitch Set Point:	0.091	Yaw Set Point:	0.024	X_WP:	0.000	Y_WP:	0.000	Y_WP:	0.500	X:	-0.053	Y:	-0.045	Z:	0.501	yaw:	-1.381	yaw rate:	-19.535	Roll:	-0.971	Pitch:	-0.403	Yaw:	2.605	Thrust:	76.636
Time:	3.871	Roll Set Point:	0.103	Pitch Set Point:	0.088	Yaw Set Point:	0.007	X_WP:	0.000	Y_WP:	0.000	Y_WP:	0.500	X:	-0.052	Y:	-0.044	Z:	0.496	yaw:	-0.376	yaw rate:	-100.494	Roll:	-1.092	Pitch:	1.050	Yaw:	20.493	Thrust:	50.853
Time:	3.891	Roll Set Point:	0.101	Pitch Set Point:	0.087	Yaw Set Point:	0.013	X_WP:	0.000	Y_WP:	0.000	Y_WP:	0.500	X:	-0.051	Y:	-0.043	Z:	0.490	yaw:	-0.737	yaw rate:	36.143	Roll:	-0.497	Pitch:	-0.431	Yaw:	-3.770	Thrust:	63.112
Time:	3.917	Roll Set Point:	0.099	Pitch Set Point:	0.086	Yaw Set Point:	0.026	X_WP:	0.000	Y_WP:	0.000	Y_WP:	0.500	X:	-0.050	Y:	-0.042	Z:	0.484	yaw:	-1.505	yaw rate:	76.782	Roll:	-0.485	Pitch:	-1.107	Yaw:	-7.902	Thrust:	73.522
Time:	3.932	Roll Set Point:	0.098	Pitch Set Point:	0.084	Yaw Set Point:	0.006	X_WP:	0.000	Y_WP:	0.000	Y_WP:	0.500	X:	-0.049	Y:	-0.042	Z:	0.479	yaw:	-0.351	yaw rate:	-115.354	Roll:	-1.037	Pitch:	0.769	Yaw:	20.259	Thrust:	54.529
Time:	3.957	Roll Set Point:	0.096	Pitch Set Point:	0.083	Yaw Set Point:	0.013	X_WP:	0.000	Y_WP:	0.000	Y_WP:	0.500	X:	-0.048	Y:	-0.041	Z:	0.473	yaw:	-0.773	yaw rate:	42.186	Roll:	-0.572	Pitch:	-0.686	Yaw:	-2.902	Thrust:	76.010
Time:	3.971	Roll Set Point:	0.093	Pitch Set Point:	0.083	Yaw Set Point:	0.029	X_WP:	0.000	Y_WP:	0.000	Y_WP:	0.500	X:	-0.047	Y:	-0.041	Z:	0.468	yaw:	-1.660	yaw rate:	88.677	Roll:	0.422	Pitch:	-1.598	Yaw:	-17.905	Thrust:	54.567
Time:	3.992	Roll Set Point:	0.092	Pitch Set Point:	0.081	Yaw Set Point:	0.012	X_WP:	0.000	Y_WP:	0.000	Y_WP:	0.500	X:	-0.046	Y:	-0.040	Z:	0.463	yaw:	-0.664	yaw rate:	-99.652	Roll:	-0.978	Pitch:	0.092	Yaw:	13.444	Thrust:	65.711
Time:	4.017	Roll Set Point:	0.090	Pitch Set Point:	0.080	Yaw Set Point:	0.010	X_WP:	0.000	Y_WP:	0.000	Y_WP:	0.500	X:	-0.045	Y:	-0.040	Z:	0.458	yaw:	-0.580	yaw rate:	-8.350	Roll:	-0.548	Pitch:	-0.634	Yaw:	2.420	Thrust:	73.329
Time:	4.031	Roll Set Point:	0.088	Pitch Set Point:	0.080	Yaw Set Point:	0.019	X_WP:	0.000	Y_WP:	0.000	Y_WP:	0.500	X:	-0.044	Y:	-0.040	Z:	0.453	yaw:	-1.081	yaw rate:	50.064	Roll:	0.182	Pitch:	-1.112	Yaw:	-9.510	Thrust:	52.999
Time:	4.054	Roll Set Point:	0.085	Pitch Set Point:	0.080	Yaw Set Point:	0.033	X_WP:	0.000	Y_WP:	0.000	Y_WP:	0.500	X:	-0.043	Y:	-0.040	Z:	0.447	yaw:	-1.918	yaw rate:	83.737	Roll:	0.063	Pitch:	-1.380	Yaw:	-9.811	Thrust:	72.623
Time:	4.071	Roll Set Point:	0.084	Pitch Set Point:	0.078	Yaw Set Point:	0.015	X_WP:	0.000	Y_WP:	0.000	Y_WP:	0.500	X:	-0.042	Y:	-0.039	Z:	0.443	yaw:	-0.878	yaw rate:	-104.049	Roll:	-0.950	Pitch:	0.518	Yaw:	16.710	Thrust:	55.376
Time:	4.093	Roll Set Point:	0.082	Pitch Set Point:	0.078	Yaw Set Point:	0.010	X_WP:	0.000	Y_WP:	0.000	Y_WP:	0.500	X:	-0.041	Y:	-0.039	Z:	0.438	yaw:	-0.550	yaw rate:	-32.730	Roll:	-0.616	Pitch:	-0.627	Yaw:	5.207	Thrust:	69.496
Time:	4.115	Roll Set Point:	0.080	Pitch Set Point:	0.078	Yaw Set Point:	0.012	X_WP:	0.000	Y_WP:	0.000	Y_WP:	0.500	X:	-0.040	Y:	-0.039	Z:	0.434	yaw:	-0.680	yaw rate:	12.997	Roll:	-0.293	Pitch:	-1.089	Yaw:	-0.427	Thrust:	69.336
Time:	4.132	Roll Set Point:	0.078	Pitch Set Point:	0.078	Yaw Set Point:	0.037	X_WP:	0.000	Y_WP:	0.000	Y_WP:	0.500	X:	-0.040	Y:	-0.038	Z:	0.429	yaw:	-2.141	yaw rate:	146.054	Roll:	0.412	Pitch:	-1.629	Yaw:	-23.141	Thrust:	60.440
Time:	4.155	Roll Set Point:	0.076	Pitch Set Point:	0.077	Yaw Set Point:	0.015	X_WP:	0.000	Y_WP:	0.000	Y_WP:	0.500	X:	-0.038	Y:	-0.038	Z:	0.425	yaw:	-0.885	yaw rate:	-125.560	Roll:	-0.792	Pitch:	-0.168	Yaw:	15.130	Thrust:	69.627
Time:	4.186	Roll Set Point:	0.075	Pitch Set Point:	0.077	Yaw Set Point:	0.012	X_WP:	0.000	Y_WP:	0.000	Y_WP:	0.500	X:	-0.038	Y:	-0.038	Z:	0.421	yaw:	-0.690	yaw rate:	-19.516	Roll:	-0.608	Pitch:	-0.653	Yaw:	3.505	Thrust:	88.538
Time:	4.198	Roll Set Point:	0.072	Pitch Set Point:	0.077	Yaw Set Point:	0.017	X_WP:	0.000	Y_WP:	0.000	Y_WP:	0.500	X:	-0.037	Y:	-0.038	Z:	0.418	yaw:	-0.998	yaw rate:	30.806	Roll:	0.372	Pitch:	-1.385	Yaw:	-6.681	Thrust:	49.781
Time:	4.213	Roll Set Point:	0.070	Pitch Set Point:	0.078	Yaw Set Point:	0.024	X_WP:	0.000	Y_WP:	0.000	Y_WP:	0.500	X:	-0.036	Y:	-0.038	Z:	0.415	yaw:	-1.376	yaw rate:	37.820	Roll:	0.598	Pitch:	-1.564	Yaw:	-7.394	Thrust:	51.529
Time:	4.232	Roll Set Point:	0.069	Pitch Set Point:	0.077	Yaw Set Point:	0.024	X_WP:	0.000	Y_WP:	0.000	Y_WP:	0.500	X:	-0.035	Y:	-0.038	Z:	0.411	yaw:	-1.373	yaw rate:	-0.359	Roll:	-0.297	Pitch:	-0.684	Yaw:	-0.086	Thrust:	63.318
Time:	4.252	Roll Set Point:	0.067	Pitch Set Point:	0.077	Yaw Set Point:	0.018	X_WP:	0.000	Y_WP:	0.000	Y_WP:	0.500	X:	-0.034	Y:	-0.038	Z:	0.409	yaw:	-1.030	yaw rate:	-34.244	Roll:	-0.355	Pitch:	-0.888	Yaw:	4.991	Thrust:	60.397
Time:	4.272	Roll Set Point:	0.065	Pitch Set Point:	0.078	Yaw Set Point:	0.019	X_WP:	0.000	Y_WP:	0.000	Y_WP:	0.500	X:	-0.033	Y:	-0.038	Z:	0.407	yaw:	-1.113	yaw rate:	8.302	Roll:	-0.025	Pitch:	-1.148	Yaw:	-0.699	Thrust:	61.655
Time:	4.295	Roll Set Point:	0.063	Pitch Set Point:	0.077	Yaw Set Point:	0.023	X_WP:	0.000	Y_WP:	0.000	Y_WP:	0.500	X:	-0.032	Y:	-0.038	Z:	0.405	yaw:	-1.342	yaw rate:	22.910	Roll:	-0.245	Pitch:	-0.880	Yaw:	-2.505	Thrust:	70.052
Time:	4.312	Roll Set Point:	0.061	Pitch Set Point:	0.077	Yaw Set Point:	0.026	X_WP:	0.000	Y_WP:	0.000	Y_WP:	0.500	X:	-0.031	Y:	-0.038	Z:	0.404	yaw:	-1.493	yaw rate:	15.071	Roll:	0.074	Pitch:	-1.064	Yaw:	-2.873	Thrust:	51.967
Time:	4.332	Roll Set Point:	0.059	Pitch Set Point:	0.078	Yaw Set Point:	0.026	X_WP:	0.000	Y_WP:	0.000	Y_WP:	0.500	X:	-0.030	Y:	-0.038	Z:	0.403	yaw:	-1.488	yaw rate:	-0.470	Roll:	0.017	Pitch:	-1.107	Yaw:	-0.239	Thrust:	63.727
Time:	4.353	Roll Set Point:	0.058	Pitch Set Point:	0.078	Yaw Set Point:	0.024	X_WP:	0.000	Y_WP:	0.000	Y_WP:	0.500	X:	-0.029	Y:	-0.039	Z:	0.401	yaw:	-1.388	yaw rate:	-10.010	Roll:	-0.194	Pitch:	-1.041	Yaw:	1.185	Thrust:	64.346
Time:	4.370	Roll Set Point:	0.056	Pitch Set Point:	0.078	Yaw Set Point:	0.027	X_WP:	0.000	Y_WP:	0.000	Y_WP:	0.500	X:	-0.029	Y:	-0.038	Z:	0.400	yaw:	-1.559	yaw rate:	17.075	Roll:	0.004	Pitch:	-0.869	Yaw:	-3.313	Thrust:	55.009
Time:	4.394	Roll Set Point:	0.054	Pitch Set Point:	0.078	Yaw Set Point:	0.025	X_WP:	0.000	Y_WP:	0.000	Y_WP:	0.500	X:	-0.028	Y:	-0.039	Z:	0.399	yaw:	-1.453	yaw rate:	-10.581	Roll:	-0.114	Pitch:	-1.133	Yaw:	1.217	Thrust:	71.677
Time:	4.413	Roll Set Point:	0.053	Pitch Set Point:	0.078	Yaw Set Point:	0.022	X_WP:	0.000	Y_WP:	0.000	Y_WP:	0.500	X:	-0.027	Y:	-0.039	Z:	0.398	yaw:	-1.262	yaw rate:	-19.113	Roll:	0.007	Pitch:	-1.033	Yaw:	2.512	Thrust:	57.509
Time:	4.433	Roll Set Point:	0.051	Pitch Set Point:	0.078	Yaw Set Point:	0.021	X_WP:	0.000	Y_WP:	0.000	Y_WP:	0.500	X:	-0.026	Y:	-0.039	Z:	0.397	yaw:	-1.203	yaw rate:	-5.879	Roll:	-0.035	Pitch:	-1.003	Yaw:	0.774	Thrust:	61.879
Time:	4.452	Roll Set Point:	0.049	Pitch Set Point:	0.079	Yaw Set Point:	0.021	X_WP:	0.000	Y_WP:	0.000	Y_WP:	0.500	X:	-0.025	Y:	-0.039	Z:	0.397	yaw:	-1.186	yaw rate:	-1.689	Roll:	0.110	Pitch:	-1.223	Yaw:	0.237	Thrust:	58.085
Time:	4.471	Roll Set Point:	0.047	Pitch Set Point:	0.079	Yaw Set Point:	0.032	X_WP:	0.000	Y_WP:	0.000	Y_WP:	0.500	X:	-0.024	Y:	-0.039	Z:	0.397	yaw:	-1.839	yaw rate:	65.277	Roll:	0.515	Pitch:	-1.326	Yaw:	-9.876	Thrust:	58.563
Time:	4.492	Roll Set Point:	0.046	Pitch Set Point:	0.078	Yaw Set Point:	0.021	X_WP:	0.000	Y_WP:	0.000	Y_WP:	0.500	X:	-0.024	Y:	-0.039	Z:	0.397	yaw:	-1.199	yaw rate:	-64.033	Roll:	-0.639	Pitch:	-0.487	Yaw:	7.967	Thrust:	65.131
Time:	4.514	Roll Set Point:	0.044	Pitch Set Point:	0.078	Yaw Set Point:	0.023	X_WP:	0.000	Y_WP:	0.000	Y_WP:	0.500	X:	-0.023	Y:	-0.039	Z:	0.397	yaw:	-1.291	yaw rate:	9.214	Roll:	0.166	Pitch:	-1.087	Yaw:	-1.164	Thrust:	62.437
Time:	4.531	Roll Set Point:	0.043	Pitch Set Point:	0.078	Yaw Set Point:	0.032	X_WP:	0.000	Y_WP:	0.000	Y_WP:	0.500	X:	-0.022	Y:	-0.039	Z:	0.398	yaw:	-1.819	yaw rate:	52.828	Roll:	0.328	Pitch:	-1.003	Yaw:	-9.024	Thrust:	51.449
Time:	4.554	Roll Set Point:	0.041	Pitch Set Point:	0.078	Yaw Set Point:	0.032	X_WP:	0.000	Y_WP:	0.000	Y_WP:	0.500	X:	-0.021	Y:	-0.039	Z:	0.399	yaw:	-1.814	yaw rate:	-0.575	Roll:	-0.021	Pitch:	-0.950	Yaw:	-0.576	Thrust:	66.985
Time:	4.577	Roll Set Point:	0.040	Pitch Set Point:	0.078	Yaw Set Point:	0.022	X_WP:	0.000	Y_WP:	0.000	Y_WP:	0.500	X:	-0.020	Y:	-0.039	Z:	0.400	yaw:	-1.273	yaw rate:	-54.033	Roll:	-0.203	Pitch:	-0.836	Yaw:	6.334	Thrust:	67.233
Time:	4.593	Roll Set Point:	0.038	Pitch Set Point:	0.078	Yaw Set Point:	0.030	X_WP:	0.000	Y_WP:	0.000	Y_WP:	0.500	X:	-0.020	Y:	-0.038	Z:	0.401	yaw:	-1.740	yaw rate:	46.675	Roll:	0.314	Pitch:	-0.890	Yaw:	-8.559	Thrust:	47.972
Time:	4.616	Roll Set Point:	0.037	Pitch Set Point:	0.077	Yaw Set Point:	0.025	X_WP:	0.000	Y_WP:	0.000	Y_WP:	0.500	X:	-0.019	Y:	-0.038	Z:	0.402	yaw:	-1.455	yaw rate:	-28.459	Roll:	-0.104	Pitch:	-0.876	Yaw:	3.095	Thrust:	67.839
Time:	4.632	Roll Set Point:	0.035	Pitch Set Point:	0.078	Yaw Set Point:	0.035	X_WP:	0.000	Y_WP:	0.000	Y_WP:	0.500	X:	-0.018	Y:	-0.039	Z:	0.404	yaw:	-1.985	yaw rate:	52.959	Roll:	0.833	Pitch:	-1.338	Yaw:	-10.092	Thrust:	44.727
Time:	4.654	Roll Set Point:	0.034	Pitch Set Point:	0.077	Yaw Set Point:	0.021	X_WP:	0.000	Y_WP:	0.000	Y_WP:	0.500	X:	-0.018	Y:	-0.038	Z:	0.405	yaw:	-1.182	yaw rate:	-80.308	Roll:	-0.512	Pitch:	-0.491	Yaw:	9.571	Thrust:	67.987
Time:	4.670	Roll Set Point:	0.033	Pitch Set Point:	0.076	Yaw Set Point:	0.032	X_WP:	0.000	Y_WP:	0.000	Y_WP:	0.500	X:	-0.017	Y:	-0.038	Z:	0.407	yaw:	-1.832	yaw rate:	65.023	Roll:	0.402	Pitch:	-0.738	Yaw:	-11.674	Thrust:	46.991
Time:	4.692	Roll Set Point:	0.032	Pitch Set Point:	0.076	Yaw Set Point:	0.025	X_WP:	0.000	Y_WP:	0.000	Y_WP:	0.500	X:	-0.016	Y:	-0.038	Z:	0.408	yaw:	-1.424	yaw rate:	-40.775	Roll:	-0.084	Pitch:	-0.823	Yaw:	4.676	Thrust:	63.474
Time:	4.714	Roll Set Point:	0.031	Pitch Set Point:	0.075	Yaw Set Point:	0.027	X_WP:	0.000	Y_WP:	0.000	Y_WP:	0.500	X:	-0.016	Y:	-0.037	Z:	0.410	yaw:	-1.560	yaw rate:	13.603	Roll:	-0.055	Pitch:	-0.719	Yaw:	-1.959	Thrust:	66.825
Time:	4.731	Roll Set Point:	0.030	Pitch Set Point:	0.074	Yaw Set Point:	0.026	X_WP:	0.000	Y_WP:	0.000	Y_WP:	0.500	X:	-0.015	Y:	-0.037	Z:	0.411	yaw:	-1.503	yaw rate:	-5.745	Roll:	0.059	Pitch:	-0.550	Yaw:	0.108	Thrust:	49.021
Time:	4.757	Roll Set Point:	0.029	Pitch Set Point:	0.073	Yaw Set Point:	0.027	X_WP:	0.000	Y_WP:	0.000	Y_WP:	0.500	X:	-0.015	Y:	-0.037	Z:	0.412	yaw:	-1.531	yaw rate:	2.798	Roll:	-0.057	Pitch:	-0.621	Yaw:	-0.385	Thrust:	67.086
Time:	4.772	Roll Set Point:	0.028	Pitch Set Point:	0.073	Yaw Set Point:	0.014	X_WP:	0.000	Y_WP:	0.000	Y_WP:	0.500	X:	-0.014	Y:	-0.036	Z:	0.413	yaw:	-0.781	yaw rate:	-74.986	Roll:	-0.248	Pitch:	-0.718	Yaw:	13.032	Thrust:	58.766
Time:	4.794	Roll Set Point:	0.027	Pitch Set Point:	0.072	Yaw Set Point:	0.019	X_WP:	0.000	Y_WP:	0.000	Y_WP:	0.500	X:	-0.014	Y:	-0.036	Z:	0.413	yaw:	-1.064	yaw rate:	28.324	Roll:	0.021	Pitch:	-0.545	Yaw:	-3.317	Thrust:	65.980
Time:	4.817	Roll Set Point:	0.026	Pitch Set Point:	0.071	Yaw Set Point:	0.024	X_WP:	0.000	Y_WP:	0.000	Y_WP:	0.500	X:	-0.014	Y:	-0.035	Z:	0.414	yaw:	-1.377	yaw rate:	31.301	Roll:	0.022	Pitch:	-0.575	Yaw:	-3.568	Thrust:	70.226
Time:	4.831	Roll Set Point:	0.026	Pitch Set Point:	0.070	Yaw Set Point:	0.020	X_WP:	0.000	Y_WP:	0.000	Y_WP:	0.500	X:	-0.013	Y:	-0.035	Z:	0.414	yaw:	-1.148	yaw rate:	-22.925	Roll:	-0.083	Pitch:	-0.507	Yaw:	3.855	Thrust:	46.513
Time:	4.856	Roll Set Point:	0.025	Pitch Set Point:	0.070	Yaw Set Point:	0.014	X_WP:	0.000	Y_WP:	0.000	Y_WP:	0.500	X:	-0.013	Y:	-0.035	Z:	0.414	yaw:	-0.801	yaw rate:	-34.752	Roll:	-0.253	Pitch:	-0.614	Yaw:	4.436	Thrust:	77.210
Time:	4.871	Roll Set Point:	0.024	Pitch Set Point:	0.068	Yaw Set Point:	0.034	X_WP:	0.000	Y_WP:	0.000	Y_WP:	0.500	X:	-0.013	Y:	-0.034	Z:	0.415	yaw:	-1.930	yaw rate:	112.961	Roll:	0.332	Pitch:	-0.354	Yaw:	-21.227	Thrust:	47.799
Time:	4.892	Roll Set Point:	0.024	Pitch Set Point:	0.068	Yaw Set Point:	0.017	X_WP:	0.000	Y_WP:	0.000	Y_WP:	0.500	X:	-0.012	Y:	-0.034	Z:	0.416	yaw:	-0.974	yaw rate:	-95.649	Roll:	-0.327	Pitch:	-0.465	Yaw:	12.390	Thrust:	63.368
Time:	4.914	Roll Set Point:	0.023	Pitch Set Point:	0.067	Yaw Set Point:	0.015	X_WP:	0.000	Y_WP:	0.000	Y_WP:	0.500	X:	-0.012	Y:	-0.033	Z:	0.416	yaw:	-0.875	yaw rate:	-9.869	Roll:	-0.202	Pitch:	-0.633	Yaw:	1.606	Thrust:	70.726
Time:	4.931	Roll Set Point:	0.023	Pitch Set Point:	0.066	Yaw Set Point:	0.020	X_WP:	0.000	Y_WP:	0.000	Y_WP:	0.500	X:	-0.012	Y:	-0.033	Z:	0.417	yaw:	-1.147	yaw rate:	27.254	Roll:	-0.124	Pitch:	-0.501	Yaw:	-4.382	Thrust:	54.096
Time:	4.953	Roll Set Point:	0.022	Pitch Set Point:	0.065	Yaw Set Point:	0.017	X_WP:	0.000	Y_WP:	0.000	Y_WP:	0.500	X:	-0.011	Y:	-0.033	Z:	0.418	yaw:	-0.977	yaw rate:	-16.999	Roll:	-0.168	Pitch:	-0.472	Yaw:	2.281	Thrust:	68.655
Time:	4.977	Roll Set Point:	0.022	Pitch Set Point:	0.065	Yaw Set Point:	0.007	X_WP:	0.000	Y_WP:	0.000	Y_WP:	0.500	X:	-0.011	Y:	-0.032	Z:	0.418	yaw:	-0.393	yaw rate:	-58.459	Roll:	-0.403	Pitch:	-0.492	Yaw:	7.656	Thrust:	76.093
Time:	4.994	Roll Set Point:	0.021	Pitch Set Point:	0.063	Yaw Set Point:	0.033	X_WP:	0.000	Y_WP:	0.000	Y_WP:	0.500	X:	-0.011	Y:	-0.031	Z:	0.419	yaw:	-1.914	yaw rate:	152.146	Roll:	0.475	Pitch:	-0.322	Yaw:	-24.185	Thrust:	53.169
Time:	5.015	Roll Set Point:	0.021	Pitch Set Point:	0.063	Yaw Set Point:	0.035	X_WP:	0.000	Y_WP:	0.000	Y_WP:	0.500	X:	-0.011	Y:	-0.031	Z:	0.420	yaw:	-1.986	yaw rate:	7.191	Roll:	-0.291	Pitch:	-0.754	Yaw:	-2.194	Thrust:	66.784
Time:	5.032	Roll Set Point:	0.021	Pitch Set Point:	0.062	Yaw Set Point:	0.021	X_WP:	0.000	Y_WP:	0.000	Y_WP:	0.500	X:	-0.011	Y:	-0.031	Z:	0.421	yaw:	-1.176	yaw rate:	-81.028	Roll:	-0.403	Pitch:	-0.159	Yaw:	12.016	Thrust:	52.364
Time:	5.054	Roll Set Point:	0.021	Pitch Set Point:	0.061	Yaw Set Point:	0.005	X_WP:	0.000	Y_WP:	0.000	Y_WP:	0.500	X:	-0.011	Y:	-0.031	Z:	0.423	yaw:	-0.308	yaw rate:	-86.841	Roll:	-0.502	Pitch:	-0.524	Yaw:	11.596	Thrust:	65.988
Time:	5.076	Roll Set Point:	0.021	Pitch Set Point:	0.061	Yaw Set Point:	0.008	X_WP:	0.000	Y_WP:	0.000	Y_WP:	0.500	X:	-0.011	Y:	-0.030	Z:	0.425	yaw:	-0.458	yaw rate:	15.039	Roll:	-0.257	Pitch:	-0.498	Yaw:	-0.908	Thrust:	64.641
Time:	5.094	Roll Set Point:	0.021	Pitch Set Point:	0.060	Yaw Set Point:	0.009	X_WP:	0.000	Y_WP:	0.000	Y_WP:	0.500	X:	-0.011	Y:	-0.030	Z:	0.427	yaw:	-0.493	yaw rate:	3.552	Roll:	-0.291	Pitch:	-0.478	Yaw:	0.131	Thrust:	57.133
Time:	5.117	Roll Set Point:	0.021	Pitch Set Point:	0.059	Yaw Set Point:	0.009	X_WP:	0.000	Y_WP:	0.000	Y_WP:	0.500	X:	-0.011	Y:	-0.030	Z:	0.429	yaw:	-0.533	yaw rate:	3.986	Roll:	-0.278	Pitch:	-0.547	Yaw:	0.444	Thrust:	71.855
Time:	5.133	Roll Set Point:	0.021	Pitch Set Point:	0.059	Yaw Set Point:	0.011	X_WP:	0.000	Y_WP:	0.000	Y_WP:	0.500	X:	-0.011	Y:	-0.029	Z:	0.432	yaw:	-0.649	yaw rate:	11.559	Roll:	-0.280	Pitch:	-0.475	Yaw:	-1.749	Thrust:	41.964
Time:	5.156	Roll Set Point:	0.021	Pitch Set Point:	0.058	Yaw Set Point:	0.008	X_WP:	0.000	Y_WP:	0.000	Y_WP:	0.500	X:	-0.011	Y:	-0.029	Z:	0.435	yaw:	-0.469	yaw rate:	-18.002	Roll:	-0.442	Pitch:	-0.391	Yaw:	3.017	Thrust:	69.801
Time:	5.172	Roll Set Point:	0.021	Pitch Set Point:	0.057	Yaw Set Point:	0.013	X_WP:	0.000	Y_WP:	0.000	Y_WP:	0.500	X:	-0.011	Y:	-0.029	Z:	0.438	yaw:	-0.719	yaw rate:	24.973	Roll:	-0.266	Pitch:	-0.527	Yaw:	-3.815	Thrust:	43.866
Time:	5.197	Roll Set Point:	0.021	Pitch Set Point:	0.057	Yaw Set Point:	0.008	X_WP:	0.000	Y_WP:	0.000	Y_WP:	0.500	X:	-0.011	Y:	-0.028	Z:	0.442	yaw:	-0.472	yaw rate:	-24.711	Roll:	-0.382	Pitch:	-0.530	Yaw:	3.701	Thrust:	75.222
Time:	5.218	Roll Set Point:	0.021	Pitch Set Point:	0.056	Yaw Set Point:	0.005	X_WP:	0.000	Y_WP:	0.000	Y_WP:	0.500	X:	-0.011	Y:	-0.028	Z:	0.445	yaw:	-0.311	yaw rate:	-16.093	Roll:	-0.492	Pitch:	-0.427	Yaw:	3.114	Thrust:	49.180
Time:	5.233	Roll Set Point:	0.021	Pitch Set Point:	0.056	Yaw Set Point:	0.008	X_WP:	0.000	Y_WP:	0.000	Y_WP:	0.500	X:	-0.011	Y:	-0.028	Z:	0.448	yaw:	-0.483	yaw rate:	17.251	Roll:	-0.333	Pitch:	-0.502	Yaw:	-2.361	Thrust:	50.987
Time:	5.258	Roll Set Point:	0.021	Pitch Set Point:	0.055	Yaw Set Point:	0.011	X_WP:	0.000	Y_WP:	0.000	Y_WP:	0.500	X:	-0.011	Y:	-0.028	Z:	0.451	yaw:	-0.603	yaw rate:	11.988	Roll:	-0.405	Pitch:	-0.575	Yaw:	-0.373	Thrust:	71.855
Time:	5.272	Roll Set Point:	0.022	Pitch Set Point:	0.055	Yaw Set Point:	0.007	X_WP:	0.000	Y_WP:	0.000	Y_WP:	0.500	X:	-0.011	Y:	-0.027	Z:	0.453	yaw:	-0.389	yaw rate:	-21.387	Roll:	-0.495	Pitch:	-0.463	Yaw:	4.322	Thrust:	44.810
Time:	5.296	Roll Set Point:	0.022	Pitch Set Point:	0.054	Yaw Set Point:	0.004	X_WP:	0.000	Y_WP:	0.000	Y_WP:	0.500	X:	-0.011	Y:	-0.027	Z:	0.455	yaw:	-0.203	yaw rate:	-18.588	Roll:	-0.455	Pitch:	-0.520	Yaw:	3.406	Thrust:	74.631
