Time:	0.032	Roll Set Point:	-0.038	Pitch Set Point:	-0.081	Yaw Set Point:	-1.918	X_WP:	0.000	Y_WP:	0.000	Y_WP:	0.000	X:	-0.039	Y:	0.067	Z:	0.059	yaw:	109.918	yaw rate:	-0.572	Roll:	2.215	Pitch:	0.395	Yaw:	153.474	Thrust:	0.000
Time:	0.043	Roll Set Point:	-0.038	Pitch Set Point:	-0.081	Yaw Set Point:	-1.919	X_WP:	0.000	Y_WP:	0.000	Y_WP:	0.000	X:	-0.039	Y:	0.067	Z:	0.059	yaw:	109.924	yaw rate:	0.644	Roll:	2.225	Pitch:	0.385	Yaw:	154.085	Thrust:	0.000
Time:	0.055	Roll Set Point:	-0.038	Pitch Set Point:	-0.081	Yaw Set Point:	-1.914	X_WP:	0.000	Y_WP:	0.000	Y_WP:	0.000	X:	-0.039	Y:	0.067	Z:	0.059	yaw:	109.682	yaw rate:	-24.250	Roll:	2.193	Pitch:	0.663	Yaw:	148.793	Thrust:	0.000
Time:	0.067	Roll Set Point:	-0.038	Pitch Set Point:	-0.081	Yaw Set Point:	-1.917	X_WP:	0.000	Y_WP:	0.000	Y_WP:	0.000	X:	-0.039	Y:	0.067	Z:	0.059	yaw:	109.824	yaw rate:	14.215	Roll:	2.093	Pitch:	0.206	Yaw:	157.821	Thrust:	0.000
Time:	0.078	Roll Set Point:	-0.038	Pitch Set Point:	-0.081	Yaw Set Point:	-1.914	X_WP:	0.000	Y_WP:	0.000	Y_WP:	0.000	X:	-0.039	Y:	0.067	Z:	0.059	yaw:	109.676	yaw rate:	-14.808	Roll:	2.353	Pitch:	0.577	Yaw:	150.738	Thrust:	0.000
Time:	0.090	Roll Set Point:	-0.038	Pitch Set Point:	-0.081	Yaw Set Point:	-1.918	X_WP:	0.000	Y_WP:	0.000	Y_WP:	0.000	X:	-0.039	Y:	0.067	Z:	0.059	yaw:	109.921	yaw rate:	24.565	Roll:	2.236	Pitch:	0.167	Yaw:	160.038	Thrust:	0.000
Time:	0.100	Roll Set Point:	-0.038	Pitch Set Point:	-0.081	Yaw Set Point:	-1.918	X_WP:	0.000	Y_WP:	0.000	Y_WP:	0.000	X:	-0.039	Y:	0.067	Z:	0.059	yaw:	109.918	yaw rate:	-0.347	Roll:	2.225	Pitch:	0.399	Yaw:	154.494	Thrust:	0.000
Time:	0.111	Roll Set Point:	-0.038	Pitch Set Point:	-0.081	Yaw Set Point:	-1.919	X_WP:	0.000	Y_WP:	0.000	Y_WP:	0.000	X:	-0.039	Y:	0.067	Z:	0.059	yaw:	109.928	yaw rate:	1.027	Roll:	2.220	Pitch:	0.379	Yaw:	154.835	Thrust:	0.000
Time:	0.121	Roll Set Point:	-0.038	Pitch Set Point:	-0.081	Yaw Set Point:	-1.919	X_WP:	0.000	Y_WP:	0.000	Y_WP:	0.000	X:	-0.039	Y:	0.067	Z:	0.059	yaw:	109.924	yaw rate:	-0.387	Roll:	2.230	Pitch:	0.399	Yaw:	154.390	Thrust:	0.000
Time:	0.132	Roll Set Point:	-0.038	Pitch Set Point:	-0.081	Yaw Set Point:	-1.914	X_WP:	0.000	Y_WP:	0.000	Y_WP:	0.000	X:	-0.039	Y:	0.067	Z:	0.059	yaw:	109.682	yaw rate:	-24.241	Roll:	2.229	Pitch:	0.662	Yaw:	148.461	Thrust:	0.000
Time:	0.142	Roll Set Point:	-0.038	Pitch Set Point:	-0.081	Yaw Set Point:	-1.914	X_WP:	0.000	Y_WP:	0.000	Y_WP:	0.000	X:	-0.039	Y:	0.067	Z:	0.059	yaw:	109.687	yaw rate:	0.484	Roll:	2.239	Pitch:	0.402	Yaw:	154.285	Thrust:	0.000
Time:	0.153	Roll Set Point:	-0.038	Pitch Set Point:	-0.081	Yaw Set Point:	-1.918	X_WP:	0.000	Y_WP:	0.000	Y_WP:	0.000	X:	-0.039	Y:	0.067	Z:	0.059	yaw:	109.921	yaw rate:	23.455	Roll:	2.252	Pitch:	0.150	Yaw:	160.169	Thrust:	0.000
Time:	0.163	Roll Set Point:	-0.038	Pitch Set Point:	-0.081	Yaw Set Point:	-1.918	X_WP:	0.000	Y_WP:	0.000	Y_WP:	0.000	X:	-0.039	Y:	0.067	Z:	0.059	yaw:	109.912	yaw rate:	-0.969	Roll:	2.224	Pitch:	0.431	Yaw:	154.215	Thrust:	0.000
Time:	0.173	Roll Set Point:	-0.038	Pitch Set Point:	-0.081	Yaw Set Point:	-1.919	X_WP:	0.000	Y_WP:	0.000	Y_WP:	0.000	X:	-0.039	Y:	0.067	Z:	0.059	yaw:	109.926	yaw rate:	1.474	Roll:	2.229	Pitch:	0.353	Yaw:	154.873	Thrust:	0.000
Time:	0.183	Roll Set Point:	-0.038	Pitch Set Point:	-0.081	Yaw Set Point:	-1.914	X_WP:	0.000	Y_WP:	0.000	Y_WP:	0.000	X:	-0.039	Y:	0.067	Z:	0.059	yaw:	109.671	yaw rate:	-25.545	Roll:	2.233	Pitch:	0.707	Yaw:	147.463	Thrust:	0.000
Time:	0.194	Roll Set Point:	-0.038	Pitch Set Point:	-0.081	Yaw Set Point:	-1.914	X_WP:	0.000	Y_WP:	0.000	Y_WP:	0.000	X:	-0.039	Y:	0.067	Z:	0.059	yaw:	109.671	yaw rate:	-25.545	Roll:	2.243	Pitch:	0.405	Yaw:	154.139	Thrust:	0.000
Time:	0.205	Roll Set Point:	-0.038	Pitch Set Point:	-0.081	Yaw Set Point:	-1.914	X_WP:	0.000	Y_WP:	0.000	Y_WP:	0.000	X:	-0.039	Y:	0.067	Z:	0.059	yaw:	109.674	yaw rate:	0.300	Roll:	2.254	Pitch:	0.408	Yaw:	154.302	Thrust:	0.000
Time:	0.215	Roll Set Point:	-0.038	Pitch Set Point:	-0.081	Yaw Set Point:	-1.917	X_WP:	0.000	Y_WP:	0.000	Y_WP:	0.000	X:	-0.039	Y:	0.067	Z:	0.059	yaw:	109.820	yaw rate:	14.581	Roll:	2.108	Pitch:	0.189	Yaw:	158.127	Thrust:	0.000
Time:	0.225	Roll Set Point:	-0.038	Pitch Set Point:	-0.081	Yaw Set Point:	-1.914	X_WP:	0.000	Y_WP:	0.000	Y_WP:	0.000	X:	-0.039	Y:	0.067	Z:	0.059	yaw:	109.685	yaw rate:	-13.460	Roll:	2.387	Pitch:	0.608	Yaw:	150.637	Thrust:	0.000
Time:	0.236	Roll Set Point:	-0.038	Pitch Set Point:	-0.081	Yaw Set Point:	-1.917	X_WP:	0.000	Y_WP:	0.000	Y_WP:	0.000	X:	-0.039	Y:	0.067	Z:	0.059	yaw:	109.816	yaw rate:	13.124	Roll:	2.135	Pitch:	0.225	Yaw:	157.565	Thrust:	0.000
Time:	0.247	Roll Set Point:	-0.038	Pitch Set Point:	-0.081	Yaw Set Point:	-1.919	X_WP:	0.000	Y_WP:	0.000	Y_WP:	0.000	X:	-0.039	Y:	0.067	Z:	0.059	yaw:	109.927	yaw rate:	11.083	Roll:	2.386	Pitch:	0.309	Yaw:	157.221	Thrust:	0.000
Time:	0.257	Roll Set Point:	-0.038	Pitch Set Point:	-0.081	Yaw Set Point:	-1.914	X_WP:	0.000	Y_WP:	0.000	Y_WP:	0.000	X:	-0.039	Y:	0.067	Z:	0.059	yaw:	109.675	yaw rate:	-25.172	Roll:	2.232	Pitch:	0.713	Yaw:	147.566	Thrust:	0.000
Time:	0.267	Roll Set Point:	-0.038	Pitch Set Point:	-0.081	Yaw Set Point:	-1.914	X_WP:	0.000	Y_WP:	0.000	Y_WP:	0.000	X:	-0.039	Y:	0.067	Z:	0.059	yaw:	109.680	yaw rate:	0.447	Roll:	2.265	Pitch:	0.385	Yaw:	154.261	Thrust:	0.000
Time:	0.278	Roll Set Point:	-0.038	Pitch Set Point:	-0.081	Yaw Set Point:	-1.919	X_WP:	0.000	Y_WP:	0.000	Y_WP:	0.000	X:	-0.039	Y:	0.067	Z:	0.059	yaw:	109.925	yaw rate:	24.538	Roll:	2.282	Pitch:	0.161	Yaw:	160.411	Thrust:	0.000
Time:	0.289	Roll Set Point:	-0.038	Pitch Set Point:	-0.081	Yaw Set Point:	-1.918	X_WP:	0.000	Y_WP:	0.000	Y_WP:	0.000	X:	-0.039	Y:	0.067	Z:	0.059	yaw:	109.920	yaw rate:	-0.561	Roll:	2.251	Pitch:	0.411	Yaw:	154.446	Thrust:	0.000
Time:	0.299	Roll Set Point:	-0.038	Pitch Set Point:	-0.081	Yaw Set Point:	-1.919	X_WP:	0.000	Y_WP:	0.000	Y_WP:	0.000	X:	-0.039	Y:	0.067	Z:	0.059	yaw:	109.927	yaw rate:	0.714	Roll:	2.259	Pitch:	0.385	Yaw:	154.676	Thrust:	0.000
Time:	0.309	Roll Set Point:	-0.038	Pitch Set Point:	-0.081	Yaw Set Point:	-1.914	X_WP:	0.000	Y_WP:	0.000	Y_WP:	0.000	X:	-0.039	Y:	0.067	Z:	0.059	yaw:	109.673	yaw rate:	-25.338	Roll:	2.272	Pitch:	0.707	Yaw:	147.556	Thrust:	0.000
Time:	0.320	Roll Set Point:	-0.038	Pitch Set Point:	-0.081	Yaw Set Point:	-1.919	X_WP:	0.000	Y_WP:	0.000	Y_WP:	0.000	X:	-0.039	Y:	0.067	Z:	0.059	yaw:	109.924	yaw rate:	25.056	Roll:	2.285	Pitch:	0.140	Yaw:	160.532	Thrust:	0.000
Time:	0.331	Roll Set Point:	-0.038	Pitch Set Point:	-0.081	Yaw Set Point:	-1.914	X_WP:	0.000	Y_WP:	0.000	Y_WP:	0.000	X:	-0.039	Y:	0.067	Z:	0.059	yaw:	109.675	yaw rate:	-24.853	Roll:	2.250	Pitch:	0.669	Yaw:	148.338	Thrust:	0.000
Time:	0.341	Roll Set Point:	-0.038	Pitch Set Point:	-0.081	Yaw Set Point:	-1.914	X_WP:	0.000	Y_WP:	0.000	Y_WP:	0.000	X:	-0.039	Y:	0.067	Z:	0.059	yaw:	109.677	yaw rate:	0.143	Roll:	2.264	Pitch:	0.419	Yaw:	154.178	Thrust:	0.000
Time:	0.352	Roll Set Point:	-0.038	Pitch Set Point:	-0.081	Yaw Set Point:	-1.918	X_WP:	0.000	Y_WP:	0.000	Y_WP:	0.000	X:	-0.039	Y:	0.067	Z:	0.060	yaw:	109.920	yaw rate:	24.347	Roll:	2.292	Pitch:	0.134	Yaw:	160.381	Thrust:	0.000
Time:	0.362	Roll Set Point:	-0.038	Pitch Set Point:	-0.081	Yaw Set Point:	-1.918	X_WP:	0.000	Y_WP:	0.000	Y_WP:	0.000	X:	-0.039	Y:	0.067	Z:	0.059	yaw:	109.917	yaw rate:	-0.370	Roll:	2.283	Pitch:	0.411	Yaw:	154.379	Thrust:	0.000
Time:	0.372	Roll Set Point:	-0.038	Pitch Set Point:	-0.081	Yaw Set Point:	-1.914	X_WP:	0.000	Y_WP:	0.000	Y_WP:	0.000	X:	-0.039	Y:	0.067	Z:	0.059	yaw:	109.683	yaw rate:	-23.399	Roll:	2.279	Pitch:	0.695	Yaw:	148.039	Thrust:	0.000
Time:	0.382	Roll Set Point:	-0.038	Pitch Set Point:	-0.081	Yaw Set Point:	-1.914	X_WP:	0.000	Y_WP:	0.000	Y_WP:	0.000	X:	-0.039	Y:	0.067	Z:	0.059	yaw:	109.676	yaw rate:	-0.610	Roll:	2.257	Pitch:	0.404	Yaw:	153.983	Thrust:	0.000
Time:	0.392	Roll Set Point:	-0.038	Pitch Set Point:	-0.081	Yaw Set Point:	-1.914	X_WP:	0.000	Y_WP:	0.000	Y_WP:	0.000	X:	-0.039	Y:	0.067	Z:	0.059	yaw:	109.676	yaw rate:	-0.610	Roll:	2.279	Pitch:	0.411	Yaw:	154.138	Thrust:	0.000
Time:	0.402	Roll Set Point:	-0.038	Pitch Set Point:	-0.081	Yaw Set Point:	-1.919	X_WP:	0.000	Y_WP:	0.000	Y_WP:	0.000	X:	-0.039	Y:	0.067	Z:	0.059	yaw:	109.922	yaw rate:	24.566	Roll:	2.299	Pitch:	0.117	Yaw:	160.896	Thrust:	0.000
Time:	0.413	Roll Set Point:	-0.038	Pitch Set Point:	-0.081	Yaw Set Point:	-1.914	X_WP:	0.000	Y_WP:	0.000	Y_WP:	0.000	X:	-0.039	Y:	0.067	Z:	0.059	yaw:	109.677	yaw rate:	-24.506	Roll:	2.294	Pitch:	0.696	Yaw:	148.424	Thrust:	0.000
Time:	0.423	Roll Set Point:	-0.038	Pitch Set Point:	-0.081	Yaw Set Point:	-1.917	X_WP:	0.000	Y_WP:	0.000	Y_WP:	0.000	X:	-0.039	Y:	0.067	Z:	0.059	yaw:	109.817	yaw rate:	14.023	Roll:	2.123	Pitch:	0.209	Yaw:	157.985	Thrust:	0.000
Time:	0.434	Roll Set Point:	-0.038	Pitch Set Point:	-0.081	Yaw Set Point:	-1.918	X_WP:	0.000	Y_WP:	0.000	Y_WP:	0.000	X:	-0.039	Y:	0.067	Z:	0.059	yaw:	109.921	yaw rate:	10.393	Roll:	2.452	Pitch:	0.321	Yaw:	157.055	Thrust:	0.000
Time:	0.444	Roll Set Point:	-0.038	Pitch Set Point:	-0.081	Yaw Set Point:	-1.918	X_WP:	0.000	Y_WP:	0.000	Y_WP:	0.000	X:	-0.039	Y:	0.067	Z:	0.059	yaw:	109.917	yaw rate:	-0.433	Roll:	2.284	Pitch:	0.420	Yaw:	154.363	Thrust:	0.000
Time:	0.454	Roll Set Point:	-0.038	Pitch Set Point:	-0.081	Yaw Set Point:	-1.912	X_WP:	0.000	Y_WP:	0.000	Y_WP:	0.000	X:	-0.039	Y:	0.067	Z:	0.059	yaw:	109.576	yaw rate:	-34.071	Roll:	2.140	Pitch:	0.773	Yaw:	145.154	Thrust:	0.000
Time:	0.464	Roll Set Point:	-0.038	Pitch Set Point:	-0.081	Yaw Set Point:	-1.919	X_WP:	0.000	Y_WP:	0.000	Y_WP:	0.000	X:	-0.039	Y:	0.067	Z:	0.059	yaw:	109.927	yaw rate:	35.034	Roll:	2.440	Pitch:	0.028	Yaw:	163.658	Thrust:	0.000
Time:	0.474	Roll Set Point:	-0.038	Pitch Set Point:	-0.081	Yaw Set Point:	-1.914	X_WP:	0.000	Y_WP:	0.000	Y_WP:	0.000	X:	-0.039	Y:	0.067	Z:	0.059	yaw:	109.680	yaw rate:	-24.667	Roll:	2.295	Pitch:	0.710	Yaw:	147.723	Thrust:	0.000
Time:	0.484	Roll Set Point:	-0.038	Pitch Set Point:	-0.081	Yaw Set Point:	-1.919	X_WP:	0.000	Y_WP:	0.000	Y_WP:	0.000	X:	-0.039	Y:	0.067	Z:	0.059	yaw:	109.923	yaw rate:	24.337	Roll:	2.299	Pitch:	0.123	Yaw:	160.849	Thrust:	0.000
Time:	0.497	Roll Set Point:	-0.038	Pitch Set Point:	-0.081	Yaw Set Point:	-1.917	X_WP:	0.000	Y_WP:	0.000	Y_WP:	0.000	X:	-0.039	Y:	0.067	Z:	0.059	yaw:	109.816	yaw rate:	-10.677	Roll:	2.197	Pitch:	0.472	Yaw:	152.483	Thrust:	0.000
Time:	0.507	Roll Set Point:	-0.038	Pitch Set Point:	-0.081	Yaw Set Point:	-1.917	X_WP:	0.000	Y_WP:	0.000	Y_WP:	0.000	X:	-0.039	Y:	0.067	Z:	0.059	yaw:	109.818	yaw rate:	0.120	Roll:	2.304	Pitch:	0.419	Yaw:	154.368	Thrust:	0.000
Time:	0.517	Roll Set Point:	-0.038	Pitch Set Point:	-0.081	Yaw Set Point:	-1.917	X_WP:	0.000	Y_WP:	0.000	Y_WP:	0.000	X:	-0.039	Y:	0.067	Z:	0.059	yaw:	109.822	yaw rate:	0.456	Roll:	2.288	Pitch:	0.425	Yaw:	154.464	Thrust:	0.000
Time:	0.527	Roll Set Point:	-0.038	Pitch Set Point:	-0.081	Yaw Set Point:	-1.914	X_WP:	0.000	Y_WP:	0.000	Y_WP:	0.000	X:	-0.039	Y:	0.067	Z:	0.059	yaw:	109.682	yaw rate:	-14.050	Roll:	2.446	Pitch:	0.588	Yaw:	150.492	Thrust:	0.000
Time:	0.538	Roll Set Point:	-0.038	Pitch Set Point:	-0.081	Yaw Set Point:	-1.918	X_WP:	0.000	Y_WP:	0.000	Y_WP:	0.000	X:	-0.039	Y:	0.067	Z:	0.059	yaw:	109.919	yaw rate:	23.770	Roll:	2.329	Pitch:	0.177	Yaw:	160.242	Thrust:	0.000
Time:	0.548	Roll Set Point:	-0.038	Pitch Set Point:	-0.081	Yaw Set Point:	-1.914	X_WP:	0.000	Y_WP:	0.000	Y_WP:	0.000	X:	-0.039	Y:	0.067	Z:	0.059	yaw:	109.686	yaw rate:	-23.349	Roll:	2.288	Pitch:	0.684	Yaw:	148.057	Thrust:	0.000
Time:	0.558	Roll Set Point:	-0.038	Pitch Set Point:	-0.081	Yaw Set Point:	-1.918	X_WP:	0.000	Y_WP:	0.000	Y_WP:	0.000	X:	-0.039	Y:	0.067	Z:	0.060	yaw:	109.921	yaw rate:	23.470	Roll:	2.334	Pitch:	0.136	Yaw:	160.609	Thrust:	0.000
Time:	0.569	Roll Set Point:	-0.038	Pitch Set Point:	-0.081	Yaw Set Point:	-1.918	X_WP:	0.000	Y_WP:	0.000	Y_WP:	0.000	X:	-0.039	Y:	0.067	Z:	0.060	yaw:	109.921	yaw rate:	23.470	Roll:	2.313	Pitch:	0.412	Yaw:	154.481	Thrust:	0.000
Time:	0.579	Roll Set Point:	-0.038	Pitch Set Point:	-0.081	Yaw Set Point:	-1.918	X_WP:	0.000	Y_WP:	0.000	Y_WP:	0.000	X:	-0.039	Y:	0.067	Z:	0.059	yaw:	109.913	yaw rate:	-0.719	Roll:	2.316	Pitch:	0.422	Yaw:	154.283	Thrust:	0.000
Time:	0.591	Roll Set Point:	-0.038	Pitch Set Point:	-0.081	Yaw Set Point:	-1.919	X_WP:	0.000	Y_WP:	0.000	Y_WP:	0.000	X:	-0.039	Y:	0.067	Z:	0.059	yaw:	109.929	yaw rate:	1.550	Roll:	2.324	Pitch:	0.405	Yaw:	155.030	Thrust:	0.000
Time:	0.601	Roll Set Point:	-0.038	Pitch Set Point:	-0.081	Yaw Set Point:	-1.919	X_WP:	0.000	Y_WP:	0.000	Y_WP:	0.000	X:	-0.039	Y:	0.067	Z:	0.059	yaw:	109.922	yaw rate:	-0.652	Roll:	2.321	Pitch:	0.424	Yaw:	154.313	Thrust:	0.000
Time:	0.611	Roll Set Point:	-0.038	Pitch Set Point:	-0.081	Yaw Set Point:	-1.919	X_WP:	0.000	Y_WP:	0.000	Y_WP:	0.000	X:	-0.039	Y:	0.067	Z:	0.059	yaw:	109.925	yaw rate:	0.220	Roll:	2.345	Pitch:	0.402	Yaw:	154.547	Thrust:	0.000
Time:	0.622	Roll Set Point:	-0.038	Pitch Set Point:	-0.081	Yaw Set Point:	-1.914	X_WP:	0.000	Y_WP:	0.000	Y_WP:	0.000	X:	-0.039	Y:	0.067	Z:	0.059	yaw:	109.676	yaw rate:	-24.877	Roll:	2.294	Pitch:	0.689	Yaw:	148.311	Thrust:	0.000
Time:	0.633	Roll Set Point:	-0.038	Pitch Set Point:	-0.081	Yaw Set Point:	-1.919	X_WP:	0.000	Y_WP:	0.000	Y_WP:	0.000	X:	-0.039	Y:	0.067	Z:	0.060	yaw:	109.924	yaw rate:	24.810	Roll:	2.343	Pitch:	0.141	Yaw:	160.476	Thrust:	0.000
Time:	0.644	Roll Set Point:	-0.038	Pitch Set Point:	-0.081	Yaw Set Point:	-1.917	X_WP:	0.000	Y_WP:	0.000	Y_WP:	0.000	X:	-0.039	Y:	0.067	Z:	0.059	yaw:	109.829	yaw rate:	-9.449	Roll:	2.223	Pitch:	0.483	Yaw:	152.226	Thrust:	0.000
Time:	0.655	Roll Set Point:	-0.038	Pitch Set Point:	-0.081	Yaw Set Point:	-1.913	X_WP:	0.000	Y_WP:	0.000	Y_WP:	0.000	X:	-0.039	Y:	0.067	Z:	0.059	yaw:	109.584	yaw rate:	-24.589	Roll:	2.344	Pitch:	0.694	Yaw:	148.243	Thrust:	0.000
Time:	0.666	Roll Set Point:	-0.038	Pitch Set Point:	-0.081	Yaw Set Point:	-1.914	X_WP:	0.000	Y_WP:	0.000	Y_WP:	0.000	X:	-0.039	Y:	0.067	Z:	0.059	yaw:	109.676	yaw rate:	9.231	Roll:	2.455	Pitch:	0.378	Yaw:	156.430	Thrust:	0.000
Time:	0.677	Roll Set Point:	-0.038	Pitch Set Point:	-0.081	Yaw Set Point:	-1.913	X_WP:	0.000	Y_WP:	0.000	Y_WP:	0.000	X:	-0.039	Y:	0.067	Z:	0.059	yaw:	109.580	yaw rate:	-9.564	Roll:	2.226	Pitch:	0.480	Yaw:	151.835	Thrust:	0.000
Time:	0.687	Roll Set Point:	-0.038	Pitch Set Point:	-0.081	Yaw Set Point:	-1.918	X_WP:	0.000	Y_WP:	0.000	Y_WP:	0.000	X:	-0.039	Y:	0.067	Z:	0.059	yaw:	109.921	yaw rate:	34.120	Roll:	2.455	Pitch:	0.051	Yaw:	163.390	Thrust:	0.000
Time:	0.697	Roll Set Point:	-0.038	Pitch Set Point:	-0.081	Yaw Set Point:	-1.919	X_WP:	0.000	Y_WP:	0.000	Y_WP:	0.000	X:	-0.039	Y:	0.067	Z:	0.060	yaw:	109.922	yaw rate:	0.103	Roll:	2.336	Pitch:	0.402	Yaw:	154.510	Thrust:	0.000
Time:	0.707	Roll Set Point:	-0.038	Pitch Set Point:	-0.081	Yaw Set Point:	-1.914	X_WP:	0.000	Y_WP:	0.000	Y_WP:	0.000	X:	-0.039	Y:	0.067	Z:	0.059	yaw:	109.673	yaw rate:	-24.995	Roll:	2.339	Pitch:	0.734	Yaw:	147.607	Thrust:	0.000
Time:	0.717	Roll Set Point:	-0.038	Pitch Set Point:	-0.081	Yaw Set Point:	-1.919	X_WP:	0.000	Y_WP:	0.000	Y_WP:	0.000	X:	-0.039	Y:	0.067	Z:	0.059	yaw:	109.924	yaw rate:	25.175	Roll:	2.363	Pitch:	0.139	Yaw:	161.059	Thrust:	0.000
Time:	0.727	Roll Set Point:	-0.038	Pitch Set Point:	-0.081	Yaw Set Point:	-1.918	X_WP:	0.000	Y_WP:	0.000	Y_WP:	0.000	X:	-0.039	Y:	0.067	Z:	0.059	yaw:	109.922	yaw rate:	-0.243	Roll:	2.320	Pitch:	0.396	Yaw:	154.419	Thrust:	0.000
Time:	0.738	Roll Set Point:	-0.038	Pitch Set Point:	-0.081	Yaw Set Point:	-1.913	X_WP:	0.000	Y_WP:	0.000	Y_WP:	0.000	X:	-0.039	Y:	0.067	Z:	0.059	yaw:	109.580	yaw rate:	-34.231	Roll:	2.215	Pitch:	0.796	Yaw:	145.068	Thrust:	0.000
Time:	0.748	Roll Set Point:	-0.038	Pitch Set Point:	-0.081	Yaw Set Point:	-1.919	X_WP:	0.000	Y_WP:	0.000	Y_WP:	0.000	X:	-0.039	Y:	0.067	Z:	0.059	yaw:	109.924	yaw rate:	34.482	Roll:	2.487	Pitch:	0.080	Yaw:	162.740	Thrust:	0.000
Time:	0.759	Roll Set Point:	-0.038	Pitch Set Point:	-0.081	Yaw Set Point:	-1.914	X_WP:	0.000	Y_WP:	0.000	Y_WP:	0.000	X:	-0.039	Y:	0.067	Z:	0.059	yaw:	109.685	yaw rate:	-23.976	Roll:	2.337	Pitch:	0.682	Yaw:	148.530	Thrust:	0.000
Time:	0.769	Roll Set Point:	-0.038	Pitch Set Point:	-0.081	Yaw Set Point:	-1.914	X_WP:	0.000	Y_WP:	0.000	Y_WP:	0.000	X:	-0.039	Y:	0.067	Z:	0.059	yaw:	109.675	yaw rate:	-0.996	Roll:	2.362	Pitch:	0.442	Yaw:	153.877	Thrust:	0.000
Time:	0.779	Roll Set Point:	-0.038	Pitch Set Point:	-0.081	Yaw Set Point:	-1.919	X_WP:	0.000	Y_WP:	0.000	Y_WP:	0.000	X:	-0.039	Y:	0.067	Z:	0.059	yaw:	109.924	yaw rate:	24.916	Roll:	2.360	Pitch:	0.111	Yaw:	160.990	Thrust:	0.000
Time:	0.790	Roll Set Point:	-0.038	Pitch Set Point:	-0.081	Yaw Set Point:	-1.918	X_WP:	0.000	Y_WP:	0.000	Y_WP:	0.000	X:	-0.039	Y:	0.067	Z:	0.059	yaw:	109.921	yaw rate:	-0.317	Roll:	2.351	Pitch:	0.455	Yaw:	154.506	Thrust:	0.000
Time:	0.801	Roll Set Point:	-0.038	Pitch Set Point:	-0.081	Yaw Set Point:	-1.919	X_WP:	0.000	Y_WP:	0.000	Y_WP:	0.000	X:	-0.039	Y:	0.067	Z:	0.059	yaw:	109.924	yaw rate:	0.317	Roll:	2.352	Pitch:	0.388	Yaw:	154.568	Thrust:	0.000
Time:	0.811	Roll Set Point:	-0.038	Pitch Set Point:	-0.081	Yaw Set Point:	-1.919	X_WP:	0.000	Y_WP:	0.000	Y_WP:	0.000	X:	-0.039	Y:	0.067	Z:	0.059	yaw:	109.925	yaw rate:	0.083	Roll:	2.387	Pitch:	0.426	Yaw:	154.607	Thrust:	0.000
Time:	0.822	Roll Set Point:	-0.038	Pitch Set Point:	-0.081	Yaw Set Point:	-1.917	X_WP:	0.000	Y_WP:	0.000	Y_WP:	0.000	X:	-0.039	Y:	0.067	Z:	0.059	yaw:	109.815	yaw rate:	-10.946	Roll:	2.238	Pitch:	0.520	Yaw:	151.834	Thrust:	0.000
Time:	0.832	Roll Set Point:	-0.038	Pitch Set Point:	-0.081	Yaw Set Point:	-1.917	X_WP:	0.000	Y_WP:	0.000	Y_WP:	0.000	X:	-0.039	Y:	0.067	Z:	0.059	yaw:	109.815	yaw rate:	-10.946	Roll:	2.358	Pitch:	0.423	Yaw:	154.334	Thrust:	0.000
Time:	0.843	Roll Set Point:	-0.038	Pitch Set Point:	-0.081	Yaw Set Point:	-1.914	X_WP:	0.000	Y_WP:	0.000	Y_WP:	0.000	X:	-0.039	Y:	0.067	Z:	0.059	yaw:	109.678	yaw rate:	-13.747	Roll:	2.486	Pitch:	0.595	Yaw:	150.976	Thrust:	0.000
Time:	0.853	Roll Set Point:	-0.038	Pitch Set Point:	-0.081	Yaw Set Point:	-1.919	X_WP:	0.000	Y_WP:	0.000	Y_WP:	0.000	X:	-0.039	Y:	0.067	Z:	0.059	yaw:	109.924	yaw rate:	24.581	Roll:	2.383	Pitch:	0.131	Yaw:	160.898	Thrust:	0.000
Time:	0.863	Roll Set Point:	-0.038	Pitch Set Point:	-0.081	Yaw Set Point:	-1.919	X_WP:	0.000	Y_WP:	0.000	Y_WP:	0.000	X:	-0.039	Y:	0.067	Z:	0.059	yaw:	109.935	yaw rate:	1.126	Roll:	2.381	Pitch:	0.414	Yaw:	154.799	Thrust:	0.000
Time:	0.874	Roll Set Point:	-0.038	Pitch Set Point:	-0.081	Yaw Set Point:	-1.914	X_WP:	0.000	Y_WP:	0.000	Y_WP:	0.000	X:	-0.039	Y:	0.067	Z:	0.059	yaw:	109.680	yaw rate:	-25.435	Roll:	2.351	Pitch:	0.691	Yaw:	148.159	Thrust:	0.000
Time:	0.886	Roll Set Point:	-0.038	Pitch Set Point:	-0.081	Yaw Set Point:	-1.919	X_WP:	0.000	Y_WP:	0.000	Y_WP:	0.000	X:	-0.039	Y:	0.067	Z:	0.059	yaw:	109.923	yaw rate:	24.298	Roll:	2.420	Pitch:	0.198	Yaw:	159.972	Thrust:	0.000
Time:	0.897	Roll Set Point:	-0.038	Pitch Set Point:	-0.081	Yaw Set Point:	-1.918	X_WP:	0.000	Y_WP:	0.000	Y_WP:	0.000	X:	-0.039	Y:	0.067	Z:	0.059	yaw:	109.921	yaw rate:	-0.281	Roll:	2.374	Pitch:	0.451	Yaw:	154.408	Thrust:	0.000
Time:	0.907	Roll Set Point:	-0.038	Pitch Set Point:	-0.081	Yaw Set Point:	-1.919	X_WP:	0.000	Y_WP:	0.000	Y_WP:	0.000	X:	-0.039	Y:	0.067	Z:	0.059	yaw:	109.926	yaw rate:	0.496	Roll:	2.372	Pitch:	0.403	Yaw:	154.705	Thrust:	0.000
Time:	0.917	Roll Set Point:	-0.038	Pitch Set Point:	-0.081	Yaw Set Point:	-1.914	X_WP:	0.000	Y_WP:	0.000	Y_WP:	0.000	X:	-0.039	Y:	0.067	Z:	0.059	yaw:	109.684	yaw rate:	-24.188	Roll:	2.375	Pitch:	0.711	Yaw:	147.871	Thrust:	0.000
Time:	0.928	Roll Set Point:	-0.038	Pitch Set Point:	-0.081	Yaw Set Point:	-1.919	X_WP:	0.000	Y_WP:	0.000	Y_WP:	0.000	X:	-0.039	Y:	0.067	Z:	0.059	yaw:	109.924	yaw rate:	24.077	Roll:	2.420	Pitch:	0.178	Yaw:	160.324	Thrust:	0.000
Time:	0.940	Roll Set Point:	-0.038	Pitch Set Point:	-0.081	Yaw Set Point:	-1.914	X_WP:	0.000	Y_WP:	0.000	Y_WP:	0.000	X:	-0.039	Y:	0.067	Z:	0.059	yaw:	109.683	yaw rate:	-24.137	Roll:	2.374	Pitch:	0.675	Yaw:	148.534	Thrust:	0.000
Time:	0.950	Roll Set Point:	-0.038	Pitch Set Point:	-0.081	Yaw Set Point:	-1.919	X_WP:	0.000	Y_WP:	0.000	Y_WP:	0.000	X:	-0.039	Y:	0.067	Z:	0.059	yaw:	109.922	yaw rate:	23.896	Roll:	2.394	Pitch:	0.140	Yaw:	160.706	Thrust:	0.000
Time:	0.960	Roll Set Point:	-0.038	Pitch Set Point:	-0.081	Yaw Set Point:	-1.919	X_WP:	0.000	Y_WP:	0.000	Y_WP:	0.000	X:	-0.039	Y:	0.067	Z:	0.059	yaw:	109.929	yaw rate:	0.719	Roll:	2.384	Pitch:	0.428	Yaw:	154.681	Thrust:	0.000
Time:	0.971	Roll Set Point:	-0.038	Pitch Set Point:	-0.081	Yaw Set Point:	-1.917	X_WP:	0.000	Y_WP:	0.000	Y_WP:	0.000	X:	-0.039	Y:	0.067	Z:	0.059	yaw:	109.819	yaw rate:	-11.031	Roll:	2.251	Pitch:	0.508	Yaw:	151.803	Thrust:	0.000
Time:	0.981	Roll Set Point:	-0.038	Pitch Set Point:	-0.081	Yaw Set Point:	-1.914	X_WP:	0.000	Y_WP:	0.000	Y_WP:	0.000	X:	-0.039	Y:	0.067	Z:	0.059	yaw:	109.676	yaw rate:	-14.302	Roll:	2.516	Pitch:	0.648	Yaw:	150.405	Thrust:	0.000
Time:	0.991	Roll Set Point:	-0.038	Pitch Set Point:	-0.081	Yaw Set Point:	-1.914	X_WP:	0.000	Y_WP:	0.000	Y_WP:	0.000	X:	-0.039	Y:	0.067	Z:	0.059	yaw:	109.685	yaw rate:	0.885	Roll:	2.406	Pitch:	0.415	Yaw:	154.389	Thrust:	0.000
Time:	1.002	Roll Set Point:	-0.038	Pitch Set Point:	-0.081	Yaw Set Point:	-1.919	X_WP:	0.000	Y_WP:	0.000	Y_WP:	0.000	X:	-0.039	Y:	0.067	Z:	0.060	yaw:	109.926	yaw rate:	24.169	Roll:	2.423	Pitch:	0.159	Yaw:	160.361	Thrust:	0.000
Time:	1.013	Roll Set Point:	-0.038	Pitch Set Point:	-0.081	Yaw Set Point:	-1.914	X_WP:	0.000	Y_WP:	0.000	Y_WP:	0.000	X:	-0.039	Y:	0.067	Z:	0.059	yaw:	109.683	yaw rate:	-24.340	Roll:	2.399	Pitch:	0.699	Yaw:	148.512	Thrust:	0.000
Time:	1.024	Roll Set Point:	-0.038	Pitch Set Point:	-0.081	Yaw Set Point:	-1.917	X_WP:	0.000	Y_WP:	0.000	Y_WP:	0.000	X:	-0.039	Y:	0.067	Z:	0.059	yaw:	109.823	yaw rate:	14.005	Roll:	2.287	Pitch:	0.252	Yaw:	157.772	Thrust:	0.000
Time:	1.035	Roll Set Point:	-0.038	Pitch Set Point:	-0.081	Yaw Set Point:	-1.914	X_WP:	0.000	Y_WP:	0.000	Y_WP:	0.000	X:	-0.039	Y:	0.067	Z:	0.059	yaw:	109.677	yaw rate:	-14.604	Roll:	2.530	Pitch:	0.630	Yaw:	150.753	Thrust:	0.000
Time:	1.045	Roll Set Point:	-0.038	Pitch Set Point:	-0.081	Yaw Set Point:	-1.919	X_WP:	0.000	Y_WP:	0.000	Y_WP:	0.000	X:	-0.039	Y:	0.067	Z:	0.059	yaw:	109.927	yaw rate:	24.951	Roll:	2.422	Pitch:	0.134	Yaw:	161.004	Thrust:	0.000
Time:	1.056	Roll Set Point:	-0.038	Pitch Set Point:	-0.081	Yaw Set Point:	-1.914	X_WP:	0.000	Y_WP:	0.000	Y_WP:	0.000	X:	-0.039	Y:	0.067	Z:	0.059	yaw:	109.687	yaw rate:	-23.954	Roll:	2.398	Pitch:	0.682	Yaw:	148.569	Thrust:	0.000
Time:	1.066	Roll Set Point:	-0.038	Pitch Set Point:	-0.081	Yaw Set Point:	-1.914	X_WP:	0.000	Y_WP:	0.000	Y_WP:	0.000	X:	-0.039	Y:	0.067	Z:	0.059	yaw:	109.687	yaw rate:	-0.032	Roll:	2.403	Pitch:	0.424	Yaw:	154.146	Thrust:	0.000
Time:	1.077	Roll Set Point:	-0.038	Pitch Set Point:	-0.081	Yaw Set Point:	-1.914	X_WP:	0.000	Y_WP:	0.000	Y_WP:	0.000	X:	-0.039	Y:	0.067	Z:	0.059	yaw:	109.681	yaw rate:	-0.564	Roll:	2.433	Pitch:	0.447	Yaw:	154.113	Thrust:	0.000
Time:	1.087	Roll Set Point:	-0.038	Pitch Set Point:	-0.081	Yaw Set Point:	-1.914	X_WP:	0.000	Y_WP:	0.000	Y_WP:	0.000	X:	-0.039	Y:	0.067	Z:	0.059	yaw:	109.681	yaw rate:	-0.564	Roll:	2.406	Pitch:	0.434	Yaw:	154.146	Thrust:	0.000
Time:	1.097	Roll Set Point:	-0.038	Pitch Set Point:	-0.081	Yaw Set Point:	-1.919	X_WP:	0.000	Y_WP:	0.000	Y_WP:	0.000	X:	-0.039	Y:	0.067	Z:	0.059	yaw:	109.927	yaw rate:	24.639	Roll:	2.419	Pitch:	0.162	Yaw:	160.923	Thrust:	0.000
Time:	1.109	Roll Set Point:	-0.038	Pitch Set Point:	-0.081	Yaw Set Point:	-1.919	X_WP:	0.000	Y_WP:	0.000	Y_WP:	0.000	X:	-0.039	Y:	0.067	Z:	0.059	yaw:	109.925	yaw rate:	34.348	Roll:	2.439	Pitch:	0.428	Yaw:	154.625	Thrust:	0.000
Time:	1.119	Roll Set Point:	-0.038	Pitch Set Point:	-0.081	Yaw Set Point:	-1.919	X_WP:	0.000	Y_WP:	0.000	Y_WP:	0.000	X:	-0.039	Y:	0.067	Z:	0.059	yaw:	109.925	yaw rate:	34.348	Roll:	2.412	Pitch:	0.430	Yaw:	154.488	Thrust:	0.000
Time:	1.129	Roll Set Point:	-0.038	Pitch Set Point:	-0.081	Yaw Set Point:	-1.914	X_WP:	0.000	Y_WP:	0.000	Y_WP:	0.000	X:	-0.039	Y:	0.067	Z:	0.059	yaw:	109.682	yaw rate:	-24.233	Roll:	2.408	Pitch:	0.711	Yaw:	147.805	Thrust:	0.000
Time:	1.140	Roll Set Point:	-0.038	Pitch Set Point:	-0.081	Yaw Set Point:	-1.914	X_WP:	0.000	Y_WP:	0.000	Y_WP:	0.000	X:	-0.039	Y:	0.067	Z:	0.059	yaw:	109.684	yaw rate:	0.178	Roll:	2.427	Pitch:	0.444	Yaw:	154.293	Thrust:	0.000
Time:	1.150	Roll Set Point:	-0.038	Pitch Set Point:	-0.081	Yaw Set Point:	-1.918	X_WP:	0.000	Y_WP:	0.000	Y_WP:	0.000	X:	-0.039	Y:	0.067	Z:	0.060	yaw:	109.922	yaw rate:	23.764	Roll:	2.427	Pitch:	0.149	Yaw:	160.683	Thrust:	0.000
Time:	1.160	Roll Set Point:	-0.038	Pitch Set Point:	-0.081	Yaw Set Point:	-1.918	X_WP:	0.000	Y_WP:	0.000	Y_WP:	0.000	X:	-0.039	Y:	0.067	Z:	0.059	yaw:	109.918	yaw rate:	-0.388	Roll:	2.421	Pitch:	0.442	Yaw:	154.376	Thrust:	0.000
Time:	1.170	Roll Set Point:	-0.038	Pitch Set Point:	-0.081	Yaw Set Point:	-1.914	X_WP:	0.000	Y_WP:	0.000	Y_WP:	0.000	X:	-0.039	Y:	0.067	Z:	0.059	yaw:	109.679	yaw rate:	-23.887	Roll:	2.427	Pitch:	0.732	Yaw:	147.901	Thrust:	0.000
Time:	1.180	Roll Set Point:	-0.038	Pitch Set Point:	-0.081	Yaw Set Point:	-1.914	X_WP:	0.000	Y_WP:	0.000	Y_WP:	0.000	X:	-0.039	Y:	0.067	Z:	0.059	yaw:	109.672	yaw rate:	-0.723	Roll:	2.423	Pitch:	0.445	Yaw:	153.944	Thrust:	0.000
Time:	1.190	Roll Set Point:	-0.038	Pitch Set Point:	-0.081	Yaw Set Point:	-1.919	X_WP:	0.000	Y_WP:	0.000	Y_WP:	0.000	X:	-0.039	Y:	0.067	Z:	0.059	yaw:	109.925	yaw rate:	25.354	Roll:	2.434	Pitch:	0.120	Yaw:	161.107	Thrust:	0.000
Time:	1.200	Roll Set Point:	-0.038	Pitch Set Point:	-0.081	Yaw Set Point:	-1.913	X_WP:	0.000	Y_WP:	0.000	Y_WP:	0.000	X:	-0.039	Y:	0.067	Z:	0.059	yaw:	109.585	yaw rate:	-33.980	Roll:	2.274	Pitch:	0.782	Yaw:	145.162	Thrust:	0.000
Time:	1.210	Roll Set Point:	-0.038	Pitch Set Point:	-0.081	Yaw Set Point:	-1.914	X_WP:	0.000	Y_WP:	0.000	Y_WP:	0.000	X:	-0.039	Y:	0.067	Z:	0.059	yaw:	109.685	yaw rate:	9.950	Roll:	2.564	Pitch:	0.376	Yaw:	156.745	Thrust:	0.000
Time:	1.220	Roll Set Point:	-0.038	Pitch Set Point:	-0.081	Yaw Set Point:	-1.912	X_WP:	0.000	Y_WP:	0.000	Y_WP:	0.000	X:	-0.039	Y:	0.067	Z:	0.059	yaw:	109.577	yaw rate:	-10.780	Roll:	2.303	Pitch:	0.544	Yaw:	151.187	Thrust:	0.000
Time:	1.231	Roll Set Point:	-0.038	Pitch Set Point:	-0.081	Yaw Set Point:	-1.919	X_WP:	0.000	Y_WP:	0.000	Y_WP:	0.000	X:	-0.039	Y:	0.067	Z:	0.059	yaw:	109.924	yaw rate:	34.678	Roll:	2.588	Pitch:	0.100	Yaw:	162.851	Thrust:	0.000
Time:	1.241	Roll Set Point:	-0.038	Pitch Set Point:	-0.081	Yaw Set Point:	-1.919	X_WP:	0.000	Y_WP:	0.000	Y_WP:	0.000	X:	-0.039	Y:	0.067	Z:	0.059	yaw:	109.924	yaw rate:	34.678	Roll:	2.435	Pitch:	0.434	Yaw:	154.485	Thrust:	0.000
Time:	1.251	Roll Set Point:	-0.038	Pitch Set Point:	-0.081	Yaw Set Point:	-1.914	X_WP:	0.000	Y_WP:	0.000	Y_WP:	0.000	X:	-0.039	Y:	0.067	Z:	0.059	yaw:	109.673	yaw rate:	-25.109	Roll:	2.420	Pitch:	0.728	Yaw:	147.637	Thrust:	0.000
Time:	1.263	Roll Set Point:	-0.038	Pitch Set Point:	-0.081	Yaw Set Point:	-1.912	X_WP:	0.000	Y_WP:	0.000	Y_WP:	0.000	X:	-0.039	Y:	0.067	Z:	0.059	yaw:	109.578	yaw rate:	-9.491	Roll:	2.340	Pitch:	0.508	Yaw:	151.827	Thrust:	0.000
Time:	1.273	Roll Set Point:	-0.038	Pitch Set Point:	-0.081	Yaw Set Point:	-1.913	X_WP:	0.000	Y_WP:	0.000	Y_WP:	0.000	X:	-0.039	Y:	0.067	Z:	0.059	yaw:	109.589	yaw rate:	1.059	Roll:	2.464	Pitch:	0.419	Yaw:	154.372	Thrust:	0.000
Time:	1.284	Roll Set Point:	-0.038	Pitch Set Point:	-0.081	Yaw Set Point:	-1.918	X_WP:	0.000	Y_WP:	0.000	Y_WP:	0.000	X:	-0.039	Y:	0.067	Z:	0.060	yaw:	109.921	yaw rate:	33.281	Roll:	2.583	Pitch:	0.115	Yaw:	162.514	Thrust:	0.000
Time:	1.294	Roll Set Point:	-0.038	Pitch Set Point:	-0.081	Yaw Set Point:	-1.918	X_WP:	0.000	Y_WP:	0.000	Y_WP:	0.000	X:	-0.039	Y:	0.067	Z:	0.059	yaw:	109.917	yaw rate:	-0.480	Roll:	2.462	Pitch:	0.465	Yaw:	154.356	Thrust:	0.000
Time:	1.306	Roll Set Point:	-0.038	Pitch Set Point:	-0.081	Yaw Set Point:	-1.914	X_WP:	0.000	Y_WP:	0.000	Y_WP:	0.000	X:	-0.039	Y:	0.067	Z:	0.059	yaw:	109.676	yaw rate:	-24.059	Roll:	2.453	Pitch:	0.689	Yaw:	148.527	Thrust:	0.000
Time:	1.317	Roll Set Point:	-0.038	Pitch Set Point:	-0.081	Yaw Set Point:	-1.914	X_WP:	0.000	Y_WP:	0.000	Y_WP:	0.000	X:	-0.039	Y:	0.067	Z:	0.059	yaw:	109.675	yaw rate:	-0.109	Roll:	2.480	Pitch:	0.450	Yaw:	154.212	Thrust:	0.000
Time:	1.327	Roll Set Point:	-0.038	Pitch Set Point:	-0.081	Yaw Set Point:	-1.919	X_WP:	0.000	Y_WP:	0.000	Y_WP:	0.000	X:	-0.039	Y:	0.067	Z:	0.059	yaw:	109.926	yaw rate:	25.116	Roll:	2.454	Pitch:	0.144	Yaw:	161.046	Thrust:	0.000
Time:	1.338	Roll Set Point:	-0.038	Pitch Set Point:	-0.081	Yaw Set Point:	-1.914	X_WP:	0.000	Y_WP:	0.000	Y_WP:	0.000	X:	-0.039	Y:	0.067	Z:	0.059	yaw:	109.677	yaw rate:	-24.942	Roll:	2.455	Pitch:	0.696	Yaw:	148.287	Thrust:	0.000
Time:	1.348	Roll Set Point:	-0.038	Pitch Set Point:	-0.081	Yaw Set Point:	-1.913	X_WP:	0.000	Y_WP:	0.000	Y_WP:	0.000	X:	-0.039	Y:	0.067	Z:	0.059	yaw:	109.585	yaw rate:	-9.196	Roll:	2.338	Pitch:	0.520	Yaw:	151.611	Thrust:	0.000
Time:	1.359	Roll Set Point:	-0.038	Pitch Set Point:	-0.081	Yaw Set Point:	-1.919	X_WP:	0.000	Y_WP:	0.000	Y_WP:	0.000	X:	-0.039	Y:	0.067	Z:	0.059	yaw:	109.924	yaw rate:	33.931	Roll:	2.608	Pitch:	0.153	Yaw:	162.641	Thrust:	0.000
Time:	1.369	Roll Set Point:	-0.038	Pitch Set Point:	-0.081	Yaw Set Point:	-1.919	X_WP:	0.000	Y_WP:	0.000	Y_WP:	0.000	X:	-0.039	Y:	0.067	Z:	0.059	yaw:	109.928	yaw rate:	0.362	Roll:	2.453	Pitch:	0.417	Yaw:	154.586	Thrust:	0.000
Time:	1.380	Roll Set Point:	-0.038	Pitch Set Point:	-0.081	Yaw Set Point:	-1.913	X_WP:	0.000	Y_WP:	0.000	Y_WP:	0.000	X:	-0.039	Y:	0.067	Z:	0.059	yaw:	109.578	yaw rate:	-34.912	Roll:	2.351	Pitch:	0.775	Yaw:	145.810	Thrust:	0.000
Time:	1.390	Roll Set Point:	-0.038	Pitch Set Point:	-0.081	Yaw Set Point:	-1.913	X_WP:	0.000	Y_WP:	0.000	Y_WP:	0.000	X:	-0.039	Y:	0.067	Z:	0.059	yaw:	109.583	yaw rate:	0.440	Roll:	2.464	Pitch:	0.434	Yaw:	154.124	Thrust:	0.000
Time:	1.400	Roll Set Point:	-0.038	Pitch Set Point:	-0.081	Yaw Set Point:	-1.914	X_WP:	0.000	Y_WP:	0.000	Y_WP:	0.000	X:	-0.039	Y:	0.067	Z:	0.059	yaw:	109.681	yaw rate:	9.822	Roll:	2.598	Pitch:	0.363	Yaw:	156.699	Thrust:	0.000
Time:	1.410	Roll Set Point:	-0.038	Pitch Set Point:	-0.081	Yaw Set Point:	-1.912	X_WP:	0.000	Y_WP:	0.000	Y_WP:	0.000	X:	-0.039	Y:	0.067	Z:	0.059	yaw:	109.578	yaw rate:	-10.294	Roll:	2.324	Pitch:	0.550	Yaw:	151.315	Thrust:	0.000
Time:	1.421	Roll Set Point:	-0.038	Pitch Set Point:	-0.081	Yaw Set Point:	-1.919	X_WP:	0.000	Y_WP:	0.000	Y_WP:	0.000	X:	-0.039	Y:	0.067	Z:	0.059	yaw:	109.924	yaw rate:	34.555	Roll:	2.627	Pitch:	0.110	Yaw:	162.837	Thrust:	0.000
Time:	1.431	Roll Set Point:	-0.038	Pitch Set Point:	-0.081	Yaw Set Point:	-1.919	X_WP:	0.000	Y_WP:	0.000	Y_WP:	0.000	X:	-0.039	Y:	0.067	Z:	0.059	yaw:	109.928	yaw rate:	0.431	Roll:	2.463	Pitch:	0.422	Yaw:	154.604	Thrust:	0.000
Time:	1.441	Roll Set Point:	-0.038	Pitch Set Point:	-0.081	Yaw Set Point:	-1.917	X_WP:	0.000	Y_WP:	0.000	Y_WP:	0.000	X:	-0.039	Y:	0.067	Z:	0.059	yaw:	109.817	yaw rate:	-11.066	Roll:	2.329	Pitch:	0.524	Yaw:	151.447	Thrust:	0.000
Time:	1.451	Roll Set Point:	-0.038	Pitch Set Point:	-0.081	Yaw Set Point:	-1.914	X_WP:	0.000	Y_WP:	0.000	Y_WP:	0.000	X:	-0.039	Y:	0.067	Z:	0.059	yaw:	109.680	yaw rate:	-13.729	Roll:	2.599	Pitch:	0.653	Yaw:	150.583	Thrust:	0.000
Time:	1.462	Roll Set Point:	-0.038	Pitch Set Point:	-0.081	Yaw Set Point:	-1.914	X_WP:	0.000	Y_WP:	0.000	Y_WP:	0.000	X:	-0.039	Y:	0.067	Z:	0.059	yaw:	109.681	yaw rate:	0.076	Roll:	2.503	Pitch:	0.449	Yaw:	154.259	Thrust:	0.000
Time:	1.473	Roll Set Point:	-0.038	Pitch Set Point:	-0.081	Yaw Set Point:	-1.914	X_WP:	0.000	Y_WP:	0.000	Y_WP:	0.000	X:	-0.039	Y:	0.067	Z:	0.059	yaw:	109.680	yaw rate:	-0.107	Roll:	2.511	Pitch:	0.445	Yaw:	154.225	Thrust:	0.000
Time:	1.484	Roll Set Point:	-0.038	Pitch Set Point:	-0.081	Yaw Set Point:	-1.914	X_WP:	0.000	Y_WP:	0.000	Y_WP:	0.000	X:	-0.039	Y:	0.067	Z:	0.059	yaw:	109.680	yaw rate:	-0.107	Roll:	2.504	Pitch:	0.451	Yaw:	154.240	Thrust:	0.000
Time:	1.494	Roll Set Point:	-0.038	Pitch Set Point:	-0.081	Yaw Set Point:	-1.919	X_WP:	0.000	Y_WP:	0.000	Y_WP:	0.000	X:	-0.039	Y:	0.067	Z:	0.059	yaw:	109.924	yaw rate:	24.455	Roll:	2.501	Pitch:	0.181	Yaw:	160.845	Thrust:	0.000
Time:	1.505	Roll Set Point:	-0.038	Pitch Set Point:	-0.081	Yaw Set Point:	-1.914	X_WP:	0.000	Y_WP:	0.000	Y_WP:	0.000	X:	-0.039	Y:	0.067	Z:	0.059	yaw:	109.684	yaw rate:	-24.029	Roll:	2.488	Pitch:	0.703	Yaw:	148.516	Thrust:	0.000
Time:	1.515	Roll Set Point:	-0.038	Pitch Set Point:	-0.081	Yaw Set Point:	-1.917	X_WP:	0.000	Y_WP:	0.000	Y_WP:	0.000	X:	-0.039	Y:	0.067	Z:	0.059	yaw:	109.820	yaw rate:	13.600	Roll:	2.345	Pitch:	0.238	Yaw:	157.878	Thrust:	0.000
Time:	1.525	Roll Set Point:	-0.038	Pitch Set Point:	-0.081	Yaw Set Point:	-1.914	X_WP:	0.000	Y_WP:	0.000	Y_WP:	0.000	X:	-0.039	Y:	0.067	Z:	0.059	yaw:	109.677	yaw rate:	-14.282	Roll:	2.631	Pitch:	0.657	Yaw:	150.412	Thrust:	0.000
Time:	1.536	Roll Set Point:	-0.038	Pitch Set Point:	-0.081	Yaw Set Point:	-1.914	X_WP:	0.000	Y_WP:	0.000	Y_WP:	0.000	X:	-0.039	Y:	0.067	Z:	0.059	yaw:	109.677	yaw rate:	-0.062	Roll:	2.497	Pitch:	0.460	Yaw:	154.220	Thrust:	0.000
Time:	1.546	Roll Set Point:	-0.038	Pitch Set Point:	-0.081	Yaw Set Point:	-1.919	X_WP:	0.000	Y_WP:	0.000	Y_WP:	0.000	X:	-0.039	Y:	0.067	Z:	0.059	yaw:	109.924	yaw rate:	24.710	Roll:	2.512	Pitch:	0.157	Yaw:	160.937	Thrust:	0.000
Time:	1.556	Roll Set Point:	-0.038	Pitch Set Point:	-0.081	Yaw Set Point:	-1.914	X_WP:	0.000	Y_WP:	0.000	Y_WP:	0.000	X:	-0.039	Y:	0.067	Z:	0.059	yaw:	109.676	yaw rate:	-24.750	Roll:	2.493	Pitch:	0.746	Yaw:	147.677	Thrust:	0.000
Time:	1.566	Roll Set Point:	-0.038	Pitch Set Point:	-0.081	Yaw Set Point:	-1.919	X_WP:	0.000	Y_WP:	0.000	Y_WP:	0.000	X:	-0.039	Y:	0.067	Z:	0.059	yaw:	109.928	yaw rate:	25.139	Roll:	2.489	Pitch:	0.154	Yaw:	161.054	Thrust:	0.000
Time:	1.576	Roll Set Point:	-0.038	Pitch Set Point:	-0.081	Yaw Set Point:	-1.918	X_WP:	0.000	Y_WP:	0.000	Y_WP:	0.000	X:	-0.039	Y:	0.067	Z:	0.059	yaw:	109.920	yaw rate:	-0.757	Roll:	2.498	Pitch:	0.442	Yaw:	154.282	Thrust:	0.000
Time:	1.586	Roll Set Point:	-0.038	Pitch Set Point:	-0.081	Yaw Set Point:	-1.917	X_WP:	0.000	Y_WP:	0.000	Y_WP:	0.000	X:	-0.039	Y:	0.067	Z:	0.059	yaw:	109.814	yaw rate:	-10.580	Roll:	2.349	Pitch:	0.525	Yaw:	151.569	Thrust:	0.000
Time:	1.596	Roll Set Point:	-0.038	Pitch Set Point:	-0.081	Yaw Set Point:	-1.914	X_WP:	0.000	Y_WP:	0.000	Y_WP:	0.000	X:	-0.039	Y:	0.067	Z:	0.059	yaw:	109.671	yaw rate:	-14.268	Roll:	2.636	Pitch:	0.672	Yaw:	150.408	Thrust:	0.000
Time:	1.607	Roll Set Point:	-0.038	Pitch Set Point:	-0.081	Yaw Set Point:	-1.914	X_WP:	0.000	Y_WP:	0.000	Y_WP:	0.000	X:	-0.039	Y:	0.067	Z:	0.059	yaw:	109.683	yaw rate:	1.194	Roll:	2.525	Pitch:	0.438	Yaw:	154.533	Thrust:	0.000
Time:	1.617	Roll Set Point:	-0.038	Pitch Set Point:	-0.081	Yaw Set Point:	-1.914	X_WP:	0.000	Y_WP:	0.000	Y_WP:	0.000	X:	-0.039	Y:	0.067	Z:	0.059	yaw:	109.677	yaw rate:	-0.642	Roll:	2.510	Pitch:	0.449	Yaw:	153.973	Thrust:	0.000
Time:	1.627	Roll Set Point:	-0.038	Pitch Set Point:	-0.081	Yaw Set Point:	-1.919	X_WP:	0.000	Y_WP:	0.000	Y_WP:	0.000	X:	-0.039	Y:	0.067	Z:	0.059	yaw:	109.928	yaw rate:	25.049	Roll:	2.516	Pitch:	0.168	Yaw:	161.002	Thrust:	0.000
Time:	1.638	Roll Set Point:	-0.038	Pitch Set Point:	-0.081	Yaw Set Point:	-1.914	X_WP:	0.000	Y_WP:	0.000	Y_WP:	0.000	X:	-0.039	Y:	0.067	Z:	0.059	yaw:	109.678	yaw rate:	-24.955	Roll:	2.519	Pitch:	0.710	Yaw:	148.286	Thrust:	0.000
Time:	1.648	Roll Set Point:	-0.038	Pitch Set Point:	-0.081	Yaw Set Point:	-1.914	X_WP:	0.000	Y_WP:	0.000	Y_WP:	0.000	X:	-0.039	Y:	0.067	Z:	0.059	yaw:	109.678	yaw rate:	-24.955	Roll:	2.510	Pitch:	0.452	Yaw:	154.143	Thrust:	0.000
Time:	1.658	Roll Set Point:	-0.038	Pitch Set Point:	-0.081	Yaw Set Point:	-1.914	X_WP:	0.000	Y_WP:	0.000	Y_WP:	0.000	X:	-0.039	Y:	0.067	Z:	0.059	yaw:	109.673	yaw rate:	-0.525	Roll:	2.507	Pitch:	0.453	Yaw:	153.997	Thrust:	0.000
Time:	1.668	Roll Set Point:	-0.038	Pitch Set Point:	-0.081	Yaw Set Point:	-1.919	X_WP:	0.000	Y_WP:	0.000	Y_WP:	0.000	X:	-0.039	Y:	0.067	Z:	0.059	yaw:	109.928	yaw rate:	25.481	Roll:	2.548	Pitch:	0.174	Yaw:	161.144	Thrust:	0.000
Time:	1.679	Roll Set Point:	-0.038	Pitch Set Point:	-0.081	Yaw Set Point:	-1.918	X_WP:	0.000	Y_WP:	0.000	Y_WP:	0.000	X:	-0.039	Y:	0.067	Z:	0.059	yaw:	109.913	yaw rate:	-1.446	Roll:	2.529	Pitch:	0.476	Yaw:	154.227	Thrust:	0.000
Time:	1.689	Roll Set Point:	-0.038	Pitch Set Point:	-0.081	Yaw Set Point:	-1.919	X_WP:	0.000	Y_WP:	0.000	Y_WP:	0.000	X:	-0.039	Y:	0.067	Z:	0.059	yaw:	109.926	yaw rate:	1.313	Roll:	2.531	Pitch:	0.405	Yaw:	154.831	Thrust:	0.000
Time:	1.700	Roll Set Point:	-0.038	Pitch Set Point:	-0.081	Yaw Set Point:	-1.917	X_WP:	0.000	Y_WP:	0.000	Y_WP:	0.000	X:	-0.039	Y:	0.067	Z:	0.059	yaw:	109.824	yaw rate:	-10.198	Roll:	2.362	Pitch:	0.540	Yaw:	151.686	Thrust:	0.000
Time:	1.710	Roll Set Point:	-0.038	Pitch Set Point:	-0.081	Yaw Set Point:	-1.913	X_WP:	0.000	Y_WP:	0.000	Y_WP:	0.000	X:	-0.039	Y:	0.067	Z:	0.059	yaw:	109.581	yaw rate:	-24.311	Roll:	2.536	Pitch:	0.753	Yaw:	147.655	Thrust:	0.000
Time:	1.720	Roll Set Point:	-0.038	Pitch Set Point:	-0.081	Yaw Set Point:	-1.914	X_WP:	0.000	Y_WP:	0.000	Y_WP:	0.000	X:	-0.039	Y:	0.067	Z:	0.059	yaw:	109.673	yaw rate:	9.218	Roll:	2.643	Pitch:	0.363	Yaw:	156.542	Thrust:	0.000
Time:	1.730	Roll Set Point:	-0.038	Pitch Set Point:	-0.081	Yaw Set Point:	-1.918	X_WP:	0.000	Y_WP:	0.000	Y_WP:	0.000	X:	-0.039	Y:	0.067	Z:	0.059	yaw:	109.921	yaw rate:	24.724	Roll:	2.530	Pitch:	0.184	Yaw:	160.937	Thrust:	0.000
Time:	1.740	Roll Set Point:	-0.038	Pitch Set Point:	-0.081	Yaw Set Point:	-1.918	X_WP:	0.000	Y_WP:	0.000	Y_WP:	0.000	X:	-0.039	Y:	0.067	Z:	0.059	yaw:	109.918	yaw rate:	-0.219	Roll:	2.535	Pitch:	0.451	Yaw:	154.421	Thrust:	0.000
Time:	1.750	Roll Set Point:	-0.038	Pitch Set Point:	-0.081	Yaw Set Point:	-1.918	X_WP:	0.000	Y_WP:	0.000	Y_WP:	0.000	X:	-0.039	Y:	0.067	Z:	0.059	yaw:	109.921	yaw rate:	0.227	Roll:	2.528	Pitch:	0.447	Yaw:	154.541	Thrust:	0.000
Time:	1.760	Roll Set Point:	-0.038	Pitch Set Point:	-0.081	Yaw Set Point:	-1.914	X_WP:	0.000	Y_WP:	0.000	Y_WP:	0.000	X:	-0.039	Y:	0.067	Z:	0.059	yaw:	109.680	yaw rate:	-24.096	Roll:	2.525	Pitch:	0.729	Yaw:	147.848	Thrust:	0.000
Time:	1.770	Roll Set Point:	-0.038	Pitch Set Point:	-0.081	Yaw Set Point:	-1.914	X_WP:	0.000	Y_WP:	0.000	Y_WP:	0.000	X:	-0.039	Y:	0.067	Z:	0.059	yaw:	109.680	yaw rate:	-24.096	Roll:	2.533	Pitch:	0.457	Yaw:	154.145	Thrust:	0.000
Time:	1.780	Roll Set Point:	-0.038	Pitch Set Point:	-0.081	Yaw Set Point:	-1.917	X_WP:	0.000	Y_WP:	0.000	Y_WP:	0.000	X:	-0.039	Y:	0.067	Z:	0.059	yaw:	109.820	yaw rate:	14.021	Roll:	2.377	Pitch:	0.266	Yaw:	158.004	Thrust:	0.000
Time:	1.791	Roll Set Point:	-0.038	Pitch Set Point:	-0.081	Yaw Set Point:	-1.919	X_WP:	0.000	Y_WP:	0.000	Y_WP:	0.000	X:	-0.039	Y:	0.067	Z:	0.059	yaw:	109.928	yaw rate:	10.784	Roll:	2.697	Pitch:	0.350	Yaw:	157.292	Thrust:	0.000
Time:	1.805	Roll Set Point:	-0.038	Pitch Set Point:	-0.081	Yaw Set Point:	-1.914	X_WP:	0.000	Y_WP:	0.000	Y_WP:	0.000	X:	-0.039	Y:	0.067	Z:	0.059	yaw:	109.672	yaw rate:	-25.573	Roll:	2.694	Pitch:	0.693	Yaw:	150.151	Thrust:	0.000
Time:	1.815	Roll Set Point:	-0.038	Pitch Set Point:	-0.081	Yaw Set Point:	-1.918	X_WP:	0.000	Y_WP:	0.000	Y_WP:	0.000	X:	-0.039	Y:	0.067	Z:	0.059	yaw:	109.918	yaw rate:	24.577	Roll:	2.541	Pitch:	0.172	Yaw:	160.893	Thrust:	0.000
Time:	1.825	Roll Set Point:	-0.038	Pitch Set Point:	-0.081	Yaw Set Point:	-1.919	X_WP:	0.000	Y_WP:	0.000	Y_WP:	0.000	X:	-0.039	Y:	0.067	Z:	0.060	yaw:	109.928	yaw rate:	1.010	Roll:	2.541	Pitch:	0.430	Yaw:	154.754	Thrust:	0.000
Time:	1.835	Roll Set Point:	-0.038	Pitch Set Point:	-0.081	Yaw Set Point:	-1.918	X_WP:	0.000	Y_WP:	0.000	Y_WP:	0.000	X:	-0.039	Y:	0.067	Z:	0.059	yaw:	109.916	yaw rate:	-1.132	Roll:	2.552	Pitch:	0.478	Yaw:	154.180	Thrust:	0.000
Time:	1.845	Roll Set Point:	-0.038	Pitch Set Point:	-0.081	Yaw Set Point:	-1.917	X_WP:	0.000	Y_WP:	0.000	Y_WP:	0.000	X:	-0.039	Y:	0.067	Z:	0.059	yaw:	109.818	yaw rate:	-9.809	Roll:	2.378	Pitch:	0.517	Yaw:	151.774	Thrust:	0.000
Time:	1.855	Roll Set Point:	-0.038	Pitch Set Point:	-0.081	Yaw Set Point:	-1.914	X_WP:	0.000	Y_WP:	0.000	Y_WP:	0.000	X:	-0.039	Y:	0.067	Z:	0.059	yaw:	109.674	yaw rate:	-14.407	Roll:	2.690	Pitch:	0.655	Yaw:	150.375	Thrust:	0.000
Time:	1.865	Roll Set Point:	-0.038	Pitch Set Point:	-0.081	Yaw Set Point:	-1.919	X_WP:	0.000	Y_WP:	0.000	Y_WP:	0.000	X:	-0.039	Y:	0.067	Z:	0.059	yaw:	109.928	yaw rate:	25.332	Roll:	2.584	Pitch:	0.191	Yaw:	161.104	Thrust:	0.000
Time:	1.876	Roll Set Point:	-0.038	Pitch Set Point:	-0.081	Yaw Set Point:	-1.917	X_WP:	0.000	Y_WP:	0.000	Y_WP:	0.000	X:	-0.039	Y:	0.067	Z:	0.059	yaw:	109.819	yaw rate:	-10.911	Roll:	2.436	Pitch:	0.537	Yaw:	151.848	Thrust:	0.000
Time:	1.886	Roll Set Point:	-0.038	Pitch Set Point:	-0.081	Yaw Set Point:	-1.914	X_WP:	0.000	Y_WP:	0.000	Y_WP:	0.000	X:	-0.039	Y:	0.067	Z:	0.059	yaw:	109.680	yaw rate:	-13.901	Roll:	2.680	Pitch:	0.642	Yaw:	150.515	Thrust:	0.000
Time:	1.897	Roll Set Point:	-0.038	Pitch Set Point:	-0.081	Yaw Set Point:	-1.918	X_WP:	0.000	Y_WP:	0.000	Y_WP:	0.000	X:	-0.039	Y:	0.067	Z:	0.059	yaw:	109.919	yaw rate:	23.956	Roll:	2.591	Pitch:	0.181	Yaw:	160.266	Thrust:	0.000
Time:	1.907	Roll Set Point:	-0.038	Pitch Set Point:	-0.081	Yaw Set Point:	-1.919	X_WP:	0.000	Y_WP:	0.000	Y_WP:	0.000	X:	-0.039	Y:	0.067	Z:	0.059	yaw:	109.925	yaw rate:	0.582	Roll:	2.592	Pitch:	0.467	Yaw:	154.639	Thrust:	0.000
Time:	1.917	Roll Set Point:	-0.038	Pitch Set Point:	-0.081	Yaw Set Point:	-1.914	X_WP:	0.000	Y_WP:	0.000	Y_WP:	0.000	X:	-0.039	Y:	0.067	Z:	0.059	yaw:	109.669	yaw rate:	-25.600	Roll:	2.512	Pitch:	0.759	Yaw:	147.452	Thrust:	0.000
Time:	1.927	Roll Set Point:	-0.038	Pitch Set Point:	-0.081	Yaw Set Point:	-1.914	X_WP:	0.000	Y_WP:	0.000	Y_WP:	0.000	X:	-0.039	Y:	0.067	Z:	0.059	yaw:	109.671	yaw rate:	0.186	Roll:	2.571	Pitch:	0.463	Yaw:	154.188	Thrust:	0.000
Time:	1.938	Roll Set Point:	-0.038	Pitch Set Point:	-0.081	Yaw Set Point:	-1.914	X_WP:	0.000	Y_WP:	0.000	Y_WP:	0.000	X:	-0.039	Y:	0.067	Z:	0.059	yaw:	109.681	yaw rate:	1.033	Roll:	2.625	Pitch:	0.451	Yaw:	154.490	Thrust:	0.000
Time:	1.949	Roll Set Point:	-0.038	Pitch Set Point:	-0.081	Yaw Set Point:	-1.919	X_WP:	0.000	Y_WP:	0.000	Y_WP:	0.000	X:	-0.039	Y:	0.067	Z:	0.060	yaw:	109.923	yaw rate:	24.177	Roll:	2.575	Pitch:	0.200	Yaw:	160.352	Thrust:	0.000
Time:	1.959	Roll Set Point:	-0.038	Pitch Set Point:	-0.081	Yaw Set Point:	-1.918	X_WP:	0.000	Y_WP:	0.000	Y_WP:	0.000	X:	-0.039	Y:	0.067	Z:	0.060	yaw:	109.919	yaw rate:	-0.413	Roll:	2.579	Pitch:	0.474	Yaw:	154.378	Thrust:	0.000
Time:	1.970	Roll Set Point:	-0.038	Pitch Set Point:	-0.081	Yaw Set Point:	-1.918	X_WP:	0.000	Y_WP:	0.000	Y_WP:	0.000	X:	-0.039	Y:	0.067	Z:	0.059	yaw:	109.919	yaw rate:	0.032	Roll:	2.632	Pitch:	0.457	Yaw:	154.586	Thrust:	0.000
Time:	1.981	Roll Set Point:	-0.038	Pitch Set Point:	-0.081	Yaw Set Point:	-1.919	X_WP:	0.000	Y_WP:	0.000	Y_WP:	0.000	X:	-0.039	Y:	0.067	Z:	0.060	yaw:	109.926	yaw rate:	0.648	Roll:	2.574	Pitch:	0.460	Yaw:	154.736	Thrust:	0.000
Time:	1.991	Roll Set Point:	-0.038	Pitch Set Point:	-0.081	Yaw Set Point:	-1.913	X_WP:	0.000	Y_WP:	0.000	Y_WP:	0.000	X:	-0.039	Y:	0.067	Z:	0.059	yaw:	109.580	yaw rate:	-34.508	Roll:	2.430	Pitch:	0.828	Yaw:	144.996	Thrust:	0.000
Time:	2.001	Roll Set Point:	-0.038	Pitch Set Point:	-0.081	Yaw Set Point:	-1.919	X_WP:	0.000	Y_WP:	0.000	Y_WP:	0.000	X:	-0.039	Y:	0.067	Z:	0.059	yaw:	109.925	yaw rate:	34.448	Roll:	2.734	Pitch:	0.100	Yaw:	163.474	Thrust:	0.000
Time:	2.011	Roll Set Point:	-0.038	Pitch Set Point:	-0.081	Yaw Set Point:	-1.919	X_WP:	0.000	Y_WP:	0.000	Y_WP:	0.000	X:	-0.039	Y:	0.067	Z:	0.059	yaw:	109.925	yaw rate:	34.448	Roll:	2.576	Pitch:	0.460	Yaw:	154.486	Thrust:	0.000
Time:	2.021	Roll Set Point:	-0.038	Pitch Set Point:	-0.081	Yaw Set Point:	-1.917	X_WP:	0.000	Y_WP:	0.000	Y_WP:	0.000	X:	-0.039	Y:	0.067	Z:	0.059	yaw:	109.815	yaw rate:	-11.008	Roll:	2.426	Pitch:	0.561	Yaw:	151.459	Thrust:	0.000
Time:	2.031	Roll Set Point:	-0.038	Pitch Set Point:	-0.081	Yaw Set Point:	-1.918	X_WP:	0.000	Y_WP:	0.000	Y_WP:	0.000	X:	-0.039	Y:	0.067	Z:	0.060	yaw:	109.915	yaw rate:	9.971	Roll:	2.716	Pitch:	0.356	Yaw:	157.076	Thrust:	0.000
Time:	2.041	Roll Set Point:	-0.038	Pitch Set Point:	-0.081	Yaw Set Point:	-1.914	X_WP:	0.000	Y_WP:	0.000	Y_WP:	0.000	X:	-0.039	Y:	0.067	Z:	0.059	yaw:	109.687	yaw rate:	-22.748	Roll:	2.572	Pitch:	0.731	Yaw:	148.230	Thrust:	0.000
Time:	2.052	Roll Set Point:	-0.038	Pitch Set Point:	-0.081	Yaw Set Point:	-1.919	X_WP:	0.000	Y_WP:	0.000	Y_WP:	0.000	X:	-0.039	Y:	0.067	Z:	0.059	yaw:	109.924	yaw rate:	23.703	Roll:	2.614	Pitch:	0.218	Yaw:	160.640	Thrust:	0.000
Time:	2.062	Roll Set Point:	-0.038	Pitch Set Point:	-0.081	Yaw Set Point:	-1.917	X_WP:	0.000	Y_WP:	0.000	Y_WP:	0.000	X:	-0.039	Y:	0.067	Z:	0.059	yaw:	109.820	yaw rate:	-10.420	Roll:	2.465	Pitch:	0.534	Yaw:	151.938	Thrust:	0.000
Time:	2.073	Roll Set Point:	-0.038	Pitch Set Point:	-0.081	Yaw Set Point:	-1.914	X_WP:	0.000	Y_WP:	0.000	Y_WP:	0.000	X:	-0.039	Y:	0.067	Z:	0.059	yaw:	109.676	yaw rate:	-14.353	Roll:	2.749	Pitch:	0.676	Yaw:	150.392	Thrust:	0.000
Time:	2.083	Roll Set Point:	-0.038	Pitch Set Point:	-0.081	Yaw Set Point:	-1.919	X_WP:	0.000	Y_WP:	0.000	Y_WP:	0.000	X:	-0.039	Y:	0.067	Z:	0.059	yaw:	109.926	yaw rate:	25.002	Roll:	2.597	Pitch:	0.150	Yaw:	161.017	Thrust:	0.000
Time:	2.093	Roll Set Point:	-0.038	Pitch Set Point:	-0.081	Yaw Set Point:	-1.919	X_WP:	0.000	Y_WP:	0.000	Y_WP:	0.000	X:	-0.039	Y:	0.067	Z:	0.060	yaw:	109.928	yaw rate:	0.155	Roll:	2.577	Pitch:	0.457	Yaw:	154.532	Thrust:	0.000
Time:	2.103	Roll Set Point:	-0.038	Pitch Set Point:	-0.081	Yaw Set Point:	-1.919	X_WP:	0.000	Y_WP:	0.000	Y_WP:	0.000	X:	-0.039	Y:	0.067	Z:	0.059	yaw:	109.927	yaw rate:	-0.094	Roll:	2.593	Pitch:	0.464	Yaw:	154.466	Thrust:	0.000
Time:	2.113	Roll Set Point:	-0.038	Pitch Set Point:	-0.081	Yaw Set Point:	-1.913	X_WP:	0.000	Y_WP:	0.000	Y_WP:	0.000	X:	-0.039	Y:	0.067	Z:	0.059	yaw:	109.584	yaw rate:	-34.279	Roll:	2.459	Pitch:	0.853	Yaw:	145.054	Thrust:	0.000
Time:	2.123	Roll Set Point:	-0.038	Pitch Set Point:	-0.081	Yaw Set Point:	-1.919	X_WP:	0.000	Y_WP:	0.000	Y_WP:	0.000	X:	-0.039	Y:	0.067	Z:	0.059	yaw:	109.922	yaw rate:	33.811	Roll:	2.736	Pitch:	0.112	Yaw:	163.245	Thrust:	0.000
Time:	2.133	Roll Set Point:	-0.038	Pitch Set Point:	-0.081	Yaw Set Point:	-1.914	X_WP:	0.000	Y_WP:	0.000	Y_WP:	0.000	X:	-0.039	Y:	0.067	Z:	0.059	yaw:	109.675	yaw rate:	-24.687	Roll:	2.563	Pitch:	0.748	Yaw:	147.677	Thrust:	0.000
Time:	2.143	Roll Set Point:	-0.038	Pitch Set Point:	-0.081	Yaw Set Point:	-1.914	X_WP:	0.000	Y_WP:	0.000	Y_WP:	0.000	X:	-0.039	Y:	0.067	Z:	0.059	yaw:	109.675	yaw rate:	-24.687	Roll:	2.591	Pitch:	0.469	Yaw:	154.138	Thrust:	0.000
Time:	2.154	Roll Set Point:	-0.038	Pitch Set Point:	-0.081	Yaw Set Point:	-1.914	X_WP:	0.000	Y_WP:	0.000	Y_WP:	0.000	X:	-0.039	Y:	0.067	Z:	0.059	yaw:	109.683	yaw rate:	0.730	Roll:	2.622	Pitch:	0.479	Yaw:	154.417	Thrust:	0.000
Time:	2.164	Roll Set Point:	-0.038	Pitch Set Point:	-0.081	Yaw Set Point:	-1.919	X_WP:	0.000	Y_WP:	0.000	Y_WP:	0.000	X:	-0.039	Y:	0.067	Z:	0.059	yaw:	109.929	yaw rate:	24.614	Roll:	2.612	Pitch:	0.152	Yaw:	160.884	Thrust:	0.000
Time:	2.175	Roll Set Point:	-0.038	Pitch Set Point:	-0.081	Yaw Set Point:	-1.919	X_WP:	0.000	Y_WP:	0.000	Y_WP:	0.000	X:	-0.039	Y:	0.067	Z:	0.060	yaw:	109.924	yaw rate:	-0.537	Roll:	2.622	Pitch:	0.477	Yaw:	154.453	Thrust:	0.000
Time:	2.185	Roll Set Point:	-0.038	Pitch Set Point:	-0.081	Yaw Set Point:	-1.919	X_WP:	0.000	Y_WP:	0.000	Y_WP:	0.000	X:	-0.039	Y:	0.067	Z:	0.059	yaw:	109.927	yaw rate:	0.359	Roll:	2.606	Pitch:	0.483	Yaw:	154.582	Thrust:	0.000
Time:	2.195	Roll Set Point:	-0.038	Pitch Set Point:	-0.081	Yaw Set Point:	-1.914	X_WP:	0.000	Y_WP:	0.000	Y_WP:	0.000	X:	-0.039	Y:	0.067	Z:	0.059	yaw:	109.686	yaw rate:	-24.123	Roll:	2.566	Pitch:	0.746	Yaw:	147.851	Thrust:	0.000
Time:	2.205	Roll Set Point:	-0.038	Pitch Set Point:	-0.081	Yaw Set Point:	-1.919	X_WP:	0.000	Y_WP:	0.000	Y_WP:	0.000	X:	-0.039	Y:	0.067	Z:	0.059	yaw:	109.924	yaw rate:	23.829	Roll:	2.606	Pitch:	0.195	Yaw:	160.674	Thrust:	0.000
Time:	2.216	Roll Set Point:	-0.038	Pitch Set Point:	-0.081	Yaw Set Point:	-1.919	X_WP:	0.000	Y_WP:	0.000	Y_WP:	0.000	X:	-0.039	Y:	0.067	Z:	0.059	yaw:	109.924	yaw rate:	-0.037	Roll:	2.634	Pitch:	0.475	Yaw:	154.571	Thrust:	0.000
Time:	2.226	Roll Set Point:	-0.038	Pitch Set Point:	-0.081	Yaw Set Point:	-1.919	X_WP:	0.000	Y_WP:	0.000	Y_WP:	0.000	X:	-0.039	Y:	0.067	Z:	0.059	yaw:	109.924	yaw rate:	0.006	Roll:	2.575	Pitch:	0.471	Yaw:	154.486	Thrust:	0.000
Time:	2.236	Roll Set Point:	-0.038	Pitch Set Point:	-0.081	Yaw Set Point:	-1.918	X_WP:	0.000	Y_WP:	0.000	Y_WP:	0.000	X:	-0.039	Y:	0.067	Z:	0.060	yaw:	109.920	yaw rate:	-0.376	Roll:	2.593	Pitch:	0.454	Yaw:	154.387	Thrust:	0.000
Time:	2.247	Roll Set Point:	-0.038	Pitch Set Point:	-0.081	Yaw Set Point:	-1.913	X_WP:	0.000	Y_WP:	0.000	Y_WP:	0.000	X:	-0.039	Y:	0.067	Z:	0.059	yaw:	109.581	yaw rate:	-33.878	Roll:	2.511	Pitch:	0.818	Yaw:	146.029	Thrust:	0.000
Time:	2.257	Roll Set Point:	-0.038	Pitch Set Point:	-0.081	Yaw Set Point:	-1.919	X_WP:	0.000	Y_WP:	0.000	Y_WP:	0.000	X:	-0.039	Y:	0.067	Z:	0.059	yaw:	109.927	yaw rate:	34.543	Roll:	2.724	Pitch:	0.102	Yaw:	163.508	Thrust:	0.000
Time:	2.267	Roll Set Point:	-0.038	Pitch Set Point:	-0.081	Yaw Set Point:	-1.917	X_WP:	0.000	Y_WP:	0.000	Y_WP:	0.000	X:	-0.039	Y:	0.067	Z:	0.059	yaw:	109.818	yaw rate:	-10.880	Roll:	2.449	Pitch:	0.567	Yaw:	151.521	Thrust:	0.000
Time:	2.278	Roll Set Point:	-0.038	Pitch Set Point:	-0.081	Yaw Set Point:	-1.919	X_WP:	0.000	Y_WP:	0.000	Y_WP:	0.000	X:	-0.039	Y:	0.067	Z:	0.059	yaw:	109.926	yaw rate:	10.768	Roll:	2.759	Pitch:	0.382	Yaw:	157.153	Thrust:	0.000
Time:	2.289	Roll Set Point:	-0.038	Pitch Set Point:	-0.081	Yaw Set Point:	-1.914	X_WP:	0.000	Y_WP:	0.000	Y_WP:	0.000	X:	-0.039	Y:	0.067	Z:	0.059	yaw:	109.685	yaw rate:	-24.110	Roll:	2.619	Pitch:	0.736	Yaw:	148.529	Thrust:	0.000
Time:	2.299	Roll Set Point:	-0.038	Pitch Set Point:	-0.081	Yaw Set Point:	-1.919	X_WP:	0.000	Y_WP:	0.000	Y_WP:	0.000	X:	-0.039	Y:	0.067	Z:	0.059	yaw:	109.928	yaw rate:	24.365	Roll:	2.607	Pitch:	0.191	Yaw:	160.853	Thrust:	0.000
Time:	2.309	Roll Set Point:	-0.038	Pitch Set Point:	-0.081	Yaw Set Point:	-1.917	X_WP:	0.000	Y_WP:	0.000	Y_WP:	0.000	X:	-0.039	Y:	0.067	Z:	0.059	yaw:	109.825	yaw rate:	-10.277	Roll:	2.428	Pitch:	0.539	Yaw:	151.688	Thrust:	0.000
Time:	2.319	Roll Set Point:	-0.038	Pitch Set Point:	-0.081	Yaw Set Point:	-1.917	X_WP:	0.000	Y_WP:	0.000	Y_WP:	0.000	X:	-0.039	Y:	0.067	Z:	0.059	yaw:	109.825	yaw rate:	-10.277	Roll:	2.588	Pitch:	0.471	Yaw:	154.348	Thrust:	0.000
Time:	2.330	Roll Set Point:	-0.038	Pitch Set Point:	-0.081	Yaw Set Point:	-1.914	X_WP:	0.000	Y_WP:	0.000	Y_WP:	0.000	X:	-0.039	Y:	0.067	Z:	0.059	yaw:	109.684	yaw rate:	-14.104	Roll:	2.764	Pitch:	0.684	Yaw:	150.880	Thrust:	0.000
Time:	2.340	Roll Set Point:	-0.038	Pitch Set Point:	-0.081	Yaw Set Point:	-1.919	X_WP:	0.000	Y_WP:	0.000	Y_WP:	0.000	X:	-0.039	Y:	0.067	Z:	0.059	yaw:	109.925	yaw rate:	24.031	Roll:	2.586	Pitch:	0.183	Yaw:	160.766	Thrust:	0.000
Time:	2.350	Roll Set Point:	-0.038	Pitch Set Point:	-0.081	Yaw Set Point:	-1.917	X_WP:	0.000	Y_WP:	0.000	Y_WP:	0.000	X:	-0.039	Y:	0.067	Z:	0.059	yaw:	109.820	yaw rate:	-10.491	Roll:	2.443	Pitch:	0.535	Yaw:	151.604	Thrust:	0.000
Time:	2.360	Roll Set Point:	-0.038	Pitch Set Point:	-0.081	Yaw Set Point:	-1.917	X_WP:	0.000	Y_WP:	0.000	Y_WP:	0.000	X:	-0.039	Y:	0.067	Z:	0.059	yaw:	109.821	yaw rate:	0.140	Roll:	2.602	Pitch:	0.492	Yaw:	154.378	Thrust:	0.000
Time:	2.370	Roll Set Point:	-0.038	Pitch Set Point:	-0.081	Yaw Set Point:	-1.913	X_WP:	0.000	Y_WP:	0.000	Y_WP:	0.000	X:	-0.039	Y:	0.067	Z:	0.059	yaw:	109.582	yaw rate:	-23.931	Roll:	2.582	Pitch:	0.761	Yaw:	147.765	Thrust:	0.000
Time:	2.380	Roll Set Point:	-0.038	Pitch Set Point:	-0.081	Yaw Set Point:	-1.914	X_WP:	0.000	Y_WP:	0.000	Y_WP:	0.000	X:	-0.039	Y:	0.067	Z:	0.059	yaw:	109.681	yaw rate:	9.937	Roll:	2.709	Pitch:	0.391	Yaw:	156.742	Thrust:	0.000
Time:	2.390	Roll Set Point:	-0.038	Pitch Set Point:	-0.081	Yaw Set Point:	-1.914	X_WP:	0.000	Y_WP:	0.000	Y_WP:	0.000	X:	-0.039	Y:	0.067	Z:	0.059	yaw:	109.682	yaw rate:	0.122	Roll:	2.627	Pitch:	0.486	Yaw:	154.181	Thrust:	0.000
Time:	2.400	Roll Set Point:	-0.038	Pitch Set Point:	-0.081	Yaw Set Point:	-1.914	X_WP:	0.000	Y_WP:	0.000	Y_WP:	0.000	X:	-0.039	Y:	0.067	Z:	0.059	yaw:	109.682	yaw rate:	-0.021	Roll:	2.568	Pitch:	0.492	Yaw:	154.142	Thrust:	0.000
Time:	2.410	Roll Set Point:	-0.038	Pitch Set Point:	-0.081	Yaw Set Point:	-1.919	X_WP:	0.000	Y_WP:	0.000	Y_WP:	0.000	X:	-0.039	Y:	0.067	Z:	0.060	yaw:	109.924	yaw rate:	24.176	Roll:	2.595	Pitch:	0.155	Yaw:	160.798	Thrust:	0.000
Time:	2.420	Roll Set Point:	-0.038	Pitch Set Point:	-0.081	Yaw Set Point:	-1.917	X_WP:	0.000	Y_WP:	0.000	Y_WP:	0.000	X:	-0.039	Y:	0.067	Z:	0.059	yaw:	109.819	yaw rate:	-10.493	Roll:	2.451	Pitch:	0.564	Yaw:	151.599	Thrust:	0.000
Time:	2.430	Roll Set Point:	-0.038	Pitch Set Point:	-0.081	Yaw Set Point:	-1.919	X_WP:	0.000	Y_WP:	0.000	Y_WP:	0.000	X:	-0.039	Y:	0.067	Z:	0.059	yaw:	109.928	yaw rate:	10.902	Roll:	2.736	Pitch:	0.406	Yaw:	157.337	Thrust:	0.000
Time:	2.441	Roll Set Point:	-0.038	Pitch Set Point:	-0.081	Yaw Set Point:	-1.919	X_WP:	0.000	Y_WP:	0.000	Y_WP:	0.000	X:	-0.039	Y:	0.067	Z:	0.059	yaw:	109.928	yaw rate:	10.902	Roll:	2.594	Pitch:	0.475	Yaw:	154.500	Thrust:	0.000
Time:	2.452	Roll Set Point:	-0.038	Pitch Set Point:	-0.081	Yaw Set Point:	-1.918	X_WP:	0.000	Y_WP:	0.000	Y_WP:	0.000	X:	-0.039	Y:	0.067	Z:	0.059	yaw:	109.919	yaw rate:	-0.901	Roll:	2.621	Pitch:	0.485	Yaw:	154.362	Thrust:	0.000
Time:	2.463	Roll Set Point:	-0.038	Pitch Set Point:	-0.081	Yaw Set Point:	-1.914	X_WP:	0.000	Y_WP:	0.000	Y_WP:	0.000	X:	-0.039	Y:	0.067	Z:	0.059	yaw:	109.683	yaw rate:	-23.574	Roll:	2.627	Pitch:	0.726	Yaw:	148.616	Thrust:	0.000
Time:	2.473	Roll Set Point:	-0.038	Pitch Set Point:	-0.081	Yaw Set Point:	-1.919	X_WP:	0.000	Y_WP:	0.000	Y_WP:	0.000	X:	-0.039	Y:	0.067	Z:	0.059	yaw:	109.924	yaw rate:	24.105	Roll:	2.624	Pitch:	0.220	Yaw:	160.778	Thrust:	0.000
Time:	2.486	Roll Set Point:	-0.038	Pitch Set Point:	-0.081	Yaw Set Point:	-1.918	X_WP:	0.000	Y_WP:	0.000	Y_WP:	0.000	X:	-0.039	Y:	0.067	Z:	0.059	yaw:	109.919	yaw rate:	-0.569	Roll:	2.563	Pitch:	0.465	Yaw:	154.664	Thrust:	0.000
Time:	2.496	Roll Set Point:	-0.038	Pitch Set Point:	-0.081	Yaw Set Point:	-1.914	X_WP:	0.000	Y_WP:	0.000	Y_WP:	0.000	X:	-0.039	Y:	0.067	Z:	0.059	yaw:	109.680	yaw rate:	-23.864	Roll:	2.688	Pitch:	0.719	Yaw:	147.915	Thrust:	0.000
Time:	2.506	Roll Set Point:	-0.038	Pitch Set Point:	-0.081	Yaw Set Point:	-1.919	X_WP:	0.000	Y_WP:	0.000	Y_WP:	0.000	X:	-0.039	Y:	0.067	Z:	0.059	yaw:	109.927	yaw rate:	24.679	Roll:	2.625	Pitch:	0.196	Yaw:	160.899	Thrust:	0.000
Time:	2.517	Roll Set Point:	-0.038	Pitch Set Point:	-0.081	Yaw Set Point:	-1.912	X_WP:	0.000	Y_WP:	0.000	Y_WP:	0.000	X:	-0.039	Y:	0.067	Z:	0.059	yaw:	109.578	yaw rate:	-34.876	Roll:	2.492	Pitch:	0.834	Yaw:	145.768	Thrust:	0.000
Time:	2.527	Roll Set Point:	-0.038	Pitch Set Point:	-0.081	Yaw Set Point:	-1.919	X_WP:	0.000	Y_WP:	0.000	Y_WP:	0.000	X:	-0.039	Y:	0.067	Z:	0.059	yaw:	109.923	yaw rate:	34.442	Roll:	2.733	Pitch:	0.102	Yaw:	163.476	Thrust:	0.000
Time:	2.537	Roll Set Point:	-0.038	Pitch Set Point:	-0.081	Yaw Set Point:	-1.914	X_WP:	0.000	Y_WP:	0.000	Y_WP:	0.000	X:	-0.039	Y:	0.067	Z:	0.059	yaw:	109.684	yaw rate:	-23.891	Roll:	2.581	Pitch:	0.762	Yaw:	147.912	Thrust:	0.000
Time:	2.547	Roll Set Point:	-0.038	Pitch Set Point:	-0.081	Yaw Set Point:	-1.919	X_WP:	0.000	Y_WP:	0.000	Y_WP:	0.000	X:	-0.039	Y:	0.067	Z:	0.059	yaw:	109.924	yaw rate:	23.991	Roll:	2.587	Pitch:	0.197	Yaw:	160.749	Thrust:	0.000
Time:	2.557	Roll Set Point:	-0.038	Pitch Set Point:	-0.081	Yaw Set Point:	-1.919	X_WP:	0.000	Y_WP:	0.000	Y_WP:	0.000	X:	-0.039	Y:	0.067	Z:	0.059	yaw:	109.929	yaw rate:	0.583	Roll:	2.609	Pitch:	0.456	Yaw:	154.645	Thrust:	0.000
Time:	2.567	Roll Set Point:	-0.038	Pitch Set Point:	-0.081	Yaw Set Point:	-1.919	X_WP:	0.000	Y_WP:	0.000	Y_WP:	0.000	X:	-0.039	Y:	0.067	Z:	0.059	yaw:	109.927	yaw rate:	-0.259	Roll:	2.585	Pitch:	0.500	Yaw:	154.422	Thrust:	0.000
Time:	2.579	Roll Set Point:	-0.038	Pitch Set Point:	-0.081	Yaw Set Point:	-1.914	X_WP:	0.000	Y_WP:	0.000	Y_WP:	0.000	X:	-0.039	Y:	0.067	Z:	0.059	yaw:	109.681	yaw rate:	-24.552	Roll:	2.614	Pitch:	0.752	Yaw:	149.005	Thrust:	0.000
Time:	2.589	Roll Set Point:	-0.038	Pitch Set Point:	-0.081	Yaw Set Point:	-1.914	X_WP:	0.000	Y_WP:	0.000	Y_WP:	0.000	X:	-0.039	Y:	0.067	Z:	0.059	yaw:	109.683	yaw rate:	0.196	Roll:	2.632	Pitch:	0.488	Yaw:	154.201	Thrust:	0.000
Time:	2.601	Roll Set Point:	-0.038	Pitch Set Point:	-0.081	Yaw Set Point:	-1.914	X_WP:	0.000	Y_WP:	0.000	Y_WP:	0.000	X:	-0.039	Y:	0.067	Z:	0.059	yaw:	109.686	yaw rate:	0.285	Roll:	2.627	Pitch:	0.484	Yaw:	154.324	Thrust:	0.000
Time:	2.612	Roll Set Point:	-0.038	Pitch Set Point:	-0.081	Yaw Set Point:	-1.914	X_WP:	0.000	Y_WP:	0.000	Y_WP:	0.000	X:	-0.039	Y:	0.067	Z:	0.059	yaw:	109.678	yaw rate:	-0.809	Roll:	2.616	Pitch:	0.507	Yaw:	154.163	Thrust:	0.000
Time:	2.622	Roll Set Point:	-0.038	Pitch Set Point:	-0.081	Yaw Set Point:	-1.918	X_WP:	0.000	Y_WP:	0.000	Y_WP:	0.000	X:	-0.039	Y:	0.067	Z:	0.059	yaw:	109.921	yaw rate:	24.278	Roll:	2.651	Pitch:	0.225	Yaw:	160.801	Thrust:	0.000
Time:	2.634	Roll Set Point:	-0.038	Pitch Set Point:	-0.081	Yaw Set Point:	-1.918	X_WP:	0.000	Y_WP:	0.000	Y_WP:	0.000	X:	-0.039	Y:	0.067	Z:	0.059	yaw:	109.919	yaw rate:	-0.197	Roll:	2.663	Pitch:	0.506	Yaw:	154.632	Thrust:	0.000
Time:	2.648	Roll Set Point:	-0.038	Pitch Set Point:	-0.081	Yaw Set Point:	-1.914	X_WP:	0.000	Y_WP:	0.000	Y_WP:	0.000	X:	-0.039	Y:	0.067	Z:	0.059	yaw:	109.682	yaw rate:	-23.666	Roll:	2.617	Pitch:	0.748	Yaw:	149.695	Thrust:	0.000
Time:	2.660	Roll Set Point:	-0.038	Pitch Set Point:	-0.081	Yaw Set Point:	-1.914	X_WP:	0.000	Y_WP:	0.000	Y_WP:	0.000	X:	-0.039	Y:	0.067	Z:	0.059	yaw:	109.679	yaw rate:	-0.287	Roll:	2.709	Pitch:	0.481	Yaw:	154.282	Thrust:	0.000
Time:	2.674	Roll Set Point:	-0.038	Pitch Set Point:	-0.081	Yaw Set Point:	-1.917	X_WP:	0.000	Y_WP:	0.000	Y_WP:	0.000	X:	-0.039	Y:	0.067	Z:	0.059	yaw:	109.823	yaw rate:	14.353	Roll:	2.641	Pitch:	0.372	Yaw:	157.422	Thrust:	0.000
Time:	2.686	Roll Set Point:	-0.038	Pitch Set Point:	-0.081	Yaw Set Point:	-1.918	X_WP:	0.000	Y_WP:	0.000	Y_WP:	0.000	X:	-0.039	Y:	0.067	Z:	0.059	yaw:	109.920	yaw rate:	24.127	Roll:	2.789	Pitch:	0.445	Yaw:	156.739	Thrust:	0.000
Time:	2.699	Roll Set Point:	-0.038	Pitch Set Point:	-0.081	Yaw Set Point:	-1.919	X_WP:	0.000	Y_WP:	0.000	Y_WP:	0.000	X:	-0.039	Y:	0.067	Z:	0.059	yaw:	109.923	yaw rate:	0.320	Roll:	2.707	Pitch:	0.501	Yaw:	154.755	Thrust:	0.000
Time:	2.712	Roll Set Point:	-0.038	Pitch Set Point:	-0.081	Yaw Set Point:	-1.919	X_WP:	0.000	Y_WP:	0.000	Y_WP:	0.000	X:	-0.039	Y:	0.067	Z:	0.059	yaw:	109.930	yaw rate:	0.650	Roll:	2.674	Pitch:	0.502	Yaw:	154.925	Thrust:	0.000
Time:	2.724	Roll Set Point:	-0.038	Pitch Set Point:	-0.081	Yaw Set Point:	-1.914	X_WP:	0.000	Y_WP:	0.000	Y_WP:	0.000	X:	-0.039	Y:	0.067	Z:	0.059	yaw:	109.683	yaw rate:	-24.673	Roll:	2.677	Pitch:	0.738	Yaw:	148.980	Thrust:	0.000
Time:	2.736	Roll Set Point:	-0.038	Pitch Set Point:	-0.081	Yaw Set Point:	-1.914	X_WP:	0.000	Y_WP:	0.000	Y_WP:	0.000	X:	-0.039	Y:	0.067	Z:	0.059	yaw:	109.686	yaw rate:	0.282	Roll:	2.669	Pitch:	0.480	Yaw:	154.511	Thrust:	0.000
Time:	2.748	Roll Set Point:	-0.038	Pitch Set Point:	-0.081	Yaw Set Point:	-1.914	X_WP:	0.000	Y_WP:	0.000	Y_WP:	0.000	X:	-0.039	Y:	0.067	Z:	0.059	yaw:	109.687	yaw rate:	0.114	Roll:	2.679	Pitch:	0.534	Yaw:	154.380	Thrust:	0.000
Time:	2.761	Roll Set Point:	-0.038	Pitch Set Point:	-0.081	Yaw Set Point:	-1.917	X_WP:	0.000	Y_WP:	0.000	Y_WP:	0.000	X:	-0.039	Y:	0.067	Z:	0.059	yaw:	109.816	yaw rate:	12.907	Roll:	2.583	Pitch:	0.368	Yaw:	157.344	Thrust:	0.000
Time:	2.774	Roll Set Point:	-0.038	Pitch Set Point:	-0.081	Yaw Set Point:	-1.919	X_WP:	0.000	Y_WP:	0.000	Y_WP:	0.000	X:	-0.039	Y:	0.067	Z:	0.059	yaw:	109.922	yaw rate:	10.625	Roll:	2.822	Pitch:	0.434	Yaw:	156.918	Thrust:	0.000
Time:	2.786	Roll Set Point:	-0.038	Pitch Set Point:	-0.081	Yaw Set Point:	-1.914	X_WP:	0.000	Y_WP:	0.000	Y_WP:	0.000	X:	-0.039	Y:	0.067	Z:	0.059	yaw:	109.684	yaw rate:	0.584	Roll:	2.659	Pitch:	0.728	Yaw:	149.170	Thrust:	0.000
Time:	2.798	Roll Set Point:	-0.038	Pitch Set Point:	-0.081	Yaw Set Point:	-1.914	X_WP:	0.000	Y_WP:	0.000	Y_WP:	0.000	X:	-0.039	Y:	0.067	Z:	0.059	yaw:	109.686	yaw rate:	0.287	Roll:	2.662	Pitch:	0.495	Yaw:	154.414	Thrust:	0.000
Time:	2.810	Roll Set Point:	-0.038	Pitch Set Point:	-0.081	Yaw Set Point:	-1.917	X_WP:	0.000	Y_WP:	0.000	Y_WP:	0.000	X:	-0.039	Y:	0.067	Z:	0.059	yaw:	109.817	yaw rate:	13.094	Roll:	2.599	Pitch:	0.373	Yaw:	157.268	Thrust:	0.000
