Time:	0.034	Roll Set Point:	-0.003	Pitch Set Point:	-0.014	Yaw Set Point:	1.573	X_WP:	0.000	Y_WP:	0.000	Y_WP:	0.000	X:	0.009	Y:	0.005	Z:	0.059	yaw:	-90.117	yaw rate:	-0.826	Roll:	-0.153	Pitch:	0.252	Yaw:	-125.827	Thrust:	0.000
Time:	0.046	Roll Set Point:	-0.003	Pitch Set Point:	-0.014	Yaw Set Point:	1.573	X_WP:	0.000	Y_WP:	0.000	Y_WP:	0.000	X:	0.009	Y:	0.005	Z:	0.059	yaw:	-90.110	yaw rate:	0.706	Roll:	-0.156	Pitch:	0.256	Yaw:	-126.086	Thrust:	0.000
Time:	0.059	Roll Set Point:	-0.003	Pitch Set Point:	-0.014	Yaw Set Point:	1.573	X_WP:	0.000	Y_WP:	0.000	Y_WP:	0.000	X:	0.009	Y:	0.005	Z:	0.059	yaw:	-90.101	yaw rate:	0.876	Roll:	-0.148	Pitch:	0.258	Yaw:	-126.371	Thrust:	0.000
Time:	0.075	Roll Set Point:	-0.003	Pitch Set Point:	-0.014	Yaw Set Point:	1.573	X_WP:	0.000	Y_WP:	0.000	Y_WP:	0.000	X:	0.009	Y:	0.005	Z:	0.059	yaw:	-90.114	yaw rate:	-1.281	Roll:	-0.146	Pitch:	0.248	Yaw:	-127.310	Thrust:	0.000
Time:	0.087	Roll Set Point:	-0.003	Pitch Set Point:	-0.014	Yaw Set Point:	1.573	X_WP:	0.000	Y_WP:	0.000	Y_WP:	0.000	X:	0.009	Y:	0.005	Z:	0.059	yaw:	-90.104	yaw rate:	1.042	Roll:	-0.158	Pitch:	0.255	Yaw:	-127.658	Thrust:	0.000
Time:	0.099	Roll Set Point:	-0.003	Pitch Set Point:	-0.014	Yaw Set Point:	1.573	X_WP:	0.000	Y_WP:	0.000	Y_WP:	0.000	X:	0.009	Y:	0.005	Z:	0.059	yaw:	-90.106	yaw rate:	-0.231	Roll:	-0.153	Pitch:	0.265	Yaw:	-127.756	Thrust:	0.000
Time:	0.112	Roll Set Point:	-0.003	Pitch Set Point:	-0.014	Yaw Set Point:	1.573	X_WP:	0.000	Y_WP:	0.000	Y_WP:	0.000	X:	0.009	Y:	0.005	Z:	0.059	yaw:	-90.109	yaw rate:	-0.283	Roll:	-0.150	Pitch:	0.245	Yaw:	-128.153	Thrust:	0.000
Time:	0.126	Roll Set Point:	-0.003	Pitch Set Point:	-0.014	Yaw Set Point:	1.573	X_WP:	0.000	Y_WP:	0.000	Y_WP:	0.000	X:	0.009	Y:	0.005	Z:	0.059	yaw:	-90.111	yaw rate:	-0.183	Roll:	-0.164	Pitch:	0.251	Yaw:	-128.453	Thrust:	0.000
Time:	0.138	Roll Set Point:	-0.003	Pitch Set Point:	-0.014	Yaw Set Point:	1.573	X_WP:	0.000	Y_WP:	0.000	Y_WP:	0.000	X:	0.009	Y:	0.005	Z:	0.059	yaw:	-90.104	yaw rate:	0.380	Roll:	-0.135	Pitch:	0.260	Yaw:	-128.273	Thrust:	0.000
Time:	0.150	Roll Set Point:	-0.003	Pitch Set Point:	-0.014	Yaw Set Point:	1.573	X_WP:	0.000	Y_WP:	0.000	Y_WP:	0.000	X:	0.009	Y:	0.005	Z:	0.059	yaw:	-90.108	yaw rate:	-0.430	Roll:	-0.162	Pitch:	0.249	Yaw:	-128.506	Thrust:	0.000
Time:	0.163	Roll Set Point:	-0.003	Pitch Set Point:	-0.014	Yaw Set Point:	1.573	X_WP:	0.000	Y_WP:	0.000	Y_WP:	0.000	X:	0.009	Y:	0.005	Z:	0.059	yaw:	-90.106	yaw rate:	0.150	Roll:	-0.165	Pitch:	0.269	Yaw:	-128.388	Thrust:	0.000
Time:	0.176	Roll Set Point:	-0.003	Pitch Set Point:	-0.014	Yaw Set Point:	1.573	X_WP:	0.000	Y_WP:	0.000	Y_WP:	0.000	X:	0.009	Y:	0.005	Z:	0.059	yaw:	-90.106	yaw rate:	0.039	Roll:	-0.151	Pitch:	0.246	Yaw:	-128.210	Thrust:	0.000
Time:	0.187	Roll Set Point:	-0.003	Pitch Set Point:	-0.014	Yaw Set Point:	1.573	X_WP:	0.000	Y_WP:	0.000	Y_WP:	0.000	X:	0.009	Y:	0.005	Z:	0.059	yaw:	-90.113	yaw rate:	-0.730	Roll:	-0.147	Pitch:	0.250	Yaw:	-128.390	Thrust:	0.000
Time:	0.200	Roll Set Point:	-0.003	Pitch Set Point:	-0.014	Yaw Set Point:	1.572	X_WP:	0.000	Y_WP:	0.000	Y_WP:	0.000	X:	0.009	Y:	0.005	Z:	0.059	yaw:	-90.096	yaw rate:	1.723	Roll:	-0.141	Pitch:	0.263	Yaw:	-127.827	Thrust:	0.000
Time:	0.212	Roll Set Point:	-0.003	Pitch Set Point:	-0.014	Yaw Set Point:	1.573	X_WP:	0.000	Y_WP:	0.000	Y_WP:	0.000	X:	0.009	Y:	0.005	Z:	0.059	yaw:	-90.099	yaw rate:	-0.295	Roll:	-0.179	Pitch:	0.251	Yaw:	-128.466	Thrust:	0.000
Time:	0.228	Roll Set Point:	-0.003	Pitch Set Point:	-0.014	Yaw Set Point:	1.573	X_WP:	0.000	Y_WP:	0.000	Y_WP:	0.000	X:	0.009	Y:	0.005	Z:	0.059	yaw:	-90.111	yaw rate:	-1.168	Roll:	-0.140	Pitch:	0.258	Yaw:	-128.844	Thrust:	0.000
Time:	0.241	Roll Set Point:	-0.003	Pitch Set Point:	-0.014	Yaw Set Point:	1.573	X_WP:	0.000	Y_WP:	0.000	Y_WP:	0.000	X:	0.009	Y:	0.005	Z:	0.059	yaw:	-90.101	yaw rate:	0.969	Roll:	-0.169	Pitch:	0.267	Yaw:	-128.225	Thrust:	0.000
Time:	0.254	Roll Set Point:	-0.003	Pitch Set Point:	-0.014	Yaw Set Point:	1.573	X_WP:	0.000	Y_WP:	0.000	Y_WP:	0.000	X:	0.009	Y:	0.005	Z:	0.059	yaw:	-90.104	yaw rate:	-0.290	Roll:	-0.138	Pitch:	0.244	Yaw:	-128.669	Thrust:	0.000
Time:	0.267	Roll Set Point:	-0.003	Pitch Set Point:	-0.014	Yaw Set Point:	1.573	X_WP:	0.000	Y_WP:	0.000	Y_WP:	0.000	X:	0.009	Y:	0.005	Z:	0.059	yaw:	-90.102	yaw rate:	0.203	Roll:	-0.162	Pitch:	0.276	Yaw:	-128.170	Thrust:	0.000
Time:	0.282	Roll Set Point:	-0.003	Pitch Set Point:	-0.014	Yaw Set Point:	1.573	X_WP:	0.000	Y_WP:	0.000	Y_WP:	0.000	X:	0.009	Y:	0.005	Z:	0.059	yaw:	-90.113	yaw rate:	-1.128	Roll:	-0.160	Pitch:	0.245	Yaw:	-129.025	Thrust:	0.000
Time:	0.295	Roll Set Point:	-0.003	Pitch Set Point:	-0.014	Yaw Set Point:	1.573	X_WP:	0.000	Y_WP:	0.000	Y_WP:	0.000	X:	0.009	Y:	0.005	Z:	0.059	yaw:	-90.105	yaw rate:	0.112	Roll:	-0.148	Pitch:	0.264	Yaw:	-128.456	Thrust:	0.000
Time:	0.308	Roll Set Point:	-0.003	Pitch Set Point:	-0.014	Yaw Set Point:	1.573	X_WP:	0.000	Y_WP:	0.000	Y_WP:	0.000	X:	0.009	Y:	0.005	Z:	0.059	yaw:	-90.106	yaw rate:	-0.159	Roll:	-0.170	Pitch:	0.252	Yaw:	-128.253	Thrust:	0.000
Time:	0.321	Roll Set Point:	-0.003	Pitch Set Point:	-0.014	Yaw Set Point:	1.572	X_WP:	0.000	Y_WP:	0.000	Y_WP:	0.000	X:	0.009	Y:	0.005	Z:	0.059	yaw:	-90.097	yaw rate:	0.922	Roll:	-0.147	Pitch:	0.257	Yaw:	-128.231	Thrust:	0.000
Time:	0.332	Roll Set Point:	-0.003	Pitch Set Point:	-0.014	Yaw Set Point:	1.573	X_WP:	0.000	Y_WP:	0.000	Y_WP:	0.000	X:	0.009	Y:	0.005	Z:	0.059	yaw:	-90.109	yaw rate:	-1.147	Roll:	-0.163	Pitch:	0.262	Yaw:	-128.464	Thrust:	0.000
Time:	0.344	Roll Set Point:	-0.003	Pitch Set Point:	-0.014	Yaw Set Point:	1.573	X_WP:	0.000	Y_WP:	0.000	Y_WP:	0.000	X:	0.009	Y:	0.005	Z:	0.059	yaw:	-90.101	yaw rate:	0.716	Roll:	-0.172	Pitch:	0.259	Yaw:	-128.055	Thrust:	0.000
Time:	0.357	Roll Set Point:	-0.003	Pitch Set Point:	-0.014	Yaw Set Point:	1.573	X_WP:	0.000	Y_WP:	0.000	Y_WP:	0.000	X:	0.009	Y:	0.005	Z:	0.059	yaw:	-90.101	yaw rate:	0.024	Roll:	-0.130	Pitch:	0.255	Yaw:	-128.207	Thrust:	0.000
Time:	0.371	Roll Set Point:	-0.003	Pitch Set Point:	-0.014	Yaw Set Point:	1.573	X_WP:	0.000	Y_WP:	0.000	Y_WP:	0.000	X:	0.009	Y:	0.005	Z:	0.059	yaw:	-90.104	yaw rate:	-0.279	Roll:	-0.154	Pitch:	0.277	Yaw:	-128.666	Thrust:	0.000
Time:	0.383	Roll Set Point:	-0.003	Pitch Set Point:	-0.014	Yaw Set Point:	1.573	X_WP:	0.000	Y_WP:	0.000	Y_WP:	0.000	X:	0.009	Y:	0.005	Z:	0.059	yaw:	-90.109	yaw rate:	-0.542	Roll:	-0.169	Pitch:	0.249	Yaw:	-128.534	Thrust:	0.000
Time:	0.395	Roll Set Point:	-0.003	Pitch Set Point:	-0.014	Yaw Set Point:	1.573	X_WP:	0.000	Y_WP:	0.000	Y_WP:	0.000	X:	0.009	Y:	0.005	Z:	0.059	yaw:	-90.105	yaw rate:	-0.235	Roll:	-0.151	Pitch:	0.265	Yaw:	-128.129	Thrust:	0.000
Time:	0.407	Roll Set Point:	-0.003	Pitch Set Point:	-0.014	Yaw Set Point:	1.573	X_WP:	0.000	Y_WP:	0.000	Y_WP:	0.000	X:	0.009	Y:	0.005	Z:	0.059	yaw:	-90.105	yaw rate:	-0.002	Roll:	-0.170	Pitch:	0.255	Yaw:	-128.217	Thrust:	0.000
Time:	0.420	Roll Set Point:	-0.003	Pitch Set Point:	-0.014	Yaw Set Point:	1.573	X_WP:	0.000	Y_WP:	0.000	Y_WP:	0.000	X:	0.009	Y:	0.005	Z:	0.059	yaw:	-90.103	yaw rate:	0.197	Roll:	-0.155	Pitch:	0.264	Yaw:	-128.173	Thrust:	0.000
Time:	0.432	Roll Set Point:	-0.003	Pitch Set Point:	-0.014	Yaw Set Point:	1.572	X_WP:	0.000	Y_WP:	0.000	Y_WP:	0.000	X:	0.009	Y:	0.005	Z:	0.059	yaw:	-90.096	yaw rate:	0.786	Roll:	-0.147	Pitch:	0.269	Yaw:	-128.031	Thrust:	0.000
Time:	0.444	Roll Set Point:	-0.003	Pitch Set Point:	-0.014	Yaw Set Point:	1.573	X_WP:	0.000	Y_WP:	0.000	Y_WP:	0.000	X:	0.009	Y:	0.005	Z:	0.059	yaw:	-90.112	yaw rate:	-1.632	Roll:	-0.175	Pitch:	0.243	Yaw:	-128.755	Thrust:	0.000
Time:	0.457	Roll Set Point:	-0.003	Pitch Set Point:	-0.014	Yaw Set Point:	1.573	X_WP:	0.000	Y_WP:	0.000	Y_WP:	0.000	X:	0.009	Y:	0.005	Z:	0.059	yaw:	-90.108	yaw rate:	0.349	Roll:	-0.159	Pitch:	0.249	Yaw:	-128.145	Thrust:	0.000
Time:	0.472	Roll Set Point:	-0.003	Pitch Set Point:	-0.014	Yaw Set Point:	1.573	X_WP:	0.000	Y_WP:	0.000	Y_WP:	0.000	X:	0.009	Y:	0.005	Z:	0.059	yaw:	-90.107	yaw rate:	0.131	Roll:	-0.148	Pitch:	0.278	Yaw:	-128.797	Thrust:	0.000
Time:	0.485	Roll Set Point:	-0.003	Pitch Set Point:	-0.014	Yaw Set Point:	1.573	X_WP:	0.000	Y_WP:	0.000	Y_WP:	0.000	X:	0.009	Y:	0.005	Z:	0.059	yaw:	-90.110	yaw rate:	-0.292	Roll:	-0.157	Pitch:	0.254	Yaw:	-128.679	Thrust:	0.000
Time:	0.497	Roll Set Point:	-0.003	Pitch Set Point:	-0.014	Yaw Set Point:	1.573	X_WP:	0.000	Y_WP:	0.000	Y_WP:	0.000	X:	0.009	Y:	0.005	Z:	0.059	yaw:	-90.114	yaw rate:	-0.384	Roll:	-0.170	Pitch:	0.267	Yaw:	-128.132	Thrust:	0.000
Time:	0.509	Roll Set Point:	-0.003	Pitch Set Point:	-0.014	Yaw Set Point:	1.573	X_WP:	0.000	Y_WP:	0.000	Y_WP:	0.000	X:	0.009	Y:	0.005	Z:	0.059	yaw:	-90.111	yaw rate:	0.287	Roll:	-0.150	Pitch:	0.276	Yaw:	-128.152	Thrust:	0.000
Time:	0.520	Roll Set Point:	-0.003	Pitch Set Point:	-0.014	Yaw Set Point:	1.573	X_WP:	0.000	Y_WP:	0.000	Y_WP:	0.000	X:	0.009	Y:	0.005	Z:	0.059	yaw:	-90.100	yaw rate:	1.060	Roll:	-0.163	Pitch:	0.240	Yaw:	-127.985	Thrust:	0.000
Time:	0.531	Roll Set Point:	-0.003	Pitch Set Point:	-0.014	Yaw Set Point:	1.573	X_WP:	0.000	Y_WP:	0.000	Y_WP:	0.000	X:	0.009	Y:	0.005	Z:	0.059	yaw:	-90.103	yaw rate:	-0.312	Roll:	-0.154	Pitch:	0.277	Yaw:	-127.900	Thrust:	0.000
Time:	0.543	Roll Set Point:	-0.003	Pitch Set Point:	-0.014	Yaw Set Point:	1.573	X_WP:	0.000	Y_WP:	0.000	Y_WP:	0.000	X:	0.009	Y:	0.005	Z:	0.059	yaw:	-90.098	yaw rate:	-0.160	Roll:	-0.168	Pitch:	0.263	Yaw:	-128.292	Thrust:	0.000
Time:	0.554	Roll Set Point:	-0.003	Pitch Set Point:	-0.014	Yaw Set Point:	1.573	X_WP:	0.000	Y_WP:	0.000	Y_WP:	0.000	X:	0.009	Y:	0.005	Z:	0.059	yaw:	-90.098	yaw rate:	-0.160	Roll:	-0.159	Pitch:	0.262	Yaw:	-128.000	Thrust:	0.000
Time:	0.565	Roll Set Point:	-0.003	Pitch Set Point:	-0.014	Yaw Set Point:	1.573	X_WP:	0.000	Y_WP:	0.000	Y_WP:	0.000	X:	0.009	Y:	0.005	Z:	0.059	yaw:	-90.105	yaw rate:	-0.687	Roll:	-0.142	Pitch:	0.264	Yaw:	-128.006	Thrust:	0.000
Time:	0.576	Roll Set Point:	-0.003	Pitch Set Point:	-0.014	Yaw Set Point:	1.573	X_WP:	0.000	Y_WP:	0.000	Y_WP:	0.000	X:	0.009	Y:	0.005	Z:	0.059	yaw:	-90.099	yaw rate:	0.567	Roll:	-0.170	Pitch:	0.260	Yaw:	-127.870	Thrust:	0.000
Time:	0.588	Roll Set Point:	-0.003	Pitch Set Point:	-0.014	Yaw Set Point:	1.573	X_WP:	0.000	Y_WP:	0.000	Y_WP:	0.000	X:	0.009	Y:	0.005	Z:	0.059	yaw:	-90.099	yaw rate:	-0.031	Roll:	-0.160	Pitch:	0.259	Yaw:	-128.019	Thrust:	0.000
Time:	0.599	Roll Set Point:	-0.003	Pitch Set Point:	-0.014	Yaw Set Point:	1.573	X_WP:	0.000	Y_WP:	0.000	Y_WP:	0.000	X:	0.009	Y:	0.005	Z:	0.059	yaw:	-90.098	yaw rate:	0.118	Roll:	-0.151	Pitch:	0.253	Yaw:	-127.981	Thrust:	0.000
Time:	0.610	Roll Set Point:	-0.003	Pitch Set Point:	-0.014	Yaw Set Point:	1.573	X_WP:	0.000	Y_WP:	0.000	Y_WP:	0.000	X:	0.009	Y:	0.005	Z:	0.059	yaw:	-90.111	yaw rate:	-1.250	Roll:	-0.156	Pitch:	0.276	Yaw:	-128.308	Thrust:	0.000
Time:	0.621	Roll Set Point:	-0.003	Pitch Set Point:	-0.014	Yaw Set Point:	1.573	X_WP:	0.000	Y_WP:	0.000	Y_WP:	0.000	X:	0.009	Y:	0.005	Z:	0.059	yaw:	-90.099	yaw rate:	1.140	Roll:	-0.175	Pitch:	0.262	Yaw:	-127.963	Thrust:	0.000
Time:	0.634	Roll Set Point:	-0.003	Pitch Set Point:	-0.014	Yaw Set Point:	1.573	X_WP:	0.000	Y_WP:	0.000	Y_WP:	0.000	X:	0.009	Y:	0.005	Z:	0.059	yaw:	-90.107	yaw rate:	-0.745	Roll:	-0.152	Pitch:	0.286	Yaw:	-128.381	Thrust:	0.000
Time:	0.646	Roll Set Point:	-0.003	Pitch Set Point:	-0.014	Yaw Set Point:	1.572	X_WP:	0.000	Y_WP:	0.000	Y_WP:	0.000	X:	0.009	Y:	0.005	Z:	0.059	yaw:	-90.095	yaw rate:	1.138	Roll:	-0.153	Pitch:	0.258	Yaw:	-127.964	Thrust:	0.000
Time:	0.659	Roll Set Point:	-0.003	Pitch Set Point:	-0.014	Yaw Set Point:	1.573	X_WP:	0.000	Y_WP:	0.000	Y_WP:	0.000	X:	0.009	Y:	0.005	Z:	0.059	yaw:	-90.107	yaw rate:	-1.126	Roll:	-0.174	Pitch:	0.252	Yaw:	-128.638	Thrust:	0.000
Time:	0.673	Roll Set Point:	-0.003	Pitch Set Point:	-0.014	Yaw Set Point:	1.573	X_WP:	0.000	Y_WP:	0.000	Y_WP:	0.000	X:	0.009	Y:	0.005	Z:	0.059	yaw:	-90.100	yaw rate:	0.223	Roll:	-0.154	Pitch:	0.267	Yaw:	-128.484	Thrust:	0.000
Time:	0.685	Roll Set Point:	-0.003	Pitch Set Point:	-0.014	Yaw Set Point:	1.573	X_WP:	0.000	Y_WP:	0.000	Y_WP:	0.000	X:	0.009	Y:	0.005	Z:	0.059	yaw:	-90.102	yaw rate:	-0.167	Roll:	-0.164	Pitch:	0.271	Yaw:	-128.249	Thrust:	0.000
Time:	0.696	Roll Set Point:	-0.003	Pitch Set Point:	-0.014	Yaw Set Point:	1.573	X_WP:	0.000	Y_WP:	0.000	Y_WP:	0.000	X:	0.009	Y:	0.005	Z:	0.059	yaw:	-90.102	yaw rate:	-0.088	Roll:	-0.165	Pitch:	0.273	Yaw:	-128.233	Thrust:	0.000
Time:	0.707	Roll Set Point:	-0.003	Pitch Set Point:	-0.014	Yaw Set Point:	1.573	X_WP:	0.000	Y_WP:	0.000	Y_WP:	0.000	X:	0.009	Y:	0.005	Z:	0.059	yaw:	-90.104	yaw rate:	-0.138	Roll:	-0.153	Pitch:	0.254	Yaw:	-128.055	Thrust:	0.000
Time:	0.719	Roll Set Point:	-0.003	Pitch Set Point:	-0.014	Yaw Set Point:	1.573	X_WP:	0.000	Y_WP:	0.000	Y_WP:	0.000	X:	0.009	Y:	0.005	Z:	0.059	yaw:	-90.098	yaw rate:	0.583	Roll:	-0.170	Pitch:	0.262	Yaw:	-127.872	Thrust:	0.000
Time:	0.730	Roll Set Point:	-0.003	Pitch Set Point:	-0.014	Yaw Set Point:	1.573	X_WP:	0.000	Y_WP:	0.000	Y_WP:	0.000	X:	0.009	Y:	0.005	Z:	0.059	yaw:	-90.105	yaw rate:	-0.707	Roll:	-0.167	Pitch:	0.275	Yaw:	-128.184	Thrust:	0.000
Time:	0.742	Roll Set Point:	-0.003	Pitch Set Point:	-0.014	Yaw Set Point:	1.573	X_WP:	0.000	Y_WP:	0.000	Y_WP:	0.000	X:	0.009	Y:	0.005	Z:	0.059	yaw:	-90.100	yaw rate:	0.537	Roll:	-0.137	Pitch:	0.273	Yaw:	-128.079	Thrust:	0.000
Time:	0.753	Roll Set Point:	-0.003	Pitch Set Point:	-0.014	Yaw Set Point:	1.573	X_WP:	0.000	Y_WP:	0.000	Y_WP:	0.000	X:	0.009	Y:	0.005	Z:	0.059	yaw:	-90.102	yaw rate:	-0.253	Roll:	-0.170	Pitch:	0.270	Yaw:	-128.089	Thrust:	0.000
Time:	0.764	Roll Set Point:	-0.003	Pitch Set Point:	-0.014	Yaw Set Point:	1.573	X_WP:	0.000	Y_WP:	0.000	Y_WP:	0.000	X:	0.009	Y:	0.005	Z:	0.059	yaw:	-90.111	yaw rate:	-0.842	Roll:	-0.173	Pitch:	0.267	Yaw:	-128.209	Thrust:	0.000
Time:	0.775	Roll Set Point:	-0.003	Pitch Set Point:	-0.014	Yaw Set Point:	1.573	X_WP:	0.000	Y_WP:	0.000	Y_WP:	0.000	X:	0.009	Y:	0.005	Z:	0.059	yaw:	-90.103	yaw rate:	0.809	Roll:	-0.156	Pitch:	0.258	Yaw:	-127.834	Thrust:	0.000
Time:	0.786	Roll Set Point:	-0.003	Pitch Set Point:	-0.014	Yaw Set Point:	1.573	X_WP:	0.000	Y_WP:	0.000	Y_WP:	0.000	X:	0.009	Y:	0.005	Z:	0.059	yaw:	-90.106	yaw rate:	-0.360	Roll:	-0.152	Pitch:	0.262	Yaw:	-128.106	Thrust:	0.000
Time:	0.797	Roll Set Point:	-0.003	Pitch Set Point:	-0.014	Yaw Set Point:	1.573	X_WP:	0.000	Y_WP:	0.000	Y_WP:	0.000	X:	0.009	Y:	0.005	Z:	0.059	yaw:	-90.117	yaw rate:	-1.057	Roll:	-0.164	Pitch:	0.272	Yaw:	-128.281	Thrust:	0.000
Time:	0.808	Roll Set Point:	-0.003	Pitch Set Point:	-0.014	Yaw Set Point:	1.573	X_WP:	0.000	Y_WP:	0.000	Y_WP:	0.000	X:	0.009	Y:	0.005	Z:	0.059	yaw:	-90.107	yaw rate:	1.012	Roll:	-0.169	Pitch:	0.257	Yaw:	-127.765	Thrust:	0.000
Time:	0.819	Roll Set Point:	-0.003	Pitch Set Point:	-0.014	Yaw Set Point:	1.573	X_WP:	0.000	Y_WP:	0.000	Y_WP:	0.000	X:	0.009	Y:	0.005	Z:	0.059	yaw:	-90.104	yaw rate:	0.242	Roll:	-0.152	Pitch:	0.297	Yaw:	-128.162	Thrust:	0.000
Time:	0.831	Roll Set Point:	-0.003	Pitch Set Point:	-0.014	Yaw Set Point:	1.573	X_WP:	0.000	Y_WP:	0.000	Y_WP:	0.000	X:	0.009	Y:	0.005	Z:	0.059	yaw:	-90.106	yaw rate:	-0.155	Roll:	-0.171	Pitch:	0.254	Yaw:	-128.066	Thrust:	0.000
Time:	0.842	Roll Set Point:	-0.003	Pitch Set Point:	-0.014	Yaw Set Point:	1.573	X_WP:	0.000	Y_WP:	0.000	Y_WP:	0.000	X:	0.009	Y:	0.005	Z:	0.059	yaw:	-90.106	yaw rate:	0.019	Roll:	-0.167	Pitch:	0.256	Yaw:	-128.000	Thrust:	0.000
Time:	0.853	Roll Set Point:	-0.003	Pitch Set Point:	-0.014	Yaw Set Point:	1.573	X_WP:	0.000	Y_WP:	0.000	Y_WP:	0.000	X:	0.009	Y:	0.005	Z:	0.059	yaw:	-90.108	yaw rate:	-0.241	Roll:	-0.152	Pitch:	0.265	Yaw:	-128.274	Thrust:	0.000
Time:	0.864	Roll Set Point:	-0.003	Pitch Set Point:	-0.014	Yaw Set Point:	1.573	X_WP:	0.000	Y_WP:	0.000	Y_WP:	0.000	X:	0.009	Y:	0.005	Z:	0.059	yaw:	-90.111	yaw rate:	-0.283	Roll:	-0.171	Pitch:	0.302	Yaw:	-127.909	Thrust:	0.000
Time:	0.876	Roll Set Point:	-0.003	Pitch Set Point:	-0.014	Yaw Set Point:	1.573	X_WP:	0.000	Y_WP:	0.000	Y_WP:	0.000	X:	0.009	Y:	0.005	Z:	0.059	yaw:	-90.104	yaw rate:	0.712	Roll:	-0.162	Pitch:	0.255	Yaw:	-128.046	Thrust:	0.000
Time:	0.887	Roll Set Point:	-0.003	Pitch Set Point:	-0.014	Yaw Set Point:	1.573	X_WP:	0.000	Y_WP:	0.000	Y_WP:	0.000	X:	0.009	Y:	0.005	Z:	0.059	yaw:	-90.098	yaw rate:	0.530	Roll:	-0.161	Pitch:	0.265	Yaw:	-128.093	Thrust:	0.000
Time:	0.898	Roll Set Point:	-0.003	Pitch Set Point:	-0.014	Yaw Set Point:	1.572	X_WP:	0.000	Y_WP:	0.000	Y_WP:	0.000	X:	0.009	Y:	0.005	Z:	0.059	yaw:	-90.097	yaw rate:	0.148	Roll:	-0.169	Pitch:	0.283	Yaw:	-127.765	Thrust:	0.000
Time:	0.909	Roll Set Point:	-0.003	Pitch Set Point:	-0.014	Yaw Set Point:	1.573	X_WP:	0.000	Y_WP:	0.000	Y_WP:	0.000	X:	0.009	Y:	0.005	Z:	0.059	yaw:	-90.110	yaw rate:	-1.262	Roll:	-0.154	Pitch:	0.248	Yaw:	-128.503	Thrust:	0.000
Time:	0.920	Roll Set Point:	-0.003	Pitch Set Point:	-0.014	Yaw Set Point:	1.573	X_WP:	0.000	Y_WP:	0.000	Y_WP:	0.000	X:	0.009	Y:	0.005	Z:	0.059	yaw:	-90.108	yaw rate:	0.108	Roll:	-0.172	Pitch:	0.263	Yaw:	-127.990	Thrust:	0.000
Time:	0.932	Roll Set Point:	-0.003	Pitch Set Point:	-0.014	Yaw Set Point:	1.573	X_WP:	0.000	Y_WP:	0.000	Y_WP:	0.000	X:	0.009	Y:	0.005	Z:	0.059	yaw:	-90.105	yaw rate:	0.320	Roll:	-0.153	Pitch:	0.290	Yaw:	-128.148	Thrust:	0.000
Time:	0.943	Roll Set Point:	-0.003	Pitch Set Point:	-0.014	Yaw Set Point:	1.573	X_WP:	0.000	Y_WP:	0.000	Y_WP:	0.000	X:	0.009	Y:	0.005	Z:	0.059	yaw:	-90.105	yaw rate:	0.075	Roll:	-0.173	Pitch:	0.272	Yaw:	-127.996	Thrust:	0.000
Time:	0.955	Roll Set Point:	-0.003	Pitch Set Point:	-0.014	Yaw Set Point:	1.573	X_WP:	0.000	Y_WP:	0.000	Y_WP:	0.000	X:	0.009	Y:	0.005	Z:	0.059	yaw:	-90.100	yaw rate:	0.423	Roll:	-0.157	Pitch:	0.269	Yaw:	-127.910	Thrust:	0.000
Time:	0.967	Roll Set Point:	-0.003	Pitch Set Point:	-0.014	Yaw Set Point:	1.573	X_WP:	0.000	Y_WP:	0.000	Y_WP:	0.000	X:	0.009	Y:	0.005	Z:	0.059	yaw:	-90.107	yaw rate:	-0.668	Roll:	-0.180	Pitch:	0.271	Yaw:	-128.178	Thrust:	0.000
Time:	0.978	Roll Set Point:	-0.003	Pitch Set Point:	-0.014	Yaw Set Point:	1.573	X_WP:	0.000	Y_WP:	0.000	Y_WP:	0.000	X:	0.009	Y:	0.005	Z:	0.059	yaw:	-90.103	yaw rate:	0.404	Roll:	-0.150	Pitch:	0.272	Yaw:	-127.917	Thrust:	0.000
Time:	0.989	Roll Set Point:	-0.003	Pitch Set Point:	-0.014	Yaw Set Point:	1.573	X_WP:	0.000	Y_WP:	0.000	Y_WP:	0.000	X:	0.009	Y:	0.005	Z:	0.059	yaw:	-90.109	yaw rate:	-0.652	Roll:	-0.150	Pitch:	0.264	Yaw:	-128.178	Thrust:	0.000
Time:	1.000	Roll Set Point:	-0.003	Pitch Set Point:	-0.014	Yaw Set Point:	1.573	X_WP:	0.000	Y_WP:	0.000	Y_WP:	0.000	X:	0.009	Y:	0.005	Z:	0.059	yaw:	-90.106	yaw rate:	0.320	Roll:	-0.171	Pitch:	0.292	Yaw:	-127.942	Thrust:	0.000
Time:	1.011	Roll Set Point:	-0.003	Pitch Set Point:	-0.014	Yaw Set Point:	1.573	X_WP:	0.000	Y_WP:	0.000	Y_WP:	0.500	X:	0.009	Y:	0.005	Z:	0.059	yaw:	-90.104	yaw rate:	0.273	Roll:	-0.177	Pitch:	0.263	Yaw:	-127.949	Thrust:	100.000
Time:	1.022	Roll Set Point:	-0.003	Pitch Set Point:	-0.014	Yaw Set Point:	1.573	X_WP:	0.000	Y_WP:	0.000	Y_WP:	0.500	X:	0.009	Y:	0.005	Z:	0.059	yaw:	-90.112	yaw rate:	-0.805	Roll:	-0.156	Pitch:	0.265	Yaw:	-128.400	Thrust:	24.530
Time:	1.034	Roll Set Point:	-0.003	Pitch Set Point:	-0.014	Yaw Set Point:	1.573	X_WP:	0.000	Y_WP:	0.000	Y_WP:	0.500	X:	0.009	Y:	0.005	Z:	0.059	yaw:	-90.110	yaw rate:	0.196	Roll:	-0.163	Pitch:	0.284	Yaw:	-127.983	Thrust:	25.097
Time:	1.045	Roll Set Point:	-0.003	Pitch Set Point:	-0.014	Yaw Set Point:	1.573	X_WP:	0.000	Y_WP:	0.000	Y_WP:	0.500	X:	0.009	Y:	0.005	Z:	0.059	yaw:	-90.106	yaw rate:	0.358	Roll:	-0.162	Pitch:	0.265	Yaw:	-128.134	Thrust:	25.665
Time:	1.057	Roll Set Point:	-0.003	Pitch Set Point:	-0.014	Yaw Set Point:	1.572	X_WP:	0.000	Y_WP:	0.000	Y_WP:	0.500	X:	0.009	Y:	0.005	Z:	0.059	yaw:	-90.097	yaw rate:	0.866	Roll:	-0.175	Pitch:	0.274	Yaw:	-127.807	Thrust:	26.380
Time:	1.068	Roll Set Point:	-0.003	Pitch Set Point:	-0.014	Yaw Set Point:	1.573	X_WP:	0.000	Y_WP:	0.000	Y_WP:	0.500	X:	0.009	Y:	0.005	Z:	0.059	yaw:	-90.111	yaw rate:	-1.408	Roll:	-0.155	Pitch:	0.265	Yaw:	-128.526	Thrust:	26.737
Time:	1.079	Roll Set Point:	-0.003	Pitch Set Point:	-0.014	Yaw Set Point:	1.573	X_WP:	0.000	Y_WP:	0.000	Y_WP:	0.500	X:	0.009	Y:	0.005	Z:	0.059	yaw:	-90.109	yaw rate:	0.260	Roll:	-0.172	Pitch:	0.281	Yaw:	-127.960	Thrust:	27.433
Time:	1.091	Roll Set Point:	-0.003	Pitch Set Point:	-0.014	Yaw Set Point:	1.573	X_WP:	0.000	Y_WP:	0.000	Y_WP:	0.500	X:	0.009	Y:	0.005	Z:	0.059	yaw:	-90.104	yaw rate:	0.462	Roll:	-0.166	Pitch:	0.273	Yaw:	-127.905	Thrust:	28.356
Time:	1.103	Roll Set Point:	-0.003	Pitch Set Point:	-0.014	Yaw Set Point:	1.573	X_WP:	0.000	Y_WP:	0.000	Y_WP:	0.500	X:	0.009	Y:	0.005	Z:	0.059	yaw:	-90.104	yaw rate:	-0.546	Roll:	-0.164	Pitch:	0.278	Yaw:	-128.420	Thrust:	28.918
Time:	1.114	Roll Set Point:	-0.003	Pitch Set Point:	-0.014	Yaw Set Point:	1.573	X_WP:	0.000	Y_WP:	0.000	Y_WP:	0.500	X:	0.009	Y:	0.005	Z:	0.059	yaw:	-90.102	yaw rate:	0.208	Roll:	-0.167	Pitch:	0.274	Yaw:	-127.764	Thrust:	29.167
Time:	1.125	Roll Set Point:	-0.003	Pitch Set Point:	-0.014	Yaw Set Point:	1.573	X_WP:	0.000	Y_WP:	0.000	Y_WP:	0.500	X:	0.009	Y:	0.005	Z:	0.059	yaw:	-90.113	yaw rate:	-1.115	Roll:	-0.174	Pitch:	0.269	Yaw:	-128.465	Thrust:	30.221
Time:	1.137	Roll Set Point:	-0.003	Pitch Set Point:	-0.014	Yaw Set Point:	1.573	X_WP:	0.000	Y_WP:	0.000	Y_WP:	0.500	X:	0.009	Y:	0.005	Z:	0.059	yaw:	-90.108	yaw rate:	0.521	Roll:	-0.165	Pitch:	0.288	Yaw:	-128.107	Thrust:	30.233
Time:	1.149	Roll Set Point:	-0.003	Pitch Set Point:	-0.014	Yaw Set Point:	1.573	X_WP:	0.000	Y_WP:	0.000	Y_WP:	0.500	X:	0.009	Y:	0.005	Z:	0.059	yaw:	-90.113	yaw rate:	-0.463	Roll:	-0.163	Pitch:	0.263	Yaw:	-128.335	Thrust:	31.532
Time:	1.161	Roll Set Point:	-0.003	Pitch Set Point:	-0.014	Yaw Set Point:	1.573	X_WP:	0.000	Y_WP:	0.000	Y_WP:	0.500	X:	0.009	Y:	0.005	Z:	0.059	yaw:	-90.099	yaw rate:	1.378	Roll:	-0.166	Pitch:	0.282	Yaw:	-127.687	Thrust:	32.217
Time:	1.172	Roll Set Point:	-0.003	Pitch Set Point:	-0.014	Yaw Set Point:	1.573	X_WP:	0.000	Y_WP:	0.000	Y_WP:	0.500	X:	0.009	Y:	0.005	Z:	0.059	yaw:	-90.105	yaw rate:	-0.632	Roll:	-0.168	Pitch:	0.281	Yaw:	-128.167	Thrust:	32.028
Time:	1.183	Roll Set Point:	-0.003	Pitch Set Point:	-0.014	Yaw Set Point:	1.573	X_WP:	0.000	Y_WP:	0.000	Y_WP:	0.500	X:	0.009	Y:	0.005	Z:	0.059	yaw:	-90.114	yaw rate:	-0.896	Roll:	-0.165	Pitch:	0.270	Yaw:	-128.231	Thrust:	32.636
Time:	1.194	Roll Set Point:	-0.003	Pitch Set Point:	-0.014	Yaw Set Point:	1.573	X_WP:	0.000	Y_WP:	0.000	Y_WP:	0.500	X:	0.009	Y:	0.005	Z:	0.059	yaw:	-90.108	yaw rate:	0.647	Roll:	-0.180	Pitch:	0.275	Yaw:	-128.081	Thrust:	34.053
Time:	1.206	Roll Set Point:	-0.003	Pitch Set Point:	-0.014	Yaw Set Point:	1.573	X_WP:	0.000	Y_WP:	0.000	Y_WP:	0.500	X:	0.009	Y:	0.005	Z:	0.059	yaw:	-90.106	yaw rate:	0.139	Roll:	-0.156	Pitch:	0.295	Yaw:	-128.187	Thrust:	33.763
Time:	1.219	Roll Set Point:	-0.003	Pitch Set Point:	-0.014	Yaw Set Point:	1.573	X_WP:	0.000	Y_WP:	0.000	Y_WP:	0.500	X:	0.009	Y:	0.005	Z:	0.059	yaw:	-90.101	yaw rate:	0.580	Roll:	-0.155	Pitch:	0.267	Yaw:	-128.095	Thrust:	36.221
Time:	1.231	Roll Set Point:	-0.003	Pitch Set Point:	-0.014	Yaw Set Point:	1.573	X_WP:	0.000	Y_WP:	0.000	Y_WP:	0.500	X:	0.009	Y:	0.005	Z:	0.059	yaw:	-90.099	yaw rate:	0.215	Roll:	-0.189	Pitch:	0.271	Yaw:	-128.160	Thrust:	36.080
Time:	1.243	Roll Set Point:	-0.003	Pitch Set Point:	-0.014	Yaw Set Point:	1.573	X_WP:	0.000	Y_WP:	0.000	Y_WP:	0.500	X:	0.009	Y:	0.005	Z:	0.059	yaw:	-90.117	yaw rate:	-1.822	Roll:	-0.152	Pitch:	0.281	Yaw:	-128.622	Thrust:	36.486
Time:	1.255	Roll Set Point:	-0.003	Pitch Set Point:	-0.014	Yaw Set Point:	1.573	X_WP:	0.000	Y_WP:	0.000	Y_WP:	0.500	X:	0.009	Y:	0.005	Z:	0.059	yaw:	-90.102	yaw rate:	1.471	Roll:	-0.180	Pitch:	0.287	Yaw:	-128.117	Thrust:	38.314
Time:	1.267	Roll Set Point:	-0.003	Pitch Set Point:	-0.014	Yaw Set Point:	1.573	X_WP:	0.000	Y_WP:	0.000	Y_WP:	0.500	X:	0.009	Y:	0.005	Z:	0.059	yaw:	-90.101	yaw rate:	0.114	Roll:	-0.169	Pitch:	0.278	Yaw:	-127.984	Thrust:	36.756
Time:	1.278	Roll Set Point:	-0.003	Pitch Set Point:	-0.014	Yaw Set Point:	1.573	X_WP:	0.000	Y_WP:	0.000	Y_WP:	0.500	X:	0.009	Y:	0.005	Z:	0.059	yaw:	-90.108	yaw rate:	-0.694	Roll:	-0.155	Pitch:	0.274	Yaw:	-128.371	Thrust:	38.473
Time:	1.290	Roll Set Point:	-0.003	Pitch Set Point:	-0.014	Yaw Set Point:	1.573	X_WP:	0.000	Y_WP:	0.000	Y_WP:	0.500	X:	0.009	Y:	0.005	Z:	0.059	yaw:	-90.114	yaw rate:	-0.807	Roll:	-0.181	Pitch:	0.269	Yaw:	-128.363	Thrust:	39.155
Time:	1.302	Roll Set Point:	-0.003	Pitch Set Point:	-0.014	Yaw Set Point:	1.573	X_WP:	0.000	Y_WP:	0.000	Y_WP:	0.500	X:	0.009	Y:	0.005	Z:	0.059	yaw:	-90.098	yaw rate:	1.581	Roll:	-0.181	Pitch:	0.283	Yaw:	-127.864	Thrust:	39.826
Time:	1.313	Roll Set Point:	-0.003	Pitch Set Point:	-0.014	Yaw Set Point:	1.573	X_WP:	0.000	Y_WP:	0.000	Y_WP:	0.500	X:	0.009	Y:	0.005	Z:	0.059	yaw:	-90.111	yaw rate:	-1.331	Roll:	-0.152	Pitch:	0.296	Yaw:	-128.340	Thrust:	37.693
Time:	1.324	Roll Set Point:	-0.003	Pitch Set Point:	-0.014	Yaw Set Point:	1.573	X_WP:	0.000	Y_WP:	0.000	Y_WP:	0.500	X:	0.009	Y:	0.005	Z:	0.059	yaw:	-90.110	yaw rate:	0.092	Roll:	-0.171	Pitch:	0.262	Yaw:	-128.002	Thrust:	41.042
Time:	1.336	Roll Set Point:	-0.003	Pitch Set Point:	-0.014	Yaw Set Point:	1.573	X_WP:	0.000	Y_WP:	0.000	Y_WP:	0.500	X:	0.009	Y:	0.005	Z:	0.059	yaw:	-90.099	yaw rate:	1.183	Roll:	-0.170	Pitch:	0.294	Yaw:	-127.741	Thrust:	40.291
Time:	1.347	Roll Set Point:	-0.003	Pitch Set Point:	-0.014	Yaw Set Point:	1.573	X_WP:	0.000	Y_WP:	0.000	Y_WP:	0.500	X:	0.009	Y:	0.005	Z:	0.059	yaw:	-90.108	yaw rate:	-0.961	Roll:	-0.160	Pitch:	0.269	Yaw:	-128.248	Thrust:	40.779
Time:	1.359	Roll Set Point:	-0.003	Pitch Set Point:	-0.014	Yaw Set Point:	1.573	X_WP:	0.000	Y_WP:	0.000	Y_WP:	0.500	X:	0.009	Y:	0.005	Z:	0.059	yaw:	-90.100	yaw rate:	0.783	Roll:	-0.179	Pitch:	0.288	Yaw:	-128.035	Thrust:	43.049
Time:	1.370	Roll Set Point:	-0.003	Pitch Set Point:	-0.014	Yaw Set Point:	1.573	X_WP:	0.000	Y_WP:	0.000	Y_WP:	0.500	X:	0.009	Y:	0.005	Z:	0.059	yaw:	-90.108	yaw rate:	-0.768	Roll:	-0.174	Pitch:	0.276	Yaw:	-128.207	Thrust:	41.964
Time:	1.381	Roll Set Point:	-0.003	Pitch Set Point:	-0.014	Yaw Set Point:	1.573	X_WP:	0.000	Y_WP:	0.000	Y_WP:	0.500	X:	0.009	Y:	0.005	Z:	0.059	yaw:	-90.110	yaw rate:	-0.227	Roll:	-0.154	Pitch:	0.291	Yaw:	-128.077	Thrust:	42.466
Time:	1.393	Roll Set Point:	-0.003	Pitch Set Point:	-0.014	Yaw Set Point:	1.573	X_WP:	0.000	Y_WP:	0.000	Y_WP:	0.500	X:	0.009	Y:	0.005	Z:	0.059	yaw:	-90.107	yaw rate:	0.342	Roll:	-0.166	Pitch:	0.273	Yaw:	-127.935	Thrust:	43.150
Time:	1.403	Roll Set Point:	-0.003	Pitch Set Point:	-0.014	Yaw Set Point:	1.573	X_WP:	0.000	Y_WP:	0.000	Y_WP:	0.500	X:	0.009	Y:	0.005	Z:	0.059	yaw:	-90.107	yaw rate:	0.044	Roll:	-0.181	Pitch:	0.280	Yaw:	-127.998	Thrust:	43.751
Time:	1.413	Roll Set Point:	-0.003	Pitch Set Point:	-0.014	Yaw Set Point:	1.573	X_WP:	0.000	Y_WP:	0.000	Y_WP:	0.500	X:	0.009	Y:	0.005	Z:	0.059	yaw:	-90.099	yaw rate:	0.733	Roll:	-0.162	Pitch:	0.277	Yaw:	-127.616	Thrust:	42.463
Time:	1.423	Roll Set Point:	-0.003	Pitch Set Point:	-0.014	Yaw Set Point:	1.573	X_WP:	0.000	Y_WP:	0.000	Y_WP:	0.500	X:	0.009	Y:	0.005	Z:	0.059	yaw:	-90.111	yaw rate:	-1.203	Roll:	-0.172	Pitch:	0.270	Yaw:	-128.149	Thrust:	43.229
Time:	1.434	Roll Set Point:	-0.003	Pitch Set Point:	-0.014	Yaw Set Point:	1.573	X_WP:	0.000	Y_WP:	0.000	Y_WP:	0.500	X:	0.009	Y:	0.005	Z:	0.059	yaw:	-90.102	yaw rate:	0.912	Roll:	-0.177	Pitch:	0.303	Yaw:	-127.797	Thrust:	45.435
Time:	1.445	Roll Set Point:	-0.003	Pitch Set Point:	-0.014	Yaw Set Point:	1.573	X_WP:	0.000	Y_WP:	0.000	Y_WP:	0.500	X:	0.009	Y:	0.005	Z:	0.059	yaw:	-90.101	yaw rate:	0.126	Roll:	-0.153	Pitch:	0.286	Yaw:	-127.979	Thrust:	45.980
Time:	1.457	Roll Set Point:	-0.003	Pitch Set Point:	-0.014	Yaw Set Point:	1.573	X_WP:	0.000	Y_WP:	0.000	Y_WP:	0.500	X:	0.009	Y:	0.005	Z:	0.059	yaw:	-90.109	yaw rate:	-0.826	Roll:	-0.185	Pitch:	0.258	Yaw:	-128.218	Thrust:	46.778
Time:	1.467	Roll Set Point:	-0.003	Pitch Set Point:	-0.014	Yaw Set Point:	1.573	X_WP:	0.000	Y_WP:	0.000	Y_WP:	0.500	X:	0.009	Y:	0.005	Z:	0.059	yaw:	-90.104	yaw rate:	0.537	Roll:	-0.164	Pitch:	0.275	Yaw:	-127.887	Thrust:	47.255
Time:	1.478	Roll Set Point:	-0.003	Pitch Set Point:	-0.014	Yaw Set Point:	1.573	X_WP:	0.000	Y_WP:	0.000	Y_WP:	0.500	X:	0.009	Y:	0.005	Z:	0.059	yaw:	-90.103	yaw rate:	0.048	Roll:	-0.165	Pitch:	0.296	Yaw:	-127.989	Thrust:	47.686
Time:	1.489	Roll Set Point:	-0.003	Pitch Set Point:	-0.014	Yaw Set Point:	1.573	X_WP:	0.000	Y_WP:	0.000	Y_WP:	0.500	X:	0.009	Y:	0.005	Z:	0.059	yaw:	-90.101	yaw rate:	0.272	Roll:	-0.169	Pitch:	0.277	Yaw:	-127.746	Thrust:	46.283
Time:	1.499	Roll Set Point:	-0.003	Pitch Set Point:	-0.014	Yaw Set Point:	1.573	X_WP:	0.000	Y_WP:	0.000	Y_WP:	0.500	X:	0.009	Y:	0.005	Z:	0.059	yaw:	-90.105	yaw rate:	-0.445	Roll:	-0.177	Pitch:	0.288	Yaw:	-128.115	Thrust:	48.879
Time:	1.511	Roll Set Point:	-0.003	Pitch Set Point:	-0.014	Yaw Set Point:	1.573	X_WP:	0.000	Y_WP:	0.000	Y_WP:	0.500	X:	0.009	Y:	0.005	Z:	0.059	yaw:	-90.105	yaw rate:	-0.445	Roll:	-0.171	Pitch:	0.283	Yaw:	-128.029	Thrust:	49.727
Time:	1.521	Roll Set Point:	-0.003	Pitch Set Point:	-0.014	Yaw Set Point:	1.573	X_WP:	0.000	Y_WP:	0.000	Y_WP:	0.500	X:	0.009	Y:	0.005	Z:	0.059	yaw:	-90.102	yaw rate:	0.564	Roll:	-0.163	Pitch:	0.285	Yaw:	-127.918	Thrust:	49.969
Time:	1.533	Roll Set Point:	-0.003	Pitch Set Point:	-0.014	Yaw Set Point:	1.573	X_WP:	0.000	Y_WP:	0.000	Y_WP:	0.500	X:	0.009	Y:	0.005	Z:	0.059	yaw:	-90.102	yaw rate:	0.564	Roll:	-0.171	Pitch:	0.283	Yaw:	-128.024	Thrust:	50.902
Time:	1.543	Roll Set Point:	-0.003	Pitch Set Point:	-0.014	Yaw Set Point:	1.573	X_WP:	0.000	Y_WP:	0.000	Y_WP:	0.500	X:	0.009	Y:	0.005	Z:	0.059	yaw:	-90.109	yaw rate:	-0.742	Roll:	-0.189	Pitch:	0.268	Yaw:	-128.197	Thrust:	51.473
Time:	1.554	Roll Set Point:	-0.003	Pitch Set Point:	-0.014	Yaw Set Point:	1.573	X_WP:	0.000	Y_WP:	0.000	Y_WP:	0.500	X:	0.009	Y:	0.005	Z:	0.059	yaw:	-90.101	yaw rate:	0.763	Roll:	-0.152	Pitch:	0.293	Yaw:	-127.831	Thrust:	51.771
Time:	1.565	Roll Set Point:	-0.003	Pitch Set Point:	-0.014	Yaw Set Point:	1.573	X_WP:	0.000	Y_WP:	0.000	Y_WP:	0.500	X:	0.009	Y:	0.005	Z:	0.059	yaw:	-90.103	yaw rate:	-0.119	Roll:	-0.166	Pitch:	0.288	Yaw:	-128.040	Thrust:	52.490
Time:	1.576	Roll Set Point:	-0.003	Pitch Set Point:	-0.014	Yaw Set Point:	1.573	X_WP:	0.000	Y_WP:	0.000	Y_WP:	0.500	X:	0.009	Y:	0.005	Z:	0.059	yaw:	-90.101	yaw rate:	0.138	Roll:	-0.185	Pitch:	0.285	Yaw:	-127.966	Thrust:	53.003
Time:	1.586	Roll Set Point:	-0.003	Pitch Set Point:	-0.014	Yaw Set Point:	1.573	X_WP:	0.000	Y_WP:	0.000	Y_WP:	0.500	X:	0.009	Y:	0.005	Z:	0.059	yaw:	-90.109	yaw rate:	-0.770	Roll:	-0.169	Pitch:	0.268	Yaw:	-128.022	Thrust:	50.955
Time:	1.596	Roll Set Point:	-0.003	Pitch Set Point:	-0.014	Yaw Set Point:	1.573	X_WP:	0.000	Y_WP:	0.000	Y_WP:	0.500	X:	0.009	Y:	0.005	Z:	0.059	yaw:	-90.106	yaw rate:	0.310	Roll:	-0.166	Pitch:	0.273	Yaw:	-127.745	Thrust:	51.753
Time:	1.607	Roll Set Point:	-0.003	Pitch Set Point:	-0.014	Yaw Set Point:	1.573	X_WP:	0.000	Y_WP:	0.000	Y_WP:	0.500	X:	0.009	Y:	0.005	Z:	0.059	yaw:	-90.114	yaw rate:	-0.836	Roll:	-0.182	Pitch:	0.279	Yaw:	-128.219	Thrust:	54.709
Time:	1.619	Roll Set Point:	-0.003	Pitch Set Point:	-0.014	Yaw Set Point:	1.573	X_WP:	0.000	Y_WP:	0.000	Y_WP:	0.500	X:	0.009	Y:	0.005	Z:	0.059	yaw:	-90.098	yaw rate:	1.619	Roll:	-0.180	Pitch:	0.301	Yaw:	-127.623	Thrust:	55.305
Time:	1.629	Roll Set Point:	-0.003	Pitch Set Point:	-0.014	Yaw Set Point:	1.573	X_WP:	0.000	Y_WP:	0.000	Y_WP:	0.500	X:	0.009	Y:	0.005	Z:	0.059	yaw:	-90.105	yaw rate:	-0.689	Roll:	-0.151	Pitch:	0.285	Yaw:	-128.182	Thrust:	56.058
Time:	1.639	Roll Set Point:	-0.003	Pitch Set Point:	-0.014	Yaw Set Point:	1.572	X_WP:	0.000	Y_WP:	0.000	Y_WP:	0.500	X:	0.009	Y:	0.005	Z:	0.059	yaw:	-90.096	yaw rate:	0.906	Roll:	-0.174	Pitch:	0.305	Yaw:	-127.564	Thrust:	53.661
Time:	1.651	Roll Set Point:	-0.003	Pitch Set Point:	-0.014	Yaw Set Point:	1.573	X_WP:	0.000	Y_WP:	0.000	Y_WP:	0.500	X:	0.009	Y:	0.005	Z:	0.059	yaw:	-90.117	yaw rate:	-2.132	Roll:	-0.175	Pitch:	0.238	Yaw:	-128.539	Thrust:	57.173
Time:	1.661	Roll Set Point:	-0.003	Pitch Set Point:	-0.014	Yaw Set Point:	1.573	X_WP:	0.000	Y_WP:	0.000	Y_WP:	0.500	X:	0.009	Y:	0.005	Z:	0.059	yaw:	-90.108	yaw rate:	0.904	Roll:	-0.167	Pitch:	0.304	Yaw:	-127.807	Thrust:	57.802
Time:	1.672	Roll Set Point:	-0.003	Pitch Set Point:	-0.014	Yaw Set Point:	1.573	X_WP:	0.000	Y_WP:	0.000	Y_WP:	0.500	X:	0.009	Y:	0.005	Z:	0.059	yaw:	-90.103	yaw rate:	0.538	Roll:	-0.183	Pitch:	0.311	Yaw:	-127.886	Thrust:	58.311
Time:	1.683	Roll Set Point:	-0.003	Pitch Set Point:	-0.014	Yaw Set Point:	1.573	X_WP:	0.000	Y_WP:	0.000	Y_WP:	0.500	X:	0.009	Y:	0.005	Z:	0.059	yaw:	-90.099	yaw rate:	0.348	Roll:	-0.171	Pitch:	0.272	Yaw:	-127.925	Thrust:	58.849
Time:	1.693	Roll Set Point:	-0.003	Pitch Set Point:	-0.014	Yaw Set Point:	1.573	X_WP:	0.000	Y_WP:	0.000	Y_WP:	0.500	X:	0.009	Y:	0.005	Z:	0.059	yaw:	-90.109	yaw rate:	-0.999	Roll:	-0.164	Pitch:	0.271	Yaw:	-128.088	Thrust:	56.429
Time:	1.705	Roll Set Point:	-0.003	Pitch Set Point:	-0.014	Yaw Set Point:	1.573	X_WP:	0.000	Y_WP:	0.000	Y_WP:	0.500	X:	0.009	Y:	0.005	Z:	0.059	yaw:	-90.098	yaw rate:	1.073	Roll:	-0.178	Pitch:	0.317	Yaw:	-127.744	Thrust:	59.975
Time:	1.716	Roll Set Point:	-0.003	Pitch Set Point:	-0.014	Yaw Set Point:	1.573	X_WP:	0.000	Y_WP:	0.000	Y_WP:	0.500	X:	0.009	Y:	0.005	Z:	0.059	yaw:	-90.103	yaw rate:	-0.422	Roll:	-0.184	Pitch:	0.275	Yaw:	-128.125	Thrust:	60.980
Time:	1.728	Roll Set Point:	-0.003	Pitch Set Point:	-0.014	Yaw Set Point:	1.573	X_WP:	0.000	Y_WP:	0.000	Y_WP:	0.500	X:	0.009	Y:	0.005	Z:	0.059	yaw:	-90.114	yaw rate:	-1.169	Roll:	-0.165	Pitch:	0.260	Yaw:	-128.308	Thrust:	61.263
Time:	1.739	Roll Set Point:	-0.003	Pitch Set Point:	-0.014	Yaw Set Point:	1.573	X_WP:	0.000	Y_WP:	0.000	Y_WP:	0.500	X:	0.009	Y:	0.005	Z:	0.059	yaw:	-90.102	yaw rate:	1.235	Roll:	-0.172	Pitch:	0.308	Yaw:	-127.929	Thrust:	61.740
Time:	1.750	Roll Set Point:	-0.003	Pitch Set Point:	-0.014	Yaw Set Point:	1.573	X_WP:	0.000	Y_WP:	0.000	Y_WP:	0.500	X:	0.009	Y:	0.005	Z:	0.059	yaw:	-90.102	yaw rate:	-0.028	Roll:	-0.177	Pitch:	0.291	Yaw:	-127.832	Thrust:	62.458
Time:	1.761	Roll Set Point:	-0.003	Pitch Set Point:	-0.014	Yaw Set Point:	1.573	X_WP:	0.000	Y_WP:	0.000	Y_WP:	0.500	X:	0.009	Y:	0.005	Z:	0.059	yaw:	-90.105	yaw rate:	-0.315	Roll:	-0.174	Pitch:	0.306	Yaw:	-128.275	Thrust:	63.002
Time:	1.772	Roll Set Point:	-0.003	Pitch Set Point:	-0.014	Yaw Set Point:	1.573	X_WP:	0.000	Y_WP:	0.000	Y_WP:	0.500	X:	0.009	Y:	0.005	Z:	0.059	yaw:	-90.104	yaw rate:	0.140	Roll:	-0.178	Pitch:	0.273	Yaw:	-127.789	Thrust:	63.594
Time:	1.783	Roll Set Point:	-0.003	Pitch Set Point:	-0.014	Yaw Set Point:	1.572	X_WP:	0.000	Y_WP:	0.000	Y_WP:	0.500	X:	0.009	Y:	0.005	Z:	0.059	yaw:	-90.097	yaw rate:	0.659	Roll:	-0.181	Pitch:	0.276	Yaw:	-128.049	Thrust:	64.173
Time:	1.794	Roll Set Point:	-0.003	Pitch Set Point:	-0.014	Yaw Set Point:	1.573	X_WP:	0.000	Y_WP:	0.000	Y_WP:	0.500	X:	0.009	Y:	0.005	Z:	0.059	yaw:	-90.111	yaw rate:	-1.349	Roll:	-0.163	Pitch:	0.291	Yaw:	-128.177	Thrust:	64.636
Time:	1.805	Roll Set Point:	-0.003	Pitch Set Point:	-0.014	Yaw Set Point:	1.573	X_WP:	0.000	Y_WP:	0.000	Y_WP:	0.500	X:	0.009	Y:	0.005	Z:	0.059	yaw:	-90.108	yaw rate:	0.289	Roll:	-0.159	Pitch:	0.303	Yaw:	-128.157	Thrust:	65.507
Time:	1.817	Roll Set Point:	-0.003	Pitch Set Point:	-0.014	Yaw Set Point:	1.573	X_WP:	0.000	Y_WP:	0.000	Y_WP:	0.500	X:	0.009	Y:	0.005	Z:	0.059	yaw:	-90.103	yaw rate:	0.521	Roll:	-0.196	Pitch:	0.282	Yaw:	-127.890	Thrust:	69.418
Time:	1.830	Roll Set Point:	-0.003	Pitch Set Point:	-0.014	Yaw Set Point:	1.573	X_WP:	0.000	Y_WP:	0.000	Y_WP:	0.500	X:	0.009	Y:	0.005	Z:	0.059	yaw:	-90.112	yaw rate:	-0.868	Roll:	-0.189	Pitch:	0.298	Yaw:	-128.602	Thrust:	70.463
Time:	1.844	Roll Set Point:	-0.003	Pitch Set Point:	-0.014	Yaw Set Point:	1.573	X_WP:	0.000	Y_WP:	0.000	Y_WP:	0.500	X:	0.009	Y:	0.005	Z:	0.059	yaw:	-90.102	yaw rate:	0.933	Roll:	-0.153	Pitch:	0.300	Yaw:	-128.440	Thrust:	78.718
Time:	1.856	Roll Set Point:	-0.003	Pitch Set Point:	-0.014	Yaw Set Point:	1.573	X_WP:	0.000	Y_WP:	0.000	Y_WP:	0.500	X:	0.009	Y:	0.005	Z:	0.059	yaw:	-90.112	yaw rate:	-0.930	Roll:	-0.199	Pitch:	0.292	Yaw:	-128.435	Thrust:	75.802
Time:	1.869	Roll Set Point:	-0.003	Pitch Set Point:	-0.014	Yaw Set Point:	1.573	X_WP:	0.000	Y_WP:	0.000	Y_WP:	0.500	X:	0.009	Y:	0.005	Z:	0.059	yaw:	-90.102	yaw rate:	0.278	Roll:	-0.153	Pitch:	0.303	Yaw:	-128.224	Thrust:	76.041
Time:	1.880	Roll Set Point:	-0.003	Pitch Set Point:	-0.014	Yaw Set Point:	1.573	X_WP:	0.000	Y_WP:	0.000	Y_WP:	0.500	X:	0.009	Y:	0.005	Z:	0.059	yaw:	-90.112	yaw rate:	-0.907	Roll:	-0.189	Pitch:	0.284	Yaw:	-128.423	Thrust:	69.036
Time:	1.893	Roll Set Point:	-0.003	Pitch Set Point:	-0.014	Yaw Set Point:	1.573	X_WP:	0.000	Y_WP:	0.000	Y_WP:	0.500	X:	0.009	Y:	0.005	Z:	0.059	yaw:	-90.109	yaw rate:	0.255	Roll:	-0.186	Pitch:	0.294	Yaw:	-128.167	Thrust:	77.552
Time:	1.904	Roll Set Point:	-0.003	Pitch Set Point:	-0.014	Yaw Set Point:	1.573	X_WP:	0.000	Y_WP:	0.000	Y_WP:	0.500	X:	0.009	Y:	0.005	Z:	0.059	yaw:	-90.108	yaw rate:	0.087	Roll:	-0.176	Pitch:	0.311	Yaw:	-128.203	Thrust:	74.115
Time:	1.914	Roll Set Point:	-0.003	Pitch Set Point:	-0.014	Yaw Set Point:	1.573	X_WP:	0.000	Y_WP:	0.000	Y_WP:	0.500	X:	0.009	Y:	0.005	Z:	0.059	yaw:	-90.103	yaw rate:	0.499	Roll:	-0.171	Pitch:	0.284	Yaw:	-127.695	Thrust:	66.548
Time:	1.926	Roll Set Point:	-0.003	Pitch Set Point:	-0.014	Yaw Set Point:	1.572	X_WP:	0.000	Y_WP:	0.000	Y_WP:	0.500	X:	0.009	Y:	0.005	Z:	0.059	yaw:	-90.093	yaw rate:	1.048	Roll:	-0.187	Pitch:	0.277	Yaw:	-127.736	Thrust:	70.946
Time:	1.937	Roll Set Point:	-0.003	Pitch Set Point:	-0.014	Yaw Set Point:	1.573	X_WP:	0.000	Y_WP:	0.000	Y_WP:	0.500	X:	0.009	Y:	0.005	Z:	0.059	yaw:	-90.099	yaw rate:	-0.639	Roll:	-0.163	Pitch:	0.306	Yaw:	-128.347	Thrust:	72.152
Time:	1.947	Roll Set Point:	-0.003	Pitch Set Point:	-0.014	Yaw Set Point:	1.573	X_WP:	0.000	Y_WP:	0.000	Y_WP:	0.500	X:	0.009	Y:	0.005	Z:	0.059	yaw:	-90.106	yaw rate:	-0.674	Roll:	-0.187	Pitch:	0.299	Yaw:	-128.005	Thrust:	72.342
Time:	1.960	Roll Set Point:	-0.003	Pitch Set Point:	-0.014	Yaw Set Point:	1.573	X_WP:	0.000	Y_WP:	0.000	Y_WP:	0.500	X:	0.009	Y:	0.005	Z:	0.059	yaw:	-90.099	yaw rate:	0.644	Roll:	-0.170	Pitch:	0.285	Yaw:	-128.055	Thrust:	76.999
Time:	1.971	Roll Set Point:	-0.003	Pitch Set Point:	-0.014	Yaw Set Point:	1.573	X_WP:	0.000	Y_WP:	0.000	Y_WP:	0.500	X:	0.009	Y:	0.005	Z:	0.059	yaw:	-90.099	yaw rate:	-0.004	Roll:	-0.182	Pitch:	0.289	Yaw:	-128.009	Thrust:	73.583
Time:	1.982	Roll Set Point:	-0.003	Pitch Set Point:	-0.014	Yaw Set Point:	1.573	X_WP:	0.000	Y_WP:	0.000	Y_WP:	0.500	X:	0.009	Y:	0.005	Z:	0.059	yaw:	-90.110	yaw rate:	-1.052	Roll:	-0.172	Pitch:	0.302	Yaw:	-128.280	Thrust:	74.265
Time:	1.993	Roll Set Point:	-0.003	Pitch Set Point:	-0.014	Yaw Set Point:	1.573	X_WP:	0.000	Y_WP:	0.000	Y_WP:	0.500	X:	0.009	Y:	0.005	Z:	0.059	yaw:	-90.114	yaw rate:	-0.388	Roll:	-0.187	Pitch:	0.267	Yaw:	-128.112	Thrust:	74.473
Time:	2.004	Roll Set Point:	-0.003	Pitch Set Point:	-0.014	Yaw Set Point:	1.573	X_WP:	0.000	Y_WP:	0.000	Y_WP:	0.000	X:	0.009	Y:	0.005	Z:	0.059	yaw:	-90.108	yaw rate:	0.530	Roll:	-0.176	Pitch:	0.284	Yaw:	-128.106	Thrust:	0.000
Time:	2.015	Roll Set Point:	-0.003	Pitch Set Point:	-0.014	Yaw Set Point:	1.573	X_WP:	0.000	Y_WP:	0.000	Y_WP:	0.000	X:	0.009	Y:	0.005	Z:	0.059	yaw:	-90.108	yaw rate:	0.083	Roll:	-0.172	Pitch:	0.310	Yaw:	-128.000	Thrust:	47.685
Time:	2.026	Roll Set Point:	-0.003	Pitch Set Point:	-0.014	Yaw Set Point:	1.573	X_WP:	0.000	Y_WP:	0.000	Y_WP:	0.000	X:	0.009	Y:	0.005	Z:	0.059	yaw:	-90.110	yaw rate:	-0.275	Roll:	-0.171	Pitch:	0.326	Yaw:	-127.895	Thrust:	47.244
Time:	2.037	Roll Set Point:	-0.003	Pitch Set Point:	-0.014	Yaw Set Point:	1.573	X_WP:	0.000	Y_WP:	0.000	Y_WP:	0.000	X:	0.009	Y:	0.005	Z:	0.059	yaw:	-90.109	yaw rate:	0.184	Roll:	-0.183	Pitch:	0.257	Yaw:	-128.182	Thrust:	52.248
Time:	2.049	Roll Set Point:	-0.003	Pitch Set Point:	-0.014	Yaw Set Point:	1.573	X_WP:	0.000	Y_WP:	0.000	Y_WP:	0.000	X:	0.009	Y:	0.005	Z:	0.059	yaw:	-90.103	yaw rate:	0.558	Roll:	-0.179	Pitch:	0.316	Yaw:	-127.881	Thrust:	47.381
Time:	2.060	Roll Set Point:	-0.003	Pitch Set Point:	-0.014	Yaw Set Point:	1.573	X_WP:	0.000	Y_WP:	0.000	Y_WP:	0.000	X:	0.009	Y:	0.005	Z:	0.059	yaw:	-90.104	yaw rate:	-0.093	Roll:	-0.190	Pitch:	0.276	Yaw:	-128.037	Thrust:	47.436
Time:	2.071	Roll Set Point:	-0.003	Pitch Set Point:	-0.014	Yaw Set Point:	1.573	X_WP:	0.000	Y_WP:	0.000	Y_WP:	0.000	X:	0.009	Y:	0.005	Z:	0.059	yaw:	-90.104	yaw rate:	-0.011	Roll:	-0.174	Pitch:	0.302	Yaw:	-128.018	Thrust:	47.323
Time:	2.083	Roll Set Point:	-0.003	Pitch Set Point:	-0.014	Yaw Set Point:	1.573	X_WP:	0.000	Y_WP:	0.000	Y_WP:	0.000	X:	0.009	Y:	0.005	Z:	0.059	yaw:	-90.104	yaw rate:	0.009	Roll:	-0.174	Pitch:	0.322	Yaw:	-128.212	Thrust:	51.784
Time:	2.094	Roll Set Point:	-0.003	Pitch Set Point:	-0.014	Yaw Set Point:	1.573	X_WP:	0.000	Y_WP:	0.000	Y_WP:	0.000	X:	0.009	Y:	0.005	Z:	0.059	yaw:	-90.119	yaw rate:	-1.473	Roll:	-0.169	Pitch:	0.267	Yaw:	-128.556	Thrust:	47.086
Time:	2.106	Roll Set Point:	-0.003	Pitch Set Point:	-0.014	Yaw Set Point:	1.573	X_WP:	0.000	Y_WP:	0.000	Y_WP:	0.000	X:	0.009	Y:	0.005	Z:	0.059	yaw:	-90.111	yaw rate:	0.792	Roll:	-0.180	Pitch:	0.294	Yaw:	-127.836	Thrust:	51.730
Time:	2.117	Roll Set Point:	-0.003	Pitch Set Point:	-0.014	Yaw Set Point:	1.573	X_WP:	0.000	Y_WP:	0.000	Y_WP:	0.000	X:	0.009	Y:	0.005	Z:	0.059	yaw:	-90.111	yaw rate:	0.010	Roll:	-0.191	Pitch:	0.304	Yaw:	-128.022	Thrust:	47.038
Time:	2.130	Roll Set Point:	-0.003	Pitch Set Point:	-0.014	Yaw Set Point:	1.573	X_WP:	0.000	Y_WP:	0.000	Y_WP:	0.000	X:	0.009	Y:	0.005	Z:	0.059	yaw:	-90.103	yaw rate:	0.807	Roll:	-0.177	Pitch:	0.302	Yaw:	-128.050	Thrust:	51.651
Time:	2.141	Roll Set Point:	-0.003	Pitch Set Point:	-0.014	Yaw Set Point:	1.573	X_WP:	0.000	Y_WP:	0.000	Y_WP:	0.000	X:	0.009	Y:	0.005	Z:	0.059	yaw:	-90.109	yaw rate:	-0.664	Roll:	-0.174	Pitch:	0.286	Yaw:	-128.181	Thrust:	46.857
Time:	2.152	Roll Set Point:	-0.003	Pitch Set Point:	-0.014	Yaw Set Point:	1.573	X_WP:	0.000	Y_WP:	0.000	Y_WP:	0.000	X:	0.009	Y:	0.005	Z:	0.059	yaw:	-90.102	yaw rate:	0.761	Roll:	-0.182	Pitch:	0.325	Yaw:	-127.835	Thrust:	46.870
Time:	2.167	Roll Set Point:	-0.003	Pitch Set Point:	-0.014	Yaw Set Point:	1.573	X_WP:	0.000	Y_WP:	0.000	Y_WP:	0.000	X:	0.009	Y:	0.005	Z:	0.059	yaw:	-90.104	yaw rate:	0.122	Roll:	-0.189	Pitch:	0.289	Yaw:	-128.850	Thrust:	64.498
Time:	2.178	Roll Set Point:	-0.003	Pitch Set Point:	-0.014	Yaw Set Point:	1.573	X_WP:	0.000	Y_WP:	0.000	Y_WP:	0.000	X:	0.009	Y:	0.005	Z:	0.059	yaw:	-90.102	yaw rate:	0.291	Roll:	-0.192	Pitch:	0.308	Yaw:	-127.956	Thrust:	46.902
Time:	2.189	Roll Set Point:	-0.003	Pitch Set Point:	-0.014	Yaw Set Point:	1.573	X_WP:	0.000	Y_WP:	0.000	Y_WP:	0.000	X:	0.009	Y:	0.005	Z:	0.059	yaw:	-90.109	yaw rate:	-0.704	Roll:	-0.157	Pitch:	0.295	Yaw:	-128.371	Thrust:	46.480
Time:	2.200	Roll Set Point:	-0.003	Pitch Set Point:	-0.014	Yaw Set Point:	1.573	X_WP:	0.000	Y_WP:	0.000	Y_WP:	0.000	X:	0.009	Y:	0.005	Z:	0.059	yaw:	-90.102	yaw rate:	0.682	Roll:	-0.182	Pitch:	0.297	Yaw:	-127.638	Thrust:	46.390
Time:	2.211	Roll Set Point:	-0.003	Pitch Set Point:	-0.014	Yaw Set Point:	1.573	X_WP:	0.000	Y_WP:	0.000	Y_WP:	0.000	X:	0.009	Y:	0.005	Z:	0.059	yaw:	-90.104	yaw rate:	-0.201	Roll:	-0.191	Pitch:	0.302	Yaw:	-128.062	Thrust:	46.498
Time:	2.222	Roll Set Point:	-0.003	Pitch Set Point:	-0.014	Yaw Set Point:	1.573	X_WP:	0.000	Y_WP:	0.000	Y_WP:	0.000	X:	0.009	Y:	0.005	Z:	0.059	yaw:	-90.098	yaw rate:	0.581	Roll:	-0.169	Pitch:	0.324	Yaw:	-127.868	Thrust:	46.233
Time:	2.233	Roll Set Point:	-0.003	Pitch Set Point:	-0.014	Yaw Set Point:	1.573	X_WP:	0.000	Y_WP:	0.000	Y_WP:	0.000	X:	0.009	Y:	0.005	Z:	0.059	yaw:	-90.114	yaw rate:	-1.580	Roll:	-0.204	Pitch:	0.269	Yaw:	-128.404	Thrust:	46.242
Time:	2.243	Roll Set Point:	-0.003	Pitch Set Point:	-0.014	Yaw Set Point:	1.573	X_WP:	0.000	Y_WP:	0.000	Y_WP:	0.000	X:	0.009	Y:	0.005	Z:	0.059	yaw:	-90.101	yaw rate:	1.304	Roll:	-0.159	Pitch:	0.288	Yaw:	-127.685	Thrust:	45.831
Time:	2.255	Roll Set Point:	-0.003	Pitch Set Point:	-0.014	Yaw Set Point:	1.573	X_WP:	0.000	Y_WP:	0.000	Y_WP:	0.000	X:	0.009	Y:	0.005	Z:	0.059	yaw:	-90.108	yaw rate:	-0.704	Roll:	-0.195	Pitch:	0.311	Yaw:	-128.374	Thrust:	46.286
Time:	2.266	Roll Set Point:	-0.003	Pitch Set Point:	-0.014	Yaw Set Point:	1.573	X_WP:	0.000	Y_WP:	0.000	Y_WP:	0.000	X:	0.009	Y:	0.005	Z:	0.059	yaw:	-90.102	yaw rate:	0.615	Roll:	-0.177	Pitch:	0.281	Yaw:	-127.663	Thrust:	46.036
Time:	2.277	Roll Set Point:	-0.003	Pitch Set Point:	-0.014	Yaw Set Point:	1.573	X_WP:	0.000	Y_WP:	0.000	Y_WP:	0.000	X:	0.009	Y:	0.005	Z:	0.059	yaw:	-90.104	yaw rate:	-0.244	Roll:	-0.172	Pitch:	0.323	Yaw:	-128.073	Thrust:	45.990
Time:	2.288	Roll Set Point:	-0.003	Pitch Set Point:	-0.014	Yaw Set Point:	1.573	X_WP:	0.000	Y_WP:	0.000	Y_WP:	0.000	X:	0.009	Y:	0.005	Z:	0.059	yaw:	-90.113	yaw rate:	-0.932	Roll:	-0.173	Pitch:	0.287	Yaw:	-128.421	Thrust:	49.970
Time:	2.298	Roll Set Point:	-0.003	Pitch Set Point:	-0.014	Yaw Set Point:	1.573	X_WP:	0.000	Y_WP:	0.000	Y_WP:	0.000	X:	0.009	Y:	0.005	Z:	0.059	yaw:	-90.103	yaw rate:	1.008	Roll:	-0.189	Pitch:	0.297	Yaw:	-127.547	Thrust:	41.259
Time:	2.309	Roll Set Point:	-0.003	Pitch Set Point:	-0.014	Yaw Set Point:	1.573	X_WP:	0.000	Y_WP:	0.000	Y_WP:	0.000	X:	0.009	Y:	0.005	Z:	0.059	yaw:	-90.100	yaw rate:	0.317	Roll:	-0.186	Pitch:	0.296	Yaw:	-127.934	Thrust:	45.734
Time:	2.321	Roll Set Point:	-0.003	Pitch Set Point:	-0.014	Yaw Set Point:	1.572	X_WP:	0.000	Y_WP:	0.000	Y_WP:	0.000	X:	0.009	Y:	0.005	Z:	0.059	yaw:	-90.097	yaw rate:	0.335	Roll:	-0.183	Pitch:	0.312	Yaw:	-127.924	Thrust:	45.445
Time:	2.332	Roll Set Point:	-0.003	Pitch Set Point:	-0.014	Yaw Set Point:	1.573	X_WP:	0.000	Y_WP:	0.000	Y_WP:	0.000	X:	0.009	Y:	0.005	Z:	0.059	yaw:	-90.103	yaw rate:	-0.633	Roll:	-0.167	Pitch:	0.305	Yaw:	-128.353	Thrust:	50.016
Time:	2.344	Roll Set Point:	-0.003	Pitch Set Point:	-0.014	Yaw Set Point:	1.573	X_WP:	0.000	Y_WP:	0.000	Y_WP:	0.000	X:	0.009	Y:	0.005	Z:	0.059	yaw:	-90.102	yaw rate:	0.136	Roll:	-0.202	Pitch:	0.295	Yaw:	-128.182	Thrust:	49.906
Time:	2.355	Roll Set Point:	-0.003	Pitch Set Point:	-0.014	Yaw Set Point:	1.573	X_WP:	0.000	Y_WP:	0.000	Y_WP:	0.000	X:	0.009	Y:	0.005	Z:	0.059	yaw:	-90.109	yaw rate:	-0.734	Roll:	-0.164	Pitch:	0.282	Yaw:	-128.012	Thrust:	40.867
Time:	2.366	Roll Set Point:	-0.003	Pitch Set Point:	-0.014	Yaw Set Point:	1.573	X_WP:	0.000	Y_WP:	0.000	Y_WP:	0.000	X:	0.009	Y:	0.005	Z:	0.059	yaw:	-90.107	yaw rate:	0.216	Roll:	-0.187	Pitch:	0.329	Yaw:	-127.981	Thrust:	45.652
Time:	2.378	Roll Set Point:	-0.003	Pitch Set Point:	-0.014	Yaw Set Point:	1.573	X_WP:	0.000	Y_WP:	0.000	Y_WP:	0.000	X:	0.009	Y:	0.005	Z:	0.059	yaw:	-90.114	yaw rate:	-0.698	Roll:	-0.191	Pitch:	0.285	Yaw:	-128.369	Thrust:	49.258
Time:	2.389	Roll Set Point:	-0.003	Pitch Set Point:	-0.014	Yaw Set Point:	1.573	X_WP:	0.000	Y_WP:	0.000	Y_WP:	0.000	X:	0.009	Y:	0.005	Z:	0.059	yaw:	-90.111	yaw rate:	0.322	Roll:	-0.183	Pitch:	0.301	Yaw:	-127.961	Thrust:	45.445
Time:	2.400	Roll Set Point:	-0.003	Pitch Set Point:	-0.014	Yaw Set Point:	1.573	X_WP:	0.000	Y_WP:	0.000	Y_WP:	0.000	X:	0.009	Y:	0.005	Z:	0.059	yaw:	-90.099	yaw rate:	1.179	Roll:	-0.166	Pitch:	0.320	Yaw:	-127.730	Thrust:	45.061
Time:	2.411	Roll Set Point:	-0.003	Pitch Set Point:	-0.014	Yaw Set Point:	1.573	X_WP:	0.000	Y_WP:	0.000	Y_WP:	0.000	X:	0.009	Y:	0.005	Z:	0.059	yaw:	-90.100	yaw rate:	-0.066	Roll:	-0.193	Pitch:	0.297	Yaw:	-128.022	Thrust:	44.957
Time:	2.422	Roll Set Point:	-0.003	Pitch Set Point:	-0.014	Yaw Set Point:	1.573	X_WP:	0.000	Y_WP:	0.000	Y_WP:	0.000	X:	0.009	Y:	0.005	Z:	0.059	yaw:	-90.105	yaw rate:	-0.578	Roll:	-0.182	Pitch:	0.299	Yaw:	-128.153	Thrust:	44.931
Time:	2.433	Roll Set Point:	-0.003	Pitch Set Point:	-0.014	Yaw Set Point:	1.572	X_WP:	0.000	Y_WP:	0.000	Y_WP:	0.000	X:	0.009	Y:	0.005	Z:	0.059	yaw:	-90.097	yaw rate:	0.867	Roll:	-0.171	Pitch:	0.311	Yaw:	-128.003	Thrust:	44.808
Time:	2.444	Roll Set Point:	-0.003	Pitch Set Point:	-0.014	Yaw Set Point:	1.573	X_WP:	0.000	Y_WP:	0.000	Y_WP:	0.000	X:	0.009	Y:	0.005	Z:	0.059	yaw:	-90.106	yaw rate:	-0.983	Roll:	-0.194	Pitch:	0.285	Yaw:	-128.085	Thrust:	44.692
Time:	2.456	Roll Set Point:	-0.003	Pitch Set Point:	-0.014	Yaw Set Point:	1.573	X_WP:	0.000	Y_WP:	0.000	Y_WP:	0.000	X:	0.009	Y:	0.005	Z:	0.059	yaw:	-90.110	yaw rate:	-0.398	Roll:	-0.192	Pitch:	0.311	Yaw:	-128.119	Thrust:	44.737
Time:	2.467	Roll Set Point:	-0.003	Pitch Set Point:	-0.014	Yaw Set Point:	1.573	X_WP:	0.000	Y_WP:	0.000	Y_WP:	0.000	X:	0.009	Y:	0.005	Z:	0.059	yaw:	-90.105	yaw rate:	0.554	Roll:	-0.171	Pitch:	0.301	Yaw:	-128.090	Thrust:	44.437
Time:	2.478	Roll Set Point:	-0.003	Pitch Set Point:	-0.014	Yaw Set Point:	1.573	X_WP:	0.000	Y_WP:	0.000	Y_WP:	0.000	X:	0.009	Y:	0.005	Z:	0.059	yaw:	-90.100	yaw rate:	0.526	Roll:	-0.188	Pitch:	0.315	Yaw:	-127.676	Thrust:	44.567
Time:	2.489	Roll Set Point:	-0.003	Pitch Set Point:	-0.014	Yaw Set Point:	1.573	X_WP:	0.000	Y_WP:	0.000	Y_WP:	0.000	X:	0.009	Y:	0.005	Z:	0.059	yaw:	-90.108	yaw rate:	-0.819	Roll:	-0.186	Pitch:	0.302	Yaw:	-128.215	Thrust:	44.547
Time:	2.500	Roll Set Point:	-0.003	Pitch Set Point:	-0.014	Yaw Set Point:	1.573	X_WP:	0.000	Y_WP:	0.000	Y_WP:	0.000	X:	0.009	Y:	0.005	Z:	0.059	yaw:	-90.111	yaw rate:	-0.308	Roll:	-0.172	Pitch:	0.307	Yaw:	-128.092	Thrust:	44.074
Time:	2.510	Roll Set Point:	-0.003	Pitch Set Point:	-0.014	Yaw Set Point:	1.573	X_WP:	0.000	Y_WP:	0.000	Y_WP:	0.000	X:	0.009	Y:	0.005	Z:	0.059	yaw:	-90.100	yaw rate:	1.111	Roll:	-0.189	Pitch:	0.298	Yaw:	-127.736	Thrust:	44.153
Time:	2.522	Roll Set Point:	-0.003	Pitch Set Point:	-0.014	Yaw Set Point:	1.573	X_WP:	0.000	Y_WP:	0.000	Y_WP:	0.000	X:	0.009	Y:	0.005	Z:	0.059	yaw:	-90.104	yaw rate:	-0.434	Roll:	-0.182	Pitch:	0.288	Yaw:	-128.311	Thrust:	48.566
Time:	2.534	Roll Set Point:	-0.003	Pitch Set Point:	-0.014	Yaw Set Point:	1.572	X_WP:	0.000	Y_WP:	0.000	Y_WP:	0.000	X:	0.009	Y:	0.005	Z:	0.059	yaw:	-90.092	yaw rate:	1.204	Roll:	-0.171	Pitch:	0.336	Yaw:	-127.935	Thrust:	44.169
Time:	2.546	Roll Set Point:	-0.003	Pitch Set Point:	-0.014	Yaw Set Point:	1.572	X_WP:	0.000	Y_WP:	0.000	Y_WP:	0.000	X:	0.009	Y:	0.005	Z:	0.059	yaw:	-90.094	yaw rate:	-0.170	Roll:	-0.198	Pitch:	0.309	Yaw:	-128.238	Thrust:	48.221
