Time:	0.032	Roll Set Point:	0.095	Pitch Set Point:	-0.334	Yaw Set Point:	-0.162	X_WP:	0.000	Y_WP:	0.000	Y_WP:	0.000	X:	-0.061	Y:	0.163	Z:	0.059	yaw:	9.284	yaw rate:	0.072	Roll:	-0.984	Pitch:	4.961	Yaw:	12.963	Thrust:	0.000
Time:	0.042	Roll Set Point:	0.095	Pitch Set Point:	-0.334	Yaw Set Point:	-0.162	X_WP:	0.000	Y_WP:	0.000	Y_WP:	0.000	X:	-0.061	Y:	0.163	Z:	0.059	yaw:	9.287	yaw rate:	0.254	Roll:	-0.963	Pitch:	4.981	Yaw:	13.066	Thrust:	0.000
Time:	0.053	Roll Set Point:	0.095	Pitch Set Point:	-0.334	Yaw Set Point:	-0.162	X_WP:	0.000	Y_WP:	0.000	Y_WP:	0.000	X:	-0.061	Y:	0.163	Z:	0.059	yaw:	9.283	yaw rate:	-0.405	Roll:	-0.998	Pitch:	4.958	Yaw:	12.936	Thrust:	0.000
Time:	0.063	Roll Set Point:	0.095	Pitch Set Point:	-0.334	Yaw Set Point:	-0.162	X_WP:	0.000	Y_WP:	0.000	Y_WP:	0.000	X:	-0.061	Y:	0.163	Z:	0.059	yaw:	9.279	yaw rate:	-0.362	Roll:	-1.004	Pitch:	4.955	Yaw:	12.960	Thrust:	0.000
Time:	0.074	Roll Set Point:	0.095	Pitch Set Point:	-0.334	Yaw Set Point:	-0.162	X_WP:	0.000	Y_WP:	0.000	Y_WP:	0.000	X:	-0.061	Y:	0.163	Z:	0.059	yaw:	9.282	yaw rate:	0.256	Roll:	-0.977	Pitch:	4.999	Yaw:	13.164	Thrust:	0.000
Time:	0.084	Roll Set Point:	0.095	Pitch Set Point:	-0.334	Yaw Set Point:	-0.162	X_WP:	0.000	Y_WP:	0.000	Y_WP:	0.000	X:	-0.061	Y:	0.163	Z:	0.059	yaw:	9.271	yaw rate:	-1.087	Roll:	-1.060	Pitch:	4.957	Yaw:	12.823	Thrust:	0.000
Time:	0.095	Roll Set Point:	0.095	Pitch Set Point:	-0.334	Yaw Set Point:	-0.162	X_WP:	0.000	Y_WP:	0.000	Y_WP:	0.000	X:	-0.061	Y:	0.163	Z:	0.059	yaw:	9.288	yaw rate:	1.694	Roll:	-0.906	Pitch:	5.000	Yaw:	13.586	Thrust:	0.000
Time:	0.105	Roll Set Point:	0.095	Pitch Set Point:	-0.334	Yaw Set Point:	-0.162	X_WP:	0.000	Y_WP:	0.000	Y_WP:	0.000	X:	-0.061	Y:	0.163	Z:	0.059	yaw:	9.280	yaw rate:	-0.839	Roll:	-1.016	Pitch:	4.993	Yaw:	12.965	Thrust:	0.000
Time:	0.115	Roll Set Point:	0.095	Pitch Set Point:	-0.334	Yaw Set Point:	-0.162	X_WP:	0.000	Y_WP:	0.000	Y_WP:	0.000	X:	-0.061	Y:	0.163	Z:	0.059	yaw:	9.287	yaw rate:	0.715	Roll:	-0.973	Pitch:	5.023	Yaw:	13.414	Thrust:	0.000
Time:	0.126	Roll Set Point:	0.095	Pitch Set Point:	-0.334	Yaw Set Point:	-0.162	X_WP:	0.000	Y_WP:	0.000	Y_WP:	0.000	X:	-0.061	Y:	0.163	Z:	0.059	yaw:	9.289	yaw rate:	0.283	Roll:	-0.982	Pitch:	4.993	Yaw:	13.359	Thrust:	0.000
Time:	0.137	Roll Set Point:	0.095	Pitch Set Point:	-0.334	Yaw Set Point:	-0.162	X_WP:	0.000	Y_WP:	0.000	Y_WP:	0.000	X:	-0.061	Y:	0.163	Z:	0.059	yaw:	9.276	yaw rate:	-1.379	Roll:	-1.048	Pitch:	4.990	Yaw:	12.981	Thrust:	0.000
Time:	0.148	Roll Set Point:	0.095	Pitch Set Point:	-0.334	Yaw Set Point:	-0.162	X_WP:	0.000	Y_WP:	0.000	Y_WP:	0.000	X:	-0.061	Y:	0.163	Z:	0.059	yaw:	9.277	yaw rate:	0.172	Roll:	-0.992	Pitch:	5.013	Yaw:	13.386	Thrust:	0.000
Time:	0.158	Roll Set Point:	0.095	Pitch Set Point:	-0.334	Yaw Set Point:	-0.162	X_WP:	0.000	Y_WP:	0.000	Y_WP:	0.000	X:	-0.061	Y:	0.163	Z:	0.059	yaw:	9.277	yaw rate:	0.003	Roll:	-0.981	Pitch:	5.008	Yaw:	13.347	Thrust:	0.000
Time:	0.168	Roll Set Point:	0.095	Pitch Set Point:	-0.334	Yaw Set Point:	-0.162	X_WP:	0.000	Y_WP:	0.000	Y_WP:	0.000	X:	-0.061	Y:	0.163	Z:	0.059	yaw:	9.277	yaw rate:	0.003	Roll:	-0.996	Pitch:	5.017	Yaw:	13.376	Thrust:	0.000
Time:	0.178	Roll Set Point:	0.095	Pitch Set Point:	-0.334	Yaw Set Point:	-0.162	X_WP:	0.000	Y_WP:	0.000	Y_WP:	0.000	X:	-0.061	Y:	0.163	Z:	0.059	yaw:	9.289	yaw rate:	1.180	Roll:	-0.944	Pitch:	5.054	Yaw:	13.733	Thrust:	0.000
Time:	0.189	Roll Set Point:	0.095	Pitch Set Point:	-0.334	Yaw Set Point:	-0.162	X_WP:	0.000	Y_WP:	0.000	Y_WP:	0.000	X:	-0.061	Y:	0.163	Z:	0.059	yaw:	9.297	yaw rate:	0.763	Roll:	-0.966	Pitch:	5.048	Yaw:	13.668	Thrust:	0.000
Time:	0.199	Roll Set Point:	0.095	Pitch Set Point:	-0.334	Yaw Set Point:	-0.162	X_WP:	0.000	Y_WP:	0.000	Y_WP:	0.000	X:	-0.061	Y:	0.163	Z:	0.059	yaw:	9.289	yaw rate:	-0.779	Roll:	-1.021	Pitch:	4.988	Yaw:	13.286	Thrust:	0.000
Time:	0.210	Roll Set Point:	0.095	Pitch Set Point:	-0.334	Yaw Set Point:	-0.162	X_WP:	0.000	Y_WP:	0.000	Y_WP:	0.000	X:	-0.061	Y:	0.163	Z:	0.059	yaw:	9.280	yaw rate:	-0.946	Roll:	-1.048	Pitch:	5.030	Yaw:	13.337	Thrust:	0.000
Time:	0.220	Roll Set Point:	0.095	Pitch Set Point:	-0.334	Yaw Set Point:	-0.162	X_WP:	0.000	Y_WP:	0.000	Y_WP:	0.000	X:	-0.061	Y:	0.163	Z:	0.059	yaw:	9.279	yaw rate:	-0.110	Roll:	-1.005	Pitch:	5.048	Yaw:	13.510	Thrust:	0.000
Time:	0.230	Roll Set Point:	0.095	Pitch Set Point:	-0.334	Yaw Set Point:	-0.162	X_WP:	0.000	Y_WP:	0.000	Y_WP:	0.000	X:	-0.061	Y:	0.163	Z:	0.059	yaw:	9.279	yaw rate:	0.094	Roll:	-0.998	Pitch:	5.035	Yaw:	13.598	Thrust:	0.000
Time:	0.240	Roll Set Point:	0.095	Pitch Set Point:	-0.334	Yaw Set Point:	-0.162	X_WP:	0.000	Y_WP:	0.000	Y_WP:	0.000	X:	-0.061	Y:	0.163	Z:	0.059	yaw:	9.285	yaw rate:	0.561	Roll:	-0.984	Pitch:	5.046	Yaw:	13.764	Thrust:	0.000
Time:	0.251	Roll Set Point:	0.095	Pitch Set Point:	-0.334	Yaw Set Point:	-0.162	X_WP:	0.000	Y_WP:	0.000	Y_WP:	0.000	X:	-0.061	Y:	0.163	Z:	0.059	yaw:	9.287	yaw rate:	0.153	Roll:	-0.993	Pitch:	5.089	Yaw:	13.750	Thrust:	0.000
Time:	0.261	Roll Set Point:	0.095	Pitch Set Point:	-0.334	Yaw Set Point:	-0.162	X_WP:	0.000	Y_WP:	0.000	Y_WP:	0.000	X:	-0.061	Y:	0.163	Z:	0.059	yaw:	9.285	yaw rate:	-0.138	Roll:	-1.008	Pitch:	5.032	Yaw:	13.643	Thrust:	0.000
Time:	0.271	Roll Set Point:	0.095	Pitch Set Point:	-0.334	Yaw Set Point:	-0.162	X_WP:	0.000	Y_WP:	0.000	Y_WP:	0.000	X:	-0.061	Y:	0.163	Z:	0.059	yaw:	9.279	yaw rate:	-0.644	Roll:	-1.025	Pitch:	5.056	Yaw:	13.535	Thrust:	0.000
Time:	0.281	Roll Set Point:	0.095	Pitch Set Point:	-0.334	Yaw Set Point:	-0.162	X_WP:	0.000	Y_WP:	0.000	Y_WP:	0.000	X:	-0.061	Y:	0.163	Z:	0.059	yaw:	9.278	yaw rate:	-0.064	Roll:	-1.003	Pitch:	5.058	Yaw:	13.718	Thrust:	0.000
Time:	0.291	Roll Set Point:	0.095	Pitch Set Point:	-0.334	Yaw Set Point:	-0.162	X_WP:	0.000	Y_WP:	0.000	Y_WP:	0.000	X:	-0.061	Y:	0.163	Z:	0.059	yaw:	9.277	yaw rate:	-0.107	Roll:	-1.039	Pitch:	5.058	Yaw:	13.742	Thrust:	0.000
Time:	0.301	Roll Set Point:	0.095	Pitch Set Point:	-0.334	Yaw Set Point:	-0.162	X_WP:	0.000	Y_WP:	0.000	Y_WP:	0.000	X:	-0.061	Y:	0.163	Z:	0.059	yaw:	9.291	yaw rate:	1.425	Roll:	-0.924	Pitch:	5.115	Yaw:	14.190	Thrust:	0.000
Time:	0.311	Roll Set Point:	0.095	Pitch Set Point:	-0.334	Yaw Set Point:	-0.162	X_WP:	0.000	Y_WP:	0.000	Y_WP:	0.000	X:	-0.061	Y:	0.163	Z:	0.059	yaw:	9.294	yaw rate:	0.247	Roll:	-0.983	Pitch:	5.085	Yaw:	13.918	Thrust:	0.000
Time:	0.321	Roll Set Point:	0.095	Pitch Set Point:	-0.334	Yaw Set Point:	-0.162	X_WP:	0.000	Y_WP:	0.000	Y_WP:	0.000	X:	-0.061	Y:	0.163	Z:	0.059	yaw:	9.290	yaw rate:	-0.375	Roll:	-1.032	Pitch:	5.065	Yaw:	13.783	Thrust:	0.000
Time:	0.332	Roll Set Point:	0.095	Pitch Set Point:	-0.334	Yaw Set Point:	-0.162	X_WP:	0.000	Y_WP:	0.000	Y_WP:	0.000	X:	-0.061	Y:	0.163	Z:	0.059	yaw:	9.279	yaw rate:	-1.113	Roll:	-1.048	Pitch:	5.068	Yaw:	13.728	Thrust:	0.000
Time:	0.342	Roll Set Point:	0.095	Pitch Set Point:	-0.334	Yaw Set Point:	-0.162	X_WP:	0.000	Y_WP:	0.000	Y_WP:	0.000	X:	-0.061	Y:	0.163	Z:	0.059	yaw:	9.278	yaw rate:	-0.120	Roll:	-1.022	Pitch:	5.100	Yaw:	13.898	Thrust:	0.000
Time:	0.353	Roll Set Point:	0.095	Pitch Set Point:	-0.334	Yaw Set Point:	-0.162	X_WP:	0.000	Y_WP:	0.000	Y_WP:	0.000	X:	-0.061	Y:	0.163	Z:	0.059	yaw:	9.291	yaw rate:	1.307	Roll:	-0.978	Pitch:	5.132	Yaw:	14.381	Thrust:	0.000
Time:	0.363	Roll Set Point:	0.095	Pitch Set Point:	-0.334	Yaw Set Point:	-0.162	X_WP:	0.000	Y_WP:	0.000	Y_WP:	0.000	X:	-0.061	Y:	0.163	Z:	0.059	yaw:	9.279	yaw rate:	-1.156	Roll:	-1.058	Pitch:	5.076	Yaw:	13.665	Thrust:	0.000
Time:	0.374	Roll Set Point:	0.095	Pitch Set Point:	-0.334	Yaw Set Point:	-0.162	X_WP:	0.000	Y_WP:	0.000	Y_WP:	0.000	X:	-0.061	Y:	0.163	Z:	0.059	yaw:	9.279	yaw rate:	-1.156	Roll:	-1.015	Pitch:	5.116	Yaw:	14.053	Thrust:	0.000
Time:	0.384	Roll Set Point:	0.095	Pitch Set Point:	-0.334	Yaw Set Point:	-0.162	X_WP:	0.000	Y_WP:	0.000	Y_WP:	0.000	X:	-0.061	Y:	0.163	Z:	0.059	yaw:	9.283	yaw rate:	0.395	Roll:	-0.994	Pitch:	5.107	Yaw:	14.073	Thrust:	0.000
Time:	0.394	Roll Set Point:	0.095	Pitch Set Point:	-0.334	Yaw Set Point:	-0.162	X_WP:	0.000	Y_WP:	0.000	Y_WP:	0.000	X:	-0.061	Y:	0.163	Z:	0.059	yaw:	9.290	yaw rate:	0.729	Roll:	-0.974	Pitch:	5.147	Yaw:	14.165	Thrust:	0.000
Time:	0.405	Roll Set Point:	0.095	Pitch Set Point:	-0.334	Yaw Set Point:	-0.162	X_WP:	0.000	Y_WP:	0.000	Y_WP:	0.000	X:	-0.061	Y:	0.163	Z:	0.059	yaw:	9.276	yaw rate:	-1.443	Roll:	-1.064	Pitch:	5.076	Yaw:	13.713	Thrust:	0.000
Time:	0.415	Roll Set Point:	0.095	Pitch Set Point:	-0.334	Yaw Set Point:	-0.162	X_WP:	0.000	Y_WP:	0.000	Y_WP:	0.000	X:	-0.061	Y:	0.163	Z:	0.059	yaw:	9.283	yaw rate:	0.704	Roll:	-0.982	Pitch:	5.149	Yaw:	14.148	Thrust:	0.000
Time:	0.426	Roll Set Point:	0.095	Pitch Set Point:	-0.334	Yaw Set Point:	-0.162	X_WP:	0.000	Y_WP:	0.000	Y_WP:	0.000	X:	-0.061	Y:	0.163	Z:	0.059	yaw:	9.287	yaw rate:	0.391	Roll:	-1.022	Pitch:	5.160	Yaw:	14.157	Thrust:	0.000
Time:	0.436	Roll Set Point:	0.095	Pitch Set Point:	-0.334	Yaw Set Point:	-0.162	X_WP:	0.000	Y_WP:	0.000	Y_WP:	0.000	X:	-0.061	Y:	0.163	Z:	0.059	yaw:	9.289	yaw rate:	0.205	Roll:	-0.999	Pitch:	5.117	Yaw:	14.026	Thrust:	0.000
Time:	0.446	Roll Set Point:	0.095	Pitch Set Point:	-0.334	Yaw Set Point:	-0.162	X_WP:	0.000	Y_WP:	0.000	Y_WP:	0.000	X:	-0.061	Y:	0.163	Z:	0.059	yaw:	9.296	yaw rate:	0.695	Roll:	-0.979	Pitch:	5.155	Yaw:	14.164	Thrust:	0.000
Time:	0.456	Roll Set Point:	0.095	Pitch Set Point:	-0.334	Yaw Set Point:	-0.162	X_WP:	0.000	Y_WP:	0.000	Y_WP:	0.000	X:	-0.061	Y:	0.163	Z:	0.059	yaw:	9.296	yaw rate:	0.026	Roll:	-1.010	Pitch:	5.142	Yaw:	13.989	Thrust:	0.000
Time:	0.466	Roll Set Point:	0.095	Pitch Set Point:	-0.334	Yaw Set Point:	-0.162	X_WP:	0.000	Y_WP:	0.000	Y_WP:	0.000	X:	-0.061	Y:	0.163	Z:	0.059	yaw:	9.288	yaw rate:	-0.866	Roll:	-1.076	Pitch:	5.126	Yaw:	13.745	Thrust:	0.000
Time:	0.476	Roll Set Point:	0.095	Pitch Set Point:	-0.334	Yaw Set Point:	-0.162	X_WP:	0.000	Y_WP:	0.000	Y_WP:	0.000	X:	-0.061	Y:	0.163	Z:	0.059	yaw:	9.284	yaw rate:	-0.340	Roll:	-1.033	Pitch:	5.114	Yaw:	13.877	Thrust:	0.000
Time:	0.486	Roll Set Point:	0.095	Pitch Set Point:	-0.334	Yaw Set Point:	-0.162	X_WP:	0.000	Y_WP:	0.000	Y_WP:	0.000	X:	-0.061	Y:	0.163	Z:	0.059	yaw:	9.266	yaw rate:	-1.813	Roll:	-1.129	Pitch:	5.139	Yaw:	13.468	Thrust:	0.000
Time:	0.496	Roll Set Point:	0.095	Pitch Set Point:	-0.334	Yaw Set Point:	-0.162	X_WP:	0.000	Y_WP:	0.000	Y_WP:	0.000	X:	-0.061	Y:	0.163	Z:	0.059	yaw:	9.286	yaw rate:	1.978	Roll:	-0.935	Pitch:	5.177	Yaw:	14.484	Thrust:	0.000
Time:	0.506	Roll Set Point:	0.095	Pitch Set Point:	-0.334	Yaw Set Point:	-0.162	X_WP:	0.000	Y_WP:	0.000	Y_WP:	0.000	X:	-0.061	Y:	0.163	Z:	0.059	yaw:	9.286	yaw rate:	1.978	Roll:	-1.024	Pitch:	5.158	Yaw:	13.968	Thrust:	0.000
Time:	0.516	Roll Set Point:	0.095	Pitch Set Point:	-0.334	Yaw Set Point:	-0.162	X_WP:	0.000	Y_WP:	0.000	Y_WP:	0.000	X:	-0.061	Y:	0.163	Z:	0.059	yaw:	9.286	yaw rate:	0.038	Roll:	-0.982	Pitch:	5.186	Yaw:	13.979	Thrust:	0.000
Time:	0.526	Roll Set Point:	0.095	Pitch Set Point:	-0.334	Yaw Set Point:	-0.162	X_WP:	0.000	Y_WP:	0.000	Y_WP:	0.000	X:	-0.061	Y:	0.163	Z:	0.059	yaw:	9.294	yaw rate:	0.749	Roll:	-0.991	Pitch:	5.175	Yaw:	14.174	Thrust:	0.000
Time:	0.536	Roll Set Point:	0.095	Pitch Set Point:	-0.334	Yaw Set Point:	-0.162	X_WP:	0.000	Y_WP:	0.000	Y_WP:	0.000	X:	-0.061	Y:	0.163	Z:	0.059	yaw:	9.283	yaw rate:	-1.032	Roll:	-1.073	Pitch:	5.140	Yaw:	13.703	Thrust:	0.000
Time:	0.547	Roll Set Point:	0.095	Pitch Set Point:	-0.334	Yaw Set Point:	-0.162	X_WP:	0.000	Y_WP:	0.000	Y_WP:	0.000	X:	-0.061	Y:	0.163	Z:	0.059	yaw:	9.269	yaw rate:	-1.466	Roll:	-1.121	Pitch:	5.174	Yaw:	13.698	Thrust:	0.000
Time:	0.558	Roll Set Point:	0.095	Pitch Set Point:	-0.334	Yaw Set Point:	-0.162	X_WP:	0.000	Y_WP:	0.000	Y_WP:	0.000	X:	-0.061	Y:	0.163	Z:	0.059	yaw:	9.276	yaw rate:	0.755	Roll:	-1.014	Pitch:	5.217	Yaw:	14.229	Thrust:	0.000
Time:	0.568	Roll Set Point:	0.095	Pitch Set Point:	-0.334	Yaw Set Point:	-0.162	X_WP:	0.000	Y_WP:	0.000	Y_WP:	0.000	X:	-0.061	Y:	0.163	Z:	0.059	yaw:	9.280	yaw rate:	0.407	Roll:	-1.002	Pitch:	5.192	Yaw:	14.067	Thrust:	0.000
Time:	0.578	Roll Set Point:	0.095	Pitch Set Point:	-0.334	Yaw Set Point:	-0.162	X_WP:	0.000	Y_WP:	0.000	Y_WP:	0.000	X:	-0.061	Y:	0.163	Z:	0.059	yaw:	9.288	yaw rate:	0.802	Roll:	-0.962	Pitch:	5.206	Yaw:	14.181	Thrust:	0.000
Time:	0.589	Roll Set Point:	0.095	Pitch Set Point:	-0.334	Yaw Set Point:	-0.162	X_WP:	0.000	Y_WP:	0.000	Y_WP:	0.000	X:	-0.061	Y:	0.163	Z:	0.059	yaw:	9.286	yaw rate:	-0.227	Roll:	-1.039	Pitch:	5.186	Yaw:	13.916	Thrust:	0.000
Time:	0.599	Roll Set Point:	0.095	Pitch Set Point:	-0.334	Yaw Set Point:	-0.162	X_WP:	0.000	Y_WP:	0.000	Y_WP:	0.000	X:	-0.061	Y:	0.163	Z:	0.059	yaw:	9.291	yaw rate:	0.499	Roll:	-0.994	Pitch:	5.227	Yaw:	14.106	Thrust:	0.000
Time:	0.610	Roll Set Point:	0.095	Pitch Set Point:	-0.334	Yaw Set Point:	-0.162	X_WP:	0.000	Y_WP:	0.000	Y_WP:	0.000	X:	-0.061	Y:	0.163	Z:	0.059	yaw:	9.291	yaw rate:	-0.021	Roll:	-1.047	Pitch:	5.215	Yaw:	14.064	Thrust:	0.000
Time:	0.620	Roll Set Point:	0.095	Pitch Set Point:	-0.334	Yaw Set Point:	-0.162	X_WP:	0.000	Y_WP:	0.000	Y_WP:	0.000	X:	-0.061	Y:	0.163	Z:	0.059	yaw:	9.283	yaw rate:	-0.768	Roll:	-1.094	Pitch:	5.189	Yaw:	13.769	Thrust:	0.000
Time:	0.631	Roll Set Point:	0.095	Pitch Set Point:	-0.334	Yaw Set Point:	-0.162	X_WP:	0.000	Y_WP:	0.000	Y_WP:	0.000	X:	-0.061	Y:	0.163	Z:	0.059	yaw:	9.287	yaw rate:	0.355	Roll:	-1.025	Pitch:	5.238	Yaw:	14.156	Thrust:	0.000
Time:	0.641	Roll Set Point:	0.095	Pitch Set Point:	-0.334	Yaw Set Point:	-0.162	X_WP:	0.000	Y_WP:	0.000	Y_WP:	0.000	X:	-0.061	Y:	0.163	Z:	0.059	yaw:	9.286	yaw rate:	-0.069	Roll:	-1.027	Pitch:	5.194	Yaw:	13.950	Thrust:	0.000
Time:	0.651	Roll Set Point:	0.095	Pitch Set Point:	-0.334	Yaw Set Point:	-0.162	X_WP:	0.000	Y_WP:	0.000	Y_WP:	0.000	X:	-0.061	Y:	0.163	Z:	0.059	yaw:	9.297	yaw rate:	1.109	Roll:	-0.935	Pitch:	5.270	Yaw:	14.274	Thrust:	0.000
Time:	0.661	Roll Set Point:	0.095	Pitch Set Point:	-0.334	Yaw Set Point:	-0.162	X_WP:	0.000	Y_WP:	0.000	Y_WP:	0.000	X:	-0.061	Y:	0.163	Z:	0.059	yaw:	9.294	yaw rate:	-0.351	Roll:	-1.081	Pitch:	5.212	Yaw:	13.887	Thrust:	0.000
Time:	0.672	Roll Set Point:	0.095	Pitch Set Point:	-0.334	Yaw Set Point:	-0.162	X_WP:	0.000	Y_WP:	0.000	Y_WP:	0.000	X:	-0.061	Y:	0.163	Z:	0.059	yaw:	9.277	yaw rate:	-1.621	Roll:	-1.140	Pitch:	5.216	Yaw:	13.672	Thrust:	0.000
Time:	0.682	Roll Set Point:	0.095	Pitch Set Point:	-0.334	Yaw Set Point:	-0.162	X_WP:	0.000	Y_WP:	0.000	Y_WP:	0.000	X:	-0.061	Y:	0.163	Z:	0.059	yaw:	9.277	yaw rate:	0.002	Roll:	-1.016	Pitch:	5.226	Yaw:	13.957	Thrust:	0.000
Time:	0.692	Roll Set Point:	0.095	Pitch Set Point:	-0.334	Yaw Set Point:	-0.162	X_WP:	0.000	Y_WP:	0.000	Y_WP:	0.000	X:	-0.061	Y:	0.163	Z:	0.059	yaw:	9.273	yaw rate:	-0.399	Roll:	-1.092	Pitch:	5.227	Yaw:	13.847	Thrust:	0.000
Time:	0.702	Roll Set Point:	0.095	Pitch Set Point:	-0.334	Yaw Set Point:	-0.162	X_WP:	0.000	Y_WP:	0.000	Y_WP:	0.000	X:	-0.061	Y:	0.163	Z:	0.059	yaw:	9.281	yaw rate:	0.780	Roll:	-0.993	Pitch:	5.245	Yaw:	14.165	Thrust:	0.000
Time:	0.713	Roll Set Point:	0.095	Pitch Set Point:	-0.334	Yaw Set Point:	-0.162	X_WP:	0.000	Y_WP:	0.000	Y_WP:	0.000	X:	-0.061	Y:	0.163	Z:	0.059	yaw:	9.287	yaw rate:	0.586	Roll:	-0.986	Pitch:	5.297	Yaw:	14.209	Thrust:	0.000
Time:	0.723	Roll Set Point:	0.095	Pitch Set Point:	-0.334	Yaw Set Point:	-0.162	X_WP:	0.000	Y_WP:	0.000	Y_WP:	0.000	X:	-0.061	Y:	0.163	Z:	0.059	yaw:	9.283	yaw rate:	-0.449	Roll:	-1.072	Pitch:	5.251	Yaw:	13.845	Thrust:	0.000
Time:	0.733	Roll Set Point:	0.095	Pitch Set Point:	-0.334	Yaw Set Point:	-0.162	X_WP:	0.000	Y_WP:	0.000	Y_WP:	0.000	X:	-0.061	Y:	0.163	Z:	0.059	yaw:	9.283	yaw rate:	-0.449	Roll:	-1.042	Pitch:	5.254	Yaw:	13.968	Thrust:	0.000
Time:	0.744	Roll Set Point:	0.095	Pitch Set Point:	-0.334	Yaw Set Point:	-0.162	X_WP:	0.000	Y_WP:	0.000	Y_WP:	0.000	X:	-0.061	Y:	0.163	Z:	0.059	yaw:	9.283	yaw rate:	-0.438	Roll:	-1.063	Pitch:	5.273	Yaw:	14.069	Thrust:	0.000
Time:	0.755	Roll Set Point:	0.095	Pitch Set Point:	-0.334	Yaw Set Point:	-0.162	X_WP:	0.000	Y_WP:	0.000	Y_WP:	0.000	X:	-0.061	Y:	0.163	Z:	0.059	yaw:	9.275	yaw rate:	-0.822	Roll:	-1.088	Pitch:	5.265	Yaw:	13.858	Thrust:	0.000
Time:	0.766	Roll Set Point:	0.095	Pitch Set Point:	-0.334	Yaw Set Point:	-0.162	X_WP:	0.000	Y_WP:	0.000	Y_WP:	0.000	X:	-0.061	Y:	0.163	Z:	0.059	yaw:	9.275	yaw rate:	-0.822	Roll:	-1.051	Pitch:	5.293	Yaw:	14.046	Thrust:	0.000
Time:	0.776	Roll Set Point:	0.095	Pitch Set Point:	-0.334	Yaw Set Point:	-0.162	X_WP:	0.000	Y_WP:	0.000	Y_WP:	0.000	X:	-0.061	Y:	0.163	Z:	0.059	yaw:	9.297	yaw rate:	2.205	Roll:	-0.941	Pitch:	5.321	Yaw:	14.560	Thrust:	0.000
Time:	0.786	Roll Set Point:	0.095	Pitch Set Point:	-0.334	Yaw Set Point:	-0.162	X_WP:	0.000	Y_WP:	0.000	Y_WP:	0.000	X:	-0.061	Y:	0.163	Z:	0.059	yaw:	9.290	yaw rate:	-0.715	Roll:	-1.053	Pitch:	5.263	Yaw:	13.784	Thrust:	0.000
Time:	0.796	Roll Set Point:	0.095	Pitch Set Point:	-0.334	Yaw Set Point:	-0.162	X_WP:	0.000	Y_WP:	0.000	Y_WP:	0.000	X:	-0.061	Y:	0.163	Z:	0.059	yaw:	9.282	yaw rate:	-0.769	Roll:	-1.078	Pitch:	5.263	Yaw:	13.762	Thrust:	0.000
Time:	0.806	Roll Set Point:	0.095	Pitch Set Point:	-0.334	Yaw Set Point:	-0.162	X_WP:	0.000	Y_WP:	0.000	Y_WP:	0.000	X:	-0.061	Y:	0.163	Z:	0.059	yaw:	9.282	yaw rate:	-0.037	Roll:	-1.070	Pitch:	5.288	Yaw:	13.952	Thrust:	0.000
Time:	0.816	Roll Set Point:	0.095	Pitch Set Point:	-0.334	Yaw Set Point:	-0.162	X_WP:	0.000	Y_WP:	0.000	Y_WP:	0.000	X:	-0.061	Y:	0.163	Z:	0.059	yaw:	9.281	yaw rate:	-0.082	Roll:	-1.052	Pitch:	5.283	Yaw:	13.940	Thrust:	0.000
Time:	0.826	Roll Set Point:	0.095	Pitch Set Point:	-0.334	Yaw Set Point:	-0.162	X_WP:	0.000	Y_WP:	0.000	Y_WP:	0.000	X:	-0.061	Y:	0.163	Z:	0.059	yaw:	9.282	yaw rate:	0.096	Roll:	-1.063	Pitch:	5.283	Yaw:	13.987	Thrust:	0.000
Time:	0.836	Roll Set Point:	0.095	Pitch Set Point:	-0.334	Yaw Set Point:	-0.162	X_WP:	0.000	Y_WP:	0.000	Y_WP:	0.000	X:	-0.061	Y:	0.163	Z:	0.059	yaw:	9.290	yaw rate:	0.854	Roll:	-1.005	Pitch:	5.319	Yaw:	14.197	Thrust:	0.000
Time:	0.846	Roll Set Point:	0.095	Pitch Set Point:	-0.334	Yaw Set Point:	-0.162	X_WP:	0.000	Y_WP:	0.000	Y_WP:	0.000	X:	-0.061	Y:	0.163	Z:	0.059	yaw:	9.284	yaw rate:	-0.649	Roll:	-1.072	Pitch:	5.300	Yaw:	13.796	Thrust:	0.000
Time:	0.856	Roll Set Point:	0.095	Pitch Set Point:	-0.334	Yaw Set Point:	-0.162	X_WP:	0.000	Y_WP:	0.000	Y_WP:	0.000	X:	-0.061	Y:	0.163	Z:	0.059	yaw:	9.284	yaw rate:	0.073	Roll:	-1.037	Pitch:	5.297	Yaw:	13.987	Thrust:	0.000
Time:	0.866	Roll Set Point:	0.095	Pitch Set Point:	-0.334	Yaw Set Point:	-0.162	X_WP:	0.000	Y_WP:	0.000	Y_WP:	0.000	X:	-0.061	Y:	0.163	Z:	0.059	yaw:	9.278	yaw rate:	-0.660	Roll:	-1.080	Pitch:	5.276	Yaw:	13.783	Thrust:	0.000
Time:	0.876	Roll Set Point:	0.095	Pitch Set Point:	-0.334	Yaw Set Point:	-0.162	X_WP:	0.000	Y_WP:	0.000	Y_WP:	0.000	X:	-0.061	Y:	0.163	Z:	0.059	yaw:	9.282	yaw rate:	0.366	Roll:	-1.057	Pitch:	5.346	Yaw:	14.058	Thrust:	0.000
Time:	0.886	Roll Set Point:	0.095	Pitch Set Point:	-0.334	Yaw Set Point:	-0.162	X_WP:	0.000	Y_WP:	0.000	Y_WP:	0.000	X:	-0.061	Y:	0.163	Z:	0.059	yaw:	9.282	yaw rate:	0.366	Roll:	-1.055	Pitch:	5.317	Yaw:	13.962	Thrust:	0.000
Time:	0.896	Roll Set Point:	0.095	Pitch Set Point:	-0.334	Yaw Set Point:	-0.162	X_WP:	0.000	Y_WP:	0.000	Y_WP:	0.000	X:	-0.061	Y:	0.163	Z:	0.059	yaw:	9.287	yaw rate:	0.538	Roll:	-1.012	Pitch:	5.334	Yaw:	14.110	Thrust:	0.000
Time:	0.906	Roll Set Point:	0.095	Pitch Set Point:	-0.334	Yaw Set Point:	-0.162	X_WP:	0.000	Y_WP:	0.000	Y_WP:	0.000	X:	-0.061	Y:	0.163	Z:	0.059	yaw:	9.278	yaw rate:	-0.890	Roll:	-1.143	Pitch:	5.303	Yaw:	13.725	Thrust:	0.000
Time:	0.916	Roll Set Point:	0.095	Pitch Set Point:	-0.334	Yaw Set Point:	-0.162	X_WP:	0.000	Y_WP:	0.000	Y_WP:	0.000	X:	-0.061	Y:	0.163	Z:	0.059	yaw:	9.288	yaw rate:	0.999	Roll:	-0.961	Pitch:	5.348	Yaw:	14.232	Thrust:	0.000
Time:	0.926	Roll Set Point:	0.095	Pitch Set Point:	-0.334	Yaw Set Point:	-0.162	X_WP:	0.000	Y_WP:	0.000	Y_WP:	0.000	X:	-0.061	Y:	0.163	Z:	0.059	yaw:	9.286	yaw rate:	-0.155	Roll:	-1.055	Pitch:	5.317	Yaw:	13.929	Thrust:	0.000
Time:	0.936	Roll Set Point:	0.095	Pitch Set Point:	-0.334	Yaw Set Point:	-0.162	X_WP:	0.000	Y_WP:	0.000	Y_WP:	0.000	X:	-0.061	Y:	0.163	Z:	0.059	yaw:	9.280	yaw rate:	-0.667	Roll:	-1.128	Pitch:	5.331	Yaw:	13.786	Thrust:	0.000
Time:	0.946	Roll Set Point:	0.095	Pitch Set Point:	-0.334	Yaw Set Point:	-0.162	X_WP:	0.000	Y_WP:	0.000	Y_WP:	0.000	X:	-0.061	Y:	0.163	Z:	0.059	yaw:	9.290	yaw rate:	0.988	Roll:	-1.005	Pitch:	5.371	Yaw:	14.231	Thrust:	0.000
Time:	0.957	Roll Set Point:	0.095	Pitch Set Point:	-0.334	Yaw Set Point:	-0.162	X_WP:	0.000	Y_WP:	0.000	Y_WP:	0.000	X:	-0.061	Y:	0.163	Z:	0.059	yaw:	9.283	yaw rate:	-0.626	Roll:	-1.103	Pitch:	5.312	Yaw:	13.809	Thrust:	0.000
Time:	0.968	Roll Set Point:	0.095	Pitch Set Point:	-0.334	Yaw Set Point:	-0.162	X_WP:	0.000	Y_WP:	0.000	Y_WP:	0.000	X:	-0.061	Y:	0.163	Z:	0.059	yaw:	9.284	yaw rate:	0.101	Roll:	-1.057	Pitch:	5.371	Yaw:	14.090	Thrust:	0.000
Time:	0.978	Roll Set Point:	0.095	Pitch Set Point:	-0.334	Yaw Set Point:	-0.162	X_WP:	0.000	Y_WP:	0.000	Y_WP:	0.000	X:	-0.061	Y:	0.163	Z:	0.059	yaw:	9.284	yaw rate:	-0.053	Roll:	-1.052	Pitch:	5.356	Yaw:	13.951	Thrust:	0.000
Time:	0.988	Roll Set Point:	0.095	Pitch Set Point:	-0.334	Yaw Set Point:	-0.162	X_WP:	0.000	Y_WP:	0.000	Y_WP:	0.000	X:	-0.061	Y:	0.163	Z:	0.059	yaw:	9.291	yaw rate:	0.667	Roll:	-1.028	Pitch:	5.330	Yaw:	14.149	Thrust:	0.000
Time:	0.999	Roll Set Point:	0.095	Pitch Set Point:	-0.334	Yaw Set Point:	-0.162	X_WP:	0.000	Y_WP:	0.000	Y_WP:	0.000	X:	-0.061	Y:	0.163	Z:	0.059	yaw:	9.281	yaw rate:	-0.978	Roll:	-1.134	Pitch:	5.370	Yaw:	13.829	Thrust:	0.000
Time:	1.010	Roll Set Point:	0.095	Pitch Set Point:	-0.334	Yaw Set Point:	-0.162	X_WP:	0.000	Y_WP:	0.000	Y_WP:	0.000	X:	-0.061	Y:	0.163	Z:	0.059	yaw:	9.277	yaw rate:	-0.332	Roll:	-1.092	Pitch:	5.369	Yaw:	13.978	Thrust:	0.000
Time:	1.021	Roll Set Point:	0.095	Pitch Set Point:	-0.334	Yaw Set Point:	-0.162	X_WP:	0.000	Y_WP:	0.000	Y_WP:	0.000	X:	-0.061	Y:	0.163	Z:	0.059	yaw:	9.283	yaw rate:	0.578	Roll:	-1.034	Pitch:	5.385	Yaw:	14.196	Thrust:	0.000
Time:	1.031	Roll Set Point:	0.095	Pitch Set Point:	-0.334	Yaw Set Point:	-0.162	X_WP:	0.000	Y_WP:	0.000	Y_WP:	0.000	X:	-0.061	Y:	0.163	Z:	0.059	yaw:	9.283	yaw rate:	0.578	Roll:	-1.067	Pitch:	5.340	Yaw:	13.971	Thrust:	0.000
Time:	1.042	Roll Set Point:	0.095	Pitch Set Point:	-0.334	Yaw Set Point:	-0.162	X_WP:	0.000	Y_WP:	0.000	Y_WP:	0.000	X:	-0.061	Y:	0.163	Z:	0.059	yaw:	9.286	yaw rate:	0.322	Roll:	-1.043	Pitch:	5.356	Yaw:	14.140	Thrust:	0.000
Time:	1.052	Roll Set Point:	0.095	Pitch Set Point:	-0.334	Yaw Set Point:	-0.162	X_WP:	0.000	Y_WP:	0.000	Y_WP:	0.000	X:	-0.061	Y:	0.163	Z:	0.059	yaw:	9.281	yaw rate:	-0.529	Roll:	-1.094	Pitch:	5.337	Yaw:	13.824	Thrust:	0.000
Time:	1.062	Roll Set Point:	0.095	Pitch Set Point:	-0.334	Yaw Set Point:	-0.162	X_WP:	0.000	Y_WP:	0.000	Y_WP:	0.000	X:	-0.061	Y:	0.163	Z:	0.059	yaw:	9.282	yaw rate:	0.121	Roll:	-1.083	Pitch:	5.358	Yaw:	14.001	Thrust:	0.000
Time:	1.072	Roll Set Point:	0.095	Pitch Set Point:	-0.334	Yaw Set Point:	-0.162	X_WP:	0.000	Y_WP:	0.000	Y_WP:	0.000	X:	-0.061	Y:	0.163	Z:	0.059	yaw:	9.284	yaw rate:	0.171	Roll:	-1.069	Pitch:	5.341	Yaw:	14.010	Thrust:	0.000
Time:	1.082	Roll Set Point:	0.095	Pitch Set Point:	-0.334	Yaw Set Point:	-0.162	X_WP:	0.000	Y_WP:	0.000	Y_WP:	0.000	X:	-0.061	Y:	0.163	Z:	0.059	yaw:	9.286	yaw rate:	0.238	Roll:	-1.059	Pitch:	5.333	Yaw:	14.031	Thrust:	0.000
Time:	1.092	Roll Set Point:	0.095	Pitch Set Point:	-0.334	Yaw Set Point:	-0.162	X_WP:	0.000	Y_WP:	0.000	Y_WP:	0.000	X:	-0.061	Y:	0.163	Z:	0.059	yaw:	9.292	yaw rate:	0.529	Roll:	-1.044	Pitch:	5.361	Yaw:	14.114	Thrust:	0.000
Time:	1.103	Roll Set Point:	0.095	Pitch Set Point:	-0.334	Yaw Set Point:	-0.162	X_WP:	0.000	Y_WP:	0.000	Y_WP:	0.000	X:	-0.061	Y:	0.163	Z:	0.059	yaw:	9.293	yaw rate:	0.169	Roll:	-1.050	Pitch:	5.364	Yaw:	14.113	Thrust:	0.000
Time:	1.113	Roll Set Point:	0.095	Pitch Set Point:	-0.334	Yaw Set Point:	-0.162	X_WP:	0.000	Y_WP:	0.000	Y_WP:	0.000	X:	-0.061	Y:	0.163	Z:	0.059	yaw:	9.277	yaw rate:	-1.628	Roll:	-1.180	Pitch:	5.303	Yaw:	13.535	Thrust:	0.000
Time:	1.124	Roll Set Point:	0.095	Pitch Set Point:	-0.334	Yaw Set Point:	-0.162	X_WP:	0.000	Y_WP:	0.000	Y_WP:	0.000	X:	-0.061	Y:	0.163	Z:	0.059	yaw:	9.287	yaw rate:	0.971	Roll:	-1.044	Pitch:	5.412	Yaw:	14.303	Thrust:	0.000
Time:	1.135	Roll Set Point:	0.095	Pitch Set Point:	-0.334	Yaw Set Point:	-0.162	X_WP:	0.000	Y_WP:	0.000	Y_WP:	0.000	X:	-0.061	Y:	0.163	Z:	0.059	yaw:	9.292	yaw rate:	0.485	Roll:	-1.066	Pitch:	5.377	Yaw:	14.186	Thrust:	0.000
Time:	1.145	Roll Set Point:	0.095	Pitch Set Point:	-0.334	Yaw Set Point:	-0.162	X_WP:	0.000	Y_WP:	0.000	Y_WP:	0.000	X:	-0.061	Y:	0.163	Z:	0.059	yaw:	9.284	yaw rate:	-0.811	Roll:	-1.099	Pitch:	5.321	Yaw:	13.753	Thrust:	0.000
Time:	1.155	Roll Set Point:	0.095	Pitch Set Point:	-0.334	Yaw Set Point:	-0.162	X_WP:	0.000	Y_WP:	0.000	Y_WP:	0.000	X:	-0.061	Y:	0.163	Z:	0.059	yaw:	9.293	yaw rate:	0.960	Roll:	-0.995	Pitch:	5.356	Yaw:	14.229	Thrust:	0.000
Time:	1.165	Roll Set Point:	0.095	Pitch Set Point:	-0.334	Yaw Set Point:	-0.162	X_WP:	0.000	Y_WP:	0.000	Y_WP:	0.000	X:	-0.061	Y:	0.163	Z:	0.059	yaw:	9.279	yaw rate:	-1.427	Roll:	-1.195	Pitch:	5.285	Yaw:	13.586	Thrust:	0.000
Time:	1.175	Roll Set Point:	0.095	Pitch Set Point:	-0.334	Yaw Set Point:	-0.162	X_WP:	0.000	Y_WP:	0.000	Y_WP:	0.000	X:	-0.061	Y:	0.163	Z:	0.059	yaw:	9.283	yaw rate:	0.443	Roll:	-1.029	Pitch:	5.347	Yaw:	14.086	Thrust:	0.000
Time:	1.185	Roll Set Point:	0.095	Pitch Set Point:	-0.334	Yaw Set Point:	-0.162	X_WP:	0.000	Y_WP:	0.000	Y_WP:	0.000	X:	-0.061	Y:	0.163	Z:	0.059	yaw:	9.279	yaw rate:	-0.449	Roll:	-1.120	Pitch:	5.346	Yaw:	13.841	Thrust:	0.000
Time:	1.195	Roll Set Point:	0.095	Pitch Set Point:	-0.334	Yaw Set Point:	-0.162	X_WP:	0.000	Y_WP:	0.000	Y_WP:	0.000	X:	-0.061	Y:	0.163	Z:	0.059	yaw:	9.275	yaw rate:	-0.384	Roll:	-1.138	Pitch:	5.332	Yaw:	13.853	Thrust:	0.000
Time:	1.206	Roll Set Point:	0.095	Pitch Set Point:	-0.334	Yaw Set Point:	-0.162	X_WP:	0.000	Y_WP:	0.000	Y_WP:	0.000	X:	-0.061	Y:	0.163	Z:	0.059	yaw:	9.279	yaw rate:	0.422	Roll:	-1.039	Pitch:	5.372	Yaw:	14.154	Thrust:	0.000
Time:	1.216	Roll Set Point:	0.095	Pitch Set Point:	-0.334	Yaw Set Point:	-0.162	X_WP:	0.000	Y_WP:	0.000	Y_WP:	0.000	X:	-0.061	Y:	0.163	Z:	0.059	yaw:	9.281	yaw rate:	0.173	Roll:	-1.055	Pitch:	5.333	Yaw:	14.006	Thrust:	0.000
Time:	1.226	Roll Set Point:	0.095	Pitch Set Point:	-0.334	Yaw Set Point:	-0.162	X_WP:	0.000	Y_WP:	0.000	Y_WP:	0.000	X:	-0.061	Y:	0.163	Z:	0.059	yaw:	9.281	yaw rate:	0.173	Roll:	-1.083	Pitch:	5.337	Yaw:	13.961	Thrust:	0.000
Time:	1.236	Roll Set Point:	0.095	Pitch Set Point:	-0.334	Yaw Set Point:	-0.162	X_WP:	0.000	Y_WP:	0.000	Y_WP:	0.000	X:	-0.061	Y:	0.163	Z:	0.059	yaw:	9.275	yaw rate:	-0.599	Roll:	-1.124	Pitch:	5.342	Yaw:	13.797	Thrust:	0.000
Time:	1.246	Roll Set Point:	0.095	Pitch Set Point:	-0.334	Yaw Set Point:	-0.162	X_WP:	0.000	Y_WP:	0.000	Y_WP:	0.000	X:	-0.061	Y:	0.163	Z:	0.059	yaw:	9.277	yaw rate:	0.247	Roll:	-1.083	Pitch:	5.341	Yaw:	14.021	Thrust:	0.000
Time:	1.256	Roll Set Point:	0.095	Pitch Set Point:	-0.334	Yaw Set Point:	-0.162	X_WP:	0.000	Y_WP:	0.000	Y_WP:	0.000	X:	-0.061	Y:	0.163	Z:	0.059	yaw:	9.290	yaw rate:	1.208	Roll:	-1.033	Pitch:	5.359	Yaw:	14.289	Thrust:	0.000
Time:	1.266	Roll Set Point:	0.095	Pitch Set Point:	-0.334	Yaw Set Point:	-0.162	X_WP:	0.000	Y_WP:	0.000	Y_WP:	0.000	X:	-0.061	Y:	0.163	Z:	0.059	yaw:	9.281	yaw rate:	-0.859	Roll:	-1.138	Pitch:	5.323	Yaw:	13.737	Thrust:	0.000
Time:	1.276	Roll Set Point:	0.095	Pitch Set Point:	-0.334	Yaw Set Point:	-0.162	X_WP:	0.000	Y_WP:	0.000	Y_WP:	0.000	X:	-0.061	Y:	0.163	Z:	0.059	yaw:	9.291	yaw rate:	1.002	Roll:	-1.010	Pitch:	5.338	Yaw:	14.237	Thrust:	0.000
Time:	1.286	Roll Set Point:	0.095	Pitch Set Point:	-0.334	Yaw Set Point:	-0.162	X_WP:	0.000	Y_WP:	0.000	Y_WP:	0.000	X:	-0.061	Y:	0.163	Z:	0.059	yaw:	9.284	yaw rate:	-0.696	Roll:	-1.114	Pitch:	5.340	Yaw:	13.784	Thrust:	0.000
Time:	1.296	Roll Set Point:	0.095	Pitch Set Point:	-0.334	Yaw Set Point:	-0.162	X_WP:	0.000	Y_WP:	0.000	Y_WP:	0.000	X:	-0.061	Y:	0.163	Z:	0.059	yaw:	9.286	yaw rate:	0.163	Roll:	-1.091	Pitch:	5.323	Yaw:	14.010	Thrust:	0.000
Time:	1.306	Roll Set Point:	0.095	Pitch Set Point:	-0.334	Yaw Set Point:	-0.162	X_WP:	0.000	Y_WP:	0.000	Y_WP:	0.000	X:	-0.061	Y:	0.163	Z:	0.059	yaw:	9.287	yaw rate:	0.184	Roll:	-1.079	Pitch:	5.353	Yaw:	14.025	Thrust:	0.000
Time:	1.317	Roll Set Point:	0.095	Pitch Set Point:	-0.334	Yaw Set Point:	-0.162	X_WP:	0.000	Y_WP:	0.000	Y_WP:	0.000	X:	-0.061	Y:	0.163	Z:	0.059	yaw:	9.292	yaw rate:	0.489	Roll:	-1.089	Pitch:	5.347	Yaw:	14.105	Thrust:	0.000
Time:	1.327	Roll Set Point:	0.095	Pitch Set Point:	-0.334	Yaw Set Point:	-0.162	X_WP:	0.000	Y_WP:	0.000	Y_WP:	0.000	X:	-0.061	Y:	0.163	Z:	0.059	yaw:	9.287	yaw rate:	-0.508	Roll:	-1.110	Pitch:	5.379	Yaw:	13.942	Thrust:	0.000
Time:	1.338	Roll Set Point:	0.095	Pitch Set Point:	-0.334	Yaw Set Point:	-0.162	X_WP:	0.000	Y_WP:	0.000	Y_WP:	0.000	X:	-0.061	Y:	0.163	Z:	0.059	yaw:	9.273	yaw rate:	-1.442	Roll:	-1.172	Pitch:	5.299	Yaw:	13.583	Thrust:	0.000
Time:	1.349	Roll Set Point:	0.095	Pitch Set Point:	-0.334	Yaw Set Point:	-0.162	X_WP:	0.000	Y_WP:	0.000	Y_WP:	0.000	X:	-0.061	Y:	0.163	Z:	0.059	yaw:	9.280	yaw rate:	0.668	Roll:	-1.066	Pitch:	5.383	Yaw:	14.218	Thrust:	0.000
Time:	1.359	Roll Set Point:	0.095	Pitch Set Point:	-0.334	Yaw Set Point:	-0.162	X_WP:	0.000	Y_WP:	0.000	Y_WP:	0.000	X:	-0.061	Y:	0.163	Z:	0.059	yaw:	9.280	yaw rate:	0.004	Roll:	-1.095	Pitch:	5.349	Yaw:	13.960	Thrust:	0.000
Time:	1.370	Roll Set Point:	0.095	Pitch Set Point:	-0.334	Yaw Set Point:	-0.162	X_WP:	0.000	Y_WP:	0.000	Y_WP:	0.000	X:	-0.061	Y:	0.163	Z:	0.059	yaw:	9.280	yaw rate:	0.064	Roll:	-1.119	Pitch:	5.359	Yaw:	14.069	Thrust:	0.000
Time:	1.380	Roll Set Point:	0.095	Pitch Set Point:	-0.334	Yaw Set Point:	-0.162	X_WP:	0.000	Y_WP:	0.000	Y_WP:	0.000	X:	-0.061	Y:	0.163	Z:	0.059	yaw:	9.280	yaw rate:	-0.059	Roll:	-1.096	Pitch:	5.341	Yaw:	13.951	Thrust:	0.000
Time:	1.391	Roll Set Point:	0.095	Pitch Set Point:	-0.334	Yaw Set Point:	-0.162	X_WP:	0.000	Y_WP:	0.000	Y_WP:	0.000	X:	-0.061	Y:	0.163	Z:	0.059	yaw:	9.282	yaw rate:	0.194	Roll:	-1.088	Pitch:	5.388	Yaw:	14.102	Thrust:	0.000
Time:	1.401	Roll Set Point:	0.095	Pitch Set Point:	-0.334	Yaw Set Point:	-0.162	X_WP:	0.000	Y_WP:	0.000	Y_WP:	0.000	X:	-0.061	Y:	0.163	Z:	0.059	yaw:	9.275	yaw rate:	-0.633	Roll:	-1.139	Pitch:	5.310	Yaw:	13.795	Thrust:	0.000
Time:	1.411	Roll Set Point:	0.095	Pitch Set Point:	-0.334	Yaw Set Point:	-0.162	X_WP:	0.000	Y_WP:	0.000	Y_WP:	0.000	X:	-0.061	Y:	0.163	Z:	0.059	yaw:	9.288	yaw rate:	1.250	Roll:	-1.004	Pitch:	5.358	Yaw:	14.297	Thrust:	0.000
Time:	1.421	Roll Set Point:	0.095	Pitch Set Point:	-0.334	Yaw Set Point:	-0.162	X_WP:	0.000	Y_WP:	0.000	Y_WP:	0.000	X:	-0.061	Y:	0.163	Z:	0.059	yaw:	9.288	yaw rate:	1.250	Roll:	-1.098	Pitch:	5.337	Yaw:	13.971	Thrust:	0.000
Time:	1.432	Roll Set Point:	0.095	Pitch Set Point:	-0.334	Yaw Set Point:	-0.162	X_WP:	0.000	Y_WP:	0.000	Y_WP:	0.000	X:	-0.061	Y:	0.163	Z:	0.059	yaw:	9.291	yaw rate:	0.710	Roll:	-1.110	Pitch:	5.407	Yaw:	14.160	Thrust:	0.000
Time:	1.443	Roll Set Point:	0.095	Pitch Set Point:	-0.334	Yaw Set Point:	-0.162	X_WP:	0.000	Y_WP:	0.000	Y_WP:	0.000	X:	-0.061	Y:	0.163	Z:	0.059	yaw:	9.282	yaw rate:	-0.939	Roll:	-1.176	Pitch:	5.338	Yaw:	13.832	Thrust:	0.000
Time:	1.453	Roll Set Point:	0.095	Pitch Set Point:	-0.334	Yaw Set Point:	-0.162	X_WP:	0.000	Y_WP:	0.000	Y_WP:	0.000	X:	-0.061	Y:	0.163	Z:	0.059	yaw:	9.282	yaw rate:	-0.939	Roll:	-1.102	Pitch:	5.338	Yaw:	13.965	Thrust:	0.000
Time:	1.464	Roll Set Point:	0.095	Pitch Set Point:	-0.334	Yaw Set Point:	-0.162	X_WP:	0.000	Y_WP:	0.000	Y_WP:	0.000	X:	-0.061	Y:	0.163	Z:	0.059	yaw:	9.291	yaw rate:	0.934	Roll:	-1.068	Pitch:	5.388	Yaw:	14.296	Thrust:	0.000
Time:	1.474	Roll Set Point:	0.095	Pitch Set Point:	-0.334	Yaw Set Point:	-0.162	X_WP:	0.000	Y_WP:	0.000	Y_WP:	0.000	X:	-0.061	Y:	0.163	Z:	0.059	yaw:	9.289	yaw rate:	-0.212	Roll:	-1.090	Pitch:	5.359	Yaw:	13.924	Thrust:	0.000
Time:	1.484	Roll Set Point:	0.095	Pitch Set Point:	-0.334	Yaw Set Point:	-0.162	X_WP:	0.000	Y_WP:	0.000	Y_WP:	0.000	X:	-0.061	Y:	0.163	Z:	0.059	yaw:	9.278	yaw rate:	-1.068	Roll:	-1.159	Pitch:	5.279	Yaw:	13.679	Thrust:	0.000
Time:	1.495	Roll Set Point:	0.095	Pitch Set Point:	-0.334	Yaw Set Point:	-0.162	X_WP:	0.000	Y_WP:	0.000	Y_WP:	0.000	X:	-0.061	Y:	0.163	Z:	0.059	yaw:	9.276	yaw rate:	-0.232	Roll:	-1.124	Pitch:	5.381	Yaw:	14.000	Thrust:	0.000
Time:	1.506	Roll Set Point:	0.095	Pitch Set Point:	-0.334	Yaw Set Point:	-0.162	X_WP:	0.000	Y_WP:	0.000	Y_WP:	0.000	X:	-0.061	Y:	0.163	Z:	0.059	yaw:	9.294	yaw rate:	1.803	Roll:	-1.045	Pitch:	5.420	Yaw:	14.504	Thrust:	0.000
Time:	1.516	Roll Set Point:	0.095	Pitch Set Point:	-0.334	Yaw Set Point:	-0.162	X_WP:	0.000	Y_WP:	0.000	Y_WP:	0.000	X:	-0.061	Y:	0.163	Z:	0.059	yaw:	9.291	yaw rate:	-0.333	Roll:	-1.134	Pitch:	5.320	Yaw:	13.888	Thrust:	0.000
Time:	1.526	Roll Set Point:	0.095	Pitch Set Point:	-0.334	Yaw Set Point:	-0.162	X_WP:	0.000	Y_WP:	0.000	Y_WP:	0.000	X:	-0.061	Y:	0.163	Z:	0.059	yaw:	9.279	yaw rate:	-1.142	Roll:	-1.147	Pitch:	5.324	Yaw:	13.661	Thrust:	0.000
Time:	1.536	Roll Set Point:	0.095	Pitch Set Point:	-0.334	Yaw Set Point:	-0.162	X_WP:	0.000	Y_WP:	0.000	Y_WP:	0.000	X:	-0.061	Y:	0.163	Z:	0.059	yaw:	9.279	yaw rate:	-0.030	Roll:	-1.115	Pitch:	5.337	Yaw:	13.951	Thrust:	0.000
Time:	1.546	Roll Set Point:	0.095	Pitch Set Point:	-0.334	Yaw Set Point:	-0.162	X_WP:	0.000	Y_WP:	0.000	Y_WP:	0.000	X:	-0.061	Y:	0.163	Z:	0.059	yaw:	9.287	yaw rate:	0.817	Roll:	-1.068	Pitch:	5.336	Yaw:	14.183	Thrust:	0.000
Time:	1.556	Roll Set Point:	0.095	Pitch Set Point:	-0.334	Yaw Set Point:	-0.162	X_WP:	0.000	Y_WP:	0.000	Y_WP:	0.000	X:	-0.061	Y:	0.163	Z:	0.059	yaw:	9.285	yaw rate:	-0.249	Roll:	-1.097	Pitch:	5.338	Yaw:	13.902	Thrust:	0.000
Time:	1.566	Roll Set Point:	0.095	Pitch Set Point:	-0.334	Yaw Set Point:	-0.162	X_WP:	0.000	Y_WP:	0.000	Y_WP:	0.000	X:	-0.061	Y:	0.163	Z:	0.059	yaw:	9.276	yaw rate:	-0.875	Roll:	-1.175	Pitch:	5.326	Yaw:	13.726	Thrust:	0.000
Time:	1.576	Roll Set Point:	0.095	Pitch Set Point:	-0.334	Yaw Set Point:	-0.162	X_WP:	0.000	Y_WP:	0.000	Y_WP:	0.000	X:	-0.061	Y:	0.163	Z:	0.059	yaw:	9.286	yaw rate:	0.997	Roll:	-1.087	Pitch:	5.361	Yaw:	14.229	Thrust:	0.000
Time:	1.586	Roll Set Point:	0.095	Pitch Set Point:	-0.334	Yaw Set Point:	-0.162	X_WP:	0.000	Y_WP:	0.000	Y_WP:	0.000	X:	-0.061	Y:	0.163	Z:	0.059	yaw:	9.286	yaw rate:	0.997	Roll:	-1.113	Pitch:	5.337	Yaw:	13.969	Thrust:	0.000
Time:	1.596	Roll Set Point:	0.095	Pitch Set Point:	-0.334	Yaw Set Point:	-0.162	X_WP:	0.000	Y_WP:	0.000	Y_WP:	0.000	X:	-0.061	Y:	0.163	Z:	0.059	yaw:	9.276	yaw rate:	-1.050	Roll:	-1.150	Pitch:	5.304	Yaw:	13.679	Thrust:	0.000
Time:	1.606	Roll Set Point:	0.095	Pitch Set Point:	-0.334	Yaw Set Point:	-0.162	X_WP:	0.000	Y_WP:	0.000	Y_WP:	0.000	X:	-0.061	Y:	0.163	Z:	0.059	yaw:	9.274	yaw rate:	-0.103	Roll:	-1.100	Pitch:	5.346	Yaw:	13.925	Thrust:	0.000
Time:	1.616	Roll Set Point:	0.095	Pitch Set Point:	-0.334	Yaw Set Point:	-0.162	X_WP:	0.000	Y_WP:	0.000	Y_WP:	0.000	X:	-0.061	Y:	0.163	Z:	0.059	yaw:	9.288	yaw rate:	1.351	Roll:	-1.039	Pitch:	5.363	Yaw:	14.326	Thrust:	0.000
Time:	1.626	Roll Set Point:	0.095	Pitch Set Point:	-0.334	Yaw Set Point:	-0.162	X_WP:	0.000	Y_WP:	0.000	Y_WP:	0.000	X:	-0.061	Y:	0.163	Z:	0.059	yaw:	9.286	yaw rate:	-0.168	Roll:	-1.139	Pitch:	5.334	Yaw:	13.929	Thrust:	0.000
Time:	1.637	Roll Set Point:	0.095	Pitch Set Point:	-0.334	Yaw Set Point:	-0.162	X_WP:	0.000	Y_WP:	0.000	Y_WP:	0.000	X:	-0.061	Y:	0.163	Z:	0.059	yaw:	9.283	yaw rate:	-0.351	Roll:	-1.157	Pitch:	5.365	Yaw:	13.981	Thrust:	0.000
Time:	1.647	Roll Set Point:	0.095	Pitch Set Point:	-0.334	Yaw Set Point:	-0.162	X_WP:	0.000	Y_WP:	0.000	Y_WP:	0.000	X:	-0.061	Y:	0.163	Z:	0.059	yaw:	9.293	yaw rate:	0.977	Roll:	-1.063	Pitch:	5.369	Yaw:	14.233	Thrust:	0.000
Time:	1.657	Roll Set Point:	0.095	Pitch Set Point:	-0.334	Yaw Set Point:	-0.162	X_WP:	0.000	Y_WP:	0.000	Y_WP:	0.000	X:	-0.061	Y:	0.163	Z:	0.059	yaw:	9.289	yaw rate:	-0.392	Roll:	-1.165	Pitch:	5.312	Yaw:	13.870	Thrust:	0.000
Time:	1.667	Roll Set Point:	0.095	Pitch Set Point:	-0.334	Yaw Set Point:	-0.162	X_WP:	0.000	Y_WP:	0.000	Y_WP:	0.000	X:	-0.061	Y:	0.163	Z:	0.059	yaw:	9.276	yaw rate:	-1.312	Roll:	-1.145	Pitch:	5.310	Yaw:	13.611	Thrust:	0.000
Time:	1.677	Roll Set Point:	0.095	Pitch Set Point:	-0.334	Yaw Set Point:	-0.162	X_WP:	0.000	Y_WP:	0.000	Y_WP:	0.000	X:	-0.061	Y:	0.163	Z:	0.059	yaw:	9.267	yaw rate:	-0.844	Roll:	-1.166	Pitch:	5.331	Yaw:	13.722	Thrust:	0.000
Time:	1.687	Roll Set Point:	0.095	Pitch Set Point:	-0.334	Yaw Set Point:	-0.162	X_WP:	0.000	Y_WP:	0.000	Y_WP:	0.000	X:	-0.061	Y:	0.163	Z:	0.059	yaw:	9.278	yaw rate:	1.105	Roll:	-1.091	Pitch:	5.337	Yaw:	14.246	Thrust:	0.000
Time:	1.698	Roll Set Point:	0.095	Pitch Set Point:	-0.334	Yaw Set Point:	-0.162	X_WP:	0.000	Y_WP:	0.000	Y_WP:	0.000	X:	-0.061	Y:	0.163	Z:	0.059	yaw:	9.288	yaw rate:	1.020	Roll:	-1.065	Pitch:	5.412	Yaw:	14.309	Thrust:	0.000
Time:	1.708	Roll Set Point:	0.095	Pitch Set Point:	-0.334	Yaw Set Point:	-0.162	X_WP:	0.000	Y_WP:	0.000	Y_WP:	0.000	X:	-0.061	Y:	0.163	Z:	0.059	yaw:	9.285	yaw rate:	-0.337	Roll:	-1.171	Pitch:	5.331	Yaw:	13.879	Thrust:	0.000
Time:	1.719	Roll Set Point:	0.095	Pitch Set Point:	-0.334	Yaw Set Point:	-0.162	X_WP:	0.000	Y_WP:	0.000	Y_WP:	0.000	X:	-0.061	Y:	0.163	Z:	0.059	yaw:	9.295	yaw rate:	1.022	Roll:	-1.070	Pitch:	5.347	Yaw:	14.250	Thrust:	0.000
Time:	1.730	Roll Set Point:	0.095	Pitch Set Point:	-0.334	Yaw Set Point:	-0.162	X_WP:	0.000	Y_WP:	0.000	Y_WP:	0.000	X:	-0.061	Y:	0.163	Z:	0.059	yaw:	9.279	yaw rate:	-1.615	Roll:	-1.181	Pitch:	5.337	Yaw:	13.672	Thrust:	0.000
Time:	1.740	Roll Set Point:	0.095	Pitch Set Point:	-0.334	Yaw Set Point:	-0.162	X_WP:	0.000	Y_WP:	0.000	Y_WP:	0.000	X:	-0.061	Y:	0.163	Z:	0.059	yaw:	9.279	yaw rate:	-1.615	Roll:	-1.125	Pitch:	5.337	Yaw:	13.959	Thrust:	0.000
Time:	1.750	Roll Set Point:	0.095	Pitch Set Point:	-0.334	Yaw Set Point:	-0.162	X_WP:	0.000	Y_WP:	0.000	Y_WP:	0.000	X:	-0.061	Y:	0.163	Z:	0.059	yaw:	9.273	yaw rate:	-0.573	Roll:	-1.168	Pitch:	5.340	Yaw:	13.809	Thrust:	0.000
Time:	1.761	Roll Set Point:	0.095	Pitch Set Point:	-0.334	Yaw Set Point:	-0.162	X_WP:	0.000	Y_WP:	0.000	Y_WP:	0.000	X:	-0.061	Y:	0.163	Z:	0.059	yaw:	9.285	yaw rate:	1.159	Roll:	-1.091	Pitch:	5.386	Yaw:	14.337	Thrust:	0.000
Time:	1.771	Roll Set Point:	0.095	Pitch Set Point:	-0.334	Yaw Set Point:	-0.162	X_WP:	0.000	Y_WP:	0.000	Y_WP:	0.000	X:	-0.061	Y:	0.163	Z:	0.059	yaw:	9.289	yaw rate:	0.453	Roll:	-1.097	Pitch:	5.355	Yaw:	14.092	Thrust:	0.000
Time:	1.781	Roll Set Point:	0.095	Pitch Set Point:	-0.334	Yaw Set Point:	-0.162	X_WP:	0.000	Y_WP:	0.000	Y_WP:	0.000	X:	-0.061	Y:	0.163	Z:	0.059	yaw:	9.292	yaw rate:	0.255	Roll:	-1.115	Pitch:	5.358	Yaw:	14.049	Thrust:	0.000
Time:	1.792	Roll Set Point:	0.095	Pitch Set Point:	-0.334	Yaw Set Point:	-0.162	X_WP:	0.000	Y_WP:	0.000	Y_WP:	0.000	X:	-0.061	Y:	0.163	Z:	0.059	yaw:	9.288	yaw rate:	-0.397	Roll:	-1.189	Pitch:	5.358	Yaw:	13.970	Thrust:	0.000
Time:	1.803	Roll Set Point:	0.095	Pitch Set Point:	-0.334	Yaw Set Point:	-0.162	X_WP:	0.000	Y_WP:	0.000	Y_WP:	0.000	X:	-0.061	Y:	0.163	Z:	0.059	yaw:	9.280	yaw rate:	-0.772	Roll:	-1.157	Pitch:	5.352	Yaw:	13.881	Thrust:	0.000
Time:	1.813	Roll Set Point:	0.095	Pitch Set Point:	-0.334	Yaw Set Point:	-0.162	X_WP:	0.000	Y_WP:	0.000	Y_WP:	0.000	X:	-0.061	Y:	0.163	Z:	0.059	yaw:	9.275	yaw rate:	-0.552	Roll:	-1.177	Pitch:	5.329	Yaw:	13.813	Thrust:	0.000
Time:	1.824	Roll Set Point:	0.095	Pitch Set Point:	-0.334	Yaw Set Point:	-0.162	X_WP:	0.000	Y_WP:	0.000	Y_WP:	0.000	X:	-0.061	Y:	0.163	Z:	0.059	yaw:	9.283	yaw rate:	0.853	Roll:	-1.089	Pitch:	5.398	Yaw:	14.267	Thrust:	0.000
Time:	1.834	Roll Set Point:	0.095	Pitch Set Point:	-0.334	Yaw Set Point:	-0.162	X_WP:	0.000	Y_WP:	0.000	Y_WP:	0.000	X:	-0.061	Y:	0.163	Z:	0.059	yaw:	9.289	yaw rate:	0.565	Roll:	-1.108	Pitch:	5.336	Yaw:	14.120	Thrust:	0.000
Time:	1.845	Roll Set Point:	0.095	Pitch Set Point:	-0.334	Yaw Set Point:	-0.162	X_WP:	0.000	Y_WP:	0.000	Y_WP:	0.000	X:	-0.061	Y:	0.163	Z:	0.059	yaw:	9.295	yaw rate:	0.628	Roll:	-1.128	Pitch:	5.398	Yaw:	14.225	Thrust:	0.000
Time:	1.855	Roll Set Point:	0.095	Pitch Set Point:	-0.334	Yaw Set Point:	-0.162	X_WP:	0.000	Y_WP:	0.000	Y_WP:	0.000	X:	-0.061	Y:	0.163	Z:	0.059	yaw:	9.289	yaw rate:	-0.673	Roll:	-1.159	Pitch:	5.332	Yaw:	13.804	Thrust:	0.000
Time:	1.865	Roll Set Point:	0.095	Pitch Set Point:	-0.334	Yaw Set Point:	-0.162	X_WP:	0.000	Y_WP:	0.000	Y_WP:	0.000	X:	-0.061	Y:	0.163	Z:	0.059	yaw:	9.276	yaw rate:	-1.299	Roll:	-1.213	Pitch:	5.292	Yaw:	13.615	Thrust:	0.000
Time:	1.876	Roll Set Point:	0.095	Pitch Set Point:	-0.334	Yaw Set Point:	-0.162	X_WP:	0.000	Y_WP:	0.000	Y_WP:	0.000	X:	-0.061	Y:	0.163	Z:	0.059	yaw:	9.277	yaw rate:	0.163	Roll:	-1.121	Pitch:	5.380	Yaw:	14.089	Thrust:	0.000
Time:	1.886	Roll Set Point:	0.095	Pitch Set Point:	-0.334	Yaw Set Point:	-0.162	X_WP:	0.000	Y_WP:	0.000	Y_WP:	0.000	X:	-0.061	Y:	0.163	Z:	0.059	yaw:	9.273	yaw rate:	-0.410	Roll:	-1.180	Pitch:	5.349	Yaw:	13.843	Thrust:	0.000
Time:	1.896	Roll Set Point:	0.095	Pitch Set Point:	-0.334	Yaw Set Point:	-0.162	X_WP:	0.000	Y_WP:	0.000	Y_WP:	0.000	X:	-0.061	Y:	0.163	Z:	0.059	yaw:	9.277	yaw rate:	0.442	Roll:	-1.133	Pitch:	5.326	Yaw:	14.072	Thrust:	0.000
Time:	1.906	Roll Set Point:	0.095	Pitch Set Point:	-0.334	Yaw Set Point:	-0.162	X_WP:	0.000	Y_WP:	0.000	Y_WP:	0.000	X:	-0.061	Y:	0.163	Z:	0.059	yaw:	9.289	yaw rate:	1.172	Roll:	-1.051	Pitch:	5.371	Yaw:	14.279	Thrust:	0.000
Time:	1.916	Roll Set Point:	0.095	Pitch Set Point:	-0.334	Yaw Set Point:	-0.162	X_WP:	0.000	Y_WP:	0.000	Y_WP:	0.000	X:	-0.061	Y:	0.163	Z:	0.059	yaw:	9.295	yaw rate:	0.612	Roll:	-1.112	Pitch:	5.356	Yaw:	14.141	Thrust:	0.000
Time:	1.926	Roll Set Point:	0.095	Pitch Set Point:	-0.334	Yaw Set Point:	-0.162	X_WP:	0.000	Y_WP:	0.000	Y_WP:	0.000	X:	-0.061	Y:	0.163	Z:	0.059	yaw:	9.295	yaw rate:	0.612	Roll:	-1.140	Pitch:	5.338	Yaw:	13.981	Thrust:	0.000
Time:	1.936	Roll Set Point:	0.095	Pitch Set Point:	-0.334	Yaw Set Point:	-0.162	X_WP:	0.000	Y_WP:	0.000	Y_WP:	0.000	X:	-0.061	Y:	0.163	Z:	0.059	yaw:	9.275	yaw rate:	-2.061	Roll:	-1.243	Pitch:	5.281	Yaw:	13.415	Thrust:	0.000
Time:	1.946	Roll Set Point:	0.095	Pitch Set Point:	-0.334	Yaw Set Point:	-0.162	X_WP:	0.000	Y_WP:	0.000	Y_WP:	0.000	X:	-0.061	Y:	0.163	Z:	0.059	yaw:	9.270	yaw rate:	-0.473	Roll:	-1.161	Pitch:	5.330	Yaw:	13.822	Thrust:	0.000
Time:	1.956	Roll Set Point:	0.095	Pitch Set Point:	-0.334	Yaw Set Point:	-0.162	X_WP:	0.000	Y_WP:	0.000	Y_WP:	0.000	X:	-0.061	Y:	0.163	Z:	0.059	yaw:	9.279	yaw rate:	0.875	Roll:	-1.137	Pitch:	5.360	Yaw:	14.187	Thrust:	0.000
Time:	1.966	Roll Set Point:	0.095	Pitch Set Point:	-0.334	Yaw Set Point:	-0.162	X_WP:	0.000	Y_WP:	0.000	Y_WP:	0.000	X:	-0.061	Y:	0.163	Z:	0.059	yaw:	9.287	yaw rate:	0.791	Roll:	-1.088	Pitch:	5.348	Yaw:	14.181	Thrust:	0.000
Time:	1.977	Roll Set Point:	0.095	Pitch Set Point:	-0.334	Yaw Set Point:	-0.162	X_WP:	0.000	Y_WP:	0.000	Y_WP:	0.000	X:	-0.061	Y:	0.163	Z:	0.059	yaw:	9.286	yaw rate:	-0.107	Roll:	-1.151	Pitch:	5.381	Yaw:	14.043	Thrust:	0.000
Time:	1.987	Roll Set Point:	0.095	Pitch Set Point:	-0.334	Yaw Set Point:	-0.162	X_WP:	0.000	Y_WP:	0.000	Y_WP:	0.000	X:	-0.061	Y:	0.163	Z:	0.059	yaw:	9.286	yaw rate:	0.075	Roll:	-1.176	Pitch:	5.333	Yaw:	13.989	Thrust:	0.000
Time:	1.997	Roll Set Point:	0.095	Pitch Set Point:	-0.334	Yaw Set Point:	-0.162	X_WP:	0.000	Y_WP:	0.000	Y_WP:	0.000	X:	-0.061	Y:	0.163	Z:	0.059	yaw:	9.291	yaw rate:	0.484	Roll:	-1.083	Pitch:	5.337	Yaw:	14.102	Thrust:	0.000
Time:	2.008	Roll Set Point:	0.095	Pitch Set Point:	-0.334	Yaw Set Point:	-0.162	X_WP:	0.000	Y_WP:	0.000	Y_WP:	1.000	X:	-0.061	Y:	0.163	Z:	0.059	yaw:	9.279	yaw rate:	-1.234	Roll:	-1.229	Pitch:	5.364	Yaw:	13.766	Thrust:	100.000
Time:	2.018	Roll Set Point:	0.095	Pitch Set Point:	-0.334	Yaw Set Point:	-0.162	X_WP:	0.000	Y_WP:	0.000	Y_WP:	1.000	X:	-0.061	Y:	0.163	Z:	0.059	yaw:	9.283	yaw rate:	0.389	Roll:	-1.142	Pitch:	5.340	Yaw:	14.066	Thrust:	52.554
Time:	2.029	Roll Set Point:	0.095	Pitch Set Point:	-0.335	Yaw Set Point:	-0.163	X_WP:	0.000	Y_WP:	0.000	Y_WP:	1.000	X:	-0.061	Y:	0.163	Z:	0.059	yaw:	9.324	yaw rate:	4.099	Roll:	-1.063	Pitch:	5.616	Yaw:	15.094	Thrust:	53.274
Time:	2.039	Roll Set Point:	0.095	Pitch Set Point:	-0.334	Yaw Set Point:	-0.160	X_WP:	0.000	Y_WP:	0.000	Y_WP:	1.000	X:	-0.061	Y:	0.163	Z:	0.059	yaw:	9.190	yaw rate:	-13.365	Roll:	-1.637	Pitch:	4.902	Yaw:	10.374	Thrust:	54.693
Time:	2.050	Roll Set Point:	0.095	Pitch Set Point:	-0.335	Yaw Set Point:	-0.160	X_WP:	0.000	Y_WP:	0.000	Y_WP:	1.000	X:	-0.061	Y:	0.163	Z:	0.059	yaw:	9.181	yaw rate:	-0.914	Roll:	-1.174	Pitch:	5.535	Yaw:	13.705	Thrust:	56.355
Time:	2.060	Roll Set Point:	0.095	Pitch Set Point:	-0.335	Yaw Set Point:	-0.158	X_WP:	0.000	Y_WP:	0.000	Y_WP:	1.000	X:	-0.061	Y:	0.164	Z:	0.059	yaw:	9.068	yaw rate:	-11.250	Roll:	-1.673	Pitch:	5.340	Yaw:	10.727	Thrust:	56.164
Time:	2.071	Roll Set Point:	0.096	Pitch Set Point:	-0.334	Yaw Set Point:	-0.158	X_WP:	0.000	Y_WP:	0.000	Y_WP:	1.000	X:	-0.061	Y:	0.163	Z:	0.059	yaw:	9.057	yaw rate:	-1.118	Roll:	-1.356	Pitch:	5.196	Yaw:	13.357	Thrust:	58.803
Time:	2.081	Roll Set Point:	0.096	Pitch Set Point:	-0.334	Yaw Set Point:	-0.158	X_WP:	0.000	Y_WP:	0.000	Y_WP:	1.000	X:	-0.061	Y:	0.163	Z:	0.059	yaw:	9.057	yaw rate:	-1.118	Roll:	-1.172	Pitch:	5.335	Yaw:	13.649	Thrust:	59.333
Time:	2.092	Roll Set Point:	0.096	Pitch Set Point:	-0.334	Yaw Set Point:	-0.158	X_WP:	0.000	Y_WP:	0.000	Y_WP:	1.000	X:	-0.061	Y:	0.163	Z:	0.059	yaw:	9.073	yaw rate:	-10.294	Roll:	-1.142	Pitch:	5.420	Yaw:	14.134	Thrust:	61.170
Time:	2.102	Roll Set Point:	0.096	Pitch Set Point:	-0.334	Yaw Set Point:	-0.158	X_WP:	0.000	Y_WP:	0.000	Y_WP:	1.000	X:	-0.061	Y:	0.163	Z:	0.059	yaw:	9.073	yaw rate:	-10.294	Roll:	-1.173	Pitch:	5.336	Yaw:	13.671	Thrust:	61.594
Time:	2.112	Roll Set Point:	0.096	Pitch Set Point:	-0.334	Yaw Set Point:	-0.159	X_WP:	0.000	Y_WP:	0.000	Y_WP:	1.000	X:	-0.061	Y:	0.163	Z:	0.059	yaw:	9.095	yaw rate:	2.270	Roll:	-1.065	Pitch:	5.366	Yaw:	14.298	Thrust:	62.524
Time:	2.123	Roll Set Point:	0.096	Pitch Set Point:	-0.334	Yaw Set Point:	-0.158	X_WP:	0.000	Y_WP:	0.000	Y_WP:	1.000	X:	-0.061	Y:	0.163	Z:	0.059	yaw:	9.060	yaw rate:	-3.519	Roll:	-1.358	Pitch:	5.259	Yaw:	12.918	Thrust:	64.978
Time:	2.133	Roll Set Point:	0.095	Pitch Set Point:	-0.334	Yaw Set Point:	-0.158	X_WP:	0.000	Y_WP:	0.000	Y_WP:	1.000	X:	-0.061	Y:	0.163	Z:	0.059	yaw:	9.074	yaw rate:	1.405	Roll:	-0.959	Pitch:	5.368	Yaw:	14.039	Thrust:	64.851
Time:	2.143	Roll Set Point:	0.096	Pitch Set Point:	-0.334	Yaw Set Point:	-0.158	X_WP:	0.000	Y_WP:	0.000	Y_WP:	1.000	X:	-0.061	Y:	0.163	Z:	0.059	yaw:	9.080	yaw rate:	0.579	Roll:	-1.267	Pitch:	5.309	Yaw:	13.833	Thrust:	66.252
Time:	2.154	Roll Set Point:	0.095	Pitch Set Point:	-0.334	Yaw Set Point:	-0.158	X_WP:	0.000	Y_WP:	0.000	Y_WP:	1.000	X:	-0.061	Y:	0.163	Z:	0.059	yaw:	9.060	yaw rate:	-1.977	Roll:	-1.105	Pitch:	5.379	Yaw:	13.275	Thrust:	68.300
Time:	2.164	Roll Set Point:	0.096	Pitch Set Point:	-0.334	Yaw Set Point:	-0.157	X_WP:	0.000	Y_WP:	0.000	Y_WP:	1.000	X:	-0.061	Y:	0.163	Z:	0.059	yaw:	9.017	yaw rate:	-4.354	Roll:	-1.419	Pitch:	5.316	Yaw:	12.470	Thrust:	68.475
Time:	2.174	Roll Set Point:	0.096	Pitch Set Point:	-0.334	Yaw Set Point:	-0.156	X_WP:	0.000	Y_WP:	0.000	Y_WP:	1.000	X:	-0.061	Y:	0.163	Z:	0.059	yaw:	8.943	yaw rate:	-7.393	Roll:	-1.544	Pitch:	5.230	Yaw:	11.559	Thrust:	69.320
Time:	2.184	Roll Set Point:	0.096	Pitch Set Point:	-0.334	Yaw Set Point:	-0.155	X_WP:	0.000	Y_WP:	0.000	Y_WP:	1.000	X:	-0.061	Y:	0.163	Z:	0.059	yaw:	8.887	yaw rate:	-5.600	Roll:	-1.427	Pitch:	5.307	Yaw:	11.949	Thrust:	70.474
Time:	2.194	Roll Set Point:	0.096	Pitch Set Point:	-0.334	Yaw Set Point:	-0.155	X_WP:	0.000	Y_WP:	0.000	Y_WP:	1.000	X:	-0.061	Y:	0.164	Z:	0.059	yaw:	8.866	yaw rate:	-2.099	Roll:	-1.303	Pitch:	5.446	Yaw:	12.832	Thrust:	71.663
Time:	2.205	Roll Set Point:	0.096	Pitch Set Point:	-0.335	Yaw Set Point:	-0.154	X_WP:	0.000	Y_WP:	0.000	Y_WP:	1.000	X:	-0.061	Y:	0.164	Z:	0.059	yaw:	8.831	yaw rate:	-3.507	Roll:	-1.276	Pitch:	5.380	Yaw:	12.602	Thrust:	74.689
Time:	2.215	Roll Set Point:	0.096	Pitch Set Point:	-0.335	Yaw Set Point:	-0.155	X_WP:	0.000	Y_WP:	0.000	Y_WP:	1.000	X:	-0.061	Y:	0.164	Z:	0.060	yaw:	8.891	yaw rate:	6.004	Roll:	-0.758	Pitch:	5.614	Yaw:	14.984	Thrust:	73.793
Time:	2.226	Roll Set Point:	0.096	Pitch Set Point:	-0.335	Yaw Set Point:	-0.152	X_WP:	0.000	Y_WP:	0.000	Y_WP:	1.000	X:	-0.061	Y:	0.164	Z:	0.060	yaw:	8.696	yaw rate:	-19.492	Roll:	-2.107	Pitch:	5.186	Yaw:	8.584	Thrust:	76.616
Time:	2.236	Roll Set Point:	0.096	Pitch Set Point:	-0.335	Yaw Set Point:	-0.150	X_WP:	0.000	Y_WP:	0.000	Y_WP:	1.000	X:	-0.061	Y:	0.164	Z:	0.060	yaw:	8.621	yaw rate:	-7.504	Roll:	-1.509	Pitch:	5.388	Yaw:	11.080	Thrust:	75.318
Time:	2.246	Roll Set Point:	0.096	Pitch Set Point:	-0.335	Yaw Set Point:	-0.148	X_WP:	0.000	Y_WP:	0.000	Y_WP:	1.000	X:	-0.061	Y:	0.164	Z:	0.061	yaw:	8.460	yaw rate:	-16.072	Roll:	-1.623	Pitch:	5.406	Yaw:	8.632	Thrust:	74.236
Time:	2.256	Roll Set Point:	0.096	Pitch Set Point:	-0.335	Yaw Set Point:	-0.148	X_WP:	0.000	Y_WP:	0.000	Y_WP:	1.000	X:	-0.061	Y:	0.164	Z:	0.061	yaw:	8.460	yaw rate:	-16.072	Roll:	-1.221	Pitch:	5.336	Yaw:	12.813	Thrust:	78.417
Time:	2.266	Roll Set Point:	0.097	Pitch Set Point:	-0.335	Yaw Set Point:	-0.145	X_WP:	0.000	Y_WP:	0.000	Y_WP:	1.000	X:	-0.060	Y:	0.164	Z:	0.061	yaw:	8.318	yaw rate:	-14.250	Roll:	-1.770	Pitch:	5.253	Yaw:	8.901	Thrust:	77.724
Time:	2.276	Roll Set Point:	0.097	Pitch Set Point:	-0.335	Yaw Set Point:	-0.142	X_WP:	0.000	Y_WP:	0.000	Y_WP:	1.000	X:	-0.060	Y:	0.164	Z:	0.062	yaw:	8.108	yaw rate:	-20.973	Roll:	-2.120	Pitch:	5.196	Yaw:	6.856	Thrust:	77.814
Time:	2.286	Roll Set Point:	0.097	Pitch Set Point:	-0.335	Yaw Set Point:	-0.137	X_WP:	0.000	Y_WP:	0.000	Y_WP:	1.000	X:	-0.060	Y:	0.164	Z:	0.063	yaw:	7.837	yaw rate:	-27.127	Roll:	-2.314	Pitch:	5.120	Yaw:	4.842	Thrust:	77.509
Time:	2.296	Roll Set Point:	0.097	Pitch Set Point:	-0.335	Yaw Set Point:	-0.135	X_WP:	0.000	Y_WP:	0.000	Y_WP:	1.000	X:	-0.060	Y:	0.164	Z:	0.064	yaw:	7.744	yaw rate:	-9.268	Roll:	-1.268	Pitch:	5.416	Yaw:	9.408	Thrust:	77.353
Time:	2.307	Roll Set Point:	0.098	Pitch Set Point:	-0.335	Yaw Set Point:	-0.128	X_WP:	0.000	Y_WP:	0.000	Y_WP:	1.000	X:	-0.060	Y:	0.164	Z:	0.065	yaw:	7.321	yaw rate:	-42.314	Roll:	-2.861	Pitch:	4.672	Yaw:	1.309	Thrust:	81.093
Time:	2.318	Roll Set Point:	0.098	Pitch Set Point:	-0.334	Yaw Set Point:	-0.123	X_WP:	0.000	Y_WP:	0.000	Y_WP:	1.000	X:	-0.059	Y:	0.164	Z:	0.067	yaw:	7.073	yaw rate:	-24.776	Roll:	-1.901	Pitch:	5.072	Yaw:	5.098	Thrust:	80.575
Time:	2.328	Roll Set Point:	0.098	Pitch Set Point:	-0.334	Yaw Set Point:	-0.118	X_WP:	0.000	Y_WP:	0.000	Y_WP:	1.000	X:	-0.059	Y:	0.164	Z:	0.069	yaw:	6.758	yaw rate:	-31.540	Roll:	-2.206	Pitch:	4.704	Yaw:	2.204	Thrust:	76.575
Time:	2.339	Roll Set Point:	0.098	Pitch Set Point:	-0.334	Yaw Set Point:	-0.114	X_WP:	0.000	Y_WP:	0.000	Y_WP:	1.000	X:	-0.058	Y:	0.164	Z:	0.072	yaw:	6.512	yaw rate:	-24.551	Roll:	-1.860	Pitch:	4.911	Yaw:	4.326	Thrust:	80.047
Time:	2.349	Roll Set Point:	0.098	Pitch Set Point:	-0.333	Yaw Set Point:	-0.108	X_WP:	0.000	Y_WP:	0.000	Y_WP:	1.000	X:	-0.058	Y:	0.164	Z:	0.074	yaw:	6.181	yaw rate:	-33.098	Roll:	-2.174	Pitch:	4.531	Yaw:	1.055	Thrust:	76.259
Time:	2.359	Roll Set Point:	0.097	Pitch Set Point:	-0.332	Yaw Set Point:	-0.099	X_WP:	0.000	Y_WP:	0.000	Y_WP:	1.000	X:	-0.057	Y:	0.164	Z:	0.081	yaw:	5.694	yaw rate:	-48.705	Roll:	-1.769	Pitch:	3.889	Yaw:	-3.764	Thrust:	60.158
Time:	2.370	Roll Set Point:	0.096	Pitch Set Point:	-0.331	Yaw Set Point:	-0.095	X_WP:	0.000	Y_WP:	0.000	Y_WP:	1.000	X:	-0.056	Y:	0.163	Z:	0.084	yaw:	5.468	yaw rate:	-22.620	Roll:	-1.467	Pitch:	4.551	Yaw:	3.376	Thrust:	79.041
Time:	2.380	Roll Set Point:	0.095	Pitch Set Point:	-0.330	Yaw Set Point:	-0.092	X_WP:	0.000	Y_WP:	0.000	Y_WP:	1.000	X:	-0.055	Y:	0.163	Z:	0.088	yaw:	5.266	yaw rate:	-20.177	Roll:	-1.116	Pitch:	4.366	Yaw:	3.094	Thrust:	73.095
Time:	2.391	Roll Set Point:	0.094	Pitch Set Point:	-0.330	Yaw Set Point:	-0.089	X_WP:	0.000	Y_WP:	0.000	Y_WP:	1.000	X:	-0.055	Y:	0.163	Z:	0.092	yaw:	5.122	yaw rate:	-14.437	Roll:	-0.927	Pitch:	4.551	Yaw:	4.828	Thrust:	78.566
Time:	2.402	Roll Set Point:	0.093	Pitch Set Point:	-0.329	Yaw Set Point:	-0.087	X_WP:	0.000	Y_WP:	0.000	Y_WP:	1.000	X:	-0.054	Y:	0.162	Z:	0.097	yaw:	5.000	yaw rate:	-12.157	Roll:	-0.699	Pitch:	4.493	Yaw:	5.166	Thrust:	77.928
Time:	2.412	Roll Set Point:	0.092	Pitch Set Point:	-0.328	Yaw Set Point:	-0.084	X_WP:	0.000	Y_WP:	0.000	Y_WP:	1.000	X:	-0.053	Y:	0.162	Z:	0.101	yaw:	4.789	yaw rate:	-21.128	Roll:	-0.887	Pitch:	4.004	Yaw:	2.217	Thrust:	72.511
Time:	2.422	Roll Set Point:	0.092	Pitch Set Point:	-0.328	Yaw Set Point:	-0.084	X_WP:	0.000	Y_WP:	0.000	Y_WP:	1.000	X:	-0.053	Y:	0.162	Z:	0.101	yaw:	4.789	yaw rate:	-21.128	Roll:	-1.334	Pitch:	5.183	Yaw:	7.689	Thrust:	94.036
Time:	2.433	Roll Set Point:	0.090	Pitch Set Point:	-0.326	Yaw Set Point:	-0.081	X_WP:	0.000	Y_WP:	0.000	Y_WP:	1.000	X:	-0.052	Y:	0.161	Z:	0.106	yaw:	4.633	yaw rate:	-15.596	Roll:	-0.609	Pitch:	4.160	Yaw:	3.870	Thrust:	79.425
Time:	2.444	Roll Set Point:	0.088	Pitch Set Point:	-0.326	Yaw Set Point:	-0.080	X_WP:	0.000	Y_WP:	0.000	Y_WP:	1.000	X:	-0.051	Y:	0.161	Z:	0.112	yaw:	4.566	yaw rate:	-6.689	Roll:	0.186	Pitch:	4.358	Yaw:	5.874	Thrust:	78.718
Time:	2.457	Roll Set Point:	0.087	Pitch Set Point:	-0.324	Yaw Set Point:	-0.076	X_WP:	0.000	Y_WP:	0.000	Y_WP:	1.000	X:	-0.050	Y:	0.160	Z:	0.117	yaw:	4.338	yaw rate:	-22.834	Roll:	-0.697	Pitch:	3.497	Yaw:	2.774	Thrust:	72.053
Time:	2.468	Roll Set Point:	0.082	Pitch Set Point:	-0.321	Yaw Set Point:	-0.071	X_WP:	0.000	Y_WP:	0.000	Y_WP:	1.000	X:	-0.047	Y:	0.159	Z:	0.129	yaw:	4.091	yaw rate:	-24.648	Roll:	1.184	Pitch:	2.918	Yaw:	0.279	Thrust:	71.438
Time:	2.478	Roll Set Point:	0.080	Pitch Set Point:	-0.319	Yaw Set Point:	-0.069	X_WP:	0.000	Y_WP:	0.000	Y_WP:	1.000	X:	-0.045	Y:	0.158	Z:	0.135	yaw:	3.971	yaw rate:	-12.076	Roll:	0.649	Pitch:	3.333	Yaw:	3.421	Thrust:	70.623
Time:	2.489	Roll Set Point:	0.077	Pitch Set Point:	-0.317	Yaw Set Point:	-0.067	X_WP:	0.000	Y_WP:	0.000	Y_WP:	1.000	X:	-0.044	Y:	0.157	Z:	0.141	yaw:	3.838	yaw rate:	-13.284	Roll:	0.522	Pitch:	3.494	Yaw:	3.292	Thrust:	76.786
Time:	2.499	Roll Set Point:	0.074	Pitch Set Point:	-0.315	Yaw Set Point:	-0.065	X_WP:	0.000	Y_WP:	0.000	Y_WP:	1.000	X:	-0.042	Y:	0.156	Z:	0.148	yaw:	3.741	yaw rate:	-9.659	Roll:	1.108	Pitch:	3.129	Yaw:	3.704	Thrust:	68.953
Time:	2.509	Roll Set Point:	0.071	Pitch Set Point:	-0.313	Yaw Set Point:	-0.064	X_WP:	0.000	Y_WP:	0.000	Y_WP:	1.000	X:	-0.040	Y:	0.155	Z:	0.155	yaw:	3.659	yaw rate:	-8.200	Roll:	1.410	Pitch:	3.083	Yaw:	3.963	Thrust:	68.410
Time:	2.519	Roll Set Point:	0.067	Pitch Set Point:	-0.311	Yaw Set Point:	-0.064	X_WP:	0.000	Y_WP:	0.000	Y_WP:	1.000	X:	-0.039	Y:	0.154	Z:	0.162	yaw:	3.676	yaw rate:	1.651	Roll:	2.117	Pitch:	3.167	Yaw:	6.566	Thrust:	68.240
Time:	2.529	Roll Set Point:	0.064	Pitch Set Point:	-0.309	Yaw Set Point:	-0.061	X_WP:	0.000	Y_WP:	0.000	Y_WP:	1.000	X:	-0.037	Y:	0.153	Z:	0.169	yaw:	3.493	yaw rate:	-18.233	Roll:	1.122	Pitch:	2.705	Yaw:	1.157	Thrust:	68.478
Time:	2.539	Roll Set Point:	0.060	Pitch Set Point:	-0.307	Yaw Set Point:	-0.062	X_WP:	0.000	Y_WP:	0.000	Y_WP:	1.000	X:	-0.035	Y:	0.152	Z:	0.177	yaw:	3.534	yaw rate:	4.084	Roll:	2.689	Pitch:	2.964	Yaw:	7.004	Thrust:	67.440
Time:	2.550	Roll Set Point:	0.052	Pitch Set Point:	-0.301	Yaw Set Point:	-0.057	X_WP:	0.000	Y_WP:	0.000	Y_WP:	1.000	X:	-0.031	Y:	0.150	Z:	0.192	yaw:	3.288	yaw rate:	-24.593	Roll:	4.294	Pitch:	0.568	Yaw:	-0.185	Thrust:	43.057
Time:	2.560	Roll Set Point:	0.048	Pitch Set Point:	-0.299	Yaw Set Point:	-0.057	X_WP:	0.000	Y_WP:	0.000	Y_WP:	1.000	X:	-0.028	Y:	0.149	Z:	0.200	yaw:	3.277	yaw rate:	-1.116	Roll:	2.724	Pitch:	2.497	Yaw:	5.295	Thrust:	66.108
Time:	2.570	Roll Set Point:	0.044	Pitch Set Point:	-0.296	Yaw Set Point:	-0.057	X_WP:	0.000	Y_WP:	0.000	Y_WP:	1.000	X:	-0.026	Y:	0.148	Z:	0.209	yaw:	3.270	yaw rate:	-0.676	Roll:	2.937	Pitch:	2.441	Yaw:	5.390	Thrust:	65.706
Time:	2.580	Roll Set Point:	0.040	Pitch Set Point:	-0.294	Yaw Set Point:	-0.054	X_WP:	0.000	Y_WP:	0.000	Y_WP:	1.000	X:	-0.024	Y:	0.146	Z:	0.217	yaw:	3.105	yaw rate:	-16.574	Roll:	2.390	Pitch:	2.182	Yaw:	1.019	Thrust:	65.417
Time:	2.590	Roll Set Point:	0.035	Pitch Set Point:	-0.291	Yaw Set Point:	-0.055	X_WP:	0.000	Y_WP:	0.000	Y_WP:	1.000	X:	-0.021	Y:	0.145	Z:	0.225	yaw:	3.145	yaw rate:	4.093	Roll:	3.343	Pitch:	2.230	Yaw:	6.463	Thrust:	65.614
Time:	2.601	Roll Set Point:	0.030	Pitch Set Point:	-0.288	Yaw Set Point:	-0.054	X_WP:	0.000	Y_WP:	0.000	Y_WP:	1.000	X:	-0.019	Y:	0.144	Z:	0.234	yaw:	3.079	yaw rate:	-6.653	Roll:	2.780	Pitch:	2.293	Yaw:	3.823	Thrust:	75.804
Time:	2.612	Roll Set Point:	0.030	Pitch Set Point:	-0.288	Yaw Set Point:	-0.054	X_WP:	0.000	Y_WP:	0.000	Y_WP:	1.000	X:	-0.019	Y:	0.144	Z:	0.234	yaw:	3.079	yaw rate:	-6.653	Roll:	-0.540	Pitch:	4.565	Yaw:	5.302	Thrust:	100.000
Time:	2.622	Roll Set Point:	0.025	Pitch Set Point:	-0.286	Yaw Set Point:	-0.057	X_WP:	0.000	Y_WP:	0.000	Y_WP:	1.000	X:	-0.017	Y:	0.142	Z:	0.242	yaw:	3.255	yaw rate:	17.646	Roll:	3.991	Pitch:	2.614	Yaw:	9.855	Thrust:	75.836
Time:	2.633	Roll Set Point:	0.021	Pitch Set Point:	-0.283	Yaw Set Point:	-0.054	X_WP:	0.000	Y_WP:	0.000	Y_WP:	1.000	X:	-0.014	Y:	0.141	Z:	0.251	yaw:	3.080	yaw rate:	-17.492	Roll:	2.507	Pitch:	2.017	Yaw:	1.252	Thrust:	77.470
Time:	2.645	Roll Set Point:	0.016	Pitch Set Point:	-0.280	Yaw Set Point:	-0.053	X_WP:	0.000	Y_WP:	0.000	Y_WP:	1.000	X:	-0.012	Y:	0.140	Z:	0.260	yaw:	3.057	yaw rate:	-2.329	Roll:	3.278	Pitch:	2.125	Yaw:	4.829	Thrust:	77.736
Time:	2.655	Roll Set Point:	0.011	Pitch Set Point:	-0.277	Yaw Set Point:	-0.053	X_WP:	0.000	Y_WP:	0.000	Y_WP:	1.000	X:	-0.009	Y:	0.138	Z:	0.268	yaw:	3.030	yaw rate:	-2.687	Roll:	3.269	Pitch:	2.071	Yaw:	4.686	Thrust:	77.224
Time:	2.666	Roll Set Point:	0.001	Pitch Set Point:	-0.271	Yaw Set Point:	-0.053	X_WP:	0.000	Y_WP:	0.000	Y_WP:	1.000	X:	-0.004	Y:	0.135	Z:	0.286	yaw:	3.038	yaw rate:	0.817	Roll:	7.503	Pitch:	-0.399	Yaw:	5.539	Thrust:	41.152
Time:	2.676	Roll Set Point:	-0.004	Pitch Set Point:	-0.268	Yaw Set Point:	-0.051	X_WP:	0.000	Y_WP:	0.000	Y_WP:	1.000	X:	-0.001	Y:	0.134	Z:	0.295	yaw:	2.948	yaw rate:	-9.010	Roll:	3.841	Pitch:	1.561	Yaw:	2.767	Thrust:	66.381
Time:	2.688	Roll Set Point:	-0.009	Pitch Set Point:	-0.265	Yaw Set Point:	-0.051	X_WP:	0.000	Y_WP:	0.000	Y_WP:	1.000	X:	0.001	Y:	0.132	Z:	0.304	yaw:	2.946	yaw rate:	-0.216	Roll:	3.699	Pitch:	1.813	Yaw:	5.173	Thrust:	77.422
Time:	2.698	Roll Set Point:	-0.014	Pitch Set Point:	-0.262	Yaw Set Point:	-0.051	X_WP:	0.000	Y_WP:	0.000	Y_WP:	1.000	X:	0.004	Y:	0.131	Z:	0.314	yaw:	2.920	yaw rate:	-2.588	Roll:	3.974	Pitch:	1.732	Yaw:	4.555	Thrust:	75.469
Time:	2.709	Roll Set Point:	-0.019	Pitch Set Point:	-0.259	Yaw Set Point:	-0.052	X_WP:	0.000	Y_WP:	0.000	Y_WP:	1.000	X:	0.006	Y:	0.130	Z:	0.323	yaw:	3.001	yaw rate:	8.090	Roll:	4.298	Pitch:	1.762	Yaw:	7.209	Thrust:	76.958
Time:	2.720	Roll Set Point:	-0.024	Pitch Set Point:	-0.256	Yaw Set Point:	-0.051	X_WP:	0.000	Y_WP:	0.000	Y_WP:	1.000	X:	0.009	Y:	0.128	Z:	0.333	yaw:	2.922	yaw rate:	-7.934	Roll:	3.875	Pitch:	1.691	Yaw:	3.282	Thrust:	75.183
Time:	2.731	Roll Set Point:	-0.030	Pitch Set Point:	-0.253	Yaw Set Point:	-0.051	X_WP:	0.000	Y_WP:	0.000	Y_WP:	1.000	X:	0.012	Y:	0.127	Z:	0.342	yaw:	2.948	yaw rate:	2.612	Roll:	4.282	Pitch:	1.622	Yaw:	5.842	Thrust:	76.810
Time:	2.742	Roll Set Point:	-0.034	Pitch Set Point:	-0.249	Yaw Set Point:	-0.051	X_WP:	0.000	Y_WP:	0.000	Y_WP:	1.000	X:	0.014	Y:	0.125	Z:	0.352	yaw:	2.897	yaw rate:	-5.077	Roll:	3.997	Pitch:	1.463	Yaw:	3.929	Thrust:	75.607
Time:	2.753	Roll Set Point:	-0.040	Pitch Set Point:	-0.246	Yaw Set Point:	-0.051	X_WP:	0.000	Y_WP:	0.000	Y_WP:	1.000	X:	0.017	Y:	0.124	Z:	0.362	yaw:	2.941	yaw rate:	4.357	Roll:	4.539	Pitch:	1.537	Yaw:	6.243	Thrust:	76.472
Time:	2.764	Roll Set Point:	-0.045	Pitch Set Point:	-0.243	Yaw Set Point:	-0.050	X_WP:	0.000	Y_WP:	0.000	Y_WP:	1.000	X:	0.019	Y:	0.122	Z:	0.372	yaw:	2.892	yaw rate:	-4.908	Roll:	4.242	Pitch:	1.518	Yaw:	3.989	Thrust:	76.920
Time:	2.775	Roll Set Point:	-0.055	Pitch Set Point:	-0.237	Yaw Set Point:	-0.050	X_WP:	0.000	Y_WP:	0.000	Y_WP:	1.000	X:	0.024	Y:	0.119	Z:	0.392	yaw:	2.872	yaw rate:	-2.019	Roll:	8.193	Pitch:	-1.006	Yaw:	4.633	Thrust:	35.085
Time:	2.786	Roll Set Point:	-0.060	Pitch Set Point:	-0.234	Yaw Set Point:	-0.050	X_WP:	0.000	Y_WP:	0.000	Y_WP:	1.000	X:	0.027	Y:	0.118	Z:	0.402	yaw:	2.886	yaw rate:	1.472	Roll:	4.501	Pitch:	1.402	Yaw:	5.478	Thrust:	74.702
Time:	2.798	Roll Set Point:	-0.065	Pitch Set Point:	-0.232	Yaw Set Point:	-0.051	X_WP:	0.000	Y_WP:	0.000	Y_WP:	1.000	X:	0.029	Y:	0.117	Z:	0.412	yaw:	2.899	yaw rate:	1.244	Roll:	4.666	Pitch:	1.435	Yaw:	5.446	Thrust:	74.852
