Time:	0.032	Roll Set Point:	-0.003	Pitch Set Point:	-0.014	Yaw Set Point:	1.573	X_WP:	0.000	Y_WP:	0.000	Y_WP:	0.000	X:	0.009	Y:	0.005	Z:	0.059	yaw:	-90.108	yaw rate:	-0.359	Roll:	-0.153	Pitch:	0.253	Yaw:	-125.815	Thrust:	0.000
Time:	0.045	Roll Set Point:	-0.003	Pitch Set Point:	-0.014	Yaw Set Point:	1.573	X_WP:	0.000	Y_WP:	0.000	Y_WP:	0.000	X:	0.009	Y:	0.005	Z:	0.059	yaw:	-90.098	yaw rate:	1.010	Roll:	-0.152	Pitch:	0.258	Yaw:	-126.010	Thrust:	0.000
Time:	0.058	Roll Set Point:	-0.003	Pitch Set Point:	-0.014	Yaw Set Point:	1.573	X_WP:	0.000	Y_WP:	0.000	Y_WP:	0.000	X:	0.009	Y:	0.005	Z:	0.059	yaw:	-90.112	yaw rate:	-1.350	Roll:	-0.139	Pitch:	0.260	Yaw:	-126.869	Thrust:	0.000
Time:	0.075	Roll Set Point:	-0.003	Pitch Set Point:	-0.014	Yaw Set Point:	1.573	X_WP:	0.000	Y_WP:	0.000	Y_WP:	0.000	X:	0.009	Y:	0.005	Z:	0.059	yaw:	-90.105	yaw rate:	0.330	Roll:	-0.167	Pitch:	0.255	Yaw:	-127.120	Thrust:	0.000
Time:	0.086	Roll Set Point:	-0.003	Pitch Set Point:	-0.014	Yaw Set Point:	1.573	X_WP:	0.000	Y_WP:	0.000	Y_WP:	0.000	X:	0.009	Y:	0.005	Z:	0.059	yaw:	-90.113	yaw rate:	-0.771	Roll:	-0.143	Pitch:	0.246	Yaw:	-127.727	Thrust:	0.000
Time:	0.098	Roll Set Point:	-0.003	Pitch Set Point:	-0.014	Yaw Set Point:	1.573	X_WP:	0.000	Y_WP:	0.000	Y_WP:	0.000	X:	0.009	Y:	0.005	Z:	0.059	yaw:	-90.115	yaw rate:	-0.211	Roll:	-0.165	Pitch:	0.250	Yaw:	-127.769	Thrust:	0.000
Time:	0.111	Roll Set Point:	-0.003	Pitch Set Point:	-0.014	Yaw Set Point:	1.573	X_WP:	0.000	Y_WP:	0.000	Y_WP:	0.000	X:	0.009	Y:	0.005	Z:	0.059	yaw:	-90.104	yaw rate:	1.143	Roll:	-0.149	Pitch:	0.260	Yaw:	-127.823	Thrust:	0.000
Time:	0.123	Roll Set Point:	-0.003	Pitch Set Point:	-0.014	Yaw Set Point:	1.573	X_WP:	0.000	Y_WP:	0.000	Y_WP:	0.000	X:	0.009	Y:	0.005	Z:	0.059	yaw:	-90.111	yaw rate:	-0.689	Roll:	-0.161	Pitch:	0.258	Yaw:	-128.375	Thrust:	0.000
Time:	0.135	Roll Set Point:	-0.003	Pitch Set Point:	-0.014	Yaw Set Point:	1.573	X_WP:	0.000	Y_WP:	0.000	Y_WP:	0.000	X:	0.009	Y:	0.005	Z:	0.059	yaw:	-90.102	yaw rate:	0.815	Roll:	-0.157	Pitch:	0.247	Yaw:	-128.248	Thrust:	0.000
Time:	0.148	Roll Set Point:	-0.003	Pitch Set Point:	-0.014	Yaw Set Point:	1.573	X_WP:	0.000	Y_WP:	0.000	Y_WP:	0.000	X:	0.009	Y:	0.005	Z:	0.059	yaw:	-90.103	yaw rate:	-0.105	Roll:	-0.153	Pitch:	0.261	Yaw:	-128.237	Thrust:	0.000
Time:	0.160	Roll Set Point:	-0.003	Pitch Set Point:	-0.014	Yaw Set Point:	1.573	X_WP:	0.000	Y_WP:	0.000	Y_WP:	0.000	X:	0.009	Y:	0.005	Z:	0.059	yaw:	-90.101	yaw rate:	1.825	Roll:	-0.153	Pitch:	0.252	Yaw:	-128.365	Thrust:	0.000
Time:	0.172	Roll Set Point:	-0.003	Pitch Set Point:	-0.014	Yaw Set Point:	1.573	X_WP:	0.000	Y_WP:	0.000	Y_WP:	0.000	X:	0.009	Y:	0.005	Z:	0.059	yaw:	-90.118	yaw rate:	-1.728	Roll:	-0.153	Pitch:	0.246	Yaw:	-128.616	Thrust:	0.000
Time:	0.185	Roll Set Point:	-0.003	Pitch Set Point:	-0.014	Yaw Set Point:	1.573	X_WP:	0.000	Y_WP:	0.000	Y_WP:	0.000	X:	0.009	Y:	0.005	Z:	0.059	yaw:	-90.107	yaw rate:	1.106	Roll:	-0.146	Pitch:	0.268	Yaw:	-127.972	Thrust:	0.000
Time:	0.198	Roll Set Point:	-0.003	Pitch Set Point:	-0.014	Yaw Set Point:	1.573	X_WP:	0.000	Y_WP:	0.000	Y_WP:	0.000	X:	0.009	Y:	0.005	Z:	0.059	yaw:	-90.104	yaw rate:	0.336	Roll:	-0.172	Pitch:	0.249	Yaw:	-128.150	Thrust:	0.000
Time:	0.210	Roll Set Point:	-0.003	Pitch Set Point:	-0.014	Yaw Set Point:	1.573	X_WP:	0.000	Y_WP:	0.000	Y_WP:	0.000	X:	0.009	Y:	0.005	Z:	0.059	yaw:	-90.107	yaw rate:	-0.321	Roll:	-0.142	Pitch:	0.260	Yaw:	-128.673	Thrust:	0.000
Time:	0.223	Roll Set Point:	-0.003	Pitch Set Point:	-0.014	Yaw Set Point:	1.573	X_WP:	0.000	Y_WP:	0.000	Y_WP:	0.000	X:	0.009	Y:	0.005	Z:	0.059	yaw:	-90.113	yaw rate:	-0.552	Roll:	-0.152	Pitch:	0.265	Yaw:	-128.349	Thrust:	0.000
Time:	0.237	Roll Set Point:	-0.003	Pitch Set Point:	-0.014	Yaw Set Point:	1.572	X_WP:	0.000	Y_WP:	0.000	Y_WP:	0.000	X:	0.009	Y:	0.005	Z:	0.059	yaw:	-90.095	yaw rate:	1.775	Roll:	-0.174	Pitch:	0.243	Yaw:	-128.046	Thrust:	0.000
Time:	0.249	Roll Set Point:	-0.003	Pitch Set Point:	-0.014	Yaw Set Point:	1.573	X_WP:	0.000	Y_WP:	0.000	Y_WP:	0.000	X:	0.009	Y:	0.005	Z:	0.059	yaw:	-90.104	yaw rate:	-0.939	Roll:	-0.145	Pitch:	0.262	Yaw:	-128.604	Thrust:	0.000
Time:	0.260	Roll Set Point:	-0.003	Pitch Set Point:	-0.014	Yaw Set Point:	1.573	X_WP:	0.000	Y_WP:	0.000	Y_WP:	0.000	X:	0.009	Y:	0.005	Z:	0.059	yaw:	-90.109	yaw rate:	0.008	Roll:	-0.171	Pitch:	0.267	Yaw:	-128.129	Thrust:	0.000
Time:	0.272	Roll Set Point:	-0.003	Pitch Set Point:	-0.014	Yaw Set Point:	1.573	X_WP:	0.000	Y_WP:	0.000	Y_WP:	0.000	X:	0.009	Y:	0.005	Z:	0.059	yaw:	-90.102	yaw rate:	0.662	Roll:	-0.155	Pitch:	0.251	Yaw:	-127.856	Thrust:	0.000
Time:	0.283	Roll Set Point:	-0.003	Pitch Set Point:	-0.014	Yaw Set Point:	1.573	X_WP:	0.000	Y_WP:	0.000	Y_WP:	0.000	X:	0.009	Y:	0.005	Z:	0.059	yaw:	-90.110	yaw rate:	-0.761	Roll:	-0.143	Pitch:	0.247	Yaw:	-128.204	Thrust:	0.000
Time:	0.293	Roll Set Point:	-0.003	Pitch Set Point:	-0.014	Yaw Set Point:	1.573	X_WP:	0.000	Y_WP:	0.000	Y_WP:	0.000	X:	0.009	Y:	0.005	Z:	0.059	yaw:	-90.104	yaw rate:	0.533	Roll:	-0.170	Pitch:	0.261	Yaw:	-127.895	Thrust:	0.000
Time:	0.304	Roll Set Point:	-0.003	Pitch Set Point:	-0.014	Yaw Set Point:	1.573	X_WP:	0.000	Y_WP:	0.000	Y_WP:	0.000	X:	0.009	Y:	0.005	Z:	0.059	yaw:	-90.103	yaw rate:	0.112	Roll:	-0.140	Pitch:	0.274	Yaw:	-127.997	Thrust:	0.000
Time:	0.315	Roll Set Point:	-0.003	Pitch Set Point:	-0.014	Yaw Set Point:	1.573	X_WP:	0.000	Y_WP:	0.000	Y_WP:	0.000	X:	0.009	Y:	0.005	Z:	0.059	yaw:	-90.108	yaw rate:	-0.508	Roll:	-0.152	Pitch:	0.244	Yaw:	-128.141	Thrust:	0.000
Time:	0.326	Roll Set Point:	-0.003	Pitch Set Point:	-0.014	Yaw Set Point:	1.573	X_WP:	0.000	Y_WP:	0.000	Y_WP:	0.000	X:	0.009	Y:	0.005	Z:	0.059	yaw:	-90.115	yaw rate:	-0.644	Roll:	-0.176	Pitch:	0.271	Yaw:	-128.182	Thrust:	0.000
Time:	0.338	Roll Set Point:	-0.003	Pitch Set Point:	-0.014	Yaw Set Point:	1.573	X_WP:	0.000	Y_WP:	0.000	Y_WP:	0.000	X:	0.009	Y:	0.005	Z:	0.059	yaw:	-90.108	yaw rate:	0.682	Roll:	-0.152	Pitch:	0.254	Yaw:	-127.844	Thrust:	0.000
Time:	0.349	Roll Set Point:	-0.003	Pitch Set Point:	-0.014	Yaw Set Point:	1.573	X_WP:	0.000	Y_WP:	0.000	Y_WP:	0.000	X:	0.009	Y:	0.005	Z:	0.059	yaw:	-90.098	yaw rate:	0.962	Roll:	-0.149	Pitch:	0.267	Yaw:	-127.998	Thrust:	0.000
Time:	0.361	Roll Set Point:	-0.003	Pitch Set Point:	-0.014	Yaw Set Point:	1.573	X_WP:	0.000	Y_WP:	0.000	Y_WP:	0.000	X:	0.009	Y:	0.005	Z:	0.059	yaw:	-90.108	yaw rate:	-0.977	Roll:	-0.161	Pitch:	0.252	Yaw:	-128.264	Thrust:	0.000
Time:	0.372	Roll Set Point:	-0.003	Pitch Set Point:	-0.014	Yaw Set Point:	1.573	X_WP:	0.000	Y_WP:	0.000	Y_WP:	0.000	X:	0.009	Y:	0.005	Z:	0.059	yaw:	-90.110	yaw rate:	-0.178	Roll:	-0.155	Pitch:	0.238	Yaw:	-128.054	Thrust:	0.000
Time:	0.383	Roll Set Point:	-0.003	Pitch Set Point:	-0.014	Yaw Set Point:	1.573	X_WP:	0.000	Y_WP:	0.000	Y_WP:	0.000	X:	0.009	Y:	0.005	Z:	0.059	yaw:	-90.114	yaw rate:	-0.367	Roll:	-0.157	Pitch:	0.271	Yaw:	-128.127	Thrust:	0.000
Time:	0.394	Roll Set Point:	-0.003	Pitch Set Point:	-0.014	Yaw Set Point:	1.573	X_WP:	0.000	Y_WP:	0.000	Y_WP:	0.000	X:	0.009	Y:	0.005	Z:	0.059	yaw:	-90.103	yaw rate:	1.066	Roll:	-0.172	Pitch:	0.274	Yaw:	-127.761	Thrust:	0.000
Time:	0.405	Roll Set Point:	-0.003	Pitch Set Point:	-0.014	Yaw Set Point:	1.573	X_WP:	0.000	Y_WP:	0.000	Y_WP:	0.000	X:	0.009	Y:	0.005	Z:	0.059	yaw:	-90.104	yaw rate:	-0.081	Roll:	-0.148	Pitch:	0.250	Yaw:	-128.033	Thrust:	0.000
Time:	0.417	Roll Set Point:	-0.003	Pitch Set Point:	-0.014	Yaw Set Point:	1.573	X_WP:	0.000	Y_WP:	0.000	Y_WP:	0.000	X:	0.009	Y:	0.005	Z:	0.059	yaw:	-90.105	yaw rate:	-0.096	Roll:	-0.152	Pitch:	0.263	Yaw:	-128.432	Thrust:	0.000
Time:	0.429	Roll Set Point:	-0.003	Pitch Set Point:	-0.014	Yaw Set Point:	1.572	X_WP:	0.000	Y_WP:	0.000	Y_WP:	0.000	X:	0.009	Y:	0.005	Z:	0.059	yaw:	-90.093	yaw rate:	1.198	Roll:	-0.150	Pitch:	0.265	Yaw:	-127.720	Thrust:	0.000
Time:	0.440	Roll Set Point:	-0.003	Pitch Set Point:	-0.014	Yaw Set Point:	1.573	X_WP:	0.000	Y_WP:	0.000	Y_WP:	0.000	X:	0.009	Y:	0.005	Z:	0.059	yaw:	-90.113	yaw rate:	-1.994	Roll:	-0.174	Pitch:	0.253	Yaw:	-128.502	Thrust:	0.000
Time:	0.451	Roll Set Point:	-0.003	Pitch Set Point:	-0.014	Yaw Set Point:	1.573	X_WP:	0.000	Y_WP:	0.000	Y_WP:	0.000	X:	0.009	Y:	0.005	Z:	0.059	yaw:	-90.104	yaw rate:	0.901	Roll:	-0.159	Pitch:	0.274	Yaw:	-128.004	Thrust:	0.000
Time:	0.463	Roll Set Point:	-0.003	Pitch Set Point:	-0.014	Yaw Set Point:	1.573	X_WP:	0.000	Y_WP:	0.000	Y_WP:	0.000	X:	0.009	Y:	0.005	Z:	0.059	yaw:	-90.120	yaw rate:	-1.609	Roll:	-0.137	Pitch:	0.249	Yaw:	-128.425	Thrust:	0.000
Time:	0.474	Roll Set Point:	-0.003	Pitch Set Point:	-0.014	Yaw Set Point:	1.573	X_WP:	0.000	Y_WP:	0.000	Y_WP:	0.000	X:	0.009	Y:	0.005	Z:	0.059	yaw:	-90.104	yaw rate:	1.602	Roll:	-0.175	Pitch:	0.287	Yaw:	-127.640	Thrust:	0.000
Time:	0.485	Roll Set Point:	-0.003	Pitch Set Point:	-0.014	Yaw Set Point:	1.573	X_WP:	0.000	Y_WP:	0.000	Y_WP:	0.000	X:	0.009	Y:	0.005	Z:	0.059	yaw:	-90.101	yaw rate:	0.252	Roll:	-0.159	Pitch:	0.241	Yaw:	-128.145	Thrust:	0.000
Time:	0.496	Roll Set Point:	-0.003	Pitch Set Point:	-0.014	Yaw Set Point:	1.573	X_WP:	0.000	Y_WP:	0.000	Y_WP:	0.000	X:	0.009	Y:	0.005	Z:	0.059	yaw:	-90.099	yaw rate:	0.203	Roll:	-0.133	Pitch:	0.243	Yaw:	-127.767	Thrust:	0.000
Time:	0.506	Roll Set Point:	-0.003	Pitch Set Point:	-0.014	Yaw Set Point:	1.573	X_WP:	0.000	Y_WP:	0.000	Y_WP:	0.000	X:	0.009	Y:	0.005	Z:	0.059	yaw:	-90.113	yaw rate:	-1.329	Roll:	-0.194	Pitch:	0.290	Yaw:	-128.330	Thrust:	0.000
Time:	0.518	Roll Set Point:	-0.003	Pitch Set Point:	-0.014	Yaw Set Point:	1.573	X_WP:	0.000	Y_WP:	0.000	Y_WP:	0.000	X:	0.009	Y:	0.005	Z:	0.059	yaw:	-90.113	yaw rate:	-0.088	Roll:	-0.150	Pitch:	0.259	Yaw:	-128.049	Thrust:	0.000
Time:	0.528	Roll Set Point:	-0.003	Pitch Set Point:	-0.014	Yaw Set Point:	1.573	X_WP:	0.000	Y_WP:	0.000	Y_WP:	0.000	X:	0.009	Y:	0.005	Z:	0.059	yaw:	-90.110	yaw rate:	0.365	Roll:	-0.144	Pitch:	0.279	Yaw:	-127.936	Thrust:	0.000
Time:	0.539	Roll Set Point:	-0.003	Pitch Set Point:	-0.014	Yaw Set Point:	1.573	X_WP:	0.000	Y_WP:	0.000	Y_WP:	0.000	X:	0.009	Y:	0.005	Z:	0.059	yaw:	-90.109	yaw rate:	0.087	Roll:	-0.171	Pitch:	0.238	Yaw:	-128.016	Thrust:	0.000
Time:	0.550	Roll Set Point:	-0.003	Pitch Set Point:	-0.014	Yaw Set Point:	1.573	X_WP:	0.000	Y_WP:	0.000	Y_WP:	0.000	X:	0.009	Y:	0.005	Z:	0.059	yaw:	-90.108	yaw rate:	0.078	Roll:	-0.158	Pitch:	0.256	Yaw:	-127.988	Thrust:	0.000
Time:	0.562	Roll Set Point:	-0.003	Pitch Set Point:	-0.014	Yaw Set Point:	1.573	X_WP:	0.000	Y_WP:	0.000	Y_WP:	0.000	X:	0.009	Y:	0.005	Z:	0.059	yaw:	-90.117	yaw rate:	-0.887	Roll:	-0.146	Pitch:	0.272	Yaw:	-128.256	Thrust:	0.000
Time:	0.573	Roll Set Point:	-0.003	Pitch Set Point:	-0.014	Yaw Set Point:	1.573	X_WP:	0.000	Y_WP:	0.000	Y_WP:	0.000	X:	0.009	Y:	0.005	Z:	0.059	yaw:	-90.111	yaw rate:	0.646	Roll:	-0.171	Pitch:	0.281	Yaw:	-127.869	Thrust:	0.000
Time:	0.583	Roll Set Point:	-0.003	Pitch Set Point:	-0.014	Yaw Set Point:	1.573	X_WP:	0.000	Y_WP:	0.000	Y_WP:	0.000	X:	0.009	Y:	0.005	Z:	0.059	yaw:	-90.106	yaw rate:	0.410	Roll:	-0.168	Pitch:	0.256	Yaw:	-127.711	Thrust:	0.000
Time:	0.594	Roll Set Point:	-0.003	Pitch Set Point:	-0.014	Yaw Set Point:	1.573	X_WP:	0.000	Y_WP:	0.000	Y_WP:	0.000	X:	0.009	Y:	0.005	Z:	0.059	yaw:	-90.112	yaw rate:	-0.517	Roll:	-0.149	Pitch:	0.268	Yaw:	-128.142	Thrust:	0.000
Time:	0.604	Roll Set Point:	-0.003	Pitch Set Point:	-0.014	Yaw Set Point:	1.573	X_WP:	0.000	Y_WP:	0.000	Y_WP:	0.000	X:	0.009	Y:	0.005	Z:	0.059	yaw:	-90.104	yaw rate:	0.743	Roll:	-0.167	Pitch:	0.256	Yaw:	-127.629	Thrust:	0.000
Time:	0.614	Roll Set Point:	-0.003	Pitch Set Point:	-0.014	Yaw Set Point:	1.573	X_WP:	0.000	Y_WP:	0.000	Y_WP:	0.000	X:	0.009	Y:	0.005	Z:	0.059	yaw:	-90.107	yaw rate:	-0.290	Roll:	-0.164	Pitch:	0.256	Yaw:	-127.894	Thrust:	0.000
Time:	0.625	Roll Set Point:	-0.003	Pitch Set Point:	-0.014	Yaw Set Point:	1.573	X_WP:	0.000	Y_WP:	0.000	Y_WP:	0.000	X:	0.009	Y:	0.005	Z:	0.059	yaw:	-90.114	yaw rate:	-0.669	Roll:	-0.143	Pitch:	0.265	Yaw:	-128.174	Thrust:	0.000
Time:	0.636	Roll Set Point:	-0.003	Pitch Set Point:	-0.014	Yaw Set Point:	1.573	X_WP:	0.000	Y_WP:	0.000	Y_WP:	0.000	X:	0.009	Y:	0.005	Z:	0.059	yaw:	-90.103	yaw rate:	1.077	Roll:	-0.159	Pitch:	0.273	Yaw:	-127.757	Thrust:	0.000
Time:	0.646	Roll Set Point:	-0.003	Pitch Set Point:	-0.014	Yaw Set Point:	1.573	X_WP:	0.000	Y_WP:	0.000	Y_WP:	0.000	X:	0.009	Y:	0.005	Z:	0.059	yaw:	-90.106	yaw rate:	-0.305	Roll:	-0.169	Pitch:	0.274	Yaw:	-127.911	Thrust:	0.000
Time:	0.657	Roll Set Point:	-0.003	Pitch Set Point:	-0.014	Yaw Set Point:	1.573	X_WP:	0.000	Y_WP:	0.000	Y_WP:	0.000	X:	0.009	Y:	0.005	Z:	0.059	yaw:	-90.107	yaw rate:	-0.110	Roll:	-0.162	Pitch:	0.268	Yaw:	-128.045	Thrust:	0.000
Time:	0.669	Roll Set Point:	-0.003	Pitch Set Point:	-0.014	Yaw Set Point:	1.573	X_WP:	0.000	Y_WP:	0.000	Y_WP:	0.000	X:	0.009	Y:	0.005	Z:	0.059	yaw:	-90.110	yaw rate:	-0.242	Roll:	-0.146	Pitch:	0.249	Yaw:	-128.261	Thrust:	0.000
Time:	0.680	Roll Set Point:	-0.003	Pitch Set Point:	-0.014	Yaw Set Point:	1.573	X_WP:	0.000	Y_WP:	0.000	Y_WP:	0.000	X:	0.009	Y:	0.005	Z:	0.059	yaw:	-90.116	yaw rate:	-0.691	Roll:	-0.164	Pitch:	0.256	Yaw:	-128.213	Thrust:	0.000
Time:	0.691	Roll Set Point:	-0.003	Pitch Set Point:	-0.014	Yaw Set Point:	1.573	X_WP:	0.000	Y_WP:	0.000	Y_WP:	0.000	X:	0.009	Y:	0.005	Z:	0.059	yaw:	-90.120	yaw rate:	-0.363	Roll:	-0.180	Pitch:	0.274	Yaw:	-128.106	Thrust:	0.000
Time:	0.701	Roll Set Point:	-0.003	Pitch Set Point:	-0.014	Yaw Set Point:	1.573	X_WP:	0.000	Y_WP:	0.000	Y_WP:	0.000	X:	0.009	Y:	0.005	Z:	0.059	yaw:	-90.118	yaw rate:	0.226	Roll:	-0.148	Pitch:	0.271	Yaw:	-127.774	Thrust:	0.000
Time:	0.711	Roll Set Point:	-0.003	Pitch Set Point:	-0.014	Yaw Set Point:	1.573	X_WP:	0.000	Y_WP:	0.000	Y_WP:	0.000	X:	0.009	Y:	0.005	Z:	0.059	yaw:	-90.116	yaw rate:	0.226	Roll:	-0.153	Pitch:	0.270	Yaw:	-127.771	Thrust:	0.000
Time:	0.721	Roll Set Point:	-0.003	Pitch Set Point:	-0.014	Yaw Set Point:	1.573	X_WP:	0.000	Y_WP:	0.000	Y_WP:	0.000	X:	0.009	Y:	0.005	Z:	0.059	yaw:	-90.116	yaw rate:	0.226	Roll:	-0.160	Pitch:	0.266	Yaw:	-127.833	Thrust:	0.000
Time:	0.732	Roll Set Point:	-0.003	Pitch Set Point:	-0.014	Yaw Set Point:	1.573	X_WP:	0.000	Y_WP:	0.000	Y_WP:	0.000	X:	0.009	Y:	0.005	Z:	0.059	yaw:	-90.105	yaw rate:	1.057	Roll:	-0.176	Pitch:	0.274	Yaw:	-127.762	Thrust:	0.000
Time:	0.742	Roll Set Point:	-0.003	Pitch Set Point:	-0.014	Yaw Set Point:	1.573	X_WP:	0.000	Y_WP:	0.000	Y_WP:	0.000	X:	0.009	Y:	0.005	Z:	0.059	yaw:	-90.107	yaw rate:	-0.197	Roll:	-0.153	Pitch:	0.272	Yaw:	-127.887	Thrust:	0.000
Time:	0.754	Roll Set Point:	-0.003	Pitch Set Point:	-0.014	Yaw Set Point:	1.573	X_WP:	0.000	Y_WP:	0.000	Y_WP:	0.000	X:	0.009	Y:	0.005	Z:	0.059	yaw:	-90.111	yaw rate:	-0.414	Roll:	-0.166	Pitch:	0.257	Yaw:	-128.118	Thrust:	0.000
Time:	0.765	Roll Set Point:	-0.003	Pitch Set Point:	-0.014	Yaw Set Point:	1.573	X_WP:	0.000	Y_WP:	0.000	Y_WP:	0.000	X:	0.009	Y:	0.005	Z:	0.059	yaw:	-90.113	yaw rate:	-0.170	Roll:	-0.167	Pitch:	0.265	Yaw:	-128.260	Thrust:	0.000
Time:	0.777	Roll Set Point:	-0.003	Pitch Set Point:	-0.014	Yaw Set Point:	1.573	X_WP:	0.000	Y_WP:	0.000	Y_WP:	0.000	X:	0.009	Y:	0.005	Z:	0.059	yaw:	-90.106	yaw rate:	0.728	Roll:	-0.146	Pitch:	0.276	Yaw:	-127.835	Thrust:	0.000
Time:	0.787	Roll Set Point:	-0.003	Pitch Set Point:	-0.014	Yaw Set Point:	1.573	X_WP:	0.000	Y_WP:	0.000	Y_WP:	0.000	X:	0.009	Y:	0.005	Z:	0.059	yaw:	-90.106	yaw rate:	-0.020	Roll:	-0.165	Pitch:	0.279	Yaw:	-128.030	Thrust:	0.000
Time:	0.799	Roll Set Point:	-0.003	Pitch Set Point:	-0.014	Yaw Set Point:	1.573	X_WP:	0.000	Y_WP:	0.000	Y_WP:	0.000	X:	0.009	Y:	0.005	Z:	0.059	yaw:	-90.101	yaw rate:	0.486	Roll:	-0.177	Pitch:	0.263	Yaw:	-128.105	Thrust:	0.000
Time:	0.810	Roll Set Point:	-0.003	Pitch Set Point:	-0.014	Yaw Set Point:	1.573	X_WP:	0.000	Y_WP:	0.000	Y_WP:	0.000	X:	0.009	Y:	0.005	Z:	0.059	yaw:	-90.113	yaw rate:	-1.188	Roll:	-0.153	Pitch:	0.262	Yaw:	-128.137	Thrust:	0.000
Time:	0.820	Roll Set Point:	-0.003	Pitch Set Point:	-0.014	Yaw Set Point:	1.573	X_WP:	0.000	Y_WP:	0.000	Y_WP:	0.000	X:	0.009	Y:	0.005	Z:	0.059	yaw:	-90.106	yaw rate:	0.674	Roll:	-0.165	Pitch:	0.277	Yaw:	-127.857	Thrust:	0.000
Time:	0.832	Roll Set Point:	-0.003	Pitch Set Point:	-0.014	Yaw Set Point:	1.573	X_WP:	0.000	Y_WP:	0.000	Y_WP:	0.000	X:	0.009	Y:	0.005	Z:	0.059	yaw:	-90.110	yaw rate:	-0.423	Roll:	-0.166	Pitch:	0.281	Yaw:	-128.309	Thrust:	0.000
Time:	0.843	Roll Set Point:	-0.003	Pitch Set Point:	-0.014	Yaw Set Point:	1.573	X_WP:	0.000	Y_WP:	0.000	Y_WP:	0.000	X:	0.009	Y:	0.005	Z:	0.059	yaw:	-90.107	yaw rate:	-0.122	Roll:	-0.158	Pitch:	0.255	Yaw:	-127.950	Thrust:	0.000
Time:	0.855	Roll Set Point:	-0.003	Pitch Set Point:	-0.014	Yaw Set Point:	1.573	X_WP:	0.000	Y_WP:	0.000	Y_WP:	0.000	X:	0.009	Y:	0.005	Z:	0.059	yaw:	-90.107	yaw rate:	-0.122	Roll:	-0.163	Pitch:	0.270	Yaw:	-128.028	Thrust:	0.000
Time:	0.866	Roll Set Point:	-0.003	Pitch Set Point:	-0.014	Yaw Set Point:	1.573	X_WP:	0.000	Y_WP:	0.000	Y_WP:	0.000	X:	0.009	Y:	0.005	Z:	0.059	yaw:	-90.112	yaw rate:	-0.434	Roll:	-0.171	Pitch:	0.269	Yaw:	-128.128	Thrust:	0.000
Time:	0.876	Roll Set Point:	-0.003	Pitch Set Point:	-0.014	Yaw Set Point:	1.573	X_WP:	0.000	Y_WP:	0.000	Y_WP:	0.000	X:	0.009	Y:	0.005	Z:	0.059	yaw:	-90.109	yaw rate:	0.253	Roll:	-0.165	Pitch:	0.275	Yaw:	-127.969	Thrust:	0.000
Time:	0.887	Roll Set Point:	-0.003	Pitch Set Point:	-0.014	Yaw Set Point:	1.572	X_WP:	0.000	Y_WP:	0.000	Y_WP:	0.000	X:	0.009	Y:	0.005	Z:	0.059	yaw:	-90.097	yaw rate:	1.170	Roll:	-0.156	Pitch:	0.269	Yaw:	-127.727	Thrust:	0.000
Time:	0.898	Roll Set Point:	-0.003	Pitch Set Point:	-0.014	Yaw Set Point:	1.573	X_WP:	0.000	Y_WP:	0.000	Y_WP:	0.000	X:	0.009	Y:	0.005	Z:	0.059	yaw:	-90.113	yaw rate:	-1.523	Roll:	-0.168	Pitch:	0.288	Yaw:	-128.377	Thrust:	0.000
Time:	0.909	Roll Set Point:	-0.003	Pitch Set Point:	-0.014	Yaw Set Point:	1.573	X_WP:	0.000	Y_WP:	0.000	Y_WP:	0.000	X:	0.009	Y:	0.005	Z:	0.059	yaw:	-90.114	yaw rate:	-0.127	Roll:	-0.177	Pitch:	0.256	Yaw:	-128.059	Thrust:	0.000
Time:	0.919	Roll Set Point:	-0.003	Pitch Set Point:	-0.014	Yaw Set Point:	1.573	X_WP:	0.000	Y_WP:	0.000	Y_WP:	0.000	X:	0.009	Y:	0.005	Z:	0.059	yaw:	-90.114	yaw rate:	-0.014	Roll:	-0.151	Pitch:	0.276	Yaw:	-127.832	Thrust:	0.000
Time:	0.930	Roll Set Point:	-0.003	Pitch Set Point:	-0.014	Yaw Set Point:	1.573	X_WP:	0.000	Y_WP:	0.000	Y_WP:	0.000	X:	0.009	Y:	0.005	Z:	0.059	yaw:	-90.113	yaw rate:	0.101	Roll:	-0.170	Pitch:	0.249	Yaw:	-127.816	Thrust:	0.000
Time:	0.941	Roll Set Point:	-0.003	Pitch Set Point:	-0.014	Yaw Set Point:	1.573	X_WP:	0.000	Y_WP:	0.000	Y_WP:	0.000	X:	0.009	Y:	0.005	Z:	0.059	yaw:	-90.104	yaw rate:	0.915	Roll:	-0.172	Pitch:	0.290	Yaw:	-128.000	Thrust:	0.000
Time:	0.951	Roll Set Point:	-0.003	Pitch Set Point:	-0.014	Yaw Set Point:	1.573	X_WP:	0.000	Y_WP:	0.000	Y_WP:	0.000	X:	0.009	Y:	0.005	Z:	0.059	yaw:	-90.112	yaw rate:	-0.815	Roll:	-0.134	Pitch:	0.282	Yaw:	-128.038	Thrust:	0.000
Time:	0.961	Roll Set Point:	-0.003	Pitch Set Point:	-0.014	Yaw Set Point:	1.573	X_WP:	0.000	Y_WP:	0.000	Y_WP:	0.000	X:	0.009	Y:	0.005	Z:	0.059	yaw:	-90.110	yaw rate:	0.183	Roll:	-0.179	Pitch:	0.254	Yaw:	-127.776	Thrust:	0.000
Time:	0.974	Roll Set Point:	-0.003	Pitch Set Point:	-0.014	Yaw Set Point:	1.573	X_WP:	0.000	Y_WP:	0.000	Y_WP:	0.000	X:	0.009	Y:	0.005	Z:	0.059	yaw:	-90.111	yaw rate:	-0.083	Roll:	-0.179	Pitch:	0.270	Yaw:	-128.242	Thrust:	0.000
Time:	0.985	Roll Set Point:	-0.003	Pitch Set Point:	-0.014	Yaw Set Point:	1.573	X_WP:	0.000	Y_WP:	0.000	Y_WP:	0.000	X:	0.009	Y:	0.005	Z:	0.059	yaw:	-90.107	yaw rate:	0.394	Roll:	-0.158	Pitch:	0.253	Yaw:	-127.716	Thrust:	0.000
Time:	0.995	Roll Set Point:	-0.003	Pitch Set Point:	-0.014	Yaw Set Point:	1.573	X_WP:	0.000	Y_WP:	0.000	Y_WP:	0.000	X:	0.009	Y:	0.005	Z:	0.059	yaw:	-90.108	yaw rate:	-0.083	Roll:	-0.153	Pitch:	0.287	Yaw:	-128.054	Thrust:	0.000
Time:	1.008	Roll Set Point:	-0.003	Pitch Set Point:	-0.014	Yaw Set Point:	1.573	X_WP:	0.000	Y_WP:	0.000	Y_WP:	0.000	X:	0.009	Y:	0.005	Z:	0.059	yaw:	-90.111	yaw rate:	-0.323	Roll:	-0.177	Pitch:	0.281	Yaw:	-128.282	Thrust:	0.000
Time:	1.019	Roll Set Point:	-0.003	Pitch Set Point:	-0.014	Yaw Set Point:	1.573	X_WP:	0.000	Y_WP:	0.000	Y_WP:	0.000	X:	0.009	Y:	0.005	Z:	0.059	yaw:	-90.106	yaw rate:	0.518	Roll:	-0.165	Pitch:	0.283	Yaw:	-127.895	Thrust:	0.000
Time:	1.030	Roll Set Point:	-0.003	Pitch Set Point:	-0.014	Yaw Set Point:	1.573	X_WP:	0.000	Y_WP:	0.000	Y_WP:	0.000	X:	0.009	Y:	0.005	Z:	0.059	yaw:	-90.109	yaw rate:	-0.260	Roll:	-0.174	Pitch:	0.263	Yaw:	-128.279	Thrust:	0.000
Time:	1.042	Roll Set Point:	-0.003	Pitch Set Point:	-0.014	Yaw Set Point:	1.573	X_WP:	0.000	Y_WP:	0.000	Y_WP:	0.000	X:	0.009	Y:	0.005	Z:	0.059	yaw:	-90.122	yaw rate:	-1.330	Roll:	-0.160	Pitch:	0.265	Yaw:	-128.528	Thrust:	0.000
Time:	1.054	Roll Set Point:	-0.003	Pitch Set Point:	-0.014	Yaw Set Point:	1.573	X_WP:	0.000	Y_WP:	0.000	Y_WP:	0.000	X:	0.009	Y:	0.005	Z:	0.059	yaw:	-90.108	yaw rate:	1.369	Roll:	-0.151	Pitch:	0.281	Yaw:	-127.924	Thrust:	0.000
Time:	1.065	Roll Set Point:	-0.003	Pitch Set Point:	-0.014	Yaw Set Point:	1.572	X_WP:	0.000	Y_WP:	0.000	Y_WP:	0.000	X:	0.009	Y:	0.005	Z:	0.059	yaw:	-90.092	yaw rate:	1.586	Roll:	-0.168	Pitch:	0.290	Yaw:	-127.622	Thrust:	0.000
Time:	1.076	Roll Set Point:	-0.003	Pitch Set Point:	-0.014	Yaw Set Point:	1.573	X_WP:	0.000	Y_WP:	0.000	Y_WP:	0.000	X:	0.009	Y:	0.005	Z:	0.059	yaw:	-90.108	yaw rate:	-1.541	Roll:	-0.198	Pitch:	0.273	Yaw:	-128.386	Thrust:	0.000
Time:	1.087	Roll Set Point:	-0.003	Pitch Set Point:	-0.014	Yaw Set Point:	1.573	X_WP:	0.000	Y_WP:	0.000	Y_WP:	0.000	X:	0.009	Y:	0.005	Z:	0.059	yaw:	-90.106	yaw rate:	0.226	Roll:	-0.150	Pitch:	0.261	Yaw:	-127.963	Thrust:	0.000
Time:	1.097	Roll Set Point:	-0.003	Pitch Set Point:	-0.014	Yaw Set Point:	1.573	X_WP:	0.000	Y_WP:	0.000	Y_WP:	0.000	X:	0.009	Y:	0.005	Z:	0.059	yaw:	-90.111	yaw rate:	-0.568	Roll:	-0.151	Pitch:	0.284	Yaw:	-127.980	Thrust:	0.000
Time:	1.109	Roll Set Point:	-0.003	Pitch Set Point:	-0.014	Yaw Set Point:	1.573	X_WP:	0.000	Y_WP:	0.000	Y_WP:	0.000	X:	0.009	Y:	0.005	Z:	0.059	yaw:	-90.119	yaw rate:	-0.752	Roll:	-0.183	Pitch:	0.265	Yaw:	-128.214	Thrust:	0.000
Time:	1.120	Roll Set Point:	-0.003	Pitch Set Point:	-0.014	Yaw Set Point:	1.573	X_WP:	0.000	Y_WP:	0.000	Y_WP:	0.000	X:	0.009	Y:	0.005	Z:	0.059	yaw:	-90.103	yaw rate:	1.580	Roll:	-0.163	Pitch:	0.282	Yaw:	-127.630	Thrust:	0.000
Time:	1.130	Roll Set Point:	-0.003	Pitch Set Point:	-0.014	Yaw Set Point:	1.573	X_WP:	0.000	Y_WP:	0.000	Y_WP:	0.000	X:	0.009	Y:	0.005	Z:	0.059	yaw:	-90.104	yaw rate:	-0.108	Roll:	-0.173	Pitch:	0.292	Yaw:	-128.047	Thrust:	0.000
Time:	1.142	Roll Set Point:	-0.003	Pitch Set Point:	-0.014	Yaw Set Point:	1.573	X_WP:	0.000	Y_WP:	0.000	Y_WP:	0.000	X:	0.009	Y:	0.005	Z:	0.059	yaw:	-90.106	yaw rate:	-0.232	Roll:	-0.168	Pitch:	0.254	Yaw:	-128.065	Thrust:	0.000
Time:	1.152	Roll Set Point:	-0.003	Pitch Set Point:	-0.014	Yaw Set Point:	1.573	X_WP:	0.000	Y_WP:	0.000	Y_WP:	0.000	X:	0.009	Y:	0.005	Z:	0.059	yaw:	-90.115	yaw rate:	-0.875	Roll:	-0.151	Pitch:	0.283	Yaw:	-128.238	Thrust:	0.000
Time:	1.163	Roll Set Point:	-0.003	Pitch Set Point:	-0.014	Yaw Set Point:	1.573	X_WP:	0.000	Y_WP:	0.000	Y_WP:	0.000	X:	0.009	Y:	0.005	Z:	0.059	yaw:	-90.112	yaw rate:	0.355	Roll:	-0.162	Pitch:	0.288	Yaw:	-127.949	Thrust:	0.000
Time:	1.175	Roll Set Point:	-0.003	Pitch Set Point:	-0.014	Yaw Set Point:	1.573	X_WP:	0.000	Y_WP:	0.000	Y_WP:	0.000	X:	0.009	Y:	0.005	Z:	0.059	yaw:	-90.103	yaw rate:	0.807	Roll:	-0.185	Pitch:	0.273	Yaw:	-128.031	Thrust:	0.000
Time:	1.187	Roll Set Point:	-0.003	Pitch Set Point:	-0.014	Yaw Set Point:	1.573	X_WP:	0.000	Y_WP:	0.000	Y_WP:	0.000	X:	0.009	Y:	0.005	Z:	0.059	yaw:	-90.117	yaw rate:	-1.381	Roll:	-0.165	Pitch:	0.260	Yaw:	-128.543	Thrust:	0.000
Time:	1.198	Roll Set Point:	-0.003	Pitch Set Point:	-0.014	Yaw Set Point:	1.573	X_WP:	0.000	Y_WP:	0.000	Y_WP:	0.000	X:	0.009	Y:	0.005	Z:	0.059	yaw:	-90.110	yaw rate:	0.719	Roll:	-0.162	Pitch:	0.295	Yaw:	-127.851	Thrust:	0.000
Time:	1.209	Roll Set Point:	-0.003	Pitch Set Point:	-0.014	Yaw Set Point:	1.573	X_WP:	0.000	Y_WP:	0.000	Y_WP:	0.000	X:	0.009	Y:	0.005	Z:	0.059	yaw:	-90.109	yaw rate:	0.066	Roll:	-0.174	Pitch:	0.278	Yaw:	-128.011	Thrust:	0.000
Time:	1.221	Roll Set Point:	-0.003	Pitch Set Point:	-0.014	Yaw Set Point:	1.573	X_WP:	0.000	Y_WP:	0.000	Y_WP:	0.000	X:	0.009	Y:	0.005	Z:	0.059	yaw:	-90.109	yaw rate:	0.016	Roll:	-0.171	Pitch:	0.281	Yaw:	-128.206	Thrust:	0.000
Time:	1.231	Roll Set Point:	-0.003	Pitch Set Point:	-0.014	Yaw Set Point:	1.573	X_WP:	0.000	Y_WP:	0.000	Y_WP:	0.000	X:	0.009	Y:	0.005	Z:	0.059	yaw:	-90.102	yaw rate:	0.725	Roll:	-0.158	Pitch:	0.296	Yaw:	-127.630	Thrust:	0.000
Time:	1.242	Roll Set Point:	-0.003	Pitch Set Point:	-0.014	Yaw Set Point:	1.573	X_WP:	0.000	Y_WP:	0.000	Y_WP:	0.000	X:	0.009	Y:	0.005	Z:	0.059	yaw:	-90.106	yaw rate:	-0.416	Roll:	-0.179	Pitch:	0.256	Yaw:	-128.121	Thrust:	0.000
Time:	1.255	Roll Set Point:	-0.003	Pitch Set Point:	-0.014	Yaw Set Point:	1.573	X_WP:	0.000	Y_WP:	0.000	Y_WP:	0.000	X:	0.009	Y:	0.005	Z:	0.059	yaw:	-90.112	yaw rate:	-0.376	Roll:	-0.167	Pitch:	0.282	Yaw:	-128.352	Thrust:	0.000
Time:	1.266	Roll Set Point:	-0.003	Pitch Set Point:	-0.014	Yaw Set Point:	1.573	X_WP:	0.000	Y_WP:	0.000	Y_WP:	0.000	X:	0.009	Y:	0.005	Z:	0.059	yaw:	-90.112	yaw rate:	-0.376	Roll:	-0.169	Pitch:	0.279	Yaw:	-128.027	Thrust:	0.000
Time:	1.276	Roll Set Point:	-0.003	Pitch Set Point:	-0.014	Yaw Set Point:	1.573	X_WP:	0.000	Y_WP:	0.000	Y_WP:	0.000	X:	0.009	Y:	0.005	Z:	0.059	yaw:	-90.103	yaw rate:	0.916	Roll:	-0.160	Pitch:	0.286	Yaw:	-127.809	Thrust:	0.000
Time:	1.289	Roll Set Point:	-0.003	Pitch Set Point:	-0.014	Yaw Set Point:	1.573	X_WP:	0.000	Y_WP:	0.000	Y_WP:	0.000	X:	0.009	Y:	0.005	Z:	0.059	yaw:	-90.110	yaw rate:	0.779	Roll:	-0.178	Pitch:	0.275	Yaw:	-128.349	Thrust:	0.000
Time:	1.300	Roll Set Point:	-0.003	Pitch Set Point:	-0.014	Yaw Set Point:	1.573	X_WP:	0.000	Y_WP:	0.000	Y_WP:	0.000	X:	0.009	Y:	0.005	Z:	0.059	yaw:	-90.110	yaw rate:	0.779	Roll:	-0.169	Pitch:	0.280	Yaw:	-128.036	Thrust:	0.000
Time:	1.312	Roll Set Point:	-0.003	Pitch Set Point:	-0.014	Yaw Set Point:	1.573	X_WP:	0.000	Y_WP:	0.000	Y_WP:	0.000	X:	0.009	Y:	0.005	Z:	0.059	yaw:	-90.105	yaw rate:	0.448	Roll:	-0.175	Pitch:	0.278	Yaw:	-128.120	Thrust:	0.000
Time:	1.323	Roll Set Point:	-0.003	Pitch Set Point:	-0.014	Yaw Set Point:	1.573	X_WP:	0.000	Y_WP:	0.000	Y_WP:	0.000	X:	0.009	Y:	0.005	Z:	0.059	yaw:	-90.105	yaw rate:	0.448	Roll:	-0.169	Pitch:	0.280	Yaw:	-128.016	Thrust:	0.000
Time:	1.335	Roll Set Point:	-0.003	Pitch Set Point:	-0.014	Yaw Set Point:	1.573	X_WP:	0.000	Y_WP:	0.000	Y_WP:	0.000	X:	0.009	Y:	0.005	Z:	0.059	yaw:	-90.109	yaw rate:	-0.350	Roll:	-0.162	Pitch:	0.293	Yaw:	-128.286	Thrust:	0.000
Time:	1.346	Roll Set Point:	-0.003	Pitch Set Point:	-0.014	Yaw Set Point:	1.573	X_WP:	0.000	Y_WP:	0.000	Y_WP:	0.000	X:	0.009	Y:	0.005	Z:	0.059	yaw:	-90.107	yaw rate:	0.199	Roll:	-0.168	Pitch:	0.283	Yaw:	-127.985	Thrust:	0.000
Time:	1.359	Roll Set Point:	-0.003	Pitch Set Point:	-0.014	Yaw Set Point:	1.573	X_WP:	0.000	Y_WP:	0.000	Y_WP:	0.000	X:	0.009	Y:	0.005	Z:	0.059	yaw:	-90.105	yaw rate:	1.250	Roll:	-0.171	Pitch:	0.274	Yaw:	-128.177	Thrust:	0.000
Time:	1.370	Roll Set Point:	-0.003	Pitch Set Point:	-0.014	Yaw Set Point:	1.573	X_WP:	0.000	Y_WP:	0.000	Y_WP:	0.000	X:	0.009	Y:	0.005	Z:	0.059	yaw:	-90.110	yaw rate:	-0.411	Roll:	-0.163	Pitch:	0.299	Yaw:	-128.320	Thrust:	0.000
Time:	1.380	Roll Set Point:	-0.003	Pitch Set Point:	-0.014	Yaw Set Point:	1.573	X_WP:	0.000	Y_WP:	0.000	Y_WP:	0.000	X:	0.009	Y:	0.005	Z:	0.059	yaw:	-90.107	yaw rate:	0.210	Roll:	-0.181	Pitch:	0.268	Yaw:	-127.771	Thrust:	0.000
Time:	1.391	Roll Set Point:	-0.003	Pitch Set Point:	-0.014	Yaw Set Point:	1.573	X_WP:	0.000	Y_WP:	0.000	Y_WP:	0.000	X:	0.009	Y:	0.005	Z:	0.059	yaw:	-90.105	yaw rate:	0.221	Roll:	-0.160	Pitch:	0.288	Yaw:	-127.953	Thrust:	0.000
Time:	1.401	Roll Set Point:	-0.003	Pitch Set Point:	-0.014	Yaw Set Point:	1.573	X_WP:	0.000	Y_WP:	0.000	Y_WP:	0.000	X:	0.009	Y:	0.005	Z:	0.059	yaw:	-90.105	yaw rate:	0.221	Roll:	-0.169	Pitch:	0.279	Yaw:	-127.812	Thrust:	0.000
Time:	1.412	Roll Set Point:	-0.003	Pitch Set Point:	-0.014	Yaw Set Point:	1.573	X_WP:	0.000	Y_WP:	0.000	Y_WP:	0.000	X:	0.009	Y:	0.005	Z:	0.059	yaw:	-90.114	yaw rate:	-0.839	Roll:	-0.164	Pitch:	0.281	Yaw:	-128.227	Thrust:	0.000
Time:	1.423	Roll Set Point:	-0.003	Pitch Set Point:	-0.014	Yaw Set Point:	1.573	X_WP:	0.000	Y_WP:	0.000	Y_WP:	0.000	X:	0.009	Y:	0.005	Z:	0.059	yaw:	-90.108	yaw rate:	0.565	Roll:	-0.183	Pitch:	0.280	Yaw:	-127.894	Thrust:	0.000
Time:	1.435	Roll Set Point:	-0.003	Pitch Set Point:	-0.014	Yaw Set Point:	1.573	X_WP:	0.000	Y_WP:	0.000	Y_WP:	0.000	X:	0.009	Y:	0.005	Z:	0.059	yaw:	-90.112	yaw rate:	-0.422	Roll:	-0.177	Pitch:	0.276	Yaw:	-128.131	Thrust:	0.000
Time:	1.446	Roll Set Point:	-0.003	Pitch Set Point:	-0.014	Yaw Set Point:	1.573	X_WP:	0.000	Y_WP:	0.000	Y_WP:	0.000	X:	0.009	Y:	0.005	Z:	0.059	yaw:	-90.116	yaw rate:	-0.361	Roll:	-0.165	Pitch:	0.282	Yaw:	-128.299	Thrust:	0.000
Time:	1.456	Roll Set Point:	-0.003	Pitch Set Point:	-0.014	Yaw Set Point:	1.573	X_WP:	0.000	Y_WP:	0.000	Y_WP:	0.000	X:	0.009	Y:	0.005	Z:	0.059	yaw:	-90.113	yaw rate:	0.272	Roll:	-0.167	Pitch:	0.283	Yaw:	-127.768	Thrust:	0.000
Time:	1.468	Roll Set Point:	-0.003	Pitch Set Point:	-0.014	Yaw Set Point:	1.573	X_WP:	0.000	Y_WP:	0.000	Y_WP:	0.000	X:	0.009	Y:	0.005	Z:	0.059	yaw:	-90.106	yaw rate:	0.723	Roll:	-0.193	Pitch:	0.294	Yaw:	-128.048	Thrust:	0.000
Time:	1.478	Roll Set Point:	-0.003	Pitch Set Point:	-0.014	Yaw Set Point:	1.573	X_WP:	0.000	Y_WP:	0.000	Y_WP:	0.000	X:	0.009	Y:	0.005	Z:	0.059	yaw:	-90.102	yaw rate:	0.335	Roll:	-0.154	Pitch:	0.291	Yaw:	-127.723	Thrust:	0.000
Time:	1.491	Roll Set Point:	-0.003	Pitch Set Point:	-0.014	Yaw Set Point:	1.572	X_WP:	0.000	Y_WP:	0.000	Y_WP:	0.000	X:	0.009	Y:	0.005	Z:	0.059	yaw:	-90.097	yaw rate:	0.526	Roll:	-0.170	Pitch:	0.289	Yaw:	-128.092	Thrust:	0.000
Time:	1.502	Roll Set Point:	-0.003	Pitch Set Point:	-0.014	Yaw Set Point:	1.573	X_WP:	0.000	Y_WP:	0.000	Y_WP:	0.000	X:	0.009	Y:	0.005	Z:	0.059	yaw:	-90.110	yaw rate:	-1.239	Roll:	-0.178	Pitch:	0.280	Yaw:	-128.316	Thrust:	0.000
Time:	1.512	Roll Set Point:	-0.003	Pitch Set Point:	-0.014	Yaw Set Point:	1.573	X_WP:	0.000	Y_WP:	0.000	Y_WP:	0.000	X:	0.009	Y:	0.005	Z:	0.059	yaw:	-90.104	yaw rate:	0.563	Roll:	-0.174	Pitch:	0.283	Yaw:	-127.882	Thrust:	0.000
Time:	1.524	Roll Set Point:	-0.003	Pitch Set Point:	-0.014	Yaw Set Point:	1.573	X_WP:	0.000	Y_WP:	0.000	Y_WP:	0.000	X:	0.009	Y:	0.005	Z:	0.059	yaw:	-90.112	yaw rate:	-0.876	Roll:	-0.173	Pitch:	0.286	Yaw:	-128.399	Thrust:	0.000
Time:	1.535	Roll Set Point:	-0.003	Pitch Set Point:	-0.014	Yaw Set Point:	1.573	X_WP:	0.000	Y_WP:	0.000	Y_WP:	0.000	X:	0.009	Y:	0.005	Z:	0.059	yaw:	-90.109	yaw rate:	0.296	Roll:	-0.161	Pitch:	0.265	Yaw:	-127.743	Thrust:	0.000
Time:	1.547	Roll Set Point:	-0.003	Pitch Set Point:	-0.014	Yaw Set Point:	1.573	X_WP:	0.000	Y_WP:	0.000	Y_WP:	0.000	X:	0.009	Y:	0.005	Z:	0.059	yaw:	-90.109	yaw rate:	0.296	Roll:	-0.176	Pitch:	0.291	Yaw:	-128.423	Thrust:	0.000
Time:	1.559	Roll Set Point:	-0.003	Pitch Set Point:	-0.014	Yaw Set Point:	1.573	X_WP:	0.000	Y_WP:	0.000	Y_WP:	0.000	X:	0.009	Y:	0.005	Z:	0.059	yaw:	-90.107	yaw rate:	0.199	Roll:	-0.176	Pitch:	0.303	Yaw:	-128.177	Thrust:	0.000
Time:	1.570	Roll Set Point:	-0.003	Pitch Set Point:	-0.014	Yaw Set Point:	1.573	X_WP:	0.000	Y_WP:	0.000	Y_WP:	0.000	X:	0.009	Y:	0.005	Z:	0.059	yaw:	-90.112	yaw rate:	-0.492	Roll:	-0.179	Pitch:	0.282	Yaw:	-127.967	Thrust:	0.000
Time:	1.580	Roll Set Point:	-0.003	Pitch Set Point:	-0.014	Yaw Set Point:	1.573	X_WP:	0.000	Y_WP:	0.000	Y_WP:	0.000	X:	0.009	Y:	0.005	Z:	0.059	yaw:	-90.116	yaw rate:	-0.414	Roll:	-0.154	Pitch:	0.281	Yaw:	-128.130	Thrust:	0.000
Time:	1.592	Roll Set Point:	-0.003	Pitch Set Point:	-0.014	Yaw Set Point:	1.573	X_WP:	0.000	Y_WP:	0.000	Y_WP:	0.000	X:	0.009	Y:	0.005	Z:	0.059	yaw:	-90.110	yaw rate:	0.633	Roll:	-0.191	Pitch:	0.298	Yaw:	-128.078	Thrust:	0.000
Time:	1.604	Roll Set Point:	-0.003	Pitch Set Point:	-0.014	Yaw Set Point:	1.573	X_WP:	0.000	Y_WP:	0.000	Y_WP:	0.000	X:	0.009	Y:	0.005	Z:	0.059	yaw:	-90.107	yaw rate:	0.725	Roll:	-0.168	Pitch:	0.284	Yaw:	-128.161	Thrust:	0.000
Time:	1.615	Roll Set Point:	-0.003	Pitch Set Point:	-0.014	Yaw Set Point:	1.573	X_WP:	0.000	Y_WP:	0.000	Y_WP:	0.000	X:	0.009	Y:	0.005	Z:	0.059	yaw:	-90.107	yaw rate:	0.725	Roll:	-0.173	Pitch:	0.287	Yaw:	-128.019	Thrust:	0.000
Time:	1.628	Roll Set Point:	-0.003	Pitch Set Point:	-0.014	Yaw Set Point:	1.573	X_WP:	0.000	Y_WP:	0.000	Y_WP:	0.000	X:	0.009	Y:	0.005	Z:	0.059	yaw:	-90.107	yaw rate:	0.214	Roll:	-0.195	Pitch:	0.283	Yaw:	-128.200	Thrust:	0.000
Time:	1.639	Roll Set Point:	-0.003	Pitch Set Point:	-0.014	Yaw Set Point:	1.573	X_WP:	0.000	Y_WP:	0.000	Y_WP:	0.000	X:	0.009	Y:	0.005	Z:	0.059	yaw:	-90.111	yaw rate:	-0.400	Roll:	-0.150	Pitch:	0.289	Yaw:	-128.119	Thrust:	0.000
Time:	1.650	Roll Set Point:	-0.003	Pitch Set Point:	-0.014	Yaw Set Point:	1.573	X_WP:	0.000	Y_WP:	0.000	Y_WP:	0.000	X:	0.009	Y:	0.005	Z:	0.059	yaw:	-90.114	yaw rate:	-0.396	Roll:	-0.181	Pitch:	0.296	Yaw:	-128.316	Thrust:	0.000
Time:	1.661	Roll Set Point:	-0.003	Pitch Set Point:	-0.014	Yaw Set Point:	1.573	X_WP:	0.000	Y_WP:	0.000	Y_WP:	0.000	X:	0.009	Y:	0.005	Z:	0.059	yaw:	-90.120	yaw rate:	-0.507	Roll:	-0.191	Pitch:	0.278	Yaw:	-128.156	Thrust:	0.000
Time:	1.671	Roll Set Point:	-0.003	Pitch Set Point:	-0.014	Yaw Set Point:	1.573	X_WP:	0.000	Y_WP:	0.000	Y_WP:	0.000	X:	0.009	Y:	0.005	Z:	0.059	yaw:	-90.111	yaw rate:	0.839	Roll:	-0.168	Pitch:	0.293	Yaw:	-127.606	Thrust:	0.000
Time:	1.682	Roll Set Point:	-0.003	Pitch Set Point:	-0.014	Yaw Set Point:	1.573	X_WP:	0.000	Y_WP:	0.000	Y_WP:	0.000	X:	0.009	Y:	0.005	Z:	0.059	yaw:	-90.110	yaw rate:	0.105	Roll:	-0.170	Pitch:	0.274	Yaw:	-127.998	Thrust:	0.000
Time:	1.693	Roll Set Point:	-0.003	Pitch Set Point:	-0.014	Yaw Set Point:	1.573	X_WP:	0.000	Y_WP:	0.000	Y_WP:	0.000	X:	0.009	Y:	0.005	Z:	0.059	yaw:	-90.101	yaw rate:	0.881	Roll:	-0.174	Pitch:	0.294	Yaw:	-127.601	Thrust:	0.000
Time:	1.703	Roll Set Point:	-0.003	Pitch Set Point:	-0.014	Yaw Set Point:	1.573	X_WP:	0.000	Y_WP:	0.000	Y_WP:	0.000	X:	0.009	Y:	0.005	Z:	0.059	yaw:	-90.105	yaw rate:	-0.388	Roll:	-0.172	Pitch:	0.303	Yaw:	-128.091	Thrust:	0.000
Time:	1.715	Roll Set Point:	-0.003	Pitch Set Point:	-0.014	Yaw Set Point:	1.573	X_WP:	0.000	Y_WP:	0.000	Y_WP:	0.000	X:	0.009	Y:	0.005	Z:	0.059	yaw:	-90.107	yaw rate:	-0.212	Roll:	-0.170	Pitch:	0.267	Yaw:	-127.891	Thrust:	0.000
Time:	1.725	Roll Set Point:	-0.003	Pitch Set Point:	-0.014	Yaw Set Point:	1.573	X_WP:	0.000	Y_WP:	0.000	Y_WP:	0.000	X:	0.009	Y:	0.005	Z:	0.059	yaw:	-90.107	yaw rate:	-0.212	Roll:	-0.175	Pitch:	0.289	Yaw:	-128.019	Thrust:	0.000
Time:	1.736	Roll Set Point:	-0.003	Pitch Set Point:	-0.014	Yaw Set Point:	1.573	X_WP:	0.000	Y_WP:	0.000	Y_WP:	0.000	X:	0.009	Y:	0.005	Z:	0.059	yaw:	-90.114	yaw rate:	0.172	Roll:	-0.186	Pitch:	0.311	Yaw:	-128.161	Thrust:	0.000
Time:	1.748	Roll Set Point:	-0.003	Pitch Set Point:	-0.014	Yaw Set Point:	1.573	X_WP:	0.000	Y_WP:	0.000	Y_WP:	0.000	X:	0.009	Y:	0.005	Z:	0.059	yaw:	-90.114	yaw rate:	0.172	Roll:	-0.175	Pitch:	0.290	Yaw:	-128.045	Thrust:	0.000
Time:	1.758	Roll Set Point:	-0.003	Pitch Set Point:	-0.014	Yaw Set Point:	1.573	X_WP:	0.000	Y_WP:	0.000	Y_WP:	0.000	X:	0.009	Y:	0.005	Z:	0.059	yaw:	-90.111	yaw rate:	0.219	Roll:	-0.162	Pitch:	0.269	Yaw:	-127.974	Thrust:	0.000
Time:	1.770	Roll Set Point:	-0.003	Pitch Set Point:	-0.014	Yaw Set Point:	1.573	X_WP:	0.000	Y_WP:	0.000	Y_WP:	0.000	X:	0.009	Y:	0.005	Z:	0.059	yaw:	-90.111	yaw rate:	-0.012	Roll:	-0.173	Pitch:	0.291	Yaw:	-127.993	Thrust:	0.000
Time:	1.780	Roll Set Point:	-0.003	Pitch Set Point:	-0.014	Yaw Set Point:	1.573	X_WP:	0.000	Y_WP:	0.000	Y_WP:	0.000	X:	0.009	Y:	0.005	Z:	0.059	yaw:	-90.111	yaw rate:	0.028	Roll:	-0.190	Pitch:	0.296	Yaw:	-128.035	Thrust:	0.000
Time:	1.791	Roll Set Point:	-0.003	Pitch Set Point:	-0.014	Yaw Set Point:	1.573	X_WP:	0.000	Y_WP:	0.000	Y_WP:	0.000	X:	0.009	Y:	0.005	Z:	0.059	yaw:	-90.114	yaw rate:	-0.343	Roll:	-0.155	Pitch:	0.287	Yaw:	-128.094	Thrust:	0.000
Time:	1.802	Roll Set Point:	-0.003	Pitch Set Point:	-0.014	Yaw Set Point:	1.573	X_WP:	0.000	Y_WP:	0.000	Y_WP:	0.000	X:	0.009	Y:	0.005	Z:	0.059	yaw:	-90.106	yaw rate:	0.777	Roll:	-0.191	Pitch:	0.314	Yaw:	-127.845	Thrust:	0.000
Time:	1.814	Roll Set Point:	-0.003	Pitch Set Point:	-0.014	Yaw Set Point:	1.573	X_WP:	0.000	Y_WP:	0.000	Y_WP:	0.000	X:	0.009	Y:	0.005	Z:	0.059	yaw:	-90.117	yaw rate:	-1.041	Roll:	-0.151	Pitch:	0.259	Yaw:	-128.454	Thrust:	0.000
Time:	1.825	Roll Set Point:	-0.003	Pitch Set Point:	-0.014	Yaw Set Point:	1.573	X_WP:	0.000	Y_WP:	0.000	Y_WP:	0.000	X:	0.009	Y:	0.005	Z:	0.059	yaw:	-90.115	yaw rate:	0.150	Roll:	-0.193	Pitch:	0.307	Yaw:	-127.800	Thrust:	0.000
Time:	1.836	Roll Set Point:	-0.003	Pitch Set Point:	-0.014	Yaw Set Point:	1.573	X_WP:	0.000	Y_WP:	0.000	Y_WP:	0.000	X:	0.009	Y:	0.005	Z:	0.059	yaw:	-90.105	yaw rate:	0.983	Roll:	-0.184	Pitch:	0.297	Yaw:	-127.993	Thrust:	0.000
Time:	1.846	Roll Set Point:	-0.003	Pitch Set Point:	-0.014	Yaw Set Point:	1.573	X_WP:	0.000	Y_WP:	0.000	Y_WP:	0.000	X:	0.009	Y:	0.005	Z:	0.059	yaw:	-90.109	yaw rate:	-0.378	Roll:	-0.165	Pitch:	0.267	Yaw:	-127.929	Thrust:	0.000
Time:	1.858	Roll Set Point:	-0.003	Pitch Set Point:	-0.014	Yaw Set Point:	1.573	X_WP:	0.000	Y_WP:	0.000	Y_WP:	0.000	X:	0.009	Y:	0.005	Z:	0.059	yaw:	-90.106	yaw rate:	0.283	Roll:	-0.167	Pitch:	0.323	Yaw:	-128.148	Thrust:	0.000
Time:	1.869	Roll Set Point:	-0.003	Pitch Set Point:	-0.014	Yaw Set Point:	1.573	X_WP:	0.000	Y_WP:	0.000	Y_WP:	0.000	X:	0.009	Y:	0.005	Z:	0.059	yaw:	-90.113	yaw rate:	-0.638	Roll:	-0.182	Pitch:	0.289	Yaw:	-128.173	Thrust:	0.000
Time:	1.879	Roll Set Point:	-0.003	Pitch Set Point:	-0.014	Yaw Set Point:	1.573	X_WP:	0.000	Y_WP:	0.000	Y_WP:	0.000	X:	0.009	Y:	0.005	Z:	0.059	yaw:	-90.102	yaw rate:	1.049	Roll:	-0.184	Pitch:	0.275	Yaw:	-127.538	Thrust:	0.000
Time:	1.892	Roll Set Point:	-0.003	Pitch Set Point:	-0.014	Yaw Set Point:	1.573	X_WP:	0.000	Y_WP:	0.000	Y_WP:	0.000	X:	0.009	Y:	0.005	Z:	0.059	yaw:	-90.115	yaw rate:	-1.243	Roll:	-0.170	Pitch:	0.280	Yaw:	-128.500	Thrust:	0.000
Time:	1.903	Roll Set Point:	-0.003	Pitch Set Point:	-0.014	Yaw Set Point:	1.573	X_WP:	0.000	Y_WP:	0.000	Y_WP:	0.000	X:	0.009	Y:	0.005	Z:	0.059	yaw:	-90.116	yaw rate:	-0.172	Roll:	-0.181	Pitch:	0.300	Yaw:	-128.073	Thrust:	0.000
Time:	1.914	Roll Set Point:	-0.003	Pitch Set Point:	-0.014	Yaw Set Point:	1.573	X_WP:	0.000	Y_WP:	0.000	Y_WP:	0.000	X:	0.009	Y:	0.005	Z:	0.059	yaw:	-90.104	yaw rate:	1.228	Roll:	-0.177	Pitch:	0.305	Yaw:	-127.947	Thrust:	0.000
Time:	1.926	Roll Set Point:	-0.003	Pitch Set Point:	-0.014	Yaw Set Point:	1.573	X_WP:	0.000	Y_WP:	0.000	Y_WP:	0.000	X:	0.009	Y:	0.005	Z:	0.059	yaw:	-90.103	yaw rate:	0.107	Roll:	-0.179	Pitch:	0.304	Yaw:	-128.190	Thrust:	0.000
Time:	1.937	Roll Set Point:	-0.003	Pitch Set Point:	-0.014	Yaw Set Point:	1.573	X_WP:	0.000	Y_WP:	0.000	Y_WP:	0.000	X:	0.009	Y:	0.005	Z:	0.059	yaw:	-90.117	yaw rate:	-1.441	Roll:	-0.170	Pitch:	0.281	Yaw:	-128.381	Thrust:	0.000
Time:	1.948	Roll Set Point:	-0.003	Pitch Set Point:	-0.014	Yaw Set Point:	1.573	X_WP:	0.000	Y_WP:	0.000	Y_WP:	0.000	X:	0.009	Y:	0.005	Z:	0.059	yaw:	-90.106	yaw rate:	1.124	Roll:	-0.190	Pitch:	0.295	Yaw:	-127.751	Thrust:	0.000
Time:	1.958	Roll Set Point:	-0.003	Pitch Set Point:	-0.014	Yaw Set Point:	1.573	X_WP:	0.000	Y_WP:	0.000	Y_WP:	0.000	X:	0.009	Y:	0.005	Z:	0.059	yaw:	-90.098	yaw rate:	0.827	Roll:	-0.178	Pitch:	0.293	Yaw:	-127.589	Thrust:	0.000
Time:	1.969	Roll Set Point:	-0.003	Pitch Set Point:	-0.014	Yaw Set Point:	1.573	X_WP:	0.000	Y_WP:	0.000	Y_WP:	0.000	X:	0.009	Y:	0.005	Z:	0.059	yaw:	-90.110	yaw rate:	-1.209	Roll:	-0.177	Pitch:	0.283	Yaw:	-128.310	Thrust:	0.000
Time:	1.980	Roll Set Point:	-0.003	Pitch Set Point:	-0.014	Yaw Set Point:	1.573	X_WP:	0.000	Y_WP:	0.000	Y_WP:	0.000	X:	0.009	Y:	0.005	Z:	0.059	yaw:	-90.107	yaw rate:	0.313	Roll:	-0.186	Pitch:	0.300	Yaw:	-127.939	Thrust:	0.000
Time:	1.990	Roll Set Point:	-0.003	Pitch Set Point:	-0.014	Yaw Set Point:	1.573	X_WP:	0.000	Y_WP:	0.000	Y_WP:	0.000	X:	0.009	Y:	0.005	Z:	0.059	yaw:	-90.105	yaw rate:	0.189	Roll:	-0.180	Pitch:	0.307	Yaw:	-127.772	Thrust:	0.000
Time:	2.002	Roll Set Point:	-0.003	Pitch Set Point:	-0.014	Yaw Set Point:	1.573	X_WP:	0.000	Y_WP:	0.000	Y_WP:	0.000	X:	0.009	Y:	0.005	Z:	0.059	yaw:	-90.115	yaw rate:	-1.014	Roll:	-0.153	Pitch:	0.282	Yaw:	-128.266	Thrust:	0.000
Time:	2.012	Roll Set Point:	-0.003	Pitch Set Point:	-0.014	Yaw Set Point:	1.573	X_WP:	0.000	Y_WP:	0.000	Y_WP:	0.000	X:	0.009	Y:	0.005	Z:	0.059	yaw:	-90.114	yaw rate:	0.060	Roll:	-0.194	Pitch:	0.295	Yaw:	-128.016	Thrust:	0.000
Time:	2.023	Roll Set Point:	-0.003	Pitch Set Point:	-0.014	Yaw Set Point:	1.573	X_WP:	0.000	Y_WP:	0.000	Y_WP:	0.000	X:	0.009	Y:	0.005	Z:	0.059	yaw:	-90.107	yaw rate:	0.749	Roll:	-0.175	Pitch:	0.277	Yaw:	-127.636	Thrust:	0.000
Time:	2.035	Roll Set Point:	-0.003	Pitch Set Point:	-0.014	Yaw Set Point:	1.573	X_WP:	0.000	Y_WP:	0.000	Y_WP:	0.000	X:	0.009	Y:	0.005	Z:	0.059	yaw:	-90.107	yaw rate:	-0.044	Roll:	-0.176	Pitch:	0.311	Yaw:	-128.416	Thrust:	0.000
Time:	2.045	Roll Set Point:	-0.003	Pitch Set Point:	-0.014	Yaw Set Point:	1.573	X_WP:	0.000	Y_WP:	0.000	Y_WP:	0.000	X:	0.009	Y:	0.005	Z:	0.059	yaw:	-90.112	yaw rate:	-0.462	Roll:	-0.185	Pitch:	0.296	Yaw:	-127.952	Thrust:	0.000
Time:	2.055	Roll Set Point:	-0.003	Pitch Set Point:	-0.014	Yaw Set Point:	1.573	X_WP:	0.000	Y_WP:	0.000	Y_WP:	0.000	X:	0.009	Y:	0.005	Z:	0.059	yaw:	-90.110	yaw rate:	0.220	Roll:	-0.184	Pitch:	0.277	Yaw:	-127.767	Thrust:	0.000
Time:	2.065	Roll Set Point:	-0.003	Pitch Set Point:	-0.014	Yaw Set Point:	1.573	X_WP:	0.000	Y_WP:	0.000	Y_WP:	0.000	X:	0.009	Y:	0.005	Z:	0.059	yaw:	-90.104	yaw rate:	0.529	Roll:	-0.177	Pitch:	0.315	Yaw:	-127.683	Thrust:	0.000
Time:	2.077	Roll Set Point:	-0.003	Pitch Set Point:	-0.014	Yaw Set Point:	1.573	X_WP:	0.000	Y_WP:	0.000	Y_WP:	0.000	X:	0.009	Y:	0.005	Z:	0.059	yaw:	-90.106	yaw rate:	-0.112	Roll:	-0.164	Pitch:	0.294	Yaw:	-128.045	Thrust:	0.000
Time:	2.087	Roll Set Point:	-0.003	Pitch Set Point:	-0.014	Yaw Set Point:	1.573	X_WP:	0.000	Y_WP:	0.000	Y_WP:	0.000	X:	0.009	Y:	0.005	Z:	0.059	yaw:	-90.105	yaw rate:	0.078	Roll:	-0.201	Pitch:	0.280	Yaw:	-127.796	Thrust:	0.000
Time:	2.098	Roll Set Point:	-0.003	Pitch Set Point:	-0.014	Yaw Set Point:	1.573	X_WP:	0.000	Y_WP:	0.000	Y_WP:	0.000	X:	0.009	Y:	0.005	Z:	0.059	yaw:	-90.115	yaw rate:	-1.031	Roll:	-0.161	Pitch:	0.287	Yaw:	-128.260	Thrust:	0.000
Time:	2.108	Roll Set Point:	-0.003	Pitch Set Point:	-0.014	Yaw Set Point:	1.573	X_WP:	0.000	Y_WP:	0.000	Y_WP:	0.000	X:	0.009	Y:	0.005	Z:	0.059	yaw:	-90.115	yaw rate:	-1.031	Roll:	-0.177	Pitch:	0.293	Yaw:	-127.846	Thrust:	0.000
Time:	2.119	Roll Set Point:	-0.003	Pitch Set Point:	-0.014	Yaw Set Point:	1.573	X_WP:	0.000	Y_WP:	0.000	Y_WP:	0.000	X:	0.009	Y:	0.005	Z:	0.059	yaw:	-90.115	yaw rate:	-0.031	Roll:	-0.176	Pitch:	0.315	Yaw:	-128.022	Thrust:	0.000
Time:	2.129	Roll Set Point:	-0.003	Pitch Set Point:	-0.014	Yaw Set Point:	1.573	X_WP:	0.000	Y_WP:	0.000	Y_WP:	0.000	X:	0.009	Y:	0.005	Z:	0.059	yaw:	-90.107	yaw rate:	0.855	Roll:	-0.191	Pitch:	0.286	Yaw:	-127.615	Thrust:	0.000
Time:	2.139	Roll Set Point:	-0.003	Pitch Set Point:	-0.014	Yaw Set Point:	1.573	X_WP:	0.000	Y_WP:	0.000	Y_WP:	0.000	X:	0.009	Y:	0.005	Z:	0.059	yaw:	-90.111	yaw rate:	-0.369	Roll:	-0.170	Pitch:	0.284	Yaw:	-127.920	Thrust:	0.000
Time:	2.149	Roll Set Point:	-0.003	Pitch Set Point:	-0.014	Yaw Set Point:	1.573	X_WP:	0.000	Y_WP:	0.000	Y_WP:	0.000	X:	0.009	Y:	0.005	Z:	0.059	yaw:	-90.101	yaw rate:	1.002	Roll:	-0.184	Pitch:	0.319	Yaw:	-127.548	Thrust:	0.000
Time:	2.160	Roll Set Point:	-0.003	Pitch Set Point:	-0.014	Yaw Set Point:	1.573	X_WP:	0.000	Y_WP:	0.000	Y_WP:	0.000	X:	0.009	Y:	0.005	Z:	0.059	yaw:	-90.102	yaw rate:	-0.115	Roll:	-0.167	Pitch:	0.285	Yaw:	-128.040	Thrust:	0.000
Time:	2.171	Roll Set Point:	-0.003	Pitch Set Point:	-0.014	Yaw Set Point:	1.573	X_WP:	0.000	Y_WP:	0.000	Y_WP:	0.000	X:	0.009	Y:	0.005	Z:	0.059	yaw:	-90.105	yaw rate:	-0.346	Roll:	-0.194	Pitch:	0.311	Yaw:	-127.905	Thrust:	0.000
Time:	2.181	Roll Set Point:	-0.003	Pitch Set Point:	-0.014	Yaw Set Point:	1.573	X_WP:	0.000	Y_WP:	0.000	Y_WP:	0.000	X:	0.009	Y:	0.005	Z:	0.059	yaw:	-90.111	yaw rate:	-0.597	Roll:	-0.180	Pitch:	0.284	Yaw:	-128.156	Thrust:	0.000
Time:	2.192	Roll Set Point:	-0.003	Pitch Set Point:	-0.014	Yaw Set Point:	1.573	X_WP:	0.000	Y_WP:	0.000	Y_WP:	0.000	X:	0.009	Y:	0.005	Z:	0.059	yaw:	-90.110	yaw rate:	0.104	Roll:	-0.168	Pitch:	0.314	Yaw:	-128.012	Thrust:	0.000
Time:	2.203	Roll Set Point:	-0.003	Pitch Set Point:	-0.014	Yaw Set Point:	1.573	X_WP:	0.000	Y_WP:	0.000	Y_WP:	0.000	X:	0.009	Y:	0.005	Z:	0.059	yaw:	-90.119	yaw rate:	-0.860	Roll:	-0.183	Pitch:	0.286	Yaw:	-128.238	Thrust:	0.000
Time:	2.213	Roll Set Point:	-0.003	Pitch Set Point:	-0.014	Yaw Set Point:	1.573	X_WP:	0.000	Y_WP:	0.000	Y_WP:	0.000	X:	0.009	Y:	0.005	Z:	0.059	yaw:	-90.105	yaw rate:	1.399	Roll:	-0.188	Pitch:	0.297	Yaw:	-127.450	Thrust:	0.000
Time:	2.223	Roll Set Point:	-0.003	Pitch Set Point:	-0.014	Yaw Set Point:	1.573	X_WP:	0.000	Y_WP:	0.000	Y_WP:	0.000	X:	0.009	Y:	0.005	Z:	0.059	yaw:	-90.100	yaw rate:	0.493	Roll:	-0.180	Pitch:	0.303	Yaw:	-127.680	Thrust:	0.000
Time:	2.234	Roll Set Point:	-0.003	Pitch Set Point:	-0.014	Yaw Set Point:	1.573	X_WP:	0.000	Y_WP:	0.000	Y_WP:	0.000	X:	0.009	Y:	0.005	Z:	0.059	yaw:	-90.108	yaw rate:	-0.835	Roll:	-0.188	Pitch:	0.300	Yaw:	-128.208	Thrust:	0.000
Time:	2.245	Roll Set Point:	-0.003	Pitch Set Point:	-0.014	Yaw Set Point:	1.573	X_WP:	0.000	Y_WP:	0.000	Y_WP:	0.000	X:	0.009	Y:	0.005	Z:	0.059	yaw:	-90.101	yaw rate:	0.721	Roll:	-0.176	Pitch:	0.303	Yaw:	-127.852	Thrust:	0.000
Time:	2.256	Roll Set Point:	-0.003	Pitch Set Point:	-0.014	Yaw Set Point:	1.573	X_WP:	0.000	Y_WP:	0.000	Y_WP:	0.000	X:	0.009	Y:	0.005	Z:	0.059	yaw:	-90.105	yaw rate:	-0.402	Roll:	-0.168	Pitch:	0.298	Yaw:	-128.112	Thrust:	0.000
Time:	2.267	Roll Set Point:	-0.003	Pitch Set Point:	-0.014	Yaw Set Point:	1.573	X_WP:	0.000	Y_WP:	0.000	Y_WP:	0.000	X:	0.009	Y:	0.005	Z:	0.059	yaw:	-90.108	yaw rate:	-0.278	Roll:	-0.180	Pitch:	0.300	Yaw:	-128.086	Thrust:	0.000
Time:	2.278	Roll Set Point:	-0.003	Pitch Set Point:	-0.014	Yaw Set Point:	1.573	X_WP:	0.000	Y_WP:	0.000	Y_WP:	0.000	X:	0.009	Y:	0.005	Z:	0.059	yaw:	-90.100	yaw rate:	0.727	Roll:	-0.192	Pitch:	0.305	Yaw:	-127.837	Thrust:	0.000
Time:	2.289	Roll Set Point:	-0.003	Pitch Set Point:	-0.014	Yaw Set Point:	1.573	X_WP:	0.000	Y_WP:	0.000	Y_WP:	0.000	X:	0.009	Y:	0.005	Z:	0.059	yaw:	-90.115	yaw rate:	-1.424	Roll:	-0.195	Pitch:	0.276	Yaw:	-128.368	Thrust:	0.000
Time:	2.300	Roll Set Point:	-0.003	Pitch Set Point:	-0.014	Yaw Set Point:	1.573	X_WP:	0.000	Y_WP:	0.000	Y_WP:	0.000	X:	0.009	Y:	0.005	Z:	0.059	yaw:	-90.110	yaw rate:	0.437	Roll:	-0.183	Pitch:	0.314	Yaw:	-127.902	Thrust:	0.000
Time:	2.311	Roll Set Point:	-0.003	Pitch Set Point:	-0.014	Yaw Set Point:	1.573	X_WP:	0.000	Y_WP:	0.000	Y_WP:	0.000	X:	0.009	Y:	0.005	Z:	0.059	yaw:	-90.116	yaw rate:	-0.528	Roll:	-0.171	Pitch:	0.295	Yaw:	-127.969	Thrust:	0.000
Time:	2.322	Roll Set Point:	-0.003	Pitch Set Point:	-0.014	Yaw Set Point:	1.573	X_WP:	0.000	Y_WP:	0.000	Y_WP:	0.000	X:	0.009	Y:	0.005	Z:	0.059	yaw:	-90.102	yaw rate:	1.384	Roll:	-0.168	Pitch:	0.300	Yaw:	-127.683	Thrust:	0.000
Time:	2.332	Roll Set Point:	-0.003	Pitch Set Point:	-0.014	Yaw Set Point:	1.573	X_WP:	0.000	Y_WP:	0.000	Y_WP:	0.000	X:	0.009	Y:	0.005	Z:	0.059	yaw:	-90.108	yaw rate:	-0.651	Roll:	-0.192	Pitch:	0.308	Yaw:	-128.176	Thrust:	0.000
Time:	2.344	Roll Set Point:	-0.003	Pitch Set Point:	-0.014	Yaw Set Point:	1.573	X_WP:	0.000	Y_WP:	0.000	Y_WP:	0.000	X:	0.009	Y:	0.005	Z:	0.059	yaw:	-90.100	yaw rate:	0.795	Roll:	-0.186	Pitch:	0.321	Yaw:	-127.829	Thrust:	0.000
Time:	2.355	Roll Set Point:	-0.003	Pitch Set Point:	-0.014	Yaw Set Point:	1.573	X_WP:	0.000	Y_WP:	0.000	Y_WP:	0.000	X:	0.009	Y:	0.005	Z:	0.059	yaw:	-90.106	yaw rate:	-0.590	Roll:	-0.189	Pitch:	0.293	Yaw:	-128.339	Thrust:	0.000
Time:	2.366	Roll Set Point:	-0.003	Pitch Set Point:	-0.014	Yaw Set Point:	1.573	X_WP:	0.000	Y_WP:	0.000	Y_WP:	0.000	X:	0.009	Y:	0.005	Z:	0.059	yaw:	-90.110	yaw rate:	-0.390	Roll:	-0.176	Pitch:	0.285	Yaw:	-127.925	Thrust:	0.000
Time:	2.377	Roll Set Point:	-0.003	Pitch Set Point:	-0.014	Yaw Set Point:	1.573	X_WP:	0.000	Y_WP:	0.000	Y_WP:	0.000	X:	0.009	Y:	0.005	Z:	0.059	yaw:	-90.105	yaw rate:	0.509	Roll:	-0.179	Pitch:	0.319	Yaw:	-128.105	Thrust:	0.000
Time:	2.387	Roll Set Point:	-0.003	Pitch Set Point:	-0.014	Yaw Set Point:	1.573	X_WP:	0.000	Y_WP:	0.000	Y_WP:	0.000	X:	0.009	Y:	0.005	Z:	0.059	yaw:	-90.107	yaw rate:	-0.193	Roll:	-0.180	Pitch:	0.310	Yaw:	-127.877	Thrust:	0.000
Time:	2.398	Roll Set Point:	-0.003	Pitch Set Point:	-0.014	Yaw Set Point:	1.573	X_WP:	0.000	Y_WP:	0.000	Y_WP:	0.000	X:	0.009	Y:	0.005	Z:	0.059	yaw:	-90.108	yaw rate:	-0.068	Roll:	-0.187	Pitch:	0.287	Yaw:	-128.029	Thrust:	0.000
Time:	2.409	Roll Set Point:	-0.003	Pitch Set Point:	-0.014	Yaw Set Point:	1.573	X_WP:	0.000	Y_WP:	0.000	Y_WP:	0.000	X:	0.009	Y:	0.005	Z:	0.059	yaw:	-90.115	yaw rate:	-0.688	Roll:	-0.183	Pitch:	0.293	Yaw:	-128.200	Thrust:	0.000
Time:	2.420	Roll Set Point:	-0.003	Pitch Set Point:	-0.014	Yaw Set Point:	1.573	X_WP:	0.000	Y_WP:	0.000	Y_WP:	0.000	X:	0.009	Y:	0.005	Z:	0.059	yaw:	-90.116	yaw rate:	-0.195	Roll:	-0.180	Pitch:	0.317	Yaw:	-128.071	Thrust:	0.000
Time:	2.431	Roll Set Point:	-0.003	Pitch Set Point:	-0.014	Yaw Set Point:	1.573	X_WP:	0.000	Y_WP:	0.000	Y_WP:	0.000	X:	0.009	Y:	0.005	Z:	0.059	yaw:	-90.111	yaw rate:	0.502	Roll:	-0.189	Pitch:	0.321	Yaw:	-127.905	Thrust:	0.000
Time:	2.442	Roll Set Point:	-0.003	Pitch Set Point:	-0.014	Yaw Set Point:	1.573	X_WP:	0.000	Y_WP:	0.000	Y_WP:	0.000	X:	0.009	Y:	0.005	Z:	0.059	yaw:	-90.108	yaw rate:	0.365	Roll:	-0.184	Pitch:	0.286	Yaw:	-127.934	Thrust:	0.000
Time:	2.454	Roll Set Point:	-0.003	Pitch Set Point:	-0.014	Yaw Set Point:	1.573	X_WP:	0.000	Y_WP:	0.000	Y_WP:	0.000	X:	0.009	Y:	0.005	Z:	0.059	yaw:	-90.112	yaw rate:	-0.410	Roll:	-0.187	Pitch:	0.314	Yaw:	-128.130	Thrust:	0.000
Time:	2.464	Roll Set Point:	-0.003	Pitch Set Point:	-0.014	Yaw Set Point:	1.573	X_WP:	0.000	Y_WP:	0.000	Y_WP:	0.000	X:	0.009	Y:	0.005	Z:	0.059	yaw:	-90.115	yaw rate:	-0.266	Roll:	-0.177	Pitch:	0.288	Yaw:	-128.085	Thrust:	0.000
Time:	2.476	Roll Set Point:	-0.003	Pitch Set Point:	-0.014	Yaw Set Point:	1.573	X_WP:	0.000	Y_WP:	0.000	Y_WP:	0.000	X:	0.009	Y:	0.005	Z:	0.059	yaw:	-90.106	yaw rate:	0.900	Roll:	-0.197	Pitch:	0.315	Yaw:	-127.812	Thrust:	0.000
Time:	2.487	Roll Set Point:	-0.003	Pitch Set Point:	-0.014	Yaw Set Point:	1.573	X_WP:	0.000	Y_WP:	0.000	Y_WP:	0.000	X:	0.009	Y:	0.005	Z:	0.059	yaw:	-90.100	yaw rate:	0.510	Roll:	-0.185	Pitch:	0.312	Yaw:	-127.889	Thrust:	0.000
Time:	2.499	Roll Set Point:	-0.003	Pitch Set Point:	-0.014	Yaw Set Point:	1.573	X_WP:	0.000	Y_WP:	0.000	Y_WP:	0.000	X:	0.009	Y:	0.005	Z:	0.059	yaw:	-90.104	yaw rate:	-0.366	Roll:	-0.176	Pitch:	0.315	Yaw:	-128.095	Thrust:	0.000
Time:	2.511	Roll Set Point:	-0.003	Pitch Set Point:	-0.014	Yaw Set Point:	1.573	X_WP:	0.000	Y_WP:	0.000	Y_WP:	0.000	X:	0.009	Y:	0.005	Z:	0.059	yaw:	-90.109	yaw rate:	-0.534	Roll:	-0.179	Pitch:	0.286	Yaw:	-128.338	Thrust:	0.000
Time:	2.523	Roll Set Point:	-0.003	Pitch Set Point:	-0.014	Yaw Set Point:	1.573	X_WP:	0.000	Y_WP:	0.000	Y_WP:	0.000	X:	0.009	Y:	0.005	Z:	0.059	yaw:	-90.103	yaw rate:	0.615	Roll:	-0.200	Pitch:	0.312	Yaw:	-128.084	Thrust:	0.000
Time:	2.534	Roll Set Point:	-0.003	Pitch Set Point:	-0.014	Yaw Set Point:	1.573	X_WP:	0.000	Y_WP:	0.000	Y_WP:	0.000	X:	0.009	Y:	0.005	Z:	0.059	yaw:	-90.108	yaw rate:	-0.422	Roll:	-0.190	Pitch:	0.324	Yaw:	-128.310	Thrust:	0.000
Time:	2.546	Roll Set Point:	-0.003	Pitch Set Point:	-0.014	Yaw Set Point:	1.573	X_WP:	0.000	Y_WP:	0.000	Y_WP:	0.000	X:	0.009	Y:	0.005	Z:	0.059	yaw:	-90.103	yaw rate:	0.483	Roll:	-0.182	Pitch:	0.311	Yaw:	-128.115	Thrust:	0.000
Time:	2.558	Roll Set Point:	-0.003	Pitch Set Point:	-0.014	Yaw Set Point:	1.573	X_WP:	0.000	Y_WP:	0.000	Y_WP:	0.000	X:	0.009	Y:	0.005	Z:	0.059	yaw:	-90.106	yaw rate:	-0.345	Roll:	-0.189	Pitch:	0.304	Yaw:	-128.293	Thrust:	0.000
Time:	2.570	Roll Set Point:	-0.003	Pitch Set Point:	-0.014	Yaw Set Point:	1.573	X_WP:	0.000	Y_WP:	0.000	Y_WP:	0.000	X:	0.009	Y:	0.005	Z:	0.059	yaw:	-90.103	yaw rate:	0.308	Roll:	-0.186	Pitch:	0.326	Yaw:	-128.139	Thrust:	0.000
Time:	2.581	Roll Set Point:	-0.003	Pitch Set Point:	-0.014	Yaw Set Point:	1.573	X_WP:	0.000	Y_WP:	0.000	Y_WP:	0.000	X:	0.009	Y:	0.005	Z:	0.059	yaw:	-90.111	yaw rate:	-0.813	Roll:	-0.189	Pitch:	0.289	Yaw:	-128.220	Thrust:	0.000
Time:	2.593	Roll Set Point:	-0.003	Pitch Set Point:	-0.014	Yaw Set Point:	1.573	X_WP:	0.000	Y_WP:	0.000	Y_WP:	0.000	X:	0.009	Y:	0.005	Z:	0.059	yaw:	-90.105	yaw rate:	0.660	Roll:	-0.197	Pitch:	0.330	Yaw:	-128.072	Thrust:	0.000
Time:	2.604	Roll Set Point:	-0.003	Pitch Set Point:	-0.014	Yaw Set Point:	1.573	X_WP:	0.000	Y_WP:	0.000	Y_WP:	0.000	X:	0.009	Y:	0.005	Z:	0.059	yaw:	-90.113	yaw rate:	-0.799	Roll:	-0.174	Pitch:	0.298	Yaw:	-128.035	Thrust:	0.000
Time:	2.616	Roll Set Point:	-0.003	Pitch Set Point:	-0.014	Yaw Set Point:	1.573	X_WP:	0.000	Y_WP:	0.000	Y_WP:	0.000	X:	0.009	Y:	0.005	Z:	0.059	yaw:	-90.108	yaw rate:	0.487	Roll:	-0.198	Pitch:	0.324	Yaw:	-128.329	Thrust:	0.000
Time:	2.628	Roll Set Point:	-0.003	Pitch Set Point:	-0.014	Yaw Set Point:	1.573	X_WP:	0.000	Y_WP:	0.000	Y_WP:	0.000	X:	0.009	Y:	0.005	Z:	0.059	yaw:	-90.111	yaw rate:	-0.306	Roll:	-0.180	Pitch:	0.312	Yaw:	-128.292	Thrust:	0.000
Time:	2.639	Roll Set Point:	-0.003	Pitch Set Point:	-0.014	Yaw Set Point:	1.573	X_WP:	0.000	Y_WP:	0.000	Y_WP:	0.000	X:	0.009	Y:	0.005	Z:	0.059	yaw:	-90.114	yaw rate:	-0.332	Roll:	-0.187	Pitch:	0.298	Yaw:	-128.112	Thrust:	0.000
Time:	2.651	Roll Set Point:	-0.003	Pitch Set Point:	-0.014	Yaw Set Point:	1.573	X_WP:	0.000	Y_WP:	0.000	Y_WP:	0.000	X:	0.009	Y:	0.005	Z:	0.059	yaw:	-90.120	yaw rate:	-0.587	Roll:	-0.190	Pitch:	0.306	Yaw:	-128.354	Thrust:	0.000
Time:	2.666	Roll Set Point:	-0.003	Pitch Set Point:	-0.014	Yaw Set Point:	1.573	X_WP:	0.000	Y_WP:	0.000	Y_WP:	0.000	X:	0.009	Y:	0.005	Z:	0.059	yaw:	-90.110	yaw rate:	1.045	Roll:	-0.192	Pitch:	0.311	Yaw:	-128.643	Thrust:	0.000
Time:	2.677	Roll Set Point:	-0.003	Pitch Set Point:	-0.014	Yaw Set Point:	1.573	X_WP:	0.000	Y_WP:	0.000	Y_WP:	0.000	X:	0.009	Y:	0.005	Z:	0.059	yaw:	-90.104	yaw rate:	0.581	Roll:	-0.202	Pitch:	0.347	Yaw:	-127.877	Thrust:	0.000
Time:	2.688	Roll Set Point:	-0.003	Pitch Set Point:	-0.014	Yaw Set Point:	1.573	X_WP:	0.000	Y_WP:	0.000	Y_WP:	0.000	X:	0.009	Y:	0.005	Z:	0.059	yaw:	-90.107	yaw rate:	-0.336	Roll:	-0.192	Pitch:	0.307	Yaw:	-128.112	Thrust:	0.000
Time:	2.699	Roll Set Point:	-0.003	Pitch Set Point:	-0.014	Yaw Set Point:	1.573	X_WP:	0.000	Y_WP:	0.000	Y_WP:	0.000	X:	0.009	Y:	0.005	Z:	0.059	yaw:	-90.108	yaw rate:	-0.123	Roll:	-0.175	Pitch:	0.298	Yaw:	-128.048	Thrust:	0.000
Time:	2.710	Roll Set Point:	-0.003	Pitch Set Point:	-0.014	Yaw Set Point:	1.573	X_WP:	0.000	Y_WP:	0.000	Y_WP:	0.000	X:	0.009	Y:	0.005	Z:	0.059	yaw:	-90.111	yaw rate:	-0.238	Roll:	-0.208	Pitch:	0.328	Yaw:	-128.080	Thrust:	0.000
Time:	2.723	Roll Set Point:	-0.003	Pitch Set Point:	-0.014	Yaw Set Point:	1.573	X_WP:	0.000	Y_WP:	0.000	Y_WP:	0.000	X:	0.009	Y:	0.005	Z:	0.059	yaw:	-90.106	yaw rate:	0.467	Roll:	-0.173	Pitch:	0.299	Yaw:	-128.103	Thrust:	0.000
Time:	2.735	Roll Set Point:	-0.003	Pitch Set Point:	-0.014	Yaw Set Point:	1.573	X_WP:	0.000	Y_WP:	0.000	Y_WP:	0.000	X:	0.009	Y:	0.005	Z:	0.059	yaw:	-90.115	yaw rate:	-0.564	Roll:	-0.193	Pitch:	0.311	Yaw:	-128.613	Thrust:	0.000
Time:	2.745	Roll Set Point:	-0.003	Pitch Set Point:	-0.014	Yaw Set Point:	1.573	X_WP:	0.000	Y_WP:	0.000	Y_WP:	0.000	X:	0.009	Y:	0.005	Z:	0.059	yaw:	-90.110	yaw rate:	0.465	Roll:	-0.181	Pitch:	0.322	Yaw:	-127.701	Thrust:	0.000
Time:	2.757	Roll Set Point:	-0.003	Pitch Set Point:	-0.014	Yaw Set Point:	1.573	X_WP:	0.000	Y_WP:	0.000	Y_WP:	0.000	X:	0.009	Y:	0.005	Z:	0.059	yaw:	-90.112	yaw rate:	-0.208	Roll:	-0.201	Pitch:	0.311	Yaw:	-128.084	Thrust:	0.000
Time:	2.768	Roll Set Point:	-0.003	Pitch Set Point:	-0.014	Yaw Set Point:	1.573	X_WP:	0.000	Y_WP:	0.000	Y_WP:	0.000	X:	0.009	Y:	0.005	Z:	0.059	yaw:	-90.098	yaw rate:	1.471	Roll:	-0.187	Pitch:	0.315	Yaw:	-127.649	Thrust:	0.000
Time:	2.778	Roll Set Point:	-0.003	Pitch Set Point:	-0.014	Yaw Set Point:	1.573	X_WP:	0.000	Y_WP:	0.000	Y_WP:	0.000	X:	0.009	Y:	0.005	Z:	0.059	yaw:	-90.105	yaw rate:	-0.700	Roll:	-0.183	Pitch:	0.304	Yaw:	-128.195	Thrust:	0.000
Time:	2.789	Roll Set Point:	-0.003	Pitch Set Point:	-0.014	Yaw Set Point:	1.573	X_WP:	0.000	Y_WP:	0.000	Y_WP:	0.000	X:	0.009	Y:	0.005	Z:	0.059	yaw:	-90.115	yaw rate:	-1.029	Roll:	-0.192	Pitch:	0.330	Yaw:	-128.273	Thrust:	0.000
Time:	2.801	Roll Set Point:	-0.003	Pitch Set Point:	-0.014	Yaw Set Point:	1.573	X_WP:	0.000	Y_WP:	0.000	Y_WP:	0.000	X:	0.009	Y:	0.005	Z:	0.059	yaw:	-90.107	yaw rate:	0.841	Roll:	-0.191	Pitch:	0.300	Yaw:	-128.022	Thrust:	0.000
Time:	2.811	Roll Set Point:	-0.003	Pitch Set Point:	-0.014	Yaw Set Point:	1.573	X_WP:	0.000	Y_WP:	0.000	Y_WP:	0.000	X:	0.009	Y:	0.005	Z:	0.059	yaw:	-90.112	yaw rate:	-0.557	Roll:	-0.173	Pitch:	0.305	Yaw:	-127.973	Thrust:	0.000
Time:	2.822	Roll Set Point:	-0.003	Pitch Set Point:	-0.014	Yaw Set Point:	1.573	X_WP:	0.000	Y_WP:	0.000	Y_WP:	0.000	X:	0.009	Y:	0.005	Z:	0.059	yaw:	-90.106	yaw rate:	0.639	Roll:	-0.204	Pitch:	0.315	Yaw:	-127.872	Thrust:	0.000
Time:	2.836	Roll Set Point:	-0.003	Pitch Set Point:	-0.014	Yaw Set Point:	1.573	X_WP:	0.000	Y_WP:	0.000	Y_WP:	0.000	X:	0.009	Y:	0.005	Z:	0.059	yaw:	-90.118	yaw rate:	-1.214	Roll:	-0.171	Pitch:	0.304	Yaw:	-128.492	Thrust:	0.000
Time:	2.848	Roll Set Point:	-0.003	Pitch Set Point:	-0.014	Yaw Set Point:	1.573	X_WP:	0.000	Y_WP:	0.000	Y_WP:	0.000	X:	0.009	Y:	0.005	Z:	0.059	yaw:	-90.107	yaw rate:	1.072	Roll:	-0.205	Pitch:	0.349	Yaw:	-128.216	Thrust:	0.000
Time:	2.861	Roll Set Point:	-0.003	Pitch Set Point:	-0.014	Yaw Set Point:	1.573	X_WP:	0.000	Y_WP:	0.000	Y_WP:	0.000	X:	0.009	Y:	0.005	Z:	0.059	yaw:	-90.104	yaw rate:	0.339	Roll:	-0.197	Pitch:	0.313	Yaw:	-128.131	Thrust:	0.000
Time:	2.872	Roll Set Point:	-0.003	Pitch Set Point:	-0.014	Yaw Set Point:	1.573	X_WP:	0.000	Y_WP:	0.000	Y_WP:	0.000	X:	0.009	Y:	0.005	Z:	0.059	yaw:	-90.114	yaw rate:	-1.045	Roll:	-0.194	Pitch:	0.300	Yaw:	-128.462	Thrust:	0.000
Time:	2.885	Roll Set Point:	-0.003	Pitch Set Point:	-0.014	Yaw Set Point:	1.573	X_WP:	0.000	Y_WP:	0.000	Y_WP:	0.000	X:	0.009	Y:	0.005	Z:	0.059	yaw:	-90.100	yaw rate:	1.423	Roll:	-0.186	Pitch:	0.337	Yaw:	-128.118	Thrust:	0.000
Time:	2.897	Roll Set Point:	-0.003	Pitch Set Point:	-0.014	Yaw Set Point:	1.573	X_WP:	0.000	Y_WP:	0.000	Y_WP:	0.000	X:	0.009	Y:	0.005	Z:	0.059	yaw:	-90.113	yaw rate:	-1.252	Roll:	-0.197	Pitch:	0.333	Yaw:	-128.500	Thrust:	0.000
Time:	2.908	Roll Set Point:	-0.003	Pitch Set Point:	-0.014	Yaw Set Point:	1.573	X_WP:	0.000	Y_WP:	0.000	Y_WP:	0.000	X:	0.009	Y:	0.005	Z:	0.059	yaw:	-90.112	yaw rate:	0.079	Roll:	-0.187	Pitch:	0.298	Yaw:	-128.007	Thrust:	0.000
Time:	2.920	Roll Set Point:	-0.003	Pitch Set Point:	-0.014	Yaw Set Point:	1.573	X_WP:	0.000	Y_WP:	0.000	Y_WP:	0.000	X:	0.009	Y:	0.005	Z:	0.059	yaw:	-90.110	yaw rate:	0.131	Roll:	-0.193	Pitch:	0.307	Yaw:	-128.203	Thrust:	0.000
Time:	2.932	Roll Set Point:	-0.003	Pitch Set Point:	-0.014	Yaw Set Point:	1.573	X_WP:	0.000	Y_WP:	0.000	Y_WP:	0.000	X:	0.009	Y:	0.005	Z:	0.059	yaw:	-90.114	yaw rate:	-0.320	Roll:	-0.203	Pitch:	0.332	Yaw:	-128.291	Thrust:	0.000
Time:	2.944	Roll Set Point:	-0.003	Pitch Set Point:	-0.014	Yaw Set Point:	1.573	X_WP:	0.000	Y_WP:	0.000	Y_WP:	0.000	X:	0.009	Y:	0.005	Z:	0.059	yaw:	-90.104	yaw rate:	0.966	Roll:	-0.184	Pitch:	0.327	Yaw:	-128.005	Thrust:	0.000
Time:	2.957	Roll Set Point:	-0.003	Pitch Set Point:	-0.014	Yaw Set Point:	1.573	X_WP:	0.000	Y_WP:	0.000	Y_WP:	0.000	X:	0.009	Y:	0.005	Z:	0.059	yaw:	-90.118	yaw rate:	-1.161	Roll:	-0.187	Pitch:	0.326	Yaw:	-128.713	Thrust:	0.000
Time:	2.969	Roll Set Point:	-0.003	Pitch Set Point:	-0.014	Yaw Set Point:	1.573	X_WP:	0.000	Y_WP:	0.000	Y_WP:	0.000	X:	0.009	Y:	0.005	Z:	0.059	yaw:	-90.109	yaw rate:	0.892	Roll:	-0.201	Pitch:	0.305	Yaw:	-127.812	Thrust:	0.000
Time:	2.981	Roll Set Point:	-0.003	Pitch Set Point:	-0.014	Yaw Set Point:	1.573	X_WP:	0.000	Y_WP:	0.000	Y_WP:	0.000	X:	0.009	Y:	0.005	Z:	0.059	yaw:	-90.108	yaw rate:	0.116	Roll:	-0.200	Pitch:	0.330	Yaw:	-128.195	Thrust:	0.000
Time:	2.992	Roll Set Point:	-0.003	Pitch Set Point:	-0.014	Yaw Set Point:	1.573	X_WP:	0.000	Y_WP:	0.000	Y_WP:	0.000	X:	0.009	Y:	0.005	Z:	0.059	yaw:	-90.117	yaw rate:	-0.961	Roll:	-0.188	Pitch:	0.310	Yaw:	-128.450	Thrust:	0.000
