Time:	0.070	Roll Set Point:	-0.003	Pitch Set Point:	-0.014	Yaw Set Point:	1.573	X_WP:	0.000	Y_WP:	0.000	Y_WP:	0.000	X:	0.009	Y:	0.005	Z:	0.059	yaw:	-90.109	yaw rate:	0.082	Roll:	-0.153	Pitch:	0.253	Yaw:	-125.817	Thrust:	0.000
Time:	0.100	Roll Set Point:	-0.003	Pitch Set Point:	-0.014	Yaw Set Point:	1.573	X_WP:	0.000	Y_WP:	0.000	Y_WP:	0.000	X:	0.009	Y:	0.005	Z:	0.059	yaw:	-90.107	yaw rate:	-0.431	Roll:	-0.150	Pitch:	0.252	Yaw:	-126.744	Thrust:	0.000
Time:	0.139	Roll Set Point:	-0.003	Pitch Set Point:	-0.014	Yaw Set Point:	1.573	X_WP:	0.000	Y_WP:	0.000	Y_WP:	0.000	X:	0.009	Y:	0.005	Z:	0.059	yaw:	-90.120	yaw rate:	-0.739	Roll:	-0.156	Pitch:	0.254	Yaw:	-127.830	Thrust:	0.000
Time:	0.178	Roll Set Point:	-0.003	Pitch Set Point:	-0.014	Yaw Set Point:	1.573	X_WP:	0.000	Y_WP:	0.000	Y_WP:	0.000	X:	0.009	Y:	0.005	Z:	0.059	yaw:	-90.105	yaw rate:	0.751	Roll:	-0.152	Pitch:	0.256	Yaw:	-129.500	Thrust:	0.000
Time:	0.229	Roll Set Point:	-0.003	Pitch Set Point:	-0.014	Yaw Set Point:	1.573	X_WP:	0.000	Y_WP:	0.000	Y_WP:	0.000	X:	0.009	Y:	0.005	Z:	0.059	yaw:	-90.112	yaw rate:	-0.264	Roll:	-0.157	Pitch:	0.260	Yaw:	-132.037	Thrust:	0.000
Time:	0.271	Roll Set Point:	-0.003	Pitch Set Point:	-0.014	Yaw Set Point:	1.573	X_WP:	0.000	Y_WP:	0.000	Y_WP:	0.000	X:	0.009	Y:	0.005	Z:	0.059	yaw:	-90.118	yaw rate:	-0.803	Roll:	-0.157	Pitch:	0.259	Yaw:	-133.746	Thrust:	0.000
Time:	0.301	Roll Set Point:	-0.003	Pitch Set Point:	-0.014	Yaw Set Point:	1.573	X_WP:	0.000	Y_WP:	0.000	Y_WP:	0.000	X:	0.009	Y:	0.005	Z:	0.059	yaw:	-90.112	yaw rate:	-0.183	Roll:	-0.156	Pitch:	0.255	Yaw:	-131.630	Thrust:	0.000
Time:	0.331	Roll Set Point:	-0.003	Pitch Set Point:	-0.014	Yaw Set Point:	1.573	X_WP:	0.000	Y_WP:	0.000	Y_WP:	0.000	X:	0.009	Y:	0.005	Z:	0.059	yaw:	-90.111	yaw rate:	0.399	Roll:	-0.157	Pitch:	0.259	Yaw:	-131.827	Thrust:	0.000
Time:	0.379	Roll Set Point:	-0.003	Pitch Set Point:	-0.014	Yaw Set Point:	1.573	X_WP:	0.000	Y_WP:	0.000	Y_WP:	0.000	X:	0.009	Y:	0.005	Z:	0.059	yaw:	-90.119	yaw rate:	-0.553	Roll:	-0.150	Pitch:	0.255	Yaw:	-133.707	Thrust:	0.000
Time:	0.429	Roll Set Point:	-0.003	Pitch Set Point:	-0.014	Yaw Set Point:	1.573	X_WP:	0.000	Y_WP:	0.000	Y_WP:	0.000	X:	0.009	Y:	0.005	Z:	0.059	yaw:	-90.114	yaw rate:	-0.260	Roll:	-0.162	Pitch:	0.264	Yaw:	-135.620	Thrust:	0.000
Time:	0.470	Roll Set Point:	-0.003	Pitch Set Point:	-0.014	Yaw Set Point:	1.573	X_WP:	0.000	Y_WP:	0.000	Y_WP:	0.000	X:	0.009	Y:	0.005	Z:	0.059	yaw:	-90.101	yaw rate:	0.679	Roll:	-0.157	Pitch:	0.266	Yaw:	-135.967	Thrust:	0.000
Time:	0.500	Roll Set Point:	-0.003	Pitch Set Point:	-0.014	Yaw Set Point:	1.573	X_WP:	0.000	Y_WP:	0.000	Y_WP:	0.000	X:	0.009	Y:	0.005	Z:	0.059	yaw:	-90.119	yaw rate:	-0.995	Roll:	-0.161	Pitch:	0.258	Yaw:	-132.006	Thrust:	0.000
Time:	0.559	Roll Set Point:	-0.003	Pitch Set Point:	-0.014	Yaw Set Point:	1.573	X_WP:	0.000	Y_WP:	0.000	Y_WP:	0.000	X:	0.009	Y:	0.005	Z:	0.059	yaw:	-90.118	yaw rate:	-1.308	Roll:	-0.154	Pitch:	0.264	Yaw:	-135.643	Thrust:	0.000
Time:	0.601	Roll Set Point:	-0.003	Pitch Set Point:	-0.014	Yaw Set Point:	1.573	X_WP:	0.000	Y_WP:	0.000	Y_WP:	0.000	X:	0.009	Y:	0.005	Z:	0.059	yaw:	-90.112	yaw rate:	-0.552	Roll:	-0.164	Pitch:	0.269	Yaw:	-135.812	Thrust:	0.000
Time:	0.631	Roll Set Point:	-0.003	Pitch Set Point:	-0.014	Yaw Set Point:	1.573	X_WP:	0.000	Y_WP:	0.000	Y_WP:	0.000	X:	0.009	Y:	0.005	Z:	0.059	yaw:	-90.110	yaw rate:	0.343	Roll:	-0.159	Pitch:	0.263	Yaw:	-132.017	Thrust:	0.000
Time:	0.671	Roll Set Point:	-0.003	Pitch Set Point:	-0.014	Yaw Set Point:	1.573	X_WP:	0.000	Y_WP:	0.000	Y_WP:	0.000	X:	0.009	Y:	0.005	Z:	0.059	yaw:	-90.113	yaw rate:	-0.593	Roll:	-0.161	Pitch:	0.263	Yaw:	-133.665	Thrust:	0.000
Time:	0.749	Roll Set Point:	-0.003	Pitch Set Point:	-0.014	Yaw Set Point:	1.573	X_WP:	0.000	Y_WP:	0.000	Y_WP:	0.000	X:	0.009	Y:	0.005	Z:	0.059	yaw:	-90.109	yaw rate:	0.631	Roll:	-0.161	Pitch:	0.271	Yaw:	-137.628	Thrust:	0.000
Time:	0.781	Roll Set Point:	-0.003	Pitch Set Point:	-0.014	Yaw Set Point:	1.573	X_WP:	0.000	Y_WP:	0.000	Y_WP:	0.000	X:	0.009	Y:	0.005	Z:	0.059	yaw:	-90.116	yaw rate:	-0.143	Roll:	-0.171	Pitch:	0.279	Yaw:	-136.090	Thrust:	0.000
Time:	0.839	Roll Set Point:	-0.003	Pitch Set Point:	-0.014	Yaw Set Point:	1.573	X_WP:	0.000	Y_WP:	0.000	Y_WP:	0.000	X:	0.009	Y:	0.005	Z:	0.059	yaw:	-90.109	yaw rate:	-0.867	Roll:	-0.162	Pitch:	0.266	Yaw:	-137.619	Thrust:	0.000
Time:	0.871	Roll Set Point:	-0.003	Pitch Set Point:	-0.014	Yaw Set Point:	1.573	X_WP:	0.000	Y_WP:	0.000	Y_WP:	0.000	X:	0.009	Y:	0.005	Z:	0.059	yaw:	-90.110	yaw rate:	-0.121	Roll:	-0.170	Pitch:	0.273	Yaw:	-132.243	Thrust:	0.000
Time:	0.900	Roll Set Point:	-0.003	Pitch Set Point:	-0.014	Yaw Set Point:	1.573	X_WP:	0.000	Y_WP:	0.000	Y_WP:	0.000	X:	0.009	Y:	0.005	Z:	0.059	yaw:	-90.113	yaw rate:	-0.289	Roll:	-0.159	Pitch:	0.264	Yaw:	-131.464	Thrust:	0.000
Time:	0.931	Roll Set Point:	-0.003	Pitch Set Point:	-0.014	Yaw Set Point:	1.573	X_WP:	0.000	Y_WP:	0.000	Y_WP:	0.000	X:	0.009	Y:	0.005	Z:	0.059	yaw:	-90.112	yaw rate:	-0.245	Roll:	-0.162	Pitch:	0.269	Yaw:	-132.030	Thrust:	0.000
Time:	0.971	Roll Set Point:	-0.003	Pitch Set Point:	-0.014	Yaw Set Point:	1.573	X_WP:	0.000	Y_WP:	0.000	Y_WP:	0.000	X:	0.009	Y:	0.005	Z:	0.059	yaw:	-90.101	yaw rate:	0.052	Roll:	-0.160	Pitch:	0.275	Yaw:	-133.760	Thrust:	0.000
Time:	1.021	Roll Set Point:	-0.003	Pitch Set Point:	-0.014	Yaw Set Point:	1.573	X_WP:	0.000	Y_WP:	0.000	Y_WP:	0.000	X:	0.009	Y:	0.005	Z:	0.059	yaw:	-90.106	yaw rate:	0.245	Roll:	-0.164	Pitch:	0.263	Yaw:	-135.654	Thrust:	0.000
Time:	1.070	Roll Set Point:	-0.003	Pitch Set Point:	-0.014	Yaw Set Point:	1.573	X_WP:	0.000	Y_WP:	0.000	Y_WP:	0.000	X:	0.009	Y:	0.005	Z:	0.059	yaw:	-90.113	yaw rate:	-0.408	Roll:	-0.169	Pitch:	0.279	Yaw:	-132.110	Thrust:	0.000
Time:	1.109	Roll Set Point:	-0.003	Pitch Set Point:	-0.014	Yaw Set Point:	1.573	X_WP:	0.000	Y_WP:	0.000	Y_WP:	0.000	X:	0.009	Y:	0.005	Z:	0.059	yaw:	-90.114	yaw rate:	0.179	Roll:	-0.171	Pitch:	0.281	Yaw:	-135.847	Thrust:	0.000
Time:	1.149	Roll Set Point:	-0.003	Pitch Set Point:	-0.014	Yaw Set Point:	1.573	X_WP:	0.000	Y_WP:	0.000	Y_WP:	0.000	X:	0.009	Y:	0.005	Z:	0.059	yaw:	-90.101	yaw rate:	0.780	Roll:	-0.169	Pitch:	0.277	Yaw:	-133.538	Thrust:	0.000
Time:	1.180	Roll Set Point:	-0.003	Pitch Set Point:	-0.014	Yaw Set Point:	1.573	X_WP:	0.000	Y_WP:	0.000	Y_WP:	0.000	X:	0.009	Y:	0.005	Z:	0.059	yaw:	-90.111	yaw rate:	0.618	Roll:	-0.164	Pitch:	0.272	Yaw:	-133.911	Thrust:	0.000
Time:	1.211	Roll Set Point:	-0.003	Pitch Set Point:	-0.014	Yaw Set Point:	1.573	X_WP:	0.000	Y_WP:	0.000	Y_WP:	0.000	X:	0.009	Y:	0.005	Z:	0.059	yaw:	-90.108	yaw rate:	-0.004	Roll:	-0.163	Pitch:	0.269	Yaw:	-131.798	Thrust:	0.000
Time:	1.241	Roll Set Point:	-0.003	Pitch Set Point:	-0.014	Yaw Set Point:	1.573	X_WP:	0.000	Y_WP:	0.000	Y_WP:	0.000	X:	0.009	Y:	0.005	Z:	0.059	yaw:	-90.105	yaw rate:	0.337	Roll:	-0.168	Pitch:	0.274	Yaw:	-131.805	Thrust:	0.000
Time:	1.270	Roll Set Point:	-0.003	Pitch Set Point:	-0.014	Yaw Set Point:	1.573	X_WP:	0.000	Y_WP:	0.000	Y_WP:	0.000	X:	0.009	Y:	0.005	Z:	0.059	yaw:	-90.106	yaw rate:	0.320	Roll:	-0.159	Pitch:	0.269	Yaw:	-131.845	Thrust:	0.000
Time:	1.329	Roll Set Point:	-0.003	Pitch Set Point:	-0.014	Yaw Set Point:	1.573	X_WP:	0.000	Y_WP:	0.000	Y_WP:	0.000	X:	0.009	Y:	0.005	Z:	0.059	yaw:	-90.110	yaw rate:	0.442	Roll:	-0.165	Pitch:	0.279	Yaw:	-135.663	Thrust:	0.000
Time:	1.399	Roll Set Point:	-0.003	Pitch Set Point:	-0.014	Yaw Set Point:	1.573	X_WP:	0.000	Y_WP:	0.000	Y_WP:	0.000	X:	0.009	Y:	0.005	Z:	0.059	yaw:	-90.110	yaw rate:	0.022	Roll:	-0.179	Pitch:	0.292	Yaw:	-139.652	Thrust:	0.000
Time:	1.449	Roll Set Point:	-0.003	Pitch Set Point:	-0.014	Yaw Set Point:	1.573	X_WP:	0.000	Y_WP:	0.000	Y_WP:	0.000	X:	0.009	Y:	0.005	Z:	0.059	yaw:	-90.108	yaw rate:	0.554	Roll:	-0.184	Pitch:	0.303	Yaw:	-135.831	Thrust:	0.000
Time:	1.489	Roll Set Point:	-0.003	Pitch Set Point:	-0.014	Yaw Set Point:	1.573	X_WP:	0.000	Y_WP:	0.000	Y_WP:	0.000	X:	0.009	Y:	0.005	Z:	0.059	yaw:	-90.115	yaw rate:	-1.039	Roll:	-0.176	Pitch:	0.285	Yaw:	-133.891	Thrust:	0.000
Time:	1.538	Roll Set Point:	-0.003	Pitch Set Point:	-0.014	Yaw Set Point:	1.573	X_WP:	0.000	Y_WP:	0.000	Y_WP:	0.000	X:	0.009	Y:	0.005	Z:	0.059	yaw:	-90.107	yaw rate:	0.224	Roll:	-0.172	Pitch:	0.290	Yaw:	-136.007	Thrust:	0.000
Time:	1.580	Roll Set Point:	-0.003	Pitch Set Point:	-0.014	Yaw Set Point:	1.573	X_WP:	0.000	Y_WP:	0.000	Y_WP:	0.000	X:	0.009	Y:	0.005	Z:	0.059	yaw:	-90.100	yaw rate:	0.572	Roll:	-0.174	Pitch:	0.293	Yaw:	-135.586	Thrust:	0.000
Time:	1.629	Roll Set Point:	-0.003	Pitch Set Point:	-0.014	Yaw Set Point:	1.573	X_WP:	0.000	Y_WP:	0.000	Y_WP:	0.000	X:	0.009	Y:	0.005	Z:	0.059	yaw:	-90.114	yaw rate:	-0.041	Roll:	-0.178	Pitch:	0.287	Yaw:	-134.137	Thrust:	0.000
Time:	1.680	Roll Set Point:	-0.003	Pitch Set Point:	-0.014	Yaw Set Point:	1.573	X_WP:	0.000	Y_WP:	0.000	Y_WP:	0.000	X:	0.009	Y:	0.005	Z:	0.059	yaw:	-90.110	yaw rate:	0.322	Roll:	-0.174	Pitch:	0.294	Yaw:	-137.627	Thrust:	0.000
Time:	1.721	Roll Set Point:	-0.003	Pitch Set Point:	-0.014	Yaw Set Point:	1.573	X_WP:	0.000	Y_WP:	0.000	Y_WP:	0.000	X:	0.009	Y:	0.005	Z:	0.059	yaw:	-90.116	yaw rate:	-0.802	Roll:	-0.179	Pitch:	0.293	Yaw:	-133.892	Thrust:	0.000
Time:	1.751	Roll Set Point:	-0.003	Pitch Set Point:	-0.014	Yaw Set Point:	1.573	X_WP:	0.000	Y_WP:	0.000	Y_WP:	0.000	X:	0.009	Y:	0.005	Z:	0.059	yaw:	-90.120	yaw rate:	-0.991	Roll:	-0.171	Pitch:	0.276	Yaw:	-131.879	Thrust:	0.000
Time:	1.790	Roll Set Point:	-0.003	Pitch Set Point:	-0.014	Yaw Set Point:	1.573	X_WP:	0.000	Y_WP:	0.000	Y_WP:	0.000	X:	0.009	Y:	0.005	Z:	0.059	yaw:	-90.104	yaw rate:	0.137	Roll:	-0.174	Pitch:	0.284	Yaw:	-133.537	Thrust:	0.000
Time:	1.821	Roll Set Point:	-0.003	Pitch Set Point:	-0.014	Yaw Set Point:	1.573	X_WP:	0.000	Y_WP:	0.000	Y_WP:	0.000	X:	0.009	Y:	0.005	Z:	0.059	yaw:	-90.109	yaw rate:	0.356	Roll:	-0.170	Pitch:	0.286	Yaw:	-132.258	Thrust:	0.000
Time:	1.869	Roll Set Point:	-0.003	Pitch Set Point:	-0.014	Yaw Set Point:	1.573	X_WP:	0.000	Y_WP:	0.000	Y_WP:	0.000	X:	0.009	Y:	0.005	Z:	0.059	yaw:	-90.107	yaw rate:	-0.300	Roll:	-0.169	Pitch:	0.293	Yaw:	-133.419	Thrust:	0.000
Time:	1.929	Roll Set Point:	-0.003	Pitch Set Point:	-0.014	Yaw Set Point:	1.573	X_WP:	0.000	Y_WP:	0.000	Y_WP:	0.000	X:	0.009	Y:	0.005	Z:	0.059	yaw:	-90.109	yaw rate:	-0.515	Roll:	-0.184	Pitch:	0.303	Yaw:	-136.052	Thrust:	0.000
Time:	1.999	Roll Set Point:	-0.003	Pitch Set Point:	-0.014	Yaw Set Point:	1.573	X_WP:	0.000	Y_WP:	0.000	Y_WP:	0.000	X:	0.009	Y:	0.005	Z:	0.059	yaw:	-90.101	yaw rate:	1.168	Roll:	-0.189	Pitch:	0.311	Yaw:	-141.622	Thrust:	0.000
Time:	2.040	Roll Set Point:	-0.003	Pitch Set Point:	-0.014	Yaw Set Point:	1.573	X_WP:	0.000	Y_WP:	0.000	Y_WP:	0.000	X:	0.009	Y:	0.005	Z:	0.059	yaw:	-90.112	yaw rate:	-0.225	Roll:	-0.194	Pitch:	0.322	Yaw:	-136.103	Thrust:	0.000
Time:	2.089	Roll Set Point:	-0.003	Pitch Set Point:	-0.014	Yaw Set Point:	1.573	X_WP:	0.000	Y_WP:	0.000	Y_WP:	0.000	X:	0.009	Y:	0.005	Z:	0.059	yaw:	-90.108	yaw rate:	0.150	Roll:	-0.178	Pitch:	0.294	Yaw:	-133.608	Thrust:	0.000
Time:	2.121	Roll Set Point:	-0.003	Pitch Set Point:	-0.014	Yaw Set Point:	1.573	X_WP:	0.000	Y_WP:	0.000	Y_WP:	0.000	X:	0.009	Y:	0.005	Z:	0.059	yaw:	-90.113	yaw rate:	0.194	Roll:	-0.186	Pitch:	0.298	Yaw:	-134.077	Thrust:	0.000
Time:	2.151	Roll Set Point:	-0.003	Pitch Set Point:	-0.014	Yaw Set Point:	1.573	X_WP:	0.000	Y_WP:	0.000	Y_WP:	0.000	X:	0.009	Y:	0.005	Z:	0.059	yaw:	-90.109	yaw rate:	-0.097	Roll:	-0.169	Pitch:	0.277	Yaw:	-131.593	Thrust:	0.000
Time:	2.180	Roll Set Point:	-0.003	Pitch Set Point:	-0.014	Yaw Set Point:	1.573	X_WP:	0.000	Y_WP:	0.000	Y_WP:	0.000	X:	0.009	Y:	0.005	Z:	0.059	yaw:	-90.121	yaw rate:	-1.146	Roll:	-0.172	Pitch:	0.286	Yaw:	-131.959	Thrust:	0.000
Time:	2.218	Roll Set Point:	-0.003	Pitch Set Point:	-0.014	Yaw Set Point:	1.573	X_WP:	0.000	Y_WP:	0.000	Y_WP:	0.000	X:	0.009	Y:	0.005	Z:	0.059	yaw:	-90.111	yaw rate:	-0.426	Roll:	-0.172	Pitch:	0.286	Yaw:	-131.738	Thrust:	0.000
Time:	2.249	Roll Set Point:	-0.003	Pitch Set Point:	-0.014	Yaw Set Point:	1.573	X_WP:	0.000	Y_WP:	0.000	Y_WP:	0.000	X:	0.009	Y:	0.005	Z:	0.059	yaw:	-90.105	yaw rate:	0.727	Roll:	-0.179	Pitch:	0.299	Yaw:	-133.593	Thrust:	0.000
Time:	2.279	Roll Set Point:	-0.003	Pitch Set Point:	-0.014	Yaw Set Point:	1.573	X_WP:	0.000	Y_WP:	0.000	Y_WP:	0.000	X:	0.009	Y:	0.005	Z:	0.059	yaw:	-90.117	yaw rate:	-0.895	Roll:	-0.178	Pitch:	0.280	Yaw:	-131.950	Thrust:	0.000
Time:	2.317	Roll Set Point:	-0.003	Pitch Set Point:	-0.014	Yaw Set Point:	1.573	X_WP:	0.000	Y_WP:	0.000	Y_WP:	0.000	X:	0.009	Y:	0.005	Z:	0.059	yaw:	-90.113	yaw rate:	-0.047	Roll:	-0.171	Pitch:	0.294	Yaw:	-131.804	Thrust:	0.000
Time:	2.349	Roll Set Point:	-0.003	Pitch Set Point:	-0.014	Yaw Set Point:	1.573	X_WP:	0.000	Y_WP:	0.000	Y_WP:	0.000	X:	0.009	Y:	0.005	Z:	0.059	yaw:	-90.118	yaw rate:	-0.337	Roll:	-0.179	Pitch:	0.300	Yaw:	-133.882	Thrust:	0.000
Time:	2.389	Roll Set Point:	-0.003	Pitch Set Point:	-0.014	Yaw Set Point:	1.573	X_WP:	0.000	Y_WP:	0.000	Y_WP:	0.000	X:	0.009	Y:	0.005	Z:	0.059	yaw:	-90.106	yaw rate:	0.092	Roll:	-0.179	Pitch:	0.303	Yaw:	-133.753	Thrust:	0.000
Time:	2.420	Roll Set Point:	-0.003	Pitch Set Point:	-0.014	Yaw Set Point:	1.573	X_WP:	0.000	Y_WP:	0.000	Y_WP:	0.000	X:	0.009	Y:	0.005	Z:	0.059	yaw:	-90.114	yaw rate:	-1.086	Roll:	-0.181	Pitch:	0.290	Yaw:	-131.913	Thrust:	0.000
Time:	2.450	Roll Set Point:	-0.003	Pitch Set Point:	-0.014	Yaw Set Point:	1.573	X_WP:	0.000	Y_WP:	0.000	Y_WP:	0.000	X:	0.009	Y:	0.005	Z:	0.059	yaw:	-90.103	yaw rate:	1.165	Roll:	-0.179	Pitch:	0.284	Yaw:	-131.720	Thrust:	0.000
Time:	2.490	Roll Set Point:	-0.003	Pitch Set Point:	-0.014	Yaw Set Point:	1.573	X_WP:	0.000	Y_WP:	0.000	Y_WP:	0.000	X:	0.009	Y:	0.005	Z:	0.059	yaw:	-90.107	yaw rate:	-0.471	Roll:	-0.174	Pitch:	0.307	Yaw:	-133.663	Thrust:	0.000
Time:	2.569	Roll Set Point:	-0.003	Pitch Set Point:	-0.014	Yaw Set Point:	1.573	X_WP:	0.000	Y_WP:	0.000	Y_WP:	0.000	X:	0.009	Y:	0.005	Z:	0.059	yaw:	-90.121	yaw rate:	-0.989	Roll:	-0.184	Pitch:	0.307	Yaw:	-137.927	Thrust:	0.000
Time:	2.600	Roll Set Point:	-0.003	Pitch Set Point:	-0.014	Yaw Set Point:	1.573	X_WP:	0.000	Y_WP:	0.000	Y_WP:	0.000	X:	0.009	Y:	0.005	Z:	0.059	yaw:	-90.104	yaw rate:	0.178	Roll:	-0.218	Pitch:	0.347	Yaw:	-135.946	Thrust:	0.000
Time:	2.630	Roll Set Point:	-0.003	Pitch Set Point:	-0.014	Yaw Set Point:	1.573	X_WP:	0.000	Y_WP:	0.000	Y_WP:	0.000	X:	0.009	Y:	0.005	Z:	0.059	yaw:	-90.111	yaw rate:	0.477	Roll:	-0.178	Pitch:	0.293	Yaw:	-131.892	Thrust:	0.000
Time:	2.670	Roll Set Point:	-0.003	Pitch Set Point:	-0.014	Yaw Set Point:	1.573	X_WP:	0.000	Y_WP:	0.000	Y_WP:	0.000	X:	0.009	Y:	0.005	Z:	0.059	yaw:	-90.110	yaw rate:	-1.190	Roll:	-0.175	Pitch:	0.304	Yaw:	-133.636	Thrust:	0.000
Time:	2.700	Roll Set Point:	-0.003	Pitch Set Point:	-0.014	Yaw Set Point:	1.573	X_WP:	0.000	Y_WP:	0.000	Y_WP:	0.000	X:	0.009	Y:	0.005	Z:	0.059	yaw:	-90.109	yaw rate:	-0.371	Roll:	-0.184	Pitch:	0.295	Yaw:	-132.019	Thrust:	0.000
Time:	2.730	Roll Set Point:	-0.003	Pitch Set Point:	-0.014	Yaw Set Point:	1.573	X_WP:	0.000	Y_WP:	0.000	Y_WP:	0.000	X:	0.009	Y:	0.005	Z:	0.059	yaw:	-90.112	yaw rate:	0.072	Roll:	-0.183	Pitch:	0.296	Yaw:	-131.864	Thrust:	0.000
Time:	2.778	Roll Set Point:	-0.003	Pitch Set Point:	-0.014	Yaw Set Point:	1.573	X_WP:	0.000	Y_WP:	0.000	Y_WP:	0.000	X:	0.009	Y:	0.005	Z:	0.059	yaw:	-90.111	yaw rate:	0.258	Roll:	-0.179	Pitch:	0.299	Yaw:	-131.631	Thrust:	0.000
Time:	2.819	Roll Set Point:	-0.003	Pitch Set Point:	-0.014	Yaw Set Point:	1.573	X_WP:	0.000	Y_WP:	0.000	Y_WP:	0.000	X:	0.009	Y:	0.005	Z:	0.059	yaw:	-90.108	yaw rate:	-0.631	Roll:	-0.195	Pitch:	0.329	Yaw:	-136.021	Thrust:	0.000
Time:	2.859	Roll Set Point:	-0.003	Pitch Set Point:	-0.014	Yaw Set Point:	1.573	X_WP:	0.000	Y_WP:	0.000	Y_WP:	0.000	X:	0.009	Y:	0.005	Z:	0.059	yaw:	-90.105	yaw rate:	1.014	Roll:	-0.190	Pitch:	0.303	Yaw:	-133.610	Thrust:	0.000
Time:	2.898	Roll Set Point:	-0.003	Pitch Set Point:	-0.014	Yaw Set Point:	1.573	X_WP:	0.000	Y_WP:	0.000	Y_WP:	0.000	X:	0.009	Y:	0.005	Z:	0.059	yaw:	-90.116	yaw rate:	-0.968	Roll:	-0.189	Pitch:	0.316	Yaw:	-133.918	Thrust:	0.000
Time:	2.941	Roll Set Point:	-0.003	Pitch Set Point:	-0.014	Yaw Set Point:	1.573	X_WP:	0.000	Y_WP:	0.000	Y_WP:	0.000	X:	0.009	Y:	0.005	Z:	0.059	yaw:	-90.104	yaw rate:	0.787	Roll:	-0.194	Pitch:	0.332	Yaw:	-135.984	Thrust:	0.000
Time:	2.970	Roll Set Point:	-0.003	Pitch Set Point:	-0.014	Yaw Set Point:	1.573	X_WP:	0.000	Y_WP:	0.000	Y_WP:	0.000	X:	0.009	Y:	0.005	Z:	0.059	yaw:	-90.105	yaw rate:	0.528	Roll:	-0.188	Pitch:	0.290	Yaw:	-131.422	Thrust:	0.000
Time:	3.008	Roll Set Point:	-0.003	Pitch Set Point:	-0.014	Yaw Set Point:	1.573	X_WP:	0.000	Y_WP:	0.000	Y_WP:	0.000	X:	0.009	Y:	0.005	Z:	0.059	yaw:	-90.107	yaw rate:	-0.379	Roll:	-0.181	Pitch:	0.308	Yaw:	-132.052	Thrust:	0.000
Time:	3.041	Roll Set Point:	-0.003	Pitch Set Point:	-0.014	Yaw Set Point:	1.573	X_WP:	0.000	Y_WP:	0.000	Y_WP:	0.000	X:	0.009	Y:	0.005	Z:	0.059	yaw:	-90.107	yaw rate:	0.919	Roll:	-0.196	Pitch:	0.315	Yaw:	-133.829	Thrust:	0.000
Time:	3.089	Roll Set Point:	-0.003	Pitch Set Point:	-0.014	Yaw Set Point:	1.573	X_WP:	0.000	Y_WP:	0.000	Y_WP:	0.000	X:	0.009	Y:	0.005	Z:	0.059	yaw:	-90.114	yaw rate:	-0.377	Roll:	-0.188	Pitch:	0.330	Yaw:	-135.685	Thrust:	0.000
Time:	3.120	Roll Set Point:	-0.003	Pitch Set Point:	-0.014	Yaw Set Point:	1.573	X_WP:	0.000	Y_WP:	0.000	Y_WP:	0.000	X:	0.009	Y:	0.005	Z:	0.059	yaw:	-90.117	yaw rate:	-1.377	Roll:	-0.192	Pitch:	0.310	Yaw:	-131.871	Thrust:	0.000
Time:	3.150	Roll Set Point:	-0.003	Pitch Set Point:	-0.014	Yaw Set Point:	1.573	X_WP:	0.000	Y_WP:	0.000	Y_WP:	0.000	X:	0.009	Y:	0.005	Z:	0.059	yaw:	-90.102	yaw rate:	0.395	Roll:	-0.184	Pitch:	0.297	Yaw:	-131.897	Thrust:	0.000
Time:	3.200	Roll Set Point:	-0.003	Pitch Set Point:	-0.014	Yaw Set Point:	1.573	X_WP:	0.000	Y_WP:	0.000	Y_WP:	0.000	X:	0.009	Y:	0.005	Z:	0.059	yaw:	-90.110	yaw rate:	-0.387	Roll:	-0.184	Pitch:	0.319	Yaw:	-135.694	Thrust:	0.000
Time:	3.230	Roll Set Point:	-0.003	Pitch Set Point:	-0.014	Yaw Set Point:	1.573	X_WP:	0.000	Y_WP:	0.000	Y_WP:	0.000	X:	0.009	Y:	0.005	Z:	0.059	yaw:	-90.115	yaw rate:	-1.333	Roll:	-0.201	Pitch:	0.318	Yaw:	-131.881	Thrust:	0.000
Time:	3.262	Roll Set Point:	-0.003	Pitch Set Point:	-0.014	Yaw Set Point:	1.573	X_WP:	0.000	Y_WP:	0.000	Y_WP:	0.000	X:	0.009	Y:	0.005	Z:	0.059	yaw:	-90.108	yaw rate:	0.319	Roll:	-0.186	Pitch:	0.314	Yaw:	-131.773	Thrust:	0.000
Time:	3.309	Roll Set Point:	-0.003	Pitch Set Point:	-0.014	Yaw Set Point:	1.573	X_WP:	0.000	Y_WP:	0.000	Y_WP:	0.000	X:	0.009	Y:	0.005	Z:	0.059	yaw:	-90.108	yaw rate:	0.407	Roll:	-0.186	Pitch:	0.314	Yaw:	-133.633	Thrust:	0.000
Time:	3.341	Roll Set Point:	-0.003	Pitch Set Point:	-0.014	Yaw Set Point:	1.573	X_WP:	0.000	Y_WP:	0.000	Y_WP:	0.000	X:	0.009	Y:	0.005	Z:	0.059	yaw:	-90.113	yaw rate:	-0.940	Roll:	-0.206	Pitch:	0.334	Yaw:	-134.082	Thrust:	0.000
Time:	3.379	Roll Set Point:	-0.003	Pitch Set Point:	-0.014	Yaw Set Point:	1.573	X_WP:	0.000	Y_WP:	0.000	Y_WP:	0.000	X:	0.009	Y:	0.005	Z:	0.059	yaw:	-90.110	yaw rate:	0.187	Roll:	-0.187	Pitch:	0.321	Yaw:	-133.606	Thrust:	0.000
Time:	3.430	Roll Set Point:	-0.003	Pitch Set Point:	-0.014	Yaw Set Point:	1.573	X_WP:	0.000	Y_WP:	0.000	Y_WP:	0.000	X:	0.009	Y:	0.005	Z:	0.059	yaw:	-90.107	yaw rate:	0.193	Roll:	-0.195	Pitch:	0.322	Yaw:	-135.824	Thrust:	0.000
Time:	3.468	Roll Set Point:	-0.003	Pitch Set Point:	-0.014	Yaw Set Point:	1.573	X_WP:	0.000	Y_WP:	0.000	Y_WP:	0.000	X:	0.009	Y:	0.005	Z:	0.059	yaw:	-90.116	yaw rate:	-0.918	Roll:	-0.210	Pitch:	0.328	Yaw:	-131.924	Thrust:	0.000
Time:	3.518	Roll Set Point:	-0.003	Pitch Set Point:	-0.014	Yaw Set Point:	1.573	X_WP:	0.000	Y_WP:	0.000	Y_WP:	0.000	X:	0.009	Y:	0.005	Z:	0.059	yaw:	-90.110	yaw rate:	-0.979	Roll:	-0.200	Pitch:	0.342	Yaw:	-135.808	Thrust:	0.000
Time:	3.551	Roll Set Point:	-0.003	Pitch Set Point:	-0.014	Yaw Set Point:	1.573	X_WP:	0.000	Y_WP:	0.000	Y_WP:	0.000	X:	0.009	Y:	0.005	Z:	0.059	yaw:	-90.116	yaw rate:	-0.459	Roll:	-0.209	Pitch:	0.331	Yaw:	-134.086	Thrust:	0.000
Time:	3.590	Roll Set Point:	-0.003	Pitch Set Point:	-0.014	Yaw Set Point:	1.573	X_WP:	0.000	Y_WP:	0.000	Y_WP:	0.000	X:	0.009	Y:	0.005	Z:	0.059	yaw:	-90.108	yaw rate:	-1.089	Roll:	-0.189	Pitch:	0.329	Yaw:	-133.584	Thrust:	0.000
Time:	3.620	Roll Set Point:	-0.003	Pitch Set Point:	-0.014	Yaw Set Point:	1.573	X_WP:	0.000	Y_WP:	0.000	Y_WP:	0.000	X:	0.009	Y:	0.005	Z:	0.059	yaw:	-90.111	yaw rate:	-1.150	Roll:	-0.198	Pitch:	0.311	Yaw:	-131.853	Thrust:	0.000
Time:	3.698	Roll Set Point:	-0.003	Pitch Set Point:	-0.014	Yaw Set Point:	1.573	X_WP:	0.000	Y_WP:	0.000	Y_WP:	0.000	X:	0.009	Y:	0.005	Z:	0.059	yaw:	-90.120	yaw rate:	-1.175	Roll:	-0.183	Pitch:	0.327	Yaw:	-137.506	Thrust:	0.000
Time:	3.730	Roll Set Point:	-0.003	Pitch Set Point:	-0.014	Yaw Set Point:	1.573	X_WP:	0.000	Y_WP:	0.000	Y_WP:	0.000	X:	0.009	Y:	0.005	Z:	0.059	yaw:	-90.113	yaw rate:	0.109	Roll:	-0.250	Pitch:	0.391	Yaw:	-136.219	Thrust:	0.000
Time:	3.768	Roll Set Point:	-0.003	Pitch Set Point:	-0.014	Yaw Set Point:	1.573	X_WP:	0.000	Y_WP:	0.000	Y_WP:	0.000	X:	0.009	Y:	0.005	Z:	0.059	yaw:	-90.105	yaw rate:	0.274	Roll:	-0.190	Pitch:	0.319	Yaw:	-131.753	Thrust:	0.000
Time:	3.818	Roll Set Point:	-0.003	Pitch Set Point:	-0.014	Yaw Set Point:	1.573	X_WP:	0.000	Y_WP:	0.000	Y_WP:	0.000	X:	0.009	Y:	0.005	Z:	0.059	yaw:	-90.104	yaw rate:	0.563	Roll:	-0.202	Pitch:	0.350	Yaw:	-135.626	Thrust:	0.000
Time:	3.850	Roll Set Point:	-0.003	Pitch Set Point:	-0.014	Yaw Set Point:	1.573	X_WP:	0.000	Y_WP:	0.000	Y_WP:	0.000	X:	0.009	Y:	0.005	Z:	0.059	yaw:	-90.114	yaw rate:	-0.182	Roll:	-0.217	Pitch:	0.328	Yaw:	-134.111	Thrust:	0.000
Time:	3.880	Roll Set Point:	-0.003	Pitch Set Point:	-0.014	Yaw Set Point:	1.573	X_WP:	0.000	Y_WP:	0.000	Y_WP:	0.000	X:	0.009	Y:	0.005	Z:	0.059	yaw:	-90.113	yaw rate:	-0.749	Roll:	-0.188	Pitch:	0.322	Yaw:	-131.625	Thrust:	0.000
Time:	3.919	Roll Set Point:	-0.003	Pitch Set Point:	-0.014	Yaw Set Point:	1.573	X_WP:	0.000	Y_WP:	0.000	Y_WP:	0.000	X:	0.009	Y:	0.005	Z:	0.059	yaw:	-90.119	yaw rate:	-1.126	Roll:	-0.191	Pitch:	0.314	Yaw:	-132.102	Thrust:	0.000
Time:	3.959	Roll Set Point:	-0.003	Pitch Set Point:	-0.014	Yaw Set Point:	1.573	X_WP:	0.000	Y_WP:	0.000	Y_WP:	0.000	X:	0.009	Y:	0.005	Z:	0.059	yaw:	-90.109	yaw rate:	0.281	Roll:	-0.206	Pitch:	0.334	Yaw:	-133.572	Thrust:	0.000
Time:	3.999	Roll Set Point:	-0.003	Pitch Set Point:	-0.014	Yaw Set Point:	1.573	X_WP:	0.000	Y_WP:	0.000	Y_WP:	0.000	X:	0.009	Y:	0.005	Z:	0.059	yaw:	-90.102	yaw rate:	0.753	Roll:	-0.205	Pitch:	0.335	Yaw:	-133.779	Thrust:	0.000
Time:	4.050	Roll Set Point:	-0.003	Pitch Set Point:	-0.014	Yaw Set Point:	1.573	X_WP:	0.000	Y_WP:	0.000	Y_WP:	0.500	X:	0.009	Y:	0.005	Z:	0.059	yaw:	-90.107	yaw rate:	0.553	Roll:	-0.201	Pitch:	0.366	Yaw:	-137.667	Thrust:	100.000
Time:	4.089	Roll Set Point:	-0.003	Pitch Set Point:	-0.014	Yaw Set Point:	1.573	X_WP:	0.000	Y_WP:	0.000	Y_WP:	0.500	X:	0.009	Y:	0.005	Z:	0.059	yaw:	-90.112	yaw rate:	-0.327	Roll:	-0.218	Pitch:	0.341	Yaw:	-133.876	Thrust:	24.877
Time:	4.120	Roll Set Point:	-0.003	Pitch Set Point:	-0.014	Yaw Set Point:	1.573	X_WP:	0.000	Y_WP:	0.000	Y_WP:	0.500	X:	0.009	Y:	0.005	Z:	0.059	yaw:	-90.107	yaw rate:	1.054	Roll:	-0.208	Pitch:	0.330	Yaw:	-131.989	Thrust:	27.069
Time:	4.169	Roll Set Point:	-0.003	Pitch Set Point:	-0.014	Yaw Set Point:	1.573	X_WP:	0.000	Y_WP:	0.000	Y_WP:	0.500	X:	0.009	Y:	0.005	Z:	0.059	yaw:	-90.112	yaw rate:	-0.507	Roll:	-0.189	Pitch:	0.344	Yaw:	-135.671	Thrust:	30.376
Time:	4.229	Roll Set Point:	-0.003	Pitch Set Point:	-0.014	Yaw Set Point:	1.573	X_WP:	0.000	Y_WP:	0.000	Y_WP:	0.500	X:	0.009	Y:	0.005	Z:	0.059	yaw:	-90.118	yaw rate:	-1.129	Roll:	-0.222	Pitch:	0.359	Yaw:	-137.684	Thrust:	33.155
Time:	4.268	Roll Set Point:	-0.003	Pitch Set Point:	-0.014	Yaw Set Point:	1.573	X_WP:	0.000	Y_WP:	0.000	Y_WP:	0.500	X:	0.009	Y:	0.005	Z:	0.059	yaw:	-90.120	yaw rate:	-0.661	Roll:	-0.236	Pitch:	0.371	Yaw:	-132.069	Thrust:	33.747
Time:	4.330	Roll Set Point:	-0.003	Pitch Set Point:	-0.014	Yaw Set Point:	1.573	X_WP:	0.000	Y_WP:	0.000	Y_WP:	0.500	X:	0.009	Y:	0.005	Z:	0.059	yaw:	-90.107	yaw rate:	0.622	Roll:	-0.205	Pitch:	0.356	Yaw:	-139.599	Thrust:	41.044
Time:	4.370	Roll Set Point:	-0.003	Pitch Set Point:	-0.014	Yaw Set Point:	1.573	X_WP:	0.000	Y_WP:	0.000	Y_WP:	0.500	X:	0.009	Y:	0.005	Z:	0.059	yaw:	-90.114	yaw rate:	0.185	Roll:	-0.237	Pitch:	0.392	Yaw:	-134.094	Thrust:	41.460
Time:	4.418	Roll Set Point:	-0.003	Pitch Set Point:	-0.014	Yaw Set Point:	1.573	X_WP:	0.000	Y_WP:	0.000	Y_WP:	0.500	X:	0.009	Y:	0.005	Z:	0.059	yaw:	-90.116	yaw rate:	-1.950	Roll:	-0.208	Pitch:	0.354	Yaw:	-133.860	Thrust:	39.450
Time:	4.450	Roll Set Point:	-0.003	Pitch Set Point:	-0.014	Yaw Set Point:	1.573	X_WP:	0.000	Y_WP:	0.000	Y_WP:	0.500	X:	0.009	Y:	0.005	Z:	0.059	yaw:	-90.104	yaw rate:	0.421	Roll:	-0.225	Pitch:	0.344	Yaw:	-133.751	Thrust:	42.479
Time:	4.480	Roll Set Point:	-0.003	Pitch Set Point:	-0.014	Yaw Set Point:	1.573	X_WP:	0.000	Y_WP:	0.000	Y_WP:	0.500	X:	0.009	Y:	0.005	Z:	0.059	yaw:	-90.111	yaw rate:	-0.020	Roll:	-0.194	Pitch:	0.316	Yaw:	-131.692	Thrust:	38.654
Time:	4.509	Roll Set Point:	-0.003	Pitch Set Point:	-0.014	Yaw Set Point:	1.573	X_WP:	0.000	Y_WP:	0.000	Y_WP:	0.500	X:	0.009	Y:	0.005	Z:	0.059	yaw:	-90.102	yaw rate:	0.865	Roll:	-0.196	Pitch:	0.326	Yaw:	-131.747	Thrust:	40.728
Time:	4.549	Roll Set Point:	-0.003	Pitch Set Point:	-0.014	Yaw Set Point:	1.573	X_WP:	0.000	Y_WP:	0.000	Y_WP:	0.500	X:	0.009	Y:	0.005	Z:	0.059	yaw:	-90.115	yaw rate:	0.056	Roll:	-0.213	Pitch:	0.346	Yaw:	-133.928	Thrust:	48.407
Time:	4.598	Roll Set Point:	-0.003	Pitch Set Point:	-0.014	Yaw Set Point:	1.573	X_WP:	0.000	Y_WP:	0.000	Y_WP:	0.500	X:	0.009	Y:	0.005	Z:	0.059	yaw:	-90.113	yaw rate:	0.055	Roll:	-0.194	Pitch:	0.352	Yaw:	-133.644	Thrust:	49.846
Time:	4.658	Roll Set Point:	-0.003	Pitch Set Point:	-0.014	Yaw Set Point:	1.573	X_WP:	0.000	Y_WP:	0.000	Y_WP:	0.500	X:	0.009	Y:	0.005	Z:	0.059	yaw:	-90.111	yaw rate:	-0.242	Roll:	-0.226	Pitch:	0.371	Yaw:	-139.634	Thrust:	66.807
Time:	4.739	Roll Set Point:	-0.003	Pitch Set Point:	-0.014	Yaw Set Point:	1.573	X_WP:	0.000	Y_WP:	0.000	Y_WP:	0.500	X:	0.009	Y:	0.005	Z:	0.059	yaw:	-90.112	yaw rate:	-0.857	Roll:	-0.244	Pitch:	0.399	Yaw:	-138.055	Thrust:	69.965
Time:	4.771	Roll Set Point:	-0.003	Pitch Set Point:	-0.014	Yaw Set Point:	1.573	X_WP:	0.000	Y_WP:	0.000	Y_WP:	0.500	X:	0.009	Y:	0.005	Z:	0.059	yaw:	-90.113	yaw rate:	-0.530	Roll:	-0.271	Pitch:	0.433	Yaw:	-136.063	Thrust:	73.937
Time:	4.811	Roll Set Point:	-0.003	Pitch Set Point:	-0.014	Yaw Set Point:	1.573	X_WP:	0.000	Y_WP:	0.000	Y_WP:	0.500	X:	0.009	Y:	0.005	Z:	0.059	yaw:	-90.112	yaw rate:	0.562	Roll:	-0.203	Pitch:	0.350	Yaw:	-133.628	Thrust:	58.089
Time:	4.860	Roll Set Point:	-0.003	Pitch Set Point:	-0.014	Yaw Set Point:	1.573	X_WP:	0.000	Y_WP:	0.000	Y_WP:	0.500	X:	0.009	Y:	0.005	Z:	0.059	yaw:	-90.108	yaw rate:	1.103	Roll:	-0.212	Pitch:	0.351	Yaw:	-135.819	Thrust:	70.325
Time:	4.890	Roll Set Point:	-0.003	Pitch Set Point:	-0.014	Yaw Set Point:	1.573	X_WP:	0.000	Y_WP:	0.000	Y_WP:	0.500	X:	0.009	Y:	0.005	Z:	0.059	yaw:	-90.107	yaw rate:	-0.314	Roll:	-0.234	Pitch:	0.353	Yaw:	-132.020	Thrust:	53.503
Time:	4.928	Roll Set Point:	-0.003	Pitch Set Point:	-0.014	Yaw Set Point:	1.573	X_WP:	0.000	Y_WP:	0.000	Y_WP:	0.500	X:	0.009	Y:	0.005	Z:	0.059	yaw:	-90.114	yaw rate:	-1.419	Roll:	-0.198	Pitch:	0.336	Yaw:	-131.906	Thrust:	55.095
Time:	4.968	Roll Set Point:	-0.003	Pitch Set Point:	-0.014	Yaw Set Point:	1.573	X_WP:	0.000	Y_WP:	0.000	Y_WP:	0.500	X:	0.009	Y:	0.005	Z:	0.059	yaw:	-90.116	yaw rate:	-0.217	Roll:	-0.220	Pitch:	0.357	Yaw:	-133.854	Thrust:	67.476
Time:	5.000	Roll Set Point:	-0.003	Pitch Set Point:	-0.014	Yaw Set Point:	1.573	X_WP:	0.000	Y_WP:	0.000	Y_WP:	0.500	X:	0.009	Y:	0.005	Z:	0.059	yaw:	-90.115	yaw rate:	-0.635	Roll:	-0.214	Pitch:	0.354	Yaw:	-133.635	Thrust:	69.627
Time:	5.059	Roll Set Point:	-0.003	Pitch Set Point:	-0.014	Yaw Set Point:	1.573	X_WP:	0.000	Y_WP:	0.000	Y_WP:	0.500	X:	0.009	Y:	0.005	Z:	0.059	yaw:	-90.109	yaw rate:	0.973	Roll:	-0.201	Pitch:	0.360	Yaw:	-137.436	Thrust:	82.371
Time:	5.109	Roll Set Point:	-0.003	Pitch Set Point:	-0.014	Yaw Set Point:	1.573	X_WP:	0.000	Y_WP:	0.000	Y_WP:	0.500	X:	0.009	Y:	0.005	Z:	0.059	yaw:	-90.111	yaw rate:	-0.150	Roll:	-0.248	Pitch:	0.414	Yaw:	-134.244	Thrust:	86.251
Time:	5.140	Roll Set Point:	-0.003	Pitch Set Point:	-0.014	Yaw Set Point:	1.573	X_WP:	0.000	Y_WP:	0.000	Y_WP:	0.500	X:	0.009	Y:	0.005	Z:	0.059	yaw:	-90.107	yaw rate:	0.246	Roll:	-0.235	Pitch:	0.353	Yaw:	-133.809	Thrust:	75.995
Time:	5.189	Roll Set Point:	-0.003	Pitch Set Point:	-0.014	Yaw Set Point:	1.573	X_WP:	0.000	Y_WP:	0.000	Y_WP:	0.500	X:	0.009	Y:	0.005	Z:	0.059	yaw:	-90.123	yaw rate:	-0.753	Roll:	-0.208	Pitch:	0.342	Yaw:	-131.989	Thrust:	66.024
Time:	5.220	Roll Set Point:	-0.003	Pitch Set Point:	-0.014	Yaw Set Point:	1.573	X_WP:	0.000	Y_WP:	0.000	Y_WP:	0.500	X:	0.009	Y:	0.005	Z:	0.059	yaw:	-90.110	yaw rate:	1.384	Roll:	-0.228	Pitch:	0.388	Yaw:	-135.574	Thrust:	92.795
Time:	5.250	Roll Set Point:	-0.003	Pitch Set Point:	-0.014	Yaw Set Point:	1.573	X_WP:	0.000	Y_WP:	0.000	Y_WP:	0.500	X:	0.009	Y:	0.005	Z:	0.059	yaw:	-90.112	yaw rate:	0.209	Roll:	-0.210	Pitch:	0.336	Yaw:	-132.052	Thrust:	67.803
Time:	5.308	Roll Set Point:	-0.003	Pitch Set Point:	-0.014	Yaw Set Point:	1.573	X_WP:	0.000	Y_WP:	0.000	Y_WP:	0.500	X:	0.009	Y:	0.005	Z:	0.059	yaw:	-90.108	yaw rate:	0.362	Roll:	-0.202	Pitch:	0.361	Yaw:	-135.416	Thrust:	84.456
Time:	5.340	Roll Set Point:	-0.003	Pitch Set Point:	-0.014	Yaw Set Point:	1.573	X_WP:	0.000	Y_WP:	0.000	Y_WP:	0.500	X:	0.009	Y:	0.005	Z:	0.059	yaw:	-90.106	yaw rate:	1.229	Roll:	-0.255	Pitch:	0.392	Yaw:	-134.226	Thrust:	100.000
Time:	5.370	Roll Set Point:	-0.003	Pitch Set Point:	-0.014	Yaw Set Point:	1.573	X_WP:	0.000	Y_WP:	0.000	Y_WP:	0.500	X:	0.009	Y:	0.005	Z:	0.059	yaw:	-90.114	yaw rate:	0.028	Roll:	-0.200	Pitch:	0.342	Yaw:	-131.905	Thrust:	72.572
Time:	5.400	Roll Set Point:	-0.003	Pitch Set Point:	-0.014	Yaw Set Point:	1.573	X_WP:	0.000	Y_WP:	0.000	Y_WP:	0.500	X:	0.009	Y:	0.005	Z:	0.059	yaw:	-90.114	yaw rate:	-0.206	Roll:	-0.203	Pitch:	0.336	Yaw:	-131.643	Thrust:	74.293
Time:	5.431	Roll Set Point:	-0.003	Pitch Set Point:	-0.014	Yaw Set Point:	1.573	X_WP:	0.000	Y_WP:	0.000	Y_WP:	0.500	X:	0.009	Y:	0.005	Z:	0.059	yaw:	-90.104	yaw rate:	1.953	Roll:	-0.209	Pitch:	0.342	Yaw:	-131.740	Thrust:	75.744
Time:	5.469	Roll Set Point:	-0.003	Pitch Set Point:	-0.014	Yaw Set Point:	1.573	X_WP:	0.000	Y_WP:	0.000	Y_WP:	0.500	X:	0.009	Y:	0.005	Z:	0.059	yaw:	-90.103	yaw rate:	1.385	Roll:	-0.205	Pitch:	0.332	Yaw:	-131.805	Thrust:	75.615
Time:	5.529	Roll Set Point:	-0.003	Pitch Set Point:	-0.014	Yaw Set Point:	1.573	X_WP:	0.000	Y_WP:	0.000	Y_WP:	0.500	X:	0.009	Y:	0.005	Z:	0.059	yaw:	-90.105	yaw rate:	0.208	Roll:	-0.222	Pitch:	0.397	Yaw:	-139.656	Thrust:	100.000
Time:	5.569	Roll Set Point:	-0.003	Pitch Set Point:	-0.014	Yaw Set Point:	1.573	X_WP:	0.000	Y_WP:	0.000	Y_WP:	0.500	X:	0.009	Y:	0.005	Z:	0.059	yaw:	-90.114	yaw rate:	-0.995	Roll:	-0.258	Pitch:	0.395	Yaw:	-132.114	Thrust:	100.000
Time:	5.600	Roll Set Point:	-0.003	Pitch Set Point:	-0.014	Yaw Set Point:	1.573	X_WP:	0.000	Y_WP:	0.000	Y_WP:	0.500	X:	0.009	Y:	0.005	Z:	0.059	yaw:	-90.100	yaw rate:	0.949	Roll:	-0.226	Pitch:	0.379	Yaw:	-133.734	Thrust:	99.495
Time:	5.630	Roll Set Point:	-0.003	Pitch Set Point:	-0.014	Yaw Set Point:	1.573	X_WP:	0.000	Y_WP:	0.000	Y_WP:	0.500	X:	0.009	Y:	0.005	Z:	0.059	yaw:	-90.115	yaw rate:	-0.784	Roll:	-0.203	Pitch:	0.332	Yaw:	-131.974	Thrust:	83.817
Time:	5.669	Roll Set Point:	-0.003	Pitch Set Point:	-0.014	Yaw Set Point:	1.573	X_WP:	0.000	Y_WP:	0.000	Y_WP:	0.500	X:	0.009	Y:	0.005	Z:	0.059	yaw:	-90.107	yaw rate:	0.239	Roll:	-0.212	Pitch:	0.347	Yaw:	-131.755	Thrust:	85.318
Time:	5.718	Roll Set Point:	-0.003	Pitch Set Point:	-0.014	Yaw Set Point:	1.573	X_WP:	0.000	Y_WP:	0.000	Y_WP:	0.500	X:	0.009	Y:	0.005	Z:	0.059	yaw:	-90.116	yaw rate:	-1.528	Roll:	-0.221	Pitch:	0.394	Yaw:	-135.705	Thrust:	100.000
Time:	5.769	Roll Set Point:	-0.003	Pitch Set Point:	-0.014	Yaw Set Point:	1.573	X_WP:	0.000	Y_WP:	0.000	Y_WP:	0.500	X:	0.009	Y:	0.005	Z:	0.059	yaw:	-90.109	yaw rate:	0.233	Roll:	-0.244	Pitch:	0.414	Yaw:	-137.615	Thrust:	100.000
Time:	5.819	Roll Set Point:	-0.003	Pitch Set Point:	-0.014	Yaw Set Point:	1.573	X_WP:	0.000	Y_WP:	0.000	Y_WP:	0.500	X:	0.009	Y:	0.005	Z:	0.059	yaw:	-90.112	yaw rate:	-0.386	Roll:	-0.249	Pitch:	0.403	Yaw:	-134.059	Thrust:	100.000
Time:	5.858	Roll Set Point:	-0.003	Pitch Set Point:	-0.014	Yaw Set Point:	1.573	X_WP:	0.000	Y_WP:	0.000	Y_WP:	0.500	X:	0.009	Y:	0.005	Z:	0.059	yaw:	-90.110	yaw rate:	-0.489	Roll:	-0.244	Pitch:	0.378	Yaw:	-133.829	Thrust:	100.000
Time:	5.890	Roll Set Point:	-0.003	Pitch Set Point:	-0.014	Yaw Set Point:	1.573	X_WP:	0.000	Y_WP:	0.000	Y_WP:	0.500	X:	0.009	Y:	0.005	Z:	0.059	yaw:	-90.108	yaw rate:	-0.216	Roll:	-0.229	Pitch:	0.373	Yaw:	-133.818	Thrust:	100.000
Time:	5.921	Roll Set Point:	-0.003	Pitch Set Point:	-0.014	Yaw Set Point:	1.573	X_WP:	0.000	Y_WP:	0.000	Y_WP:	0.500	X:	0.009	Y:	0.005	Z:	0.059	yaw:	-90.107	yaw rate:	-0.318	Roll:	-0.209	Pitch:	0.347	Yaw:	-131.827	Thrust:	94.845
Time:	5.959	Roll Set Point:	-0.003	Pitch Set Point:	-0.014	Yaw Set Point:	1.573	X_WP:	0.000	Y_WP:	0.000	Y_WP:	0.500	X:	0.009	Y:	0.005	Z:	0.059	yaw:	-90.103	yaw rate:	0.040	Roll:	-0.211	Pitch:	0.343	Yaw:	-131.786	Thrust:	96.542
Time:	5.988	Roll Set Point:	-0.003	Pitch Set Point:	-0.014	Yaw Set Point:	1.573	X_WP:	0.000	Y_WP:	0.000	Y_WP:	0.500	X:	0.009	Y:	0.005	Z:	0.059	yaw:	-90.111	yaw rate:	-0.213	Roll:	-0.208	Pitch:	0.348	Yaw:	-131.906	Thrust:	98.012
Time:	6.031	Roll Set Point:	-0.003	Pitch Set Point:	-0.014	Yaw Set Point:	1.573	X_WP:	0.000	Y_WP:	0.000	Y_WP:	0.500	X:	0.009	Y:	0.005	Z:	0.059	yaw:	-90.123	yaw rate:	-1.541	Roll:	-0.251	Pitch:	0.406	Yaw:	-135.921	Thrust:	100.000
Time:	6.070	Roll Set Point:	-0.003	Pitch Set Point:	-0.014	Yaw Set Point:	1.573	X_WP:	0.000	Y_WP:	0.000	Y_WP:	0.500	X:	0.009	Y:	0.005	Z:	0.059	yaw:	-90.105	yaw rate:	0.410	Roll:	-0.210	Pitch:	0.388	Yaw:	-133.518	Thrust:	100.000
Time:	6.099	Roll Set Point:	-0.003	Pitch Set Point:	-0.014	Yaw Set Point:	1.573	X_WP:	0.000	Y_WP:	0.000	Y_WP:	0.500	X:	0.009	Y:	0.005	Z:	0.059	yaw:	-90.106	yaw rate:	0.398	Roll:	-0.227	Pitch:	0.337	Yaw:	-131.827	Thrust:	100.000
Time:	6.139	Roll Set Point:	-0.003	Pitch Set Point:	-0.014	Yaw Set Point:	1.573	X_WP:	0.000	Y_WP:	0.000	Y_WP:	0.500	X:	0.009	Y:	0.005	Z:	0.059	yaw:	-90.113	yaw rate:	-0.734	Roll:	-0.209	Pitch:	0.386	Yaw:	-133.892	Thrust:	100.000
Time:	6.180	Roll Set Point:	-0.003	Pitch Set Point:	-0.014	Yaw Set Point:	1.573	X_WP:	0.000	Y_WP:	0.000	Y_WP:	0.500	X:	0.009	Y:	0.005	Z:	0.059	yaw:	-90.122	yaw rate:	-2.019	Roll:	-0.233	Pitch:	0.382	Yaw:	-133.711	Thrust:	100.000
Time:	6.229	Roll Set Point:	-0.003	Pitch Set Point:	-0.014	Yaw Set Point:	1.573	X_WP:	0.000	Y_WP:	0.000	Y_WP:	0.500	X:	0.009	Y:	0.005	Z:	0.059	yaw:	-90.118	yaw rate:	-1.114	Roll:	-0.238	Pitch:	0.386	Yaw:	-134.026	Thrust:	100.000
Time:	6.280	Roll Set Point:	-0.003	Pitch Set Point:	-0.014	Yaw Set Point:	1.573	X_WP:	0.000	Y_WP:	0.000	Y_WP:	0.500	X:	0.009	Y:	0.005	Z:	0.059	yaw:	-90.114	yaw rate:	-0.475	Roll:	-0.251	Pitch:	0.420	Yaw:	-137.636	Thrust:	100.000
Time:	6.329	Roll Set Point:	-0.003	Pitch Set Point:	-0.014	Yaw Set Point:	1.573	X_WP:	0.000	Y_WP:	0.000	Y_WP:	0.500	X:	0.009	Y:	0.005	Z:	0.059	yaw:	-90.098	yaw rate:	0.714	Roll:	-0.254	Pitch:	0.390	Yaw:	-131.884	Thrust:	100.000
Time:	6.361	Roll Set Point:	-0.003	Pitch Set Point:	-0.014	Yaw Set Point:	1.573	X_WP:	0.000	Y_WP:	0.000	Y_WP:	0.500	X:	0.009	Y:	0.005	Z:	0.059	yaw:	-90.107	yaw rate:	0.357	Roll:	-0.256	Pitch:	0.416	Yaw:	-135.888	Thrust:	100.000
Time:	6.390	Roll Set Point:	-0.003	Pitch Set Point:	-0.014	Yaw Set Point:	1.573	X_WP:	0.000	Y_WP:	0.000	Y_WP:	0.500	X:	0.009	Y:	0.005	Z:	0.059	yaw:	-90.108	yaw rate:	0.396	Roll:	-0.214	Pitch:	0.360	Yaw:	-131.836	Thrust:	100.000
Time:	6.458	Roll Set Point:	-0.003	Pitch Set Point:	-0.014	Yaw Set Point:	1.573	X_WP:	0.000	Y_WP:	0.000	Y_WP:	0.500	X:	0.009	Y:	0.005	Z:	0.059	yaw:	-90.106	yaw rate:	0.037	Roll:	-0.214	Pitch:	0.383	Yaw:	-137.435	Thrust:	100.000
Time:	6.498	Roll Set Point:	-0.003	Pitch Set Point:	-0.014	Yaw Set Point:	1.573	X_WP:	0.000	Y_WP:	0.000	Y_WP:	0.500	X:	0.009	Y:	0.005	Z:	0.059	yaw:	-90.103	yaw rate:	0.457	Roll:	-0.299	Pitch:	0.460	Yaw:	-134.012	Thrust:	100.000
Time:	6.539	Roll Set Point:	-0.003	Pitch Set Point:	-0.014	Yaw Set Point:	1.573	X_WP:	0.000	Y_WP:	0.000	Y_WP:	0.500	X:	0.009	Y:	0.005	Z:	0.059	yaw:	-90.101	yaw rate:	0.788	Roll:	-0.235	Pitch:	0.426	Yaw:	-135.819	Thrust:	100.000
Time:	6.571	Roll Set Point:	-0.003	Pitch Set Point:	-0.014	Yaw Set Point:	1.573	X_WP:	0.000	Y_WP:	0.000	Y_WP:	0.500	X:	0.009	Y:	0.005	Z:	0.059	yaw:	-90.114	yaw rate:	-0.194	Roll:	-0.238	Pitch:	0.359	Yaw:	-132.149	Thrust:	100.000
Time:	6.609	Roll Set Point:	-0.003	Pitch Set Point:	-0.014	Yaw Set Point:	1.573	X_WP:	0.000	Y_WP:	0.000	Y_WP:	0.500	X:	0.009	Y:	0.005	Z:	0.059	yaw:	-90.109	yaw rate:	-0.468	Roll:	-0.212	Pitch:	0.351	Yaw:	-131.587	Thrust:	100.000
Time:	6.659	Roll Set Point:	-0.003	Pitch Set Point:	-0.014	Yaw Set Point:	1.573	X_WP:	0.000	Y_WP:	0.000	Y_WP:	0.500	X:	0.009	Y:	0.005	Z:	0.059	yaw:	-90.102	yaw rate:	0.194	Roll:	-0.242	Pitch:	0.429	Yaw:	-137.603	Thrust:	100.000
Time:	6.719	Roll Set Point:	-0.003	Pitch Set Point:	-0.014	Yaw Set Point:	1.573	X_WP:	0.000	Y_WP:	0.000	Y_WP:	0.500	X:	0.009	Y:	0.005	Z:	0.059	yaw:	-90.117	yaw rate:	-0.517	Roll:	-0.259	Pitch:	0.427	Yaw:	-137.925	Thrust:	100.000
Time:	6.759	Roll Set Point:	-0.003	Pitch Set Point:	-0.014	Yaw Set Point:	1.573	X_WP:	0.000	Y_WP:	0.000	Y_WP:	0.500	X:	0.009	Y:	0.005	Z:	0.059	yaw:	-90.108	yaw rate:	1.015	Roll:	-0.281	Pitch:	0.433	Yaw:	-131.753	Thrust:	100.000
Time:	6.811	Roll Set Point:	-0.003	Pitch Set Point:	-0.014	Yaw Set Point:	1.573	X_WP:	0.000	Y_WP:	0.000	Y_WP:	0.500	X:	0.009	Y:	0.005	Z:	0.059	yaw:	-90.108	yaw rate:	1.711	Roll:	-0.242	Pitch:	0.425	Yaw:	-138.049	Thrust:	100.000
Time:	6.840	Roll Set Point:	-0.003	Pitch Set Point:	-0.014	Yaw Set Point:	1.573	X_WP:	0.000	Y_WP:	0.000	Y_WP:	0.500	X:	0.009	Y:	0.005	Z:	0.059	yaw:	-90.116	yaw rate:	0.187	Roll:	-0.259	Pitch:	0.403	Yaw:	-131.915	Thrust:	100.000
Time:	6.870	Roll Set Point:	-0.003	Pitch Set Point:	-0.014	Yaw Set Point:	1.573	X_WP:	0.000	Y_WP:	0.000	Y_WP:	0.500	X:	0.009	Y:	0.005	Z:	0.059	yaw:	-90.110	yaw rate:	-0.844	Roll:	-0.218	Pitch:	0.361	Yaw:	-131.583	Thrust:	100.000
Time:	6.909	Roll Set Point:	-0.003	Pitch Set Point:	-0.014	Yaw Set Point:	1.573	X_WP:	0.000	Y_WP:	0.000	Y_WP:	0.500	X:	0.009	Y:	0.005	Z:	0.059	yaw:	-90.116	yaw rate:	-1.418	Roll:	-0.221	Pitch:	0.358	Yaw:	-131.887	Thrust:	100.000
Time:	6.959	Roll Set Point:	-0.003	Pitch Set Point:	-0.014	Yaw Set Point:	1.573	X_WP:	0.000	Y_WP:	0.000	Y_WP:	0.500	X:	0.009	Y:	0.005	Z:	0.059	yaw:	-90.114	yaw rate:	-1.297	Roll:	-0.239	Pitch:	0.434	Yaw:	-135.835	Thrust:	100.000
Time:	7.019	Roll Set Point:	-0.003	Pitch Set Point:	-0.014	Yaw Set Point:	1.573	X_WP:	0.000	Y_WP:	0.000	Y_WP:	0.500	X:	0.009	Y:	0.005	Z:	0.059	yaw:	-90.108	yaw rate:	-0.807	Roll:	-0.267	Pitch:	0.439	Yaw:	-139.631	Thrust:	100.000
Time:	7.050	Roll Set Point:	-0.003	Pitch Set Point:	-0.014	Yaw Set Point:	1.573	X_WP:	0.000	Y_WP:	0.000	Y_WP:	0.500	X:	0.009	Y:	0.005	Z:	0.059	yaw:	-90.107	yaw rate:	0.415	Roll:	-0.285	Pitch:	0.442	Yaw:	-132.019	Thrust:	100.000
Time:	7.088	Roll Set Point:	-0.003	Pitch Set Point:	-0.014	Yaw Set Point:	1.573	X_WP:	0.000	Y_WP:	0.000	Y_WP:	0.500	X:	0.009	Y:	0.005	Z:	0.059	yaw:	-90.116	yaw rate:	-0.113	Roll:	-0.224	Pitch:	0.361	Yaw:	-131.920	Thrust:	100.000
Time:	7.138	Roll Set Point:	-0.003	Pitch Set Point:	-0.014	Yaw Set Point:	1.573	X_WP:	0.000	Y_WP:	0.000	Y_WP:	0.500	X:	0.009	Y:	0.005	Z:	0.059	yaw:	-90.124	yaw rate:	-1.951	Roll:	-0.243	Pitch:	0.433	Yaw:	-135.709	Thrust:	100.000
Time:	7.170	Roll Set Point:	-0.003	Pitch Set Point:	-0.014	Yaw Set Point:	1.573	X_WP:	0.000	Y_WP:	0.000	Y_WP:	0.500	X:	0.009	Y:	0.005	Z:	0.059	yaw:	-90.112	yaw rate:	-0.461	Roll:	-0.267	Pitch:	0.405	Yaw:	-133.765	Thrust:	100.000
Time:	7.228	Roll Set Point:	-0.003	Pitch Set Point:	-0.014	Yaw Set Point:	1.573	X_WP:	0.000	Y_WP:	0.000	Y_WP:	0.500	X:	0.009	Y:	0.005	Z:	0.059	yaw:	-90.104	yaw rate:	0.829	Roll:	-0.222	Pitch:	0.413	Yaw:	-135.589	Thrust:	100.000
Time:	7.269	Roll Set Point:	-0.003	Pitch Set Point:	-0.014	Yaw Set Point:	1.573	X_WP:	0.000	Y_WP:	0.000	Y_WP:	0.500	X:	0.009	Y:	0.005	Z:	0.059	yaw:	-90.110	yaw rate:	-0.389	Roll:	-0.294	Pitch:	0.477	Yaw:	-136.075	Thrust:	100.000
Time:	7.300	Roll Set Point:	-0.003	Pitch Set Point:	-0.014	Yaw Set Point:	1.573	X_WP:	0.000	Y_WP:	0.000	Y_WP:	0.500	X:	0.009	Y:	0.005	Z:	0.059	yaw:	-90.110	yaw rate:	0.124	Roll:	-0.246	Pitch:	0.360	Yaw:	-131.843	Thrust:	100.000
Time:	7.359	Roll Set Point:	-0.003	Pitch Set Point:	-0.014	Yaw Set Point:	1.573	X_WP:	0.000	Y_WP:	0.000	Y_WP:	0.500	X:	0.009	Y:	0.005	Z:	0.059	yaw:	-90.104	yaw rate:	0.140	Roll:	-0.221	Pitch:	0.415	Yaw:	-137.603	Thrust:	100.000
Time:	7.419	Roll Set Point:	-0.003	Pitch Set Point:	-0.014	Yaw Set Point:	1.573	X_WP:	0.000	Y_WP:	0.000	Y_WP:	0.500	X:	0.009	Y:	0.005	Z:	0.059	yaw:	-90.113	yaw rate:	-1.164	Roll:	-0.288	Pitch:	0.482	Yaw:	-137.691	Thrust:	100.000
Time:	7.449	Roll Set Point:	-0.003	Pitch Set Point:	-0.014	Yaw Set Point:	1.573	X_WP:	0.000	Y_WP:	0.000	Y_WP:	0.500	X:	0.009	Y:	0.005	Z:	0.059	yaw:	-90.108	yaw rate:	0.544	Roll:	-0.295	Pitch:	0.447	Yaw:	-131.989	Thrust:	100.000
Time:	7.479	Roll Set Point:	-0.003	Pitch Set Point:	-0.014	Yaw Set Point:	1.573	X_WP:	0.000	Y_WP:	0.000	Y_WP:	0.500	X:	0.009	Y:	0.005	Z:	0.059	yaw:	-90.110	yaw rate:	0.343	Roll:	-0.230	Pitch:	0.372	Yaw:	-131.860	Thrust:	100.000
Time:	7.518	Roll Set Point:	-0.003	Pitch Set Point:	-0.014	Yaw Set Point:	1.573	X_WP:	0.000	Y_WP:	0.000	Y_WP:	0.500	X:	0.009	Y:	0.005	Z:	0.059	yaw:	-90.103	yaw rate:	1.048	Roll:	-0.224	Pitch:	0.377	Yaw:	-133.576	Thrust:	100.000
Time:	7.569	Roll Set Point:	-0.003	Pitch Set Point:	-0.014	Yaw Set Point:	1.573	X_WP:	0.000	Y_WP:	0.000	Y_WP:	0.500	X:	0.009	Y:	0.005	Z:	0.059	yaw:	-90.112	yaw rate:	0.288	Roll:	-0.274	Pitch:	0.483	Yaw:	-136.104	Thrust:	100.000
Time:	7.617	Roll Set Point:	-0.003	Pitch Set Point:	-0.014	Yaw Set Point:	1.573	X_WP:	0.000	Y_WP:	0.000	Y_WP:	0.500	X:	0.009	Y:	0.005	Z:	0.059	yaw:	-90.110	yaw rate:	-0.218	Roll:	-0.247	Pitch:	0.420	Yaw:	-133.813	Thrust:	100.000
Time:	7.669	Roll Set Point:	-0.003	Pitch Set Point:	-0.014	Yaw Set Point:	1.573	X_WP:	0.000	Y_WP:	0.000	Y_WP:	0.500	X:	0.009	Y:	0.005	Z:	0.059	yaw:	-90.109	yaw rate:	-0.172	Roll:	-0.275	Pitch:	0.451	Yaw:	-137.642	Thrust:	100.000
Time:	7.700	Roll Set Point:	-0.003	Pitch Set Point:	-0.014	Yaw Set Point:	1.573	X_WP:	0.000	Y_WP:	0.000	Y_WP:	0.500	X:	0.009	Y:	0.005	Z:	0.059	yaw:	-90.119	yaw rate:	-0.054	Roll:	-0.273	Pitch:	0.411	Yaw:	-132.140	Thrust:	100.000
Time:	7.739	Roll Set Point:	-0.003	Pitch Set Point:	-0.014	Yaw Set Point:	1.573	X_WP:	0.000	Y_WP:	0.000	Y_WP:	0.500	X:	0.009	Y:	0.005	Z:	0.059	yaw:	-90.105	yaw rate:	0.749	Roll:	-0.228	Pitch:	0.386	Yaw:	-131.706	Thrust:	100.000
Time:	7.778	Roll Set Point:	-0.003	Pitch Set Point:	-0.014	Yaw Set Point:	1.573	X_WP:	0.000	Y_WP:	0.000	Y_WP:	0.500	X:	0.009	Y:	0.005	Z:	0.059	yaw:	-90.111	yaw rate:	-0.583	Roll:	-0.252	Pitch:	0.410	Yaw:	-134.074	Thrust:	100.000
Time:	7.829	Roll Set Point:	-0.003	Pitch Set Point:	-0.014	Yaw Set Point:	1.573	X_WP:	0.000	Y_WP:	0.000	Y_WP:	0.500	X:	0.009	Y:	0.005	Z:	0.059	yaw:	-90.109	yaw rate:	0.008	Roll:	-0.253	Pitch:	0.453	Yaw:	-135.434	Thrust:	100.000
Time:	7.878	Roll Set Point:	-0.003	Pitch Set Point:	-0.014	Yaw Set Point:	1.573	X_WP:	0.000	Y_WP:	0.000	Y_WP:	0.500	X:	0.009	Y:	0.005	Z:	0.059	yaw:	-90.109	yaw rate:	0.078	Roll:	-0.276	Pitch:	0.460	Yaw:	-135.838	Thrust:	100.000
Time:	7.929	Roll Set Point:	-0.003	Pitch Set Point:	-0.014	Yaw Set Point:	1.573	X_WP:	0.000	Y_WP:	0.000	Y_WP:	0.500	X:	0.009	Y:	0.005	Z:	0.059	yaw:	-90.116	yaw rate:	-0.136	Roll:	-0.283	Pitch:	0.457	Yaw:	-137.703	Thrust:	100.000
Time:	7.998	Roll Set Point:	-0.003	Pitch Set Point:	-0.014	Yaw Set Point:	1.573	X_WP:	0.000	Y_WP:	0.000	Y_WP:	0.500	X:	0.009	Y:	0.005	Z:	0.059	yaw:	-90.104	yaw rate:	0.189	Roll:	-0.274	Pitch:	0.464	Yaw:	-137.788	Thrust:	100.000
Time:	8.029	Roll Set Point:	-0.003	Pitch Set Point:	-0.014	Yaw Set Point:	1.573	X_WP:	0.000	Y_WP:	0.000	Y_WP:	0.000	X:	0.009	Y:	0.005	Z:	0.059	yaw:	-90.109	yaw rate:	0.570	Roll:	-0.331	Pitch:	0.501	Yaw:	-134.058	Thrust:	0.000
Time:	8.069	Roll Set Point:	-0.003	Pitch Set Point:	-0.014	Yaw Set Point:	1.573	X_WP:	0.000	Y_WP:	0.000	Y_WP:	0.000	X:	0.009	Y:	0.005	Z:	0.059	yaw:	-90.104	yaw rate:	0.431	Roll:	-0.232	Pitch:	0.376	Yaw:	-131.774	Thrust:	100.000
Time:	8.109	Roll Set Point:	-0.003	Pitch Set Point:	-0.014	Yaw Set Point:	1.573	X_WP:	0.000	Y_WP:	0.000	Y_WP:	0.000	X:	0.009	Y:	0.005	Z:	0.059	yaw:	-90.105	yaw rate:	-0.325	Roll:	-0.252	Pitch:	0.424	Yaw:	-133.644	Thrust:	100.000
Time:	8.169	Roll Set Point:	-0.003	Pitch Set Point:	-0.014	Yaw Set Point:	1.573	X_WP:	0.000	Y_WP:	0.000	Y_WP:	0.000	X:	0.009	Y:	0.005	Z:	0.059	yaw:	-90.102	yaw rate:	1.143	Roll:	-0.259	Pitch:	0.467	Yaw:	-139.644	Thrust:	100.000
Time:	8.218	Roll Set Point:	-0.003	Pitch Set Point:	-0.014	Yaw Set Point:	1.573	X_WP:	0.000	Y_WP:	0.000	Y_WP:	0.000	X:	0.009	Y:	0.005	Z:	0.059	yaw:	-90.104	yaw rate:	0.452	Roll:	-0.308	Pitch:	0.507	Yaw:	-134.028	Thrust:	100.000
Time:	8.250	Roll Set Point:	-0.003	Pitch Set Point:	-0.014	Yaw Set Point:	1.573	X_WP:	0.000	Y_WP:	0.000	Y_WP:	0.000	X:	0.009	Y:	0.005	Z:	0.059	yaw:	-90.109	yaw rate:	0.004	Roll:	-0.280	Pitch:	0.428	Yaw:	-133.878	Thrust:	100.000
Time:	8.280	Roll Set Point:	-0.003	Pitch Set Point:	-0.014	Yaw Set Point:	1.573	X_WP:	0.000	Y_WP:	0.000	Y_WP:	0.000	X:	0.009	Y:	0.005	Z:	0.059	yaw:	-90.104	yaw rate:	1.214	Roll:	-0.236	Pitch:	0.380	Yaw:	-131.769	Thrust:	100.000
Time:	8.310	Roll Set Point:	-0.003	Pitch Set Point:	-0.014	Yaw Set Point:	1.573	X_WP:	0.000	Y_WP:	0.000	Y_WP:	0.000	X:	0.009	Y:	0.005	Z:	0.059	yaw:	-90.109	yaw rate:	-0.294	Roll:	-0.231	Pitch:	0.384	Yaw:	-131.876	Thrust:	100.000
Time:	8.339	Roll Set Point:	-0.003	Pitch Set Point:	-0.014	Yaw Set Point:	1.573	X_WP:	0.000	Y_WP:	0.000	Y_WP:	0.000	X:	0.009	Y:	0.005	Z:	0.059	yaw:	-90.116	yaw rate:	0.023	Roll:	-0.227	Pitch:	0.373	Yaw:	-131.912	Thrust:	100.000
Time:	8.369	Roll Set Point:	-0.003	Pitch Set Point:	-0.014	Yaw Set Point:	1.573	X_WP:	0.000	Y_WP:	0.000	Y_WP:	0.000	X:	0.009	Y:	0.005	Z:	0.059	yaw:	-90.117	yaw rate:	-0.583	Roll:	-0.234	Pitch:	0.379	Yaw:	-131.850	Thrust:	100.000
Time:	8.399	Roll Set Point:	-0.003	Pitch Set Point:	-0.014	Yaw Set Point:	1.573	X_WP:	0.000	Y_WP:	0.000	Y_WP:	0.000	X:	0.009	Y:	0.005	Z:	0.059	yaw:	-90.106	yaw rate:	0.894	Roll:	-0.239	Pitch:	0.397	Yaw:	-131.726	Thrust:	100.000
Time:	8.450	Roll Set Point:	-0.003	Pitch Set Point:	-0.014	Yaw Set Point:	1.573	X_WP:	0.000	Y_WP:	0.000	Y_WP:	0.000	X:	0.009	Y:	0.005	Z:	0.059	yaw:	-90.109	yaw rate:	0.710	Roll:	-0.227	Pitch:	0.423	Yaw:	-135.659	Thrust:	100.000
Time:	8.480	Roll Set Point:	-0.003	Pitch Set Point:	-0.014	Yaw Set Point:	1.573	X_WP:	0.000	Y_WP:	0.000	Y_WP:	0.000	X:	0.009	Y:	0.005	Z:	0.059	yaw:	-90.102	yaw rate:	0.357	Roll:	-0.291	Pitch:	0.437	Yaw:	-131.969	Thrust:	100.000
Time:	8.558	Roll Set Point:	-0.003	Pitch Set Point:	-0.014	Yaw Set Point:	1.573	X_WP:	0.000	Y_WP:	0.000	Y_WP:	0.000	X:	0.009	Y:	0.005	Z:	0.059	yaw:	-90.102	yaw rate:	1.229	Roll:	-0.236	Pitch:	0.429	Yaw:	-137.431	Thrust:	100.000
Time:	8.598	Roll Set Point:	-0.003	Pitch Set Point:	-0.014	Yaw Set Point:	1.573	X_WP:	0.000	Y_WP:	0.000	Y_WP:	0.000	X:	0.009	Y:	0.005	Z:	0.059	yaw:	-90.104	yaw rate:	0.306	Roll:	-0.367	Pitch:	0.570	Yaw:	-136.044	Thrust:	100.000
Time:	8.638	Roll Set Point:	-0.003	Pitch Set Point:	-0.014	Yaw Set Point:	1.573	X_WP:	0.000	Y_WP:	0.000	Y_WP:	0.000	X:	0.009	Y:	0.005	Z:	0.059	yaw:	-90.103	yaw rate:	1.063	Roll:	-0.264	Pitch:	0.431	Yaw:	-134.031	Thrust:	100.000
Time:	8.670	Roll Set Point:	-0.003	Pitch Set Point:	-0.014	Yaw Set Point:	1.573	X_WP:	0.000	Y_WP:	0.000	Y_WP:	0.000	X:	0.009	Y:	0.005	Z:	0.059	yaw:	-90.104	yaw rate:	0.095	Roll:	-0.261	Pitch:	0.435	Yaw:	-133.832	Thrust:	100.000
Time:	8.700	Roll Set Point:	-0.003	Pitch Set Point:	-0.014	Yaw Set Point:	1.573	X_WP:	0.000	Y_WP:	0.000	Y_WP:	0.000	X:	0.009	Y:	0.005	Z:	0.059	yaw:	-90.112	yaw rate:	-0.493	Roll:	-0.232	Pitch:	0.383	Yaw:	-131.708	Thrust:	100.000
Time:	8.730	Roll Set Point:	-0.003	Pitch Set Point:	-0.014	Yaw Set Point:	1.573	X_WP:	0.000	Y_WP:	0.000	Y_WP:	0.000	X:	0.009	Y:	0.005	Z:	0.059	yaw:	-90.106	yaw rate:	-0.213	Roll:	-0.238	Pitch:	0.401	Yaw:	-131.984	Thrust:	100.000
Time:	8.768	Roll Set Point:	-0.003	Pitch Set Point:	-0.014	Yaw Set Point:	1.573	X_WP:	0.000	Y_WP:	0.000	Y_WP:	0.000	X:	0.009	Y:	0.005	Z:	0.059	yaw:	-90.118	yaw rate:	-1.010	Roll:	-0.236	Pitch:	0.384	Yaw:	-131.941	Thrust:	100.000
Time:	8.809	Roll Set Point:	-0.003	Pitch Set Point:	-0.014	Yaw Set Point:	1.573	X_WP:	0.000	Y_WP:	0.000	Y_WP:	0.000	X:	0.009	Y:	0.005	Z:	0.059	yaw:	-90.112	yaw rate:	-1.421	Roll:	-0.260	Pitch:	0.441	Yaw:	-133.597	Thrust:	100.000
Time:	8.850	Roll Set Point:	-0.003	Pitch Set Point:	-0.014	Yaw Set Point:	1.573	X_WP:	0.000	Y_WP:	0.000	Y_WP:	0.000	X:	0.009	Y:	0.005	Z:	0.059	yaw:	-90.112	yaw rate:	-0.768	Roll:	-0.242	Pitch:	0.428	Yaw:	-135.646	Thrust:	100.000
Time:	8.880	Roll Set Point:	-0.003	Pitch Set Point:	-0.014	Yaw Set Point:	1.573	X_WP:	0.000	Y_WP:	0.000	Y_WP:	0.000	X:	0.009	Y:	0.005	Z:	0.059	yaw:	-90.111	yaw rate:	-0.001	Roll:	-0.299	Pitch:	0.441	Yaw:	-131.831	Thrust:	100.000
Time:	8.910	Roll Set Point:	-0.003	Pitch Set Point:	-0.014	Yaw Set Point:	1.573	X_WP:	0.000	Y_WP:	0.000	Y_WP:	0.000	X:	0.009	Y:	0.005	Z:	0.059	yaw:	-90.113	yaw rate:	-0.760	Roll:	-0.232	Pitch:	0.395	Yaw:	-132.055	Thrust:	100.000
Time:	8.941	Roll Set Point:	-0.003	Pitch Set Point:	-0.014	Yaw Set Point:	1.573	X_WP:	0.000	Y_WP:	0.000	Y_WP:	0.000	X:	0.009	Y:	0.005	Z:	0.059	yaw:	-90.102	yaw rate:	1.234	Roll:	-0.240	Pitch:	0.398	Yaw:	-131.730	Thrust:	100.000
Time:	8.970	Roll Set Point:	-0.003	Pitch Set Point:	-0.014	Yaw Set Point:	1.573	X_WP:	0.000	Y_WP:	0.000	Y_WP:	0.000	X:	0.009	Y:	0.005	Z:	0.059	yaw:	-90.112	yaw rate:	-0.300	Roll:	-0.235	Pitch:	0.391	Yaw:	-131.922	Thrust:	100.000
Time:	9.030	Roll Set Point:	-0.003	Pitch Set Point:	-0.014	Yaw Set Point:	1.573	X_WP:	0.000	Y_WP:	0.000	Y_WP:	0.000	X:	0.009	Y:	0.005	Z:	0.059	yaw:	-90.113	yaw rate:	0.196	Roll:	-0.267	Pitch:	0.488	Yaw:	-137.665	Thrust:	100.000
Time:	9.068	Roll Set Point:	-0.003	Pitch Set Point:	-0.014	Yaw Set Point:	1.573	X_WP:	0.000	Y_WP:	0.000	Y_WP:	0.000	X:	0.009	Y:	0.005	Z:	0.059	yaw:	-90.121	yaw rate:	-1.138	Roll:	-0.300	Pitch:	0.441	Yaw:	-131.906	Thrust:	100.000
Time:	9.109	Roll Set Point:	-0.003	Pitch Set Point:	-0.014	Yaw Set Point:	1.573	X_WP:	0.000	Y_WP:	0.000	Y_WP:	0.000	X:	0.009	Y:	0.005	Z:	0.059	yaw:	-90.109	yaw rate:	-0.058	Roll:	-0.268	Pitch:	0.491	Yaw:	-135.778	Thrust:	100.000
Time:	9.148	Roll Set Point:	-0.003	Pitch Set Point:	-0.014	Yaw Set Point:	1.572	X_WP:	0.000	Y_WP:	0.000	Y_WP:	0.000	X:	0.009	Y:	0.005	Z:	0.059	yaw:	-90.093	yaw rate:	1.813	Roll:	-0.267	Pitch:	0.401	Yaw:	-131.678	Thrust:	100.000
Time:	9.180	Roll Set Point:	-0.003	Pitch Set Point:	-0.014	Yaw Set Point:	1.573	X_WP:	0.000	Y_WP:	0.000	Y_WP:	0.000	X:	0.009	Y:	0.005	Z:	0.059	yaw:	-90.104	yaw rate:	0.995	Roll:	-0.272	Pitch:	0.453	Yaw:	-134.096	Thrust:	100.000
Time:	9.229	Roll Set Point:	-0.003	Pitch Set Point:	-0.014	Yaw Set Point:	1.573	X_WP:	0.000	Y_WP:	0.000	Y_WP:	0.000	X:	0.009	Y:	0.005	Z:	0.059	yaw:	-90.102	yaw rate:	0.871	Roll:	-0.244	Pitch:	0.393	Yaw:	-131.614	Thrust:	100.000
Time:	9.260	Roll Set Point:	-0.003	Pitch Set Point:	-0.014	Yaw Set Point:	1.573	X_WP:	0.000	Y_WP:	0.000	Y_WP:	0.000	X:	0.009	Y:	0.005	Z:	0.059	yaw:	-90.105	yaw rate:	0.747	Roll:	-0.296	Pitch:	0.496	Yaw:	-135.645	Thrust:	100.000
Time:	9.290	Roll Set Point:	-0.003	Pitch Set Point:	-0.014	Yaw Set Point:	1.573	X_WP:	0.000	Y_WP:	0.000	Y_WP:	0.000	X:	0.009	Y:	0.005	Z:	0.059	yaw:	-90.110	yaw rate:	-0.464	Roll:	-0.245	Pitch:	0.398	Yaw:	-131.872	Thrust:	100.000
Time:	9.320	Roll Set Point:	-0.003	Pitch Set Point:	-0.014	Yaw Set Point:	1.573	X_WP:	0.000	Y_WP:	0.000	Y_WP:	0.000	X:	0.009	Y:	0.005	Z:	0.059	yaw:	-90.105	yaw rate:	0.245	Roll:	-0.243	Pitch:	0.403	Yaw:	-131.985	Thrust:	100.000
Time:	9.369	Roll Set Point:	-0.003	Pitch Set Point:	-0.014	Yaw Set Point:	1.573	X_WP:	0.000	Y_WP:	0.000	Y_WP:	0.000	X:	0.009	Y:	0.005	Z:	0.059	yaw:	-90.108	yaw rate:	0.308	Roll:	-0.242	Pitch:	0.403	Yaw:	-133.662	Thrust:	100.000
Time:	9.400	Roll Set Point:	-0.003	Pitch Set Point:	-0.014	Yaw Set Point:	1.573	X_WP:	0.000	Y_WP:	0.000	Y_WP:	0.000	X:	0.009	Y:	0.005	Z:	0.059	yaw:	-90.109	yaw rate:	0.925	Roll:	-0.304	Pitch:	0.495	Yaw:	-134.051	Thrust:	100.000
Time:	9.438	Roll Set Point:	-0.003	Pitch Set Point:	-0.014	Yaw Set Point:	1.573	X_WP:	0.000	Y_WP:	0.000	Y_WP:	0.000	X:	0.009	Y:	0.005	Z:	0.059	yaw:	-90.112	yaw rate:	0.314	Roll:	-0.242	Pitch:	0.409	Yaw:	-131.857	Thrust:	100.000
Time:	9.480	Roll Set Point:	-0.003	Pitch Set Point:	-0.014	Yaw Set Point:	1.573	X_WP:	0.000	Y_WP:	0.000	Y_WP:	0.000	X:	0.009	Y:	0.005	Z:	0.059	yaw:	-90.102	yaw rate:	1.658	Roll:	-0.275	Pitch:	0.502	Yaw:	-135.779	Thrust:	100.000
Time:	9.559	Roll Set Point:	-0.003	Pitch Set Point:	-0.014	Yaw Set Point:	1.573	X_WP:	0.000	Y_WP:	0.000	Y_WP:	0.000	X:	0.009	Y:	0.005	Z:	0.059	yaw:	-90.108	yaw rate:	-0.974	Roll:	-0.276	Pitch:	0.452	Yaw:	-137.282	Thrust:	100.000
Time:	9.599	Roll Set Point:	-0.003	Pitch Set Point:	-0.014	Yaw Set Point:	1.573	X_WP:	0.000	Y_WP:	0.000	Y_WP:	0.000	X:	0.009	Y:	0.005	Z:	0.059	yaw:	-90.109	yaw rate:	0.086	Roll:	-0.396	Pitch:	0.611	Yaw:	-136.440	Thrust:	100.000
Time:	9.631	Roll Set Point:	-0.003	Pitch Set Point:	-0.014	Yaw Set Point:	1.573	X_WP:	0.000	Y_WP:	0.000	Y_WP:	0.000	X:	0.009	Y:	0.005	Z:	0.059	yaw:	-90.115	yaw rate:	-1.141	Roll:	-0.277	Pitch:	0.456	Yaw:	-133.676	Thrust:	100.000
Time:	9.680	Roll Set Point:	-0.003	Pitch Set Point:	-0.014	Yaw Set Point:	1.573	X_WP:	0.000	Y_WP:	0.000	Y_WP:	0.000	X:	0.009	Y:	0.005	Z:	0.059	yaw:	-90.101	yaw rate:	0.486	Roll:	-0.245	Pitch:	0.452	Yaw:	-135.765	Thrust:	100.000
Time:	9.739	Roll Set Point:	-0.003	Pitch Set Point:	-0.014	Yaw Set Point:	1.573	X_WP:	0.000	Y_WP:	0.000	Y_WP:	0.000	X:	0.009	Y:	0.005	Z:	0.059	yaw:	-90.110	yaw rate:	1.200	Roll:	-0.304	Pitch:	0.457	Yaw:	-137.683	Thrust:	100.000
Time:	9.779	Roll Set Point:	-0.003	Pitch Set Point:	-0.014	Yaw Set Point:	1.573	X_WP:	0.000	Y_WP:	0.000	Y_WP:	0.000	X:	0.009	Y:	0.005	Z:	0.059	yaw:	-90.104	yaw rate:	-0.036	Roll:	-0.341	Pitch:	0.610	Yaw:	-133.789	Thrust:	100.000
Time:	9.828	Roll Set Point:	-0.003	Pitch Set Point:	-0.014	Yaw Set Point:	1.573	X_WP:	0.000	Y_WP:	0.000	Y_WP:	0.000	X:	0.009	Y:	0.005	Z:	0.059	yaw:	-90.105	yaw rate:	0.451	Roll:	-0.278	Pitch:	0.409	Yaw:	-132.038	Thrust:	100.000
Time:	9.879	Roll Set Point:	-0.003	Pitch Set Point:	-0.014	Yaw Set Point:	1.573	X_WP:	0.000	Y_WP:	0.000	Y_WP:	0.000	X:	0.009	Y:	0.005	Z:	0.059	yaw:	-90.112	yaw rate:	0.094	Roll:	-0.310	Pitch:	0.517	Yaw:	-139.684	Thrust:	100.000
Time:	9.919	Roll Set Point:	-0.003	Pitch Set Point:	-0.014	Yaw Set Point:	1.573	X_WP:	0.000	Y_WP:	0.000	Y_WP:	0.000	X:	0.009	Y:	0.005	Z:	0.059	yaw:	-90.118	yaw rate:	0.226	Roll:	-0.312	Pitch:	0.554	Yaw:	-133.892	Thrust:	100.000
Time:	9.959	Roll Set Point:	-0.003	Pitch Set Point:	-0.014	Yaw Set Point:	1.573	X_WP:	0.000	Y_WP:	0.000	Y_WP:	0.000	X:	0.009	Y:	0.005	Z:	0.059	yaw:	-90.118	yaw rate:	-0.487	Roll:	-0.277	Pitch:	0.420	Yaw:	-132.040	Thrust:	100.000
Time:	10.000	Roll Set Point:	-0.003	Pitch Set Point:	-0.014	Yaw Set Point:	1.573	X_WP:	0.000	Y_WP:	0.000	Y_WP:	0.000	X:	0.009	Y:	0.005	Z:	0.059	yaw:	-90.120	yaw rate:	-1.518	Roll:	-0.283	Pitch:	0.512	Yaw:	-135.471	Thrust:	100.000
Time:	10.030	Roll Set Point:	-0.003	Pitch Set Point:	-0.014	Yaw Set Point:	1.573	X_WP:	0.000	Y_WP:	0.000	Y_WP:	0.000	X:	0.009	Y:	0.005	Z:	0.059	yaw:	-90.116	yaw rate:	-0.496	Roll:	-0.276	Pitch:	0.405	Yaw:	-132.009	Thrust:	100.000
Time:	10.069	Roll Set Point:	-0.003	Pitch Set Point:	-0.014	Yaw Set Point:	1.573	X_WP:	0.000	Y_WP:	0.000	Y_WP:	0.000	X:	0.009	Y:	0.005	Z:	0.059	yaw:	-90.110	yaw rate:	-0.568	Roll:	-0.250	Pitch:	0.420	Yaw:	-131.580	Thrust:	100.000
Time:	10.099	Roll Set Point:	-0.003	Pitch Set Point:	-0.014	Yaw Set Point:	1.573	X_WP:	0.000	Y_WP:	0.000	Y_WP:	0.000	X:	0.009	Y:	0.005	Z:	0.059	yaw:	-90.126	yaw rate:	-0.423	Roll:	-0.280	Pitch:	0.454	Yaw:	-133.963	Thrust:	100.000
Time:	10.130	Roll Set Point:	-0.003	Pitch Set Point:	-0.014	Yaw Set Point:	1.573	X_WP:	0.000	Y_WP:	0.000	Y_WP:	0.000	X:	0.009	Y:	0.005	Z:	0.059	yaw:	-90.114	yaw rate:	-0.060	Roll:	-0.259	Pitch:	0.430	Yaw:	-131.734	Thrust:	100.000
Time:	10.178	Roll Set Point:	-0.003	Pitch Set Point:	-0.014	Yaw Set Point:	1.573	X_WP:	0.000	Y_WP:	0.000	Y_WP:	0.000	X:	0.009	Y:	0.005	Z:	0.059	yaw:	-90.110	yaw rate:	-0.058	Roll:	-0.250	Pitch:	0.456	Yaw:	-133.814	Thrust:	100.000
Time:	10.220	Roll Set Point:	-0.003	Pitch Set Point:	-0.014	Yaw Set Point:	1.573	X_WP:	0.000	Y_WP:	0.000	Y_WP:	0.000	X:	0.009	Y:	0.005	Z:	0.059	yaw:	-90.107	yaw rate:	0.507	Roll:	-0.314	Pitch:	0.525	Yaw:	-135.821	Thrust:	100.000
Time:	10.268	Roll Set Point:	-0.003	Pitch Set Point:	-0.014	Yaw Set Point:	1.573	X_WP:	0.000	Y_WP:	0.000	Y_WP:	0.000	X:	0.009	Y:	0.005	Z:	0.059	yaw:	-90.103	yaw rate:	0.457	Roll:	-0.283	Pitch:	0.466	Yaw:	-133.604	Thrust:	100.000
Time:	10.308	Roll Set Point:	-0.003	Pitch Set Point:	-0.014	Yaw Set Point:	1.573	X_WP:	0.000	Y_WP:	0.000	Y_WP:	0.000	X:	0.009	Y:	0.005	Z:	0.059	yaw:	-90.103	yaw rate:	0.868	Roll:	-0.316	Pitch:	0.469	Yaw:	-134.051	Thrust:	100.000
Time:	10.399	Roll Set Point:	-0.003	Pitch Set Point:	-0.014	Yaw Set Point:	1.573	X_WP:	0.000	Y_WP:	0.000	Y_WP:	0.000	X:	0.009	Y:	0.005	Z:	0.059	yaw:	-90.111	yaw rate:	0.195	Roll:	-0.282	Pitch:	0.526	Yaw:	-141.690	Thrust:	100.000
Time:	10.479	Roll Set Point:	-0.003	Pitch Set Point:	-0.014	Yaw Set Point:	1.573	X_WP:	0.000	Y_WP:	0.000	Y_WP:	0.000	X:	0.009	Y:	0.005	Z:	0.059	yaw:	-90.112	yaw rate:	0.001	Roll:	-0.457	Pitch:	0.747	Yaw:	-141.863	Thrust:	100.000
Time:	10.559	Roll Set Point:	-0.003	Pitch Set Point:	-0.014	Yaw Set Point:	1.573	X_WP:	0.000	Y_WP:	0.000	Y_WP:	0.000	X:	0.009	Y:	0.005	Z:	0.059	yaw:	-90.114	yaw rate:	-0.817	Roll:	-0.414	Pitch:	0.746	Yaw:	-143.875	Thrust:	100.000
Time:	10.639	Roll Set Point:	-0.003	Pitch Set Point:	-0.014	Yaw Set Point:	1.573	X_WP:	0.000	Y_WP:	0.000	Y_WP:	0.000	X:	0.009	Y:	0.005	Z:	0.059	yaw:	-90.112	yaw rate:	0.421	Roll:	-0.421	Pitch:	0.643	Yaw:	-139.651	Thrust:	100.000
Time:	10.739	Roll Set Point:	-0.003	Pitch Set Point:	-0.014	Yaw Set Point:	1.573	X_WP:	0.000	Y_WP:	0.000	Y_WP:	0.000	X:	0.009	Y:	0.005	Z:	0.059	yaw:	-90.109	yaw rate:	0.795	Roll:	-0.455	Pitch:	0.799	Yaw:	-147.865	Thrust:	100.000
Time:	10.829	Roll Set Point:	-0.003	Pitch Set Point:	-0.014	Yaw Set Point:	1.573	X_WP:	0.000	Y_WP:	0.000	Y_WP:	0.000	X:	0.009	Y:	0.005	Z:	0.059	yaw:	-90.111	yaw rate:	-0.150	Roll:	-0.457	Pitch:	0.703	Yaw:	-143.876	Thrust:	100.000
Time:	10.909	Roll Set Point:	-0.003	Pitch Set Point:	-0.014	Yaw Set Point:	1.573	X_WP:	0.000	Y_WP:	0.000	Y_WP:	0.000	X:	0.009	Y:	0.005	Z:	0.059	yaw:	-90.114	yaw rate:	-0.781	Roll:	-0.456	Pitch:	0.808	Yaw:	-141.675	Thrust:	100.000
Time:	10.989	Roll Set Point:	-0.003	Pitch Set Point:	-0.014	Yaw Set Point:	1.573	X_WP:	0.000	Y_WP:	0.000	Y_WP:	0.000	X:	0.009	Y:	0.005	Z:	0.059	yaw:	-90.110	yaw rate:	0.295	Roll:	-0.423	Pitch:	0.650	Yaw:	-141.859	Thrust:	100.000
Time:	11.069	Roll Set Point:	-0.003	Pitch Set Point:	-0.014	Yaw Set Point:	1.573	X_WP:	0.000	Y_WP:	0.000	Y_WP:	0.000	X:	0.009	Y:	0.005	Z:	0.059	yaw:	-90.102	yaw rate:	0.874	Roll:	-0.427	Pitch:	0.697	Yaw:	-141.812	Thrust:	100.000
Time:	11.159	Roll Set Point:	-0.003	Pitch Set Point:	-0.014	Yaw Set Point:	1.573	X_WP:	0.000	Y_WP:	0.000	Y_WP:	0.000	X:	0.009	Y:	0.005	Z:	0.059	yaw:	-90.103	yaw rate:	0.572	Roll:	-0.425	Pitch:	0.704	Yaw:	-143.859	Thrust:	100.000
Time:	11.248	Roll Set Point:	-0.003	Pitch Set Point:	-0.014	Yaw Set Point:	1.573	X_WP:	0.000	Y_WP:	0.000	Y_WP:	0.000	X:	0.009	Y:	0.005	Z:	0.059	yaw:	-90.110	yaw rate:	0.028	Roll:	-0.463	Pitch:	0.763	Yaw:	-141.882	Thrust:	100.000
Time:	11.338	Roll Set Point:	-0.003	Pitch Set Point:	-0.014	Yaw Set Point:	1.573	X_WP:	0.000	Y_WP:	0.000	Y_WP:	0.000	X:	0.009	Y:	0.005	Z:	0.059	yaw:	-90.114	yaw rate:	-0.403	Roll:	-0.462	Pitch:	0.765	Yaw:	-141.879	Thrust:	100.000
Time:	11.439	Roll Set Point:	-0.003	Pitch Set Point:	-0.014	Yaw Set Point:	1.573	X_WP:	0.000	Y_WP:	0.000	Y_WP:	0.000	X:	0.009	Y:	0.005	Z:	0.059	yaw:	-90.104	yaw rate:	0.598	Roll:	-0.462	Pitch:	0.819	Yaw:	-145.639	Thrust:	100.000
