Time:	0.031	Roll Set Point:	-0.022	Pitch Set Point:	-0.026	Yaw Set Point:	-0.155	X_WP:	0.000	Y_WP:	0.000	Y_WP:	0.000	X:	0.010	Y:	0.014	Z:	0.059	yaw:	8.883	yaw rate:	0.014	Roll:	0.350	Pitch:	0.358	Yaw:	12.403	Thrust:	0.000
Time:	0.042	Roll Set Point:	-0.022	Pitch Set Point:	-0.026	Yaw Set Point:	-0.155	X_WP:	0.000	Y_WP:	0.000	Y_WP:	0.000	X:	0.010	Y:	0.014	Z:	0.059	yaw:	8.873	yaw rate:	-0.989	Roll:	0.354	Pitch:	0.349	Yaw:	12.188	Thrust:	0.000
Time:	0.052	Roll Set Point:	-0.022	Pitch Set Point:	-0.026	Yaw Set Point:	-0.155	X_WP:	0.000	Y_WP:	0.000	Y_WP:	0.000	X:	0.010	Y:	0.014	Z:	0.059	yaw:	8.874	yaw rate:	0.096	Roll:	0.361	Pitch:	0.343	Yaw:	12.478	Thrust:	0.000
Time:	0.064	Roll Set Point:	-0.022	Pitch Set Point:	-0.026	Yaw Set Point:	-0.155	X_WP:	0.000	Y_WP:	0.000	Y_WP:	0.000	X:	0.010	Y:	0.014	Z:	0.059	yaw:	8.876	yaw rate:	0.169	Roll:	0.333	Pitch:	0.375	Yaw:	12.535	Thrust:	0.000
Time:	0.074	Roll Set Point:	-0.022	Pitch Set Point:	-0.026	Yaw Set Point:	-0.155	X_WP:	0.000	Y_WP:	0.000	Y_WP:	0.000	X:	0.010	Y:	0.014	Z:	0.059	yaw:	8.884	yaw rate:	0.880	Roll:	0.340	Pitch:	0.365	Yaw:	12.750	Thrust:	0.000
Time:	0.085	Roll Set Point:	-0.022	Pitch Set Point:	-0.026	Yaw Set Point:	-0.155	X_WP:	0.000	Y_WP:	0.000	Y_WP:	0.000	X:	0.010	Y:	0.014	Z:	0.059	yaw:	8.873	yaw rate:	-1.125	Roll:	0.366	Pitch:	0.348	Yaw:	12.250	Thrust:	0.000
Time:	0.095	Roll Set Point:	-0.022	Pitch Set Point:	-0.026	Yaw Set Point:	-0.155	X_WP:	0.000	Y_WP:	0.000	Y_WP:	0.000	X:	0.010	Y:	0.014	Z:	0.059	yaw:	8.873	yaw rate:	-0.030	Roll:	0.360	Pitch:	0.366	Yaw:	12.587	Thrust:	0.000
Time:	0.106	Roll Set Point:	-0.022	Pitch Set Point:	-0.026	Yaw Set Point:	-0.155	X_WP:	0.000	Y_WP:	0.000	Y_WP:	0.000	X:	0.010	Y:	0.014	Z:	0.059	yaw:	8.878	yaw rate:	0.505	Roll:	0.356	Pitch:	0.362	Yaw:	12.756	Thrust:	0.000
Time:	0.117	Roll Set Point:	-0.022	Pitch Set Point:	-0.026	Yaw Set Point:	-0.155	X_WP:	0.000	Y_WP:	0.000	Y_WP:	0.000	X:	0.010	Y:	0.014	Z:	0.059	yaw:	8.877	yaw rate:	-0.073	Roll:	0.354	Pitch:	0.360	Yaw:	12.651	Thrust:	0.000
Time:	0.127	Roll Set Point:	-0.022	Pitch Set Point:	-0.026	Yaw Set Point:	-0.155	X_WP:	0.000	Y_WP:	0.000	Y_WP:	0.000	X:	0.010	Y:	0.014	Z:	0.059	yaw:	8.869	yaw rate:	-0.777	Roll:	0.357	Pitch:	0.355	Yaw:	12.461	Thrust:	0.000
Time:	0.138	Roll Set Point:	-0.022	Pitch Set Point:	-0.026	Yaw Set Point:	-0.155	X_WP:	0.000	Y_WP:	0.000	Y_WP:	0.000	X:	0.010	Y:	0.014	Z:	0.059	yaw:	8.879	yaw rate:	0.923	Roll:	0.330	Pitch:	0.371	Yaw:	12.957	Thrust:	0.000
Time:	0.148	Roll Set Point:	-0.022	Pitch Set Point:	-0.026	Yaw Set Point:	-0.155	X_WP:	0.000	Y_WP:	0.000	Y_WP:	0.000	X:	0.010	Y:	0.014	Z:	0.059	yaw:	8.881	yaw rate:	0.232	Roll:	0.379	Pitch:	0.369	Yaw:	12.803	Thrust:	0.000
Time:	0.158	Roll Set Point:	-0.022	Pitch Set Point:	-0.026	Yaw Set Point:	-0.155	X_WP:	0.000	Y_WP:	0.000	Y_WP:	0.000	X:	0.010	Y:	0.014	Z:	0.059	yaw:	8.869	yaw rate:	-1.176	Roll:	0.353	Pitch:	0.346	Yaw:	12.454	Thrust:	0.000
Time:	0.170	Roll Set Point:	-0.022	Pitch Set Point:	-0.026	Yaw Set Point:	-0.155	X_WP:	0.000	Y_WP:	0.000	Y_WP:	0.000	X:	0.010	Y:	0.014	Z:	0.059	yaw:	8.873	yaw rate:	0.380	Roll:	0.359	Pitch:	0.347	Yaw:	12.924	Thrust:	0.000
Time:	0.180	Roll Set Point:	-0.022	Pitch Set Point:	-0.026	Yaw Set Point:	-0.155	X_WP:	0.000	Y_WP:	0.000	Y_WP:	0.000	X:	0.010	Y:	0.014	Z:	0.059	yaw:	8.879	yaw rate:	0.586	Roll:	0.348	Pitch:	0.373	Yaw:	13.013	Thrust:	0.000
Time:	0.191	Roll Set Point:	-0.022	Pitch Set Point:	-0.026	Yaw Set Point:	-0.155	X_WP:	0.000	Y_WP:	0.000	Y_WP:	0.000	X:	0.010	Y:	0.014	Z:	0.059	yaw:	8.876	yaw rate:	-0.253	Roll:	0.343	Pitch:	0.373	Yaw:	12.798	Thrust:	0.000
Time:	0.202	Roll Set Point:	-0.022	Pitch Set Point:	-0.026	Yaw Set Point:	-0.155	X_WP:	0.000	Y_WP:	0.000	Y_WP:	0.000	X:	0.010	Y:	0.014	Z:	0.059	yaw:	8.877	yaw rate:	0.108	Roll:	0.350	Pitch:	0.355	Yaw:	12.964	Thrust:	0.000
Time:	0.212	Roll Set Point:	-0.022	Pitch Set Point:	-0.026	Yaw Set Point:	-0.155	X_WP:	0.000	Y_WP:	0.000	Y_WP:	0.000	X:	0.010	Y:	0.014	Z:	0.059	yaw:	8.878	yaw rate:	0.098	Roll:	0.359	Pitch:	0.373	Yaw:	12.954	Thrust:	0.000
Time:	0.223	Roll Set Point:	-0.022	Pitch Set Point:	-0.026	Yaw Set Point:	-0.155	X_WP:	0.000	Y_WP:	0.000	Y_WP:	0.000	X:	0.010	Y:	0.014	Z:	0.059	yaw:	8.874	yaw rate:	-0.465	Roll:	0.378	Pitch:	0.360	Yaw:	12.890	Thrust:	0.000
Time:	0.233	Roll Set Point:	-0.022	Pitch Set Point:	-0.026	Yaw Set Point:	-0.155	X_WP:	0.000	Y_WP:	0.000	Y_WP:	0.000	X:	0.010	Y:	0.014	Z:	0.059	yaw:	8.871	yaw rate:	-0.325	Roll:	0.356	Pitch:	0.365	Yaw:	12.895	Thrust:	0.000
Time:	0.243	Roll Set Point:	-0.022	Pitch Set Point:	-0.026	Yaw Set Point:	-0.155	X_WP:	0.000	Y_WP:	0.000	Y_WP:	0.000	X:	0.010	Y:	0.014	Z:	0.059	yaw:	8.877	yaw rate:	0.649	Roll:	0.340	Pitch:	0.373	Yaw:	13.185	Thrust:	0.000
Time:	0.253	Roll Set Point:	-0.022	Pitch Set Point:	-0.026	Yaw Set Point:	-0.155	X_WP:	0.000	Y_WP:	0.000	Y_WP:	0.000	X:	0.010	Y:	0.014	Z:	0.059	yaw:	8.876	yaw rate:	-0.058	Roll:	0.340	Pitch:	0.364	Yaw:	13.031	Thrust:	0.000
Time:	0.263	Roll Set Point:	-0.022	Pitch Set Point:	-0.026	Yaw Set Point:	-0.155	X_WP:	0.000	Y_WP:	0.000	Y_WP:	0.000	X:	0.010	Y:	0.014	Z:	0.059	yaw:	8.880	yaw rate:	0.335	Roll:	0.372	Pitch:	0.367	Yaw:	13.170	Thrust:	0.000
Time:	0.274	Roll Set Point:	-0.022	Pitch Set Point:	-0.026	Yaw Set Point:	-0.155	X_WP:	0.000	Y_WP:	0.000	Y_WP:	0.000	X:	0.010	Y:	0.014	Z:	0.059	yaw:	8.880	yaw rate:	0.335	Roll:	0.358	Pitch:	0.366	Yaw:	13.185	Thrust:	0.000
Time:	0.285	Roll Set Point:	-0.022	Pitch Set Point:	-0.026	Yaw Set Point:	-0.155	X_WP:	0.000	Y_WP:	0.000	Y_WP:	0.000	X:	0.010	Y:	0.014	Z:	0.059	yaw:	8.874	yaw rate:	-0.550	Roll:	0.377	Pitch:	0.357	Yaw:	13.075	Thrust:	0.000
Time:	0.295	Roll Set Point:	-0.022	Pitch Set Point:	-0.026	Yaw Set Point:	-0.155	X_WP:	0.000	Y_WP:	0.000	Y_WP:	0.000	X:	0.010	Y:	0.014	Z:	0.059	yaw:	8.878	yaw rate:	0.396	Roll:	0.348	Pitch:	0.364	Yaw:	13.279	Thrust:	0.000
Time:	0.306	Roll Set Point:	-0.022	Pitch Set Point:	-0.026	Yaw Set Point:	-0.155	X_WP:	0.000	Y_WP:	0.000	Y_WP:	0.000	X:	0.010	Y:	0.014	Z:	0.059	yaw:	8.875	yaw rate:	-0.283	Roll:	0.375	Pitch:	0.374	Yaw:	13.214	Thrust:	0.000
Time:	0.317	Roll Set Point:	-0.022	Pitch Set Point:	-0.026	Yaw Set Point:	-0.155	X_WP:	0.000	Y_WP:	0.000	Y_WP:	0.000	X:	0.010	Y:	0.014	Z:	0.059	yaw:	8.878	yaw rate:	0.212	Roll:	0.340	Pitch:	0.367	Yaw:	13.366	Thrust:	0.000
Time:	0.327	Roll Set Point:	-0.022	Pitch Set Point:	-0.026	Yaw Set Point:	-0.155	X_WP:	0.000	Y_WP:	0.000	Y_WP:	0.000	X:	0.010	Y:	0.014	Z:	0.059	yaw:	8.884	yaw rate:	0.618	Roll:	0.350	Pitch:	0.359	Yaw:	13.440	Thrust:	0.000
Time:	0.338	Roll Set Point:	-0.022	Pitch Set Point:	-0.026	Yaw Set Point:	-0.155	X_WP:	0.000	Y_WP:	0.000	Y_WP:	0.000	X:	0.010	Y:	0.014	Z:	0.059	yaw:	8.877	yaw rate:	-0.714	Roll:	0.362	Pitch:	0.377	Yaw:	13.209	Thrust:	0.000
Time:	0.349	Roll Set Point:	-0.022	Pitch Set Point:	-0.026	Yaw Set Point:	-0.155	X_WP:	0.000	Y_WP:	0.000	Y_WP:	0.000	X:	0.010	Y:	0.014	Z:	0.059	yaw:	8.878	yaw rate:	0.163	Roll:	0.357	Pitch:	0.358	Yaw:	13.460	Thrust:	0.000
Time:	0.359	Roll Set Point:	-0.022	Pitch Set Point:	-0.026	Yaw Set Point:	-0.155	X_WP:	0.000	Y_WP:	0.000	Y_WP:	0.000	X:	0.010	Y:	0.014	Z:	0.059	yaw:	8.878	yaw rate:	0.016	Roll:	0.396	Pitch:	0.369	Yaw:	13.370	Thrust:	0.000
Time:	0.369	Roll Set Point:	-0.022	Pitch Set Point:	-0.026	Yaw Set Point:	-0.155	X_WP:	0.000	Y_WP:	0.000	Y_WP:	0.000	X:	0.010	Y:	0.014	Z:	0.059	yaw:	8.879	yaw rate:	0.092	Roll:	0.335	Pitch:	0.373	Yaw:	13.416	Thrust:	0.000
Time:	0.380	Roll Set Point:	-0.022	Pitch Set Point:	-0.026	Yaw Set Point:	-0.155	X_WP:	0.000	Y_WP:	0.000	Y_WP:	0.000	X:	0.010	Y:	0.014	Z:	0.059	yaw:	8.880	yaw rate:	0.063	Roll:	0.352	Pitch:	0.380	Yaw:	13.510	Thrust:	0.000
Time:	0.390	Roll Set Point:	-0.022	Pitch Set Point:	-0.026	Yaw Set Point:	-0.155	X_WP:	0.000	Y_WP:	0.000	Y_WP:	0.000	X:	0.010	Y:	0.014	Z:	0.059	yaw:	8.880	yaw rate:	-0.023	Roll:	0.359	Pitch:	0.358	Yaw:	13.398	Thrust:	0.000
Time:	0.401	Roll Set Point:	-0.022	Pitch Set Point:	-0.026	Yaw Set Point:	-0.155	X_WP:	0.000	Y_WP:	0.000	Y_WP:	0.000	X:	0.010	Y:	0.014	Z:	0.059	yaw:	8.881	yaw rate:	0.104	Roll:	0.364	Pitch:	0.361	Yaw:	13.525	Thrust:	0.000
Time:	0.411	Roll Set Point:	-0.022	Pitch Set Point:	-0.026	Yaw Set Point:	-0.155	X_WP:	0.000	Y_WP:	0.000	Y_WP:	0.000	X:	0.010	Y:	0.014	Z:	0.059	yaw:	8.875	yaw rate:	-0.598	Roll:	0.373	Pitch:	0.401	Yaw:	13.238	Thrust:	0.000
Time:	0.421	Roll Set Point:	-0.022	Pitch Set Point:	-0.026	Yaw Set Point:	-0.155	X_WP:	0.000	Y_WP:	0.000	Y_WP:	0.000	X:	0.010	Y:	0.014	Z:	0.059	yaw:	8.882	yaw rate:	0.730	Roll:	0.371	Pitch:	0.348	Yaw:	13.595	Thrust:	0.000
Time:	0.431	Roll Set Point:	-0.022	Pitch Set Point:	-0.026	Yaw Set Point:	-0.155	X_WP:	0.000	Y_WP:	0.000	Y_WP:	0.000	X:	0.010	Y:	0.014	Z:	0.059	yaw:	8.877	yaw rate:	-0.507	Roll:	0.354	Pitch:	0.365	Yaw:	13.265	Thrust:	0.000
Time:	0.441	Roll Set Point:	-0.022	Pitch Set Point:	-0.026	Yaw Set Point:	-0.155	X_WP:	0.000	Y_WP:	0.000	Y_WP:	0.000	X:	0.010	Y:	0.014	Z:	0.059	yaw:	8.881	yaw rate:	0.384	Roll:	0.370	Pitch:	0.369	Yaw:	13.503	Thrust:	0.000
Time:	0.451	Roll Set Point:	-0.022	Pitch Set Point:	-0.026	Yaw Set Point:	-0.155	X_WP:	0.000	Y_WP:	0.000	Y_WP:	0.000	X:	0.010	Y:	0.014	Z:	0.059	yaw:	8.880	yaw rate:	-0.125	Roll:	0.345	Pitch:	0.388	Yaw:	13.368	Thrust:	0.000
Time:	0.461	Roll Set Point:	-0.022	Pitch Set Point:	-0.026	Yaw Set Point:	-0.155	X_WP:	0.000	Y_WP:	0.000	Y_WP:	0.000	X:	0.010	Y:	0.014	Z:	0.059	yaw:	8.881	yaw rate:	0.158	Roll:	0.355	Pitch:	0.355	Yaw:	13.444	Thrust:	0.000
Time:	0.471	Roll Set Point:	-0.022	Pitch Set Point:	-0.026	Yaw Set Point:	-0.155	X_WP:	0.000	Y_WP:	0.000	Y_WP:	0.000	X:	0.010	Y:	0.014	Z:	0.059	yaw:	8.881	yaw rate:	0.158	Roll:	0.363	Pitch:	0.371	Yaw:	13.403	Thrust:	0.000
Time:	0.481	Roll Set Point:	-0.022	Pitch Set Point:	-0.026	Yaw Set Point:	-0.155	X_WP:	0.000	Y_WP:	0.000	Y_WP:	0.000	X:	0.010	Y:	0.014	Z:	0.059	yaw:	8.878	yaw rate:	-0.323	Roll:	0.375	Pitch:	0.387	Yaw:	13.314	Thrust:	0.000
Time:	0.491	Roll Set Point:	-0.022	Pitch Set Point:	-0.026	Yaw Set Point:	-0.155	X_WP:	0.000	Y_WP:	0.000	Y_WP:	0.000	X:	0.010	Y:	0.014	Z:	0.059	yaw:	8.879	yaw rate:	0.112	Roll:	0.380	Pitch:	0.361	Yaw:	13.429	Thrust:	0.000
Time:	0.501	Roll Set Point:	-0.022	Pitch Set Point:	-0.026	Yaw Set Point:	-0.155	X_WP:	0.000	Y_WP:	0.000	Y_WP:	0.000	X:	0.010	Y:	0.014	Z:	0.059	yaw:	8.876	yaw rate:	-0.352	Roll:	0.348	Pitch:	0.351	Yaw:	13.304	Thrust:	0.000
Time:	0.511	Roll Set Point:	-0.022	Pitch Set Point:	-0.026	Yaw Set Point:	-0.155	X_WP:	0.000	Y_WP:	0.000	Y_WP:	0.000	X:	0.010	Y:	0.014	Z:	0.059	yaw:	8.877	yaw rate:	0.112	Roll:	0.356	Pitch:	0.388	Yaw:	13.425	Thrust:	0.000
Time:	0.521	Roll Set Point:	-0.022	Pitch Set Point:	-0.026	Yaw Set Point:	-0.155	X_WP:	0.000	Y_WP:	0.000	Y_WP:	0.000	X:	0.010	Y:	0.014	Z:	0.059	yaw:	8.875	yaw rate:	-0.198	Roll:	0.355	Pitch:	0.391	Yaw:	13.342	Thrust:	0.000
Time:	0.532	Roll Set Point:	-0.022	Pitch Set Point:	-0.026	Yaw Set Point:	-0.155	X_WP:	0.000	Y_WP:	0.000	Y_WP:	0.000	X:	0.010	Y:	0.014	Z:	0.059	yaw:	8.879	yaw rate:	0.477	Roll:	0.374	Pitch:	0.370	Yaw:	13.615	Thrust:	0.000
Time:	0.542	Roll Set Point:	-0.022	Pitch Set Point:	-0.026	Yaw Set Point:	-0.155	X_WP:	0.000	Y_WP:	0.000	Y_WP:	0.000	X:	0.010	Y:	0.014	Z:	0.059	yaw:	8.879	yaw rate:	-0.038	Roll:	0.378	Pitch:	0.367	Yaw:	13.389	Thrust:	0.000
Time:	0.552	Roll Set Point:	-0.022	Pitch Set Point:	-0.026	Yaw Set Point:	-0.155	X_WP:	0.000	Y_WP:	0.000	Y_WP:	0.000	X:	0.010	Y:	0.014	Z:	0.059	yaw:	8.875	yaw rate:	-0.359	Roll:	0.365	Pitch:	0.370	Yaw:	13.301	Thrust:	0.000
Time:	0.562	Roll Set Point:	-0.022	Pitch Set Point:	-0.026	Yaw Set Point:	-0.155	X_WP:	0.000	Y_WP:	0.000	Y_WP:	0.000	X:	0.010	Y:	0.014	Z:	0.059	yaw:	8.875	yaw rate:	-0.036	Roll:	0.371	Pitch:	0.371	Yaw:	13.385	Thrust:	0.000
Time:	0.573	Roll Set Point:	-0.022	Pitch Set Point:	-0.026	Yaw Set Point:	-0.155	X_WP:	0.000	Y_WP:	0.000	Y_WP:	0.000	X:	0.010	Y:	0.014	Z:	0.059	yaw:	8.879	yaw rate:	0.394	Roll:	0.345	Pitch:	0.382	Yaw:	13.512	Thrust:	0.000
Time:	0.584	Roll Set Point:	-0.022	Pitch Set Point:	-0.026	Yaw Set Point:	-0.155	X_WP:	0.000	Y_WP:	0.000	Y_WP:	0.000	X:	0.010	Y:	0.014	Z:	0.059	yaw:	8.878	yaw rate:	-0.063	Roll:	0.370	Pitch:	0.398	Yaw:	13.475	Thrust:	0.000
Time:	0.594	Roll Set Point:	-0.022	Pitch Set Point:	-0.026	Yaw Set Point:	-0.155	X_WP:	0.000	Y_WP:	0.000	Y_WP:	0.000	X:	0.010	Y:	0.014	Z:	0.059	yaw:	8.878	yaw rate:	-0.063	Roll:	0.367	Pitch:	0.375	Yaw:	13.400	Thrust:	0.000
Time:	0.604	Roll Set Point:	-0.022	Pitch Set Point:	-0.026	Yaw Set Point:	-0.155	X_WP:	0.000	Y_WP:	0.000	Y_WP:	0.000	X:	0.010	Y:	0.014	Z:	0.059	yaw:	8.877	yaw rate:	-0.189	Roll:	0.363	Pitch:	0.357	Yaw:	13.357	Thrust:	0.000
Time:	0.615	Roll Set Point:	-0.022	Pitch Set Point:	-0.026	Yaw Set Point:	-0.155	X_WP:	0.000	Y_WP:	0.000	Y_WP:	0.000	X:	0.010	Y:	0.014	Z:	0.059	yaw:	8.872	yaw rate:	-0.193	Roll:	0.402	Pitch:	0.364	Yaw:	13.385	Thrust:	0.000
Time:	0.625	Roll Set Point:	-0.022	Pitch Set Point:	-0.026	Yaw Set Point:	-0.155	X_WP:	0.000	Y_WP:	0.000	Y_WP:	0.000	X:	0.010	Y:	0.014	Z:	0.059	yaw:	8.872	yaw rate:	-0.193	Roll:	0.368	Pitch:	0.376	Yaw:	13.388	Thrust:	0.000
Time:	0.635	Roll Set Point:	-0.022	Pitch Set Point:	-0.026	Yaw Set Point:	-0.155	X_WP:	0.000	Y_WP:	0.000	Y_WP:	0.000	X:	0.010	Y:	0.014	Z:	0.059	yaw:	8.877	yaw rate:	0.481	Roll:	0.345	Pitch:	0.391	Yaw:	13.523	Thrust:	0.000
Time:	0.646	Roll Set Point:	-0.022	Pitch Set Point:	-0.026	Yaw Set Point:	-0.155	X_WP:	0.000	Y_WP:	0.000	Y_WP:	0.000	X:	0.010	Y:	0.014	Z:	0.059	yaw:	8.881	yaw rate:	0.397	Roll:	0.350	Pitch:	0.372	Yaw:	13.597	Thrust:	0.000
Time:	0.657	Roll Set Point:	-0.022	Pitch Set Point:	-0.026	Yaw Set Point:	-0.155	X_WP:	0.000	Y_WP:	0.000	Y_WP:	0.000	X:	0.010	Y:	0.014	Z:	0.059	yaw:	8.873	yaw rate:	-0.771	Roll:	0.374	Pitch:	0.390	Yaw:	13.309	Thrust:	0.000
Time:	0.667	Roll Set Point:	-0.022	Pitch Set Point:	-0.026	Yaw Set Point:	-0.155	X_WP:	0.000	Y_WP:	0.000	Y_WP:	0.000	X:	0.010	Y:	0.014	Z:	0.059	yaw:	8.873	yaw rate:	-0.054	Roll:	0.379	Pitch:	0.361	Yaw:	13.377	Thrust:	0.000
Time:	0.678	Roll Set Point:	-0.022	Pitch Set Point:	-0.026	Yaw Set Point:	-0.155	X_WP:	0.000	Y_WP:	0.000	Y_WP:	0.000	X:	0.010	Y:	0.014	Z:	0.059	yaw:	8.877	yaw rate:	0.430	Roll:	0.386	Pitch:	0.387	Yaw:	13.594	Thrust:	0.000
Time:	0.688	Roll Set Point:	-0.022	Pitch Set Point:	-0.026	Yaw Set Point:	-0.155	X_WP:	0.000	Y_WP:	0.000	Y_WP:	0.000	X:	0.010	Y:	0.014	Z:	0.059	yaw:	8.877	yaw rate:	0.042	Roll:	0.372	Pitch:	0.377	Yaw:	13.409	Thrust:	0.000
Time:	0.698	Roll Set Point:	-0.022	Pitch Set Point:	-0.026	Yaw Set Point:	-0.155	X_WP:	0.000	Y_WP:	0.000	Y_WP:	0.000	X:	0.010	Y:	0.014	Z:	0.059	yaw:	8.876	yaw rate:	-0.136	Roll:	0.351	Pitch:	0.369	Yaw:	13.368	Thrust:	0.000
Time:	0.708	Roll Set Point:	-0.022	Pitch Set Point:	-0.026	Yaw Set Point:	-0.155	X_WP:	0.000	Y_WP:	0.000	Y_WP:	0.000	X:	0.010	Y:	0.014	Z:	0.059	yaw:	8.881	yaw rate:	0.529	Roll:	0.366	Pitch:	0.384	Yaw:	13.543	Thrust:	0.000
Time:	0.719	Roll Set Point:	-0.022	Pitch Set Point:	-0.026	Yaw Set Point:	-0.155	X_WP:	0.000	Y_WP:	0.000	Y_WP:	0.000	X:	0.010	Y:	0.014	Z:	0.059	yaw:	8.877	yaw rate:	-0.462	Roll:	0.372	Pitch:	0.385	Yaw:	13.377	Thrust:	0.000
Time:	0.729	Roll Set Point:	-0.022	Pitch Set Point:	-0.026	Yaw Set Point:	-0.155	X_WP:	0.000	Y_WP:	0.000	Y_WP:	0.000	X:	0.010	Y:	0.014	Z:	0.059	yaw:	8.876	yaw rate:	-0.067	Roll:	0.376	Pitch:	0.367	Yaw:	13.378	Thrust:	0.000
Time:	0.739	Roll Set Point:	-0.022	Pitch Set Point:	-0.026	Yaw Set Point:	-0.155	X_WP:	0.000	Y_WP:	0.000	Y_WP:	0.000	X:	0.010	Y:	0.014	Z:	0.059	yaw:	8.878	yaw rate:	0.180	Roll:	0.390	Pitch:	0.388	Yaw:	13.447	Thrust:	0.000
Time:	0.749	Roll Set Point:	-0.022	Pitch Set Point:	-0.026	Yaw Set Point:	-0.155	X_WP:	0.000	Y_WP:	0.000	Y_WP:	0.000	X:	0.010	Y:	0.014	Z:	0.059	yaw:	8.877	yaw rate:	-0.038	Roll:	0.358	Pitch:	0.377	Yaw:	13.386	Thrust:	0.000
Time:	0.759	Roll Set Point:	-0.022	Pitch Set Point:	-0.026	Yaw Set Point:	-0.155	X_WP:	0.000	Y_WP:	0.000	Y_WP:	0.000	X:	0.010	Y:	0.014	Z:	0.059	yaw:	8.874	yaw rate:	-0.314	Roll:	0.364	Pitch:	0.387	Yaw:	13.318	Thrust:	0.000
Time:	0.770	Roll Set Point:	-0.022	Pitch Set Point:	-0.026	Yaw Set Point:	-0.155	X_WP:	0.000	Y_WP:	0.000	Y_WP:	0.000	X:	0.010	Y:	0.014	Z:	0.059	yaw:	8.875	yaw rate:	0.051	Roll:	0.364	Pitch:	0.380	Yaw:	13.500	Thrust:	0.000
Time:	0.780	Roll Set Point:	-0.022	Pitch Set Point:	-0.026	Yaw Set Point:	-0.155	X_WP:	0.000	Y_WP:	0.000	Y_WP:	0.000	X:	0.010	Y:	0.014	Z:	0.059	yaw:	8.876	yaw rate:	0.158	Roll:	0.373	Pitch:	0.381	Yaw:	13.438	Thrust:	0.000
Time:	0.790	Roll Set Point:	-0.022	Pitch Set Point:	-0.026	Yaw Set Point:	-0.155	X_WP:	0.000	Y_WP:	0.000	Y_WP:	0.000	X:	0.010	Y:	0.014	Z:	0.059	yaw:	8.875	yaw rate:	-0.161	Roll:	0.396	Pitch:	0.375	Yaw:	13.358	Thrust:	0.000
Time:	0.801	Roll Set Point:	-0.022	Pitch Set Point:	-0.026	Yaw Set Point:	-0.155	X_WP:	0.000	Y_WP:	0.000	Y_WP:	0.000	X:	0.010	Y:	0.014	Z:	0.059	yaw:	8.876	yaw rate:	0.125	Roll:	0.391	Pitch:	0.392	Yaw:	13.520	Thrust:	0.000
Time:	0.811	Roll Set Point:	-0.022	Pitch Set Point:	-0.026	Yaw Set Point:	-0.155	X_WP:	0.000	Y_WP:	0.000	Y_WP:	0.000	X:	0.010	Y:	0.014	Z:	0.059	yaw:	8.882	yaw rate:	0.567	Roll:	0.352	Pitch:	0.377	Yaw:	13.552	Thrust:	0.000
Time:	0.821	Roll Set Point:	-0.022	Pitch Set Point:	-0.026	Yaw Set Point:	-0.155	X_WP:	0.000	Y_WP:	0.000	Y_WP:	0.000	X:	0.010	Y:	0.014	Z:	0.059	yaw:	8.882	yaw rate:	0.567	Roll:	0.373	Pitch:	0.382	Yaw:	13.404	Thrust:	0.000
Time:	0.832	Roll Set Point:	-0.022	Pitch Set Point:	-0.026	Yaw Set Point:	-0.155	X_WP:	0.000	Y_WP:	0.000	Y_WP:	0.000	X:	0.010	Y:	0.014	Z:	0.059	yaw:	8.879	yaw rate:	-0.243	Roll:	0.357	Pitch:	0.380	Yaw:	13.450	Thrust:	0.000
Time:	0.842	Roll Set Point:	-0.022	Pitch Set Point:	-0.026	Yaw Set Point:	-0.155	X_WP:	0.000	Y_WP:	0.000	Y_WP:	0.000	X:	0.010	Y:	0.014	Z:	0.059	yaw:	8.878	yaw rate:	-0.082	Roll:	0.388	Pitch:	0.386	Yaw:	13.378	Thrust:	0.000
Time:	0.853	Roll Set Point:	-0.022	Pitch Set Point:	-0.026	Yaw Set Point:	-0.155	X_WP:	0.000	Y_WP:	0.000	Y_WP:	0.000	X:	0.010	Y:	0.014	Z:	0.059	yaw:	8.873	yaw rate:	-0.518	Roll:	0.373	Pitch:	0.391	Yaw:	13.369	Thrust:	0.000
Time:	0.863	Roll Set Point:	-0.022	Pitch Set Point:	-0.026	Yaw Set Point:	-0.155	X_WP:	0.000	Y_WP:	0.000	Y_WP:	0.000	X:	0.010	Y:	0.014	Z:	0.059	yaw:	8.879	yaw rate:	0.574	Roll:	0.386	Pitch:	0.377	Yaw:	13.550	Thrust:	0.000
Time:	0.874	Roll Set Point:	-0.022	Pitch Set Point:	-0.026	Yaw Set Point:	-0.155	X_WP:	0.000	Y_WP:	0.000	Y_WP:	0.000	X:	0.010	Y:	0.014	Z:	0.059	yaw:	8.876	yaw rate:	-0.340	Roll:	0.387	Pitch:	0.386	Yaw:	13.412	Thrust:	0.000
Time:	0.887	Roll Set Point:	-0.022	Pitch Set Point:	-0.026	Yaw Set Point:	-0.155	X_WP:	0.000	Y_WP:	0.000	Y_WP:	0.000	X:	0.010	Y:	0.014	Z:	0.059	yaw:	8.877	yaw rate:	0.115	Roll:	0.374	Pitch:	0.384	Yaw:	13.619	Thrust:	0.000
Time:	0.897	Roll Set Point:	-0.022	Pitch Set Point:	-0.026	Yaw Set Point:	-0.155	X_WP:	0.000	Y_WP:	0.000	Y_WP:	0.000	X:	0.010	Y:	0.014	Z:	0.059	yaw:	8.881	yaw rate:	0.405	Roll:	0.377	Pitch:	0.380	Yaw:	13.599	Thrust:	0.000
Time:	0.909	Roll Set Point:	-0.022	Pitch Set Point:	-0.026	Yaw Set Point:	-0.155	X_WP:	0.000	Y_WP:	0.000	Y_WP:	0.000	X:	0.010	Y:	0.014	Z:	0.059	yaw:	8.875	yaw rate:	-0.552	Roll:	0.367	Pitch:	0.411	Yaw:	13.475	Thrust:	0.000
Time:	0.921	Roll Set Point:	-0.022	Pitch Set Point:	-0.026	Yaw Set Point:	-0.155	X_WP:	0.000	Y_WP:	0.000	Y_WP:	0.000	X:	0.010	Y:	0.014	Z:	0.059	yaw:	8.878	yaw rate:	0.242	Roll:	0.366	Pitch:	0.368	Yaw:	13.651	Thrust:	0.000
Time:	0.932	Roll Set Point:	-0.022	Pitch Set Point:	-0.026	Yaw Set Point:	-0.155	X_WP:	0.000	Y_WP:	0.000	Y_WP:	0.000	X:	0.010	Y:	0.014	Z:	0.059	yaw:	8.873	yaw rate:	-0.467	Roll:	0.422	Pitch:	0.404	Yaw:	13.381	Thrust:	0.000
Time:	0.943	Roll Set Point:	-0.022	Pitch Set Point:	-0.026	Yaw Set Point:	-0.155	X_WP:	0.000	Y_WP:	0.000	Y_WP:	0.000	X:	0.010	Y:	0.014	Z:	0.059	yaw:	8.874	yaw rate:	0.065	Roll:	0.375	Pitch:	0.383	Yaw:	13.409	Thrust:	0.000
Time:	0.954	Roll Set Point:	-0.022	Pitch Set Point:	-0.026	Yaw Set Point:	-0.155	X_WP:	0.000	Y_WP:	0.000	Y_WP:	0.000	X:	0.010	Y:	0.014	Z:	0.059	yaw:	8.879	yaw rate:	0.496	Roll:	0.357	Pitch:	0.371	Yaw:	13.617	Thrust:	0.000
Time:	0.964	Roll Set Point:	-0.022	Pitch Set Point:	-0.026	Yaw Set Point:	-0.155	X_WP:	0.000	Y_WP:	0.000	Y_WP:	0.000	X:	0.010	Y:	0.014	Z:	0.059	yaw:	8.875	yaw rate:	-0.400	Roll:	0.373	Pitch:	0.391	Yaw:	13.294	Thrust:	0.000
Time:	0.975	Roll Set Point:	-0.022	Pitch Set Point:	-0.026	Yaw Set Point:	-0.155	X_WP:	0.000	Y_WP:	0.000	Y_WP:	0.000	X:	0.010	Y:	0.014	Z:	0.059	yaw:	8.876	yaw rate:	0.187	Roll:	0.376	Pitch:	0.386	Yaw:	13.538	Thrust:	0.000
Time:	0.985	Roll Set Point:	-0.022	Pitch Set Point:	-0.026	Yaw Set Point:	-0.155	X_WP:	0.000	Y_WP:	0.000	Y_WP:	0.000	X:	0.010	Y:	0.014	Z:	0.059	yaw:	8.882	yaw rate:	0.506	Roll:	0.385	Pitch:	0.403	Yaw:	13.536	Thrust:	0.000
Time:	0.997	Roll Set Point:	-0.022	Pitch Set Point:	-0.026	Yaw Set Point:	-0.155	X_WP:	0.000	Y_WP:	0.000	Y_WP:	0.000	X:	0.010	Y:	0.014	Z:	0.059	yaw:	8.880	yaw rate:	-0.122	Roll:	0.386	Pitch:	0.369	Yaw:	13.477	Thrust:	0.000
Time:	1.007	Roll Set Point:	-0.022	Pitch Set Point:	-0.026	Yaw Set Point:	-0.155	X_WP:	0.000	Y_WP:	0.000	Y_WP:	0.000	X:	0.010	Y:	0.014	Z:	0.059	yaw:	8.872	yaw rate:	-0.804	Roll:	0.410	Pitch:	0.397	Yaw:	13.296	Thrust:	0.000
Time:	1.019	Roll Set Point:	-0.022	Pitch Set Point:	-0.026	Yaw Set Point:	-0.155	X_WP:	0.000	Y_WP:	0.000	Y_WP:	0.000	X:	0.010	Y:	0.014	Z:	0.059	yaw:	8.878	yaw rate:	0.546	Roll:	0.367	Pitch:	0.395	Yaw:	13.718	Thrust:	0.000
Time:	1.031	Roll Set Point:	-0.022	Pitch Set Point:	-0.026	Yaw Set Point:	-0.155	X_WP:	0.000	Y_WP:	0.000	Y_WP:	0.000	X:	0.010	Y:	0.014	Z:	0.059	yaw:	8.877	yaw rate:	-0.037	Roll:	0.363	Pitch:	0.395	Yaw:	13.489	Thrust:	0.000
Time:	1.042	Roll Set Point:	-0.022	Pitch Set Point:	-0.026	Yaw Set Point:	-0.155	X_WP:	0.000	Y_WP:	0.000	Y_WP:	0.000	X:	0.010	Y:	0.014	Z:	0.059	yaw:	8.881	yaw rate:	0.410	Roll:	0.380	Pitch:	0.383	Yaw:	13.601	Thrust:	0.000
Time:	1.052	Roll Set Point:	-0.022	Pitch Set Point:	-0.026	Yaw Set Point:	-0.155	X_WP:	0.000	Y_WP:	0.000	Y_WP:	0.000	X:	0.010	Y:	0.014	Z:	0.059	yaw:	8.876	yaw rate:	-0.542	Roll:	0.395	Pitch:	0.403	Yaw:	13.368	Thrust:	0.000
Time:	1.065	Roll Set Point:	-0.022	Pitch Set Point:	-0.026	Yaw Set Point:	-0.155	X_WP:	0.000	Y_WP:	0.000	Y_WP:	0.000	X:	0.010	Y:	0.014	Z:	0.059	yaw:	8.878	yaw rate:	0.179	Roll:	0.407	Pitch:	0.392	Yaw:	13.638	Thrust:	0.000
Time:	1.075	Roll Set Point:	-0.022	Pitch Set Point:	-0.026	Yaw Set Point:	-0.155	X_WP:	0.000	Y_WP:	0.000	Y_WP:	0.000	X:	0.010	Y:	0.014	Z:	0.059	yaw:	8.875	yaw rate:	-0.239	Roll:	0.372	Pitch:	0.382	Yaw:	13.439	Thrust:	0.000
Time:	1.087	Roll Set Point:	-0.022	Pitch Set Point:	-0.026	Yaw Set Point:	-0.155	X_WP:	0.000	Y_WP:	0.000	Y_WP:	0.000	X:	0.010	Y:	0.014	Z:	0.059	yaw:	8.869	yaw rate:	-0.671	Roll:	0.361	Pitch:	0.404	Yaw:	13.440	Thrust:	0.000
Time:	1.098	Roll Set Point:	-0.022	Pitch Set Point:	-0.026	Yaw Set Point:	-0.155	X_WP:	0.000	Y_WP:	0.000	Y_WP:	0.000	X:	0.010	Y:	0.014	Z:	0.059	yaw:	8.878	yaw rate:	0.895	Roll:	0.385	Pitch:	0.394	Yaw:	13.711	Thrust:	0.000
Time:	1.109	Roll Set Point:	-0.022	Pitch Set Point:	-0.026	Yaw Set Point:	-0.155	X_WP:	0.000	Y_WP:	0.000	Y_WP:	0.000	X:	0.010	Y:	0.014	Z:	0.059	yaw:	8.874	yaw rate:	-0.338	Roll:	0.390	Pitch:	0.395	Yaw:	13.414	Thrust:	0.000
Time:	1.120	Roll Set Point:	-0.022	Pitch Set Point:	-0.026	Yaw Set Point:	-0.155	X_WP:	0.000	Y_WP:	0.000	Y_WP:	0.000	X:	0.010	Y:	0.014	Z:	0.059	yaw:	8.875	yaw rate:	0.101	Roll:	0.386	Pitch:	0.384	Yaw:	13.523	Thrust:	0.000
Time:	1.131	Roll Set Point:	-0.022	Pitch Set Point:	-0.026	Yaw Set Point:	-0.155	X_WP:	0.000	Y_WP:	0.000	Y_WP:	0.000	X:	0.010	Y:	0.014	Z:	0.059	yaw:	8.875	yaw rate:	-0.082	Roll:	0.409	Pitch:	0.395	Yaw:	13.471	Thrust:	0.000
Time:	1.142	Roll Set Point:	-0.022	Pitch Set Point:	-0.026	Yaw Set Point:	-0.155	X_WP:	0.000	Y_WP:	0.000	Y_WP:	0.000	X:	0.010	Y:	0.014	Z:	0.059	yaw:	8.876	yaw rate:	0.132	Roll:	0.376	Pitch:	0.397	Yaw:	13.531	Thrust:	0.000
Time:	1.153	Roll Set Point:	-0.022	Pitch Set Point:	-0.026	Yaw Set Point:	-0.155	X_WP:	0.000	Y_WP:	0.000	Y_WP:	0.000	X:	0.010	Y:	0.014	Z:	0.059	yaw:	8.873	yaw rate:	-0.233	Roll:	0.381	Pitch:	0.396	Yaw:	13.437	Thrust:	0.000
Time:	1.163	Roll Set Point:	-0.022	Pitch Set Point:	-0.026	Yaw Set Point:	-0.155	X_WP:	0.000	Y_WP:	0.000	Y_WP:	0.000	X:	0.010	Y:	0.014	Z:	0.059	yaw:	8.885	yaw rate:	1.170	Roll:	0.372	Pitch:	0.386	Yaw:	13.714	Thrust:	0.000
Time:	1.174	Roll Set Point:	-0.022	Pitch Set Point:	-0.026	Yaw Set Point:	-0.155	X_WP:	0.000	Y_WP:	0.000	Y_WP:	0.000	X:	0.010	Y:	0.014	Z:	0.059	yaw:	8.879	yaw rate:	-0.658	Roll:	0.387	Pitch:	0.389	Yaw:	13.340	Thrust:	0.000
Time:	1.184	Roll Set Point:	-0.022	Pitch Set Point:	-0.026	Yaw Set Point:	-0.155	X_WP:	0.000	Y_WP:	0.000	Y_WP:	0.000	X:	0.010	Y:	0.014	Z:	0.059	yaw:	8.878	yaw rate:	-0.105	Roll:	0.395	Pitch:	0.400	Yaw:	13.371	Thrust:	0.000
Time:	1.195	Roll Set Point:	-0.022	Pitch Set Point:	-0.026	Yaw Set Point:	-0.155	X_WP:	0.000	Y_WP:	0.000	Y_WP:	0.000	X:	0.010	Y:	0.014	Z:	0.059	yaw:	8.880	yaw rate:	0.223	Roll:	0.401	Pitch:	0.389	Yaw:	13.555	Thrust:	0.000
Time:	1.206	Roll Set Point:	-0.022	Pitch Set Point:	-0.026	Yaw Set Point:	-0.155	X_WP:	0.000	Y_WP:	0.000	Y_WP:	0.000	X:	0.010	Y:	0.014	Z:	0.059	yaw:	8.877	yaw rate:	-0.286	Roll:	0.380	Pitch:	0.387	Yaw:	13.432	Thrust:	0.000
Time:	1.216	Roll Set Point:	-0.022	Pitch Set Point:	-0.026	Yaw Set Point:	-0.155	X_WP:	0.000	Y_WP:	0.000	Y_WP:	0.000	X:	0.010	Y:	0.014	Z:	0.059	yaw:	8.880	yaw rate:	0.272	Roll:	0.368	Pitch:	0.400	Yaw:	13.477	Thrust:	0.000
Time:	1.227	Roll Set Point:	-0.022	Pitch Set Point:	-0.026	Yaw Set Point:	-0.155	X_WP:	0.000	Y_WP:	0.000	Y_WP:	0.000	X:	0.010	Y:	0.014	Z:	0.059	yaw:	8.881	yaw rate:	0.118	Roll:	0.383	Pitch:	0.407	Yaw:	13.522	Thrust:	0.000
Time:	1.237	Roll Set Point:	-0.022	Pitch Set Point:	-0.026	Yaw Set Point:	-0.155	X_WP:	0.000	Y_WP:	0.000	Y_WP:	0.000	X:	0.010	Y:	0.014	Z:	0.059	yaw:	8.879	yaw rate:	-0.169	Roll:	0.394	Pitch:	0.386	Yaw:	13.359	Thrust:	0.000
Time:	1.248	Roll Set Point:	-0.022	Pitch Set Point:	-0.026	Yaw Set Point:	-0.155	X_WP:	0.000	Y_WP:	0.000	Y_WP:	0.000	X:	0.010	Y:	0.014	Z:	0.059	yaw:	8.877	yaw rate:	-0.248	Roll:	0.398	Pitch:	0.397	Yaw:	13.435	Thrust:	0.000
Time:	1.258	Roll Set Point:	-0.022	Pitch Set Point:	-0.026	Yaw Set Point:	-0.155	X_WP:	0.000	Y_WP:	0.000	Y_WP:	0.000	X:	0.010	Y:	0.014	Z:	0.059	yaw:	8.881	yaw rate:	0.395	Roll:	0.387	Pitch:	0.387	Yaw:	13.505	Thrust:	0.000
Time:	1.268	Roll Set Point:	-0.022	Pitch Set Point:	-0.026	Yaw Set Point:	-0.155	X_WP:	0.000	Y_WP:	0.000	Y_WP:	0.000	X:	0.010	Y:	0.014	Z:	0.059	yaw:	8.878	yaw rate:	-0.270	Roll:	0.371	Pitch:	0.407	Yaw:	13.335	Thrust:	0.000
Time:	1.279	Roll Set Point:	-0.022	Pitch Set Point:	-0.026	Yaw Set Point:	-0.155	X_WP:	0.000	Y_WP:	0.000	Y_WP:	0.000	X:	0.010	Y:	0.014	Z:	0.059	yaw:	8.876	yaw rate:	-0.209	Roll:	0.383	Pitch:	0.399	Yaw:	13.440	Thrust:	0.000
Time:	1.289	Roll Set Point:	-0.022	Pitch Set Point:	-0.026	Yaw Set Point:	-0.155	X_WP:	0.000	Y_WP:	0.000	Y_WP:	0.000	X:	0.010	Y:	0.014	Z:	0.059	yaw:	8.871	yaw rate:	-0.485	Roll:	0.381	Pitch:	0.395	Yaw:	13.262	Thrust:	0.000
Time:	1.299	Roll Set Point:	-0.022	Pitch Set Point:	-0.026	Yaw Set Point:	-0.155	X_WP:	0.000	Y_WP:	0.000	Y_WP:	0.000	X:	0.010	Y:	0.014	Z:	0.059	yaw:	8.874	yaw rate:	0.265	Roll:	0.408	Pitch:	0.393	Yaw:	13.462	Thrust:	0.000
Time:	1.309	Roll Set Point:	-0.022	Pitch Set Point:	-0.026	Yaw Set Point:	-0.155	X_WP:	0.000	Y_WP:	0.000	Y_WP:	0.000	X:	0.010	Y:	0.014	Z:	0.059	yaw:	8.878	yaw rate:	0.441	Roll:	0.378	Pitch:	0.380	Yaw:	13.514	Thrust:	0.000
Time:	1.320	Roll Set Point:	-0.022	Pitch Set Point:	-0.026	Yaw Set Point:	-0.155	X_WP:	0.000	Y_WP:	0.000	Y_WP:	0.000	X:	0.010	Y:	0.014	Z:	0.059	yaw:	8.875	yaw rate:	-0.264	Roll:	0.396	Pitch:	0.401	Yaw:	13.333	Thrust:	0.000
Time:	1.331	Roll Set Point:	-0.022	Pitch Set Point:	-0.026	Yaw Set Point:	-0.155	X_WP:	0.000	Y_WP:	0.000	Y_WP:	0.000	X:	0.010	Y:	0.014	Z:	0.059	yaw:	8.872	yaw rate:	-0.318	Roll:	0.393	Pitch:	0.406	Yaw:	13.409	Thrust:	0.000
Time:	1.341	Roll Set Point:	-0.022	Pitch Set Point:	-0.026	Yaw Set Point:	-0.155	X_WP:	0.000	Y_WP:	0.000	Y_WP:	0.000	X:	0.010	Y:	0.014	Z:	0.059	yaw:	8.883	yaw rate:	1.037	Roll:	0.367	Pitch:	0.395	Yaw:	13.676	Thrust:	0.000
Time:	1.351	Roll Set Point:	-0.022	Pitch Set Point:	-0.026	Yaw Set Point:	-0.155	X_WP:	0.000	Y_WP:	0.000	Y_WP:	0.000	X:	0.010	Y:	0.014	Z:	0.059	yaw:	8.883	yaw rate:	1.037	Roll:	0.388	Pitch:	0.397	Yaw:	13.412	Thrust:	0.000
Time:	1.362	Roll Set Point:	-0.022	Pitch Set Point:	-0.026	Yaw Set Point:	-0.155	X_WP:	0.000	Y_WP:	0.000	Y_WP:	0.000	X:	0.010	Y:	0.014	Z:	0.059	yaw:	8.873	yaw rate:	-0.002	Roll:	0.408	Pitch:	0.405	Yaw:	13.261	Thrust:	0.000
Time:	1.373	Roll Set Point:	-0.022	Pitch Set Point:	-0.026	Yaw Set Point:	-0.155	X_WP:	0.000	Y_WP:	0.000	Y_WP:	0.000	X:	0.010	Y:	0.014	Z:	0.059	yaw:	8.873	yaw rate:	-0.002	Roll:	0.392	Pitch:	0.401	Yaw:	13.485	Thrust:	0.000
Time:	1.383	Roll Set Point:	-0.022	Pitch Set Point:	-0.026	Yaw Set Point:	-0.155	X_WP:	0.000	Y_WP:	0.000	Y_WP:	0.000	X:	0.010	Y:	0.014	Z:	0.059	yaw:	8.872	yaw rate:	-0.132	Roll:	0.380	Pitch:	0.385	Yaw:	13.355	Thrust:	0.000
Time:	1.393	Roll Set Point:	-0.022	Pitch Set Point:	-0.026	Yaw Set Point:	-0.155	X_WP:	0.000	Y_WP:	0.000	Y_WP:	0.000	X:	0.010	Y:	0.014	Z:	0.059	yaw:	8.876	yaw rate:	0.450	Roll:	0.398	Pitch:	0.408	Yaw:	13.513	Thrust:	0.000
Time:	1.403	Roll Set Point:	-0.022	Pitch Set Point:	-0.026	Yaw Set Point:	-0.155	X_WP:	0.000	Y_WP:	0.000	Y_WP:	0.000	X:	0.010	Y:	0.014	Z:	0.059	yaw:	8.880	yaw rate:	0.380	Roll:	0.394	Pitch:	0.407	Yaw:	13.509	Thrust:	0.000
Time:	1.413	Roll Set Point:	-0.022	Pitch Set Point:	-0.026	Yaw Set Point:	-0.155	X_WP:	0.000	Y_WP:	0.000	Y_WP:	0.000	X:	0.010	Y:	0.014	Z:	0.059	yaw:	8.875	yaw rate:	-0.502	Roll:	0.383	Pitch:	0.380	Yaw:	13.263	Thrust:	0.000
Time:	1.423	Roll Set Point:	-0.022	Pitch Set Point:	-0.026	Yaw Set Point:	-0.155	X_WP:	0.000	Y_WP:	0.000	Y_WP:	0.000	X:	0.010	Y:	0.014	Z:	0.059	yaw:	8.874	yaw rate:	-0.063	Roll:	0.389	Pitch:	0.413	Yaw:	13.378	Thrust:	0.000
Time:	1.434	Roll Set Point:	-0.022	Pitch Set Point:	-0.026	Yaw Set Point:	-0.155	X_WP:	0.000	Y_WP:	0.000	Y_WP:	0.000	X:	0.010	Y:	0.014	Z:	0.059	yaw:	8.886	yaw rate:	1.206	Roll:	0.405	Pitch:	0.405	Yaw:	13.794	Thrust:	0.000
Time:	1.444	Roll Set Point:	-0.022	Pitch Set Point:	-0.026	Yaw Set Point:	-0.155	X_WP:	0.000	Y_WP:	0.000	Y_WP:	0.000	X:	0.010	Y:	0.014	Z:	0.059	yaw:	8.879	yaw rate:	-0.735	Roll:	0.382	Pitch:	0.395	Yaw:	13.209	Thrust:	0.000
Time:	1.454	Roll Set Point:	-0.022	Pitch Set Point:	-0.026	Yaw Set Point:	-0.155	X_WP:	0.000	Y_WP:	0.000	Y_WP:	0.000	X:	0.010	Y:	0.014	Z:	0.059	yaw:	8.883	yaw rate:	0.365	Roll:	0.414	Pitch:	0.405	Yaw:	13.500	Thrust:	0.000
Time:	1.465	Roll Set Point:	-0.022	Pitch Set Point:	-0.026	Yaw Set Point:	-0.155	X_WP:	0.000	Y_WP:	0.000	Y_WP:	0.000	X:	0.010	Y:	0.014	Z:	0.059	yaw:	8.878	yaw rate:	-0.427	Roll:	0.383	Pitch:	0.404	Yaw:	13.398	Thrust:	0.000
Time:	1.475	Roll Set Point:	-0.022	Pitch Set Point:	-0.026	Yaw Set Point:	-0.155	X_WP:	0.000	Y_WP:	0.000	Y_WP:	0.000	X:	0.010	Y:	0.014	Z:	0.059	yaw:	8.876	yaw rate:	-0.264	Roll:	0.384	Pitch:	0.395	Yaw:	13.326	Thrust:	0.000
Time:	1.486	Roll Set Point:	-0.022	Pitch Set Point:	-0.026	Yaw Set Point:	-0.155	X_WP:	0.000	Y_WP:	0.000	Y_WP:	0.000	X:	0.010	Y:	0.014	Z:	0.059	yaw:	8.880	yaw rate:	0.419	Roll:	0.408	Pitch:	0.407	Yaw:	13.596	Thrust:	0.000
Time:	1.496	Roll Set Point:	-0.022	Pitch Set Point:	-0.026	Yaw Set Point:	-0.155	X_WP:	0.000	Y_WP:	0.000	Y_WP:	0.000	X:	0.010	Y:	0.014	Z:	0.059	yaw:	8.877	yaw rate:	-0.237	Roll:	0.384	Pitch:	0.406	Yaw:	13.335	Thrust:	0.000
Time:	1.506	Roll Set Point:	-0.022	Pitch Set Point:	-0.026	Yaw Set Point:	-0.155	X_WP:	0.000	Y_WP:	0.000	Y_WP:	0.000	X:	0.010	Y:	0.014	Z:	0.059	yaw:	8.878	yaw rate:	0.019	Roll:	0.396	Pitch:	0.397	Yaw:	13.403	Thrust:	0.000
Time:	1.516	Roll Set Point:	-0.022	Pitch Set Point:	-0.026	Yaw Set Point:	-0.155	X_WP:	0.000	Y_WP:	0.000	Y_WP:	0.000	X:	0.010	Y:	0.014	Z:	0.059	yaw:	8.874	yaw rate:	-0.341	Roll:	0.380	Pitch:	0.399	Yaw:	13.304	Thrust:	0.000
Time:	1.526	Roll Set Point:	-0.022	Pitch Set Point:	-0.026	Yaw Set Point:	-0.155	X_WP:	0.000	Y_WP:	0.000	Y_WP:	0.000	X:	0.010	Y:	0.014	Z:	0.059	yaw:	8.876	yaw rate:	0.163	Roll:	0.408	Pitch:	0.403	Yaw:	13.445	Thrust:	0.000
Time:	1.537	Roll Set Point:	-0.022	Pitch Set Point:	-0.026	Yaw Set Point:	-0.155	X_WP:	0.000	Y_WP:	0.000	Y_WP:	0.000	X:	0.010	Y:	0.014	Z:	0.059	yaw:	8.877	yaw rate:	0.156	Roll:	0.387	Pitch:	0.411	Yaw:	13.535	Thrust:	0.000
Time:	1.547	Roll Set Point:	-0.022	Pitch Set Point:	-0.026	Yaw Set Point:	-0.155	X_WP:	0.000	Y_WP:	0.000	Y_WP:	0.000	X:	0.010	Y:	0.014	Z:	0.059	yaw:	8.880	yaw rate:	0.214	Roll:	0.399	Pitch:	0.392	Yaw:	13.457	Thrust:	0.000
Time:	1.558	Roll Set Point:	-0.022	Pitch Set Point:	-0.026	Yaw Set Point:	-0.155	X_WP:	0.000	Y_WP:	0.000	Y_WP:	0.000	X:	0.010	Y:	0.014	Z:	0.059	yaw:	8.880	yaw rate:	0.214	Roll:	0.398	Pitch:	0.407	Yaw:	13.495	Thrust:	0.000
Time:	1.568	Roll Set Point:	-0.022	Pitch Set Point:	-0.026	Yaw Set Point:	-0.155	X_WP:	0.000	Y_WP:	0.000	Y_WP:	0.000	X:	0.010	Y:	0.014	Z:	0.059	yaw:	8.875	yaw rate:	-0.432	Roll:	0.398	Pitch:	0.414	Yaw:	13.289	Thrust:	0.000
Time:	1.579	Roll Set Point:	-0.022	Pitch Set Point:	-0.026	Yaw Set Point:	-0.155	X_WP:	0.000	Y_WP:	0.000	Y_WP:	0.000	X:	0.010	Y:	0.014	Z:	0.059	yaw:	8.878	yaw rate:	0.300	Roll:	0.396	Pitch:	0.401	Yaw:	13.564	Thrust:	0.000
Time:	1.589	Roll Set Point:	-0.022	Pitch Set Point:	-0.026	Yaw Set Point:	-0.155	X_WP:	0.000	Y_WP:	0.000	Y_WP:	0.000	X:	0.010	Y:	0.014	Z:	0.059	yaw:	8.873	yaw rate:	-0.532	Roll:	0.401	Pitch:	0.405	Yaw:	13.254	Thrust:	0.000
Time:	1.599	Roll Set Point:	-0.022	Pitch Set Point:	-0.026	Yaw Set Point:	-0.155	X_WP:	0.000	Y_WP:	0.000	Y_WP:	0.000	X:	0.010	Y:	0.014	Z:	0.059	yaw:	8.878	yaw rate:	0.515	Roll:	0.398	Pitch:	0.425	Yaw:	13.533	Thrust:	0.000
Time:	1.609	Roll Set Point:	-0.022	Pitch Set Point:	-0.026	Yaw Set Point:	-0.155	X_WP:	0.000	Y_WP:	0.000	Y_WP:	0.000	X:	0.010	Y:	0.014	Z:	0.059	yaw:	8.877	yaw rate:	-0.107	Roll:	0.393	Pitch:	0.390	Yaw:	13.369	Thrust:	0.000
Time:	1.619	Roll Set Point:	-0.022	Pitch Set Point:	-0.026	Yaw Set Point:	-0.155	X_WP:	0.000	Y_WP:	0.000	Y_WP:	0.000	X:	0.010	Y:	0.014	Z:	0.059	yaw:	8.873	yaw rate:	-0.351	Roll:	0.397	Pitch:	0.396	Yaw:	13.301	Thrust:	0.000
Time:	1.629	Roll Set Point:	-0.022	Pitch Set Point:	-0.026	Yaw Set Point:	-0.155	X_WP:	0.000	Y_WP:	0.000	Y_WP:	0.000	X:	0.010	Y:	0.014	Z:	0.059	yaw:	8.878	yaw rate:	0.422	Roll:	0.399	Pitch:	0.424	Yaw:	13.508	Thrust:	0.000
Time:	1.639	Roll Set Point:	-0.022	Pitch Set Point:	-0.026	Yaw Set Point:	-0.155	X_WP:	0.000	Y_WP:	0.000	Y_WP:	0.000	X:	0.010	Y:	0.014	Z:	0.059	yaw:	8.880	yaw rate:	0.227	Roll:	0.394	Pitch:	0.399	Yaw:	13.461	Thrust:	0.000
Time:	1.649	Roll Set Point:	-0.022	Pitch Set Point:	-0.026	Yaw Set Point:	-0.155	X_WP:	0.000	Y_WP:	0.000	Y_WP:	0.000	X:	0.010	Y:	0.014	Z:	0.059	yaw:	8.878	yaw rate:	-0.215	Roll:	0.391	Pitch:	0.392	Yaw:	13.343	Thrust:	0.000
Time:	1.659	Roll Set Point:	-0.022	Pitch Set Point:	-0.026	Yaw Set Point:	-0.155	X_WP:	0.000	Y_WP:	0.000	Y_WP:	0.000	X:	0.010	Y:	0.014	Z:	0.059	yaw:	8.876	yaw rate:	-0.168	Roll:	0.394	Pitch:	0.413	Yaw:	13.359	Thrust:	0.000
Time:	1.670	Roll Set Point:	-0.022	Pitch Set Point:	-0.026	Yaw Set Point:	-0.155	X_WP:	0.000	Y_WP:	0.000	Y_WP:	0.000	X:	0.010	Y:	0.014	Z:	0.059	yaw:	8.879	yaw rate:	0.279	Roll:	0.405	Pitch:	0.418	Yaw:	13.561	Thrust:	0.000
Time:	1.680	Roll Set Point:	-0.022	Pitch Set Point:	-0.026	Yaw Set Point:	-0.155	X_WP:	0.000	Y_WP:	0.000	Y_WP:	0.000	X:	0.010	Y:	0.014	Z:	0.059	yaw:	8.878	yaw rate:	-0.135	Roll:	0.408	Pitch:	0.401	Yaw:	13.363	Thrust:	0.000
Time:	1.690	Roll Set Point:	-0.022	Pitch Set Point:	-0.026	Yaw Set Point:	-0.155	X_WP:	0.000	Y_WP:	0.000	Y_WP:	0.000	X:	0.010	Y:	0.014	Z:	0.059	yaw:	8.880	yaw rate:	0.269	Roll:	0.399	Pitch:	0.401	Yaw:	13.472	Thrust:	0.000
Time:	1.701	Roll Set Point:	-0.022	Pitch Set Point:	-0.026	Yaw Set Point:	-0.155	X_WP:	0.000	Y_WP:	0.000	Y_WP:	0.000	X:	0.010	Y:	0.014	Z:	0.059	yaw:	8.880	yaw rate:	0.269	Roll:	0.399	Pitch:	0.407	Yaw:	13.402	Thrust:	0.000
Time:	1.711	Roll Set Point:	-0.022	Pitch Set Point:	-0.026	Yaw Set Point:	-0.155	X_WP:	0.000	Y_WP:	0.000	Y_WP:	0.000	X:	0.010	Y:	0.014	Z:	0.059	yaw:	8.873	yaw rate:	-0.712	Roll:	0.394	Pitch:	0.414	Yaw:	13.214	Thrust:	0.000
Time:	1.722	Roll Set Point:	-0.022	Pitch Set Point:	-0.026	Yaw Set Point:	-0.155	X_WP:	0.000	Y_WP:	0.000	Y_WP:	0.000	X:	0.010	Y:	0.014	Z:	0.059	yaw:	8.880	yaw rate:	0.659	Roll:	0.407	Pitch:	0.421	Yaw:	13.652	Thrust:	0.000
Time:	1.732	Roll Set Point:	-0.022	Pitch Set Point:	-0.026	Yaw Set Point:	-0.155	X_WP:	0.000	Y_WP:	0.000	Y_WP:	0.000	X:	0.010	Y:	0.014	Z:	0.059	yaw:	8.879	yaw rate:	-0.066	Roll:	0.375	Pitch:	0.401	Yaw:	13.383	Thrust:	0.000
Time:	1.742	Roll Set Point:	-0.022	Pitch Set Point:	-0.026	Yaw Set Point:	-0.155	X_WP:	0.000	Y_WP:	0.000	Y_WP:	0.000	X:	0.010	Y:	0.014	Z:	0.059	yaw:	8.870	yaw rate:	-0.878	Roll:	0.411	Pitch:	0.404	Yaw:	13.159	Thrust:	0.000
Time:	1.752	Roll Set Point:	-0.022	Pitch Set Point:	-0.026	Yaw Set Point:	-0.155	X_WP:	0.000	Y_WP:	0.000	Y_WP:	0.000	X:	0.010	Y:	0.014	Z:	0.059	yaw:	8.875	yaw rate:	0.498	Roll:	0.416	Pitch:	0.416	Yaw:	13.525	Thrust:	0.000
Time:	1.762	Roll Set Point:	-0.022	Pitch Set Point:	-0.026	Yaw Set Point:	-0.155	X_WP:	0.000	Y_WP:	0.000	Y_WP:	0.000	X:	0.010	Y:	0.014	Z:	0.059	yaw:	8.869	yaw rate:	-0.672	Roll:	0.396	Pitch:	0.410	Yaw:	13.220	Thrust:	0.000
Time:	1.773	Roll Set Point:	-0.022	Pitch Set Point:	-0.026	Yaw Set Point:	-0.155	X_WP:	0.000	Y_WP:	0.000	Y_WP:	0.000	X:	0.010	Y:	0.014	Z:	0.059	yaw:	8.877	yaw rate:	0.881	Roll:	0.412	Pitch:	0.405	Yaw:	13.707	Thrust:	0.000
Time:	1.784	Roll Set Point:	-0.022	Pitch Set Point:	-0.026	Yaw Set Point:	-0.155	X_WP:	0.000	Y_WP:	0.000	Y_WP:	0.000	X:	0.010	Y:	0.014	Z:	0.059	yaw:	8.871	yaw rate:	-0.680	Roll:	0.406	Pitch:	0.426	Yaw:	13.317	Thrust:	0.000
Time:	1.794	Roll Set Point:	-0.022	Pitch Set Point:	-0.026	Yaw Set Point:	-0.155	X_WP:	0.000	Y_WP:	0.000	Y_WP:	0.000	X:	0.010	Y:	0.014	Z:	0.059	yaw:	8.876	yaw rate:	0.509	Roll:	0.379	Pitch:	0.402	Yaw:	13.533	Thrust:	0.000
Time:	1.804	Roll Set Point:	-0.022	Pitch Set Point:	-0.026	Yaw Set Point:	-0.155	X_WP:	0.000	Y_WP:	0.000	Y_WP:	0.000	X:	0.010	Y:	0.014	Z:	0.059	yaw:	8.884	yaw rate:	0.822	Roll:	0.406	Pitch:	0.422	Yaw:	13.625	Thrust:	0.000
Time:	1.814	Roll Set Point:	-0.022	Pitch Set Point:	-0.026	Yaw Set Point:	-0.155	X_WP:	0.000	Y_WP:	0.000	Y_WP:	0.000	X:	0.010	Y:	0.014	Z:	0.059	yaw:	8.878	yaw rate:	-0.559	Roll:	0.421	Pitch:	0.400	Yaw:	13.252	Thrust:	0.000
Time:	1.825	Roll Set Point:	-0.022	Pitch Set Point:	-0.026	Yaw Set Point:	-0.155	X_WP:	0.000	Y_WP:	0.000	Y_WP:	0.000	X:	0.010	Y:	0.014	Z:	0.059	yaw:	8.878	yaw rate:	0.014	Roll:	0.413	Pitch:	0.423	Yaw:	13.501	Thrust:	0.000
Time:	1.836	Roll Set Point:	-0.022	Pitch Set Point:	-0.026	Yaw Set Point:	-0.155	X_WP:	0.000	Y_WP:	0.000	Y_WP:	0.000	X:	0.010	Y:	0.014	Z:	0.059	yaw:	8.879	yaw rate:	0.095	Roll:	0.405	Pitch:	0.405	Yaw:	13.516	Thrust:	0.000
Time:	1.846	Roll Set Point:	-0.022	Pitch Set Point:	-0.026	Yaw Set Point:	-0.155	X_WP:	0.000	Y_WP:	0.000	Y_WP:	0.000	X:	0.010	Y:	0.014	Z:	0.059	yaw:	8.871	yaw rate:	-0.879	Roll:	0.387	Pitch:	0.422	Yaw:	13.159	Thrust:	0.000
Time:	1.856	Roll Set Point:	-0.022	Pitch Set Point:	-0.026	Yaw Set Point:	-0.155	X_WP:	0.000	Y_WP:	0.000	Y_WP:	0.000	X:	0.010	Y:	0.014	Z:	0.059	yaw:	8.881	yaw rate:	1.023	Roll:	0.392	Pitch:	0.419	Yaw:	13.674	Thrust:	0.000
Time:	1.867	Roll Set Point:	-0.022	Pitch Set Point:	-0.026	Yaw Set Point:	-0.155	X_WP:	0.000	Y_WP:	0.000	Y_WP:	0.000	X:	0.010	Y:	0.014	Z:	0.059	yaw:	8.878	yaw rate:	-0.321	Roll:	0.415	Pitch:	0.407	Yaw:	13.422	Thrust:	0.000
Time:	1.878	Roll Set Point:	-0.022	Pitch Set Point:	-0.026	Yaw Set Point:	-0.155	X_WP:	0.000	Y_WP:	0.000	Y_WP:	0.000	X:	0.010	Y:	0.014	Z:	0.059	yaw:	8.880	yaw rate:	0.223	Roll:	0.416	Pitch:	0.418	Yaw:	13.548	Thrust:	0.000
Time:	1.888	Roll Set Point:	-0.022	Pitch Set Point:	-0.026	Yaw Set Point:	-0.155	X_WP:	0.000	Y_WP:	0.000	Y_WP:	0.000	X:	0.010	Y:	0.014	Z:	0.059	yaw:	8.882	yaw rate:	0.263	Roll:	0.426	Pitch:	0.408	Yaw:	13.474	Thrust:	0.000
Time:	1.898	Roll Set Point:	-0.022	Pitch Set Point:	-0.026	Yaw Set Point:	-0.155	X_WP:	0.000	Y_WP:	0.000	Y_WP:	0.000	X:	0.010	Y:	0.014	Z:	0.059	yaw:	8.882	yaw rate:	0.263	Roll:	0.405	Pitch:	0.413	Yaw:	13.405	Thrust:	0.000
Time:	1.908	Roll Set Point:	-0.022	Pitch Set Point:	-0.026	Yaw Set Point:	-0.155	X_WP:	0.000	Y_WP:	0.000	Y_WP:	0.000	X:	0.010	Y:	0.014	Z:	0.059	yaw:	8.881	yaw rate:	-0.153	Roll:	0.399	Pitch:	0.421	Yaw:	13.371	Thrust:	0.000
Time:	1.919	Roll Set Point:	-0.022	Pitch Set Point:	-0.026	Yaw Set Point:	-0.155	X_WP:	0.000	Y_WP:	0.000	Y_WP:	0.000	X:	0.010	Y:	0.014	Z:	0.059	yaw:	8.881	yaw rate:	-0.028	Roll:	0.390	Pitch:	0.418	Yaw:	13.493	Thrust:	0.000
Time:	1.929	Roll Set Point:	-0.022	Pitch Set Point:	-0.026	Yaw Set Point:	-0.155	X_WP:	0.000	Y_WP:	0.000	Y_WP:	0.000	X:	0.010	Y:	0.014	Z:	0.059	yaw:	8.882	yaw rate:	0.093	Roll:	0.402	Pitch:	0.419	Yaw:	13.428	Thrust:	0.000
Time:	1.940	Roll Set Point:	-0.022	Pitch Set Point:	-0.026	Yaw Set Point:	-0.155	X_WP:	0.000	Y_WP:	0.000	Y_WP:	0.000	X:	0.010	Y:	0.014	Z:	0.059	yaw:	8.876	yaw rate:	-0.608	Roll:	0.423	Pitch:	0.429	Yaw:	13.345	Thrust:	0.000
Time:	1.950	Roll Set Point:	-0.022	Pitch Set Point:	-0.026	Yaw Set Point:	-0.155	X_WP:	0.000	Y_WP:	0.000	Y_WP:	0.000	X:	0.010	Y:	0.014	Z:	0.059	yaw:	8.874	yaw rate:	-0.171	Roll:	0.424	Pitch:	0.401	Yaw:	13.354	Thrust:	0.000
Time:	1.961	Roll Set Point:	-0.022	Pitch Set Point:	-0.026	Yaw Set Point:	-0.155	X_WP:	0.000	Y_WP:	0.000	Y_WP:	0.000	X:	0.010	Y:	0.014	Z:	0.059	yaw:	8.879	yaw rate:	0.530	Roll:	0.402	Pitch:	0.412	Yaw:	13.622	Thrust:	0.000
Time:	1.971	Roll Set Point:	-0.022	Pitch Set Point:	-0.026	Yaw Set Point:	-0.155	X_WP:	0.000	Y_WP:	0.000	Y_WP:	0.000	X:	0.010	Y:	0.014	Z:	0.059	yaw:	8.881	yaw rate:	0.169	Roll:	0.406	Pitch:	0.434	Yaw:	13.447	Thrust:	0.000
Time:	1.981	Roll Set Point:	-0.022	Pitch Set Point:	-0.026	Yaw Set Point:	-0.155	X_WP:	0.000	Y_WP:	0.000	Y_WP:	0.000	X:	0.010	Y:	0.014	Z:	0.059	yaw:	8.883	yaw rate:	0.213	Roll:	0.413	Pitch:	0.414	Yaw:	13.461	Thrust:	0.000
Time:	1.991	Roll Set Point:	-0.022	Pitch Set Point:	-0.026	Yaw Set Point:	-0.155	X_WP:	0.000	Y_WP:	0.000	Y_WP:	0.000	X:	0.010	Y:	0.014	Z:	0.059	yaw:	8.880	yaw rate:	-0.288	Roll:	0.381	Pitch:	0.416	Yaw:	13.326	Thrust:	0.000
Time:	2.001	Roll Set Point:	-0.022	Pitch Set Point:	-0.026	Yaw Set Point:	-0.155	X_WP:	0.000	Y_WP:	0.000	Y_WP:	0.000	X:	0.010	Y:	0.014	Z:	0.059	yaw:	8.878	yaw rate:	-0.153	Roll:	0.412	Pitch:	0.401	Yaw:	13.360	Thrust:	0.000
Time:	2.011	Roll Set Point:	-0.022	Pitch Set Point:	-0.026	Yaw Set Point:	-0.155	X_WP:	0.000	Y_WP:	0.000	Y_WP:	0.000	X:	0.010	Y:	0.014	Z:	0.059	yaw:	8.877	yaw rate:	-0.186	Roll:	0.419	Pitch:	0.432	Yaw:	13.348	Thrust:	0.000
Time:	2.021	Roll Set Point:	-0.022	Pitch Set Point:	-0.026	Yaw Set Point:	-0.155	X_WP:	0.000	Y_WP:	0.000	Y_WP:	0.000	X:	0.010	Y:	0.014	Z:	0.059	yaw:	8.875	yaw rate:	-0.169	Roll:	0.408	Pitch:	0.413	Yaw:	13.350	Thrust:	0.000
Time:	2.032	Roll Set Point:	-0.022	Pitch Set Point:	-0.026	Yaw Set Point:	-0.155	X_WP:	0.000	Y_WP:	0.000	Y_WP:	0.000	X:	0.010	Y:	0.014	Z:	0.059	yaw:	8.879	yaw rate:	0.419	Roll:	0.409	Pitch:	0.422	Yaw:	13.603	Thrust:	0.000
Time:	2.042	Roll Set Point:	-0.022	Pitch Set Point:	-0.026	Yaw Set Point:	-0.155	X_WP:	0.000	Y_WP:	0.000	Y_WP:	0.000	X:	0.010	Y:	0.014	Z:	0.059	yaw:	8.879	yaw rate:	0.419	Roll:	0.409	Pitch:	0.418	Yaw:	13.403	Thrust:	0.000
Time:	2.054	Roll Set Point:	-0.022	Pitch Set Point:	-0.026	Yaw Set Point:	-0.155	X_WP:	0.000	Y_WP:	0.000	Y_WP:	0.000	X:	0.010	Y:	0.014	Z:	0.059	yaw:	8.876	yaw rate:	0.116	Roll:	0.411	Pitch:	0.422	Yaw:	13.411	Thrust:	0.000
Time:	2.065	Roll Set Point:	-0.022	Pitch Set Point:	-0.026	Yaw Set Point:	-0.155	X_WP:	0.000	Y_WP:	0.000	Y_WP:	0.000	X:	0.010	Y:	0.014	Z:	0.059	yaw:	8.879	yaw rate:	0.364	Roll:	0.425	Pitch:	0.430	Yaw:	13.587	Thrust:	0.000
Time:	2.075	Roll Set Point:	-0.022	Pitch Set Point:	-0.026	Yaw Set Point:	-0.155	X_WP:	0.000	Y_WP:	0.000	Y_WP:	0.000	X:	0.010	Y:	0.014	Z:	0.059	yaw:	8.879	yaw rate:	0.364	Roll:	0.410	Pitch:	0.419	Yaw:	13.400	Thrust:	0.000
Time:	2.086	Roll Set Point:	-0.022	Pitch Set Point:	-0.026	Yaw Set Point:	-0.155	X_WP:	0.000	Y_WP:	0.000	Y_WP:	0.000	X:	0.010	Y:	0.014	Z:	0.059	yaw:	8.882	yaw rate:	0.264	Roll:	0.431	Pitch:	0.426	Yaw:	13.561	Thrust:	0.000
Time:	2.096	Roll Set Point:	-0.022	Pitch Set Point:	-0.026	Yaw Set Point:	-0.155	X_WP:	0.000	Y_WP:	0.000	Y_WP:	0.000	X:	0.010	Y:	0.014	Z:	0.059	yaw:	8.879	yaw rate:	-0.243	Roll:	0.390	Pitch:	0.413	Yaw:	13.340	Thrust:	0.000
Time:	2.107	Roll Set Point:	-0.022	Pitch Set Point:	-0.026	Yaw Set Point:	-0.155	X_WP:	0.000	Y_WP:	0.000	Y_WP:	0.000	X:	0.010	Y:	0.014	Z:	0.059	yaw:	8.874	yaw rate:	-0.509	Roll:	0.423	Pitch:	0.435	Yaw:	13.374	Thrust:	0.000
Time:	2.118	Roll Set Point:	-0.022	Pitch Set Point:	-0.026	Yaw Set Point:	-0.155	X_WP:	0.000	Y_WP:	0.000	Y_WP:	0.000	X:	0.010	Y:	0.014	Z:	0.059	yaw:	8.879	yaw rate:	0.459	Roll:	0.413	Pitch:	0.425	Yaw:	13.607	Thrust:	0.000
Time:	2.128	Roll Set Point:	-0.022	Pitch Set Point:	-0.026	Yaw Set Point:	-0.155	X_WP:	0.000	Y_WP:	0.000	Y_WP:	0.000	X:	0.010	Y:	0.014	Z:	0.059	yaw:	8.876	yaw rate:	-0.279	Roll:	0.405	Pitch:	0.417	Yaw:	13.320	Thrust:	0.000
Time:	2.138	Roll Set Point:	-0.022	Pitch Set Point:	-0.026	Yaw Set Point:	-0.155	X_WP:	0.000	Y_WP:	0.000	Y_WP:	0.000	X:	0.010	Y:	0.014	Z:	0.059	yaw:	8.876	yaw rate:	0.001	Roll:	0.421	Pitch:	0.418	Yaw:	13.397	Thrust:	0.000
Time:	2.148	Roll Set Point:	-0.022	Pitch Set Point:	-0.026	Yaw Set Point:	-0.155	X_WP:	0.000	Y_WP:	0.000	Y_WP:	0.000	X:	0.010	Y:	0.014	Z:	0.059	yaw:	8.878	yaw rate:	0.226	Roll:	0.404	Pitch:	0.408	Yaw:	13.464	Thrust:	0.000
Time:	2.158	Roll Set Point:	-0.022	Pitch Set Point:	-0.026	Yaw Set Point:	-0.155	X_WP:	0.000	Y_WP:	0.000	Y_WP:	0.000	X:	0.010	Y:	0.014	Z:	0.059	yaw:	8.883	yaw rate:	0.413	Roll:	0.417	Pitch:	0.423	Yaw:	13.513	Thrust:	0.000
Time:	2.168	Roll Set Point:	-0.022	Pitch Set Point:	-0.026	Yaw Set Point:	-0.155	X_WP:	0.000	Y_WP:	0.000	Y_WP:	0.000	X:	0.010	Y:	0.014	Z:	0.059	yaw:	8.878	yaw rate:	-0.491	Roll:	0.399	Pitch:	0.434	Yaw:	13.270	Thrust:	0.000
Time:	2.179	Roll Set Point:	-0.022	Pitch Set Point:	-0.026	Yaw Set Point:	-0.155	X_WP:	0.000	Y_WP:	0.000	Y_WP:	0.000	X:	0.010	Y:	0.014	Z:	0.059	yaw:	8.883	yaw rate:	0.503	Roll:	0.426	Pitch:	0.426	Yaw:	13.619	Thrust:	0.000
Time:	2.189	Roll Set Point:	-0.022	Pitch Set Point:	-0.026	Yaw Set Point:	-0.155	X_WP:	0.000	Y_WP:	0.000	Y_WP:	0.000	X:	0.010	Y:	0.014	Z:	0.059	yaw:	8.877	yaw rate:	-0.547	Roll:	0.412	Pitch:	0.415	Yaw:	13.255	Thrust:	0.000
Time:	2.199	Roll Set Point:	-0.022	Pitch Set Point:	-0.026	Yaw Set Point:	-0.155	X_WP:	0.000	Y_WP:	0.000	Y_WP:	0.000	X:	0.010	Y:	0.014	Z:	0.059	yaw:	8.879	yaw rate:	0.162	Roll:	0.411	Pitch:	0.434	Yaw:	13.442	Thrust:	0.000
Time:	2.209	Roll Set Point:	-0.022	Pitch Set Point:	-0.026	Yaw Set Point:	-0.155	X_WP:	0.000	Y_WP:	0.000	Y_WP:	0.000	X:	0.010	Y:	0.014	Z:	0.059	yaw:	8.879	yaw rate:	0.011	Roll:	0.425	Pitch:	0.420	Yaw:	13.412	Thrust:	0.000
Time:	2.220	Roll Set Point:	-0.022	Pitch Set Point:	-0.026	Yaw Set Point:	-0.155	X_WP:	0.000	Y_WP:	0.000	Y_WP:	0.000	X:	0.010	Y:	0.014	Z:	0.059	yaw:	8.883	yaw rate:	0.428	Roll:	0.423	Pitch:	0.424	Yaw:	13.600	Thrust:	0.000
Time:	2.230	Roll Set Point:	-0.022	Pitch Set Point:	-0.026	Yaw Set Point:	-0.155	X_WP:	0.000	Y_WP:	0.000	Y_WP:	0.000	X:	0.010	Y:	0.014	Z:	0.059	yaw:	8.877	yaw rate:	-0.640	Roll:	0.400	Pitch:	0.420	Yaw:	13.228	Thrust:	0.000
Time:	2.240	Roll Set Point:	-0.022	Pitch Set Point:	-0.026	Yaw Set Point:	-0.155	X_WP:	0.000	Y_WP:	0.000	Y_WP:	0.000	X:	0.010	Y:	0.014	Z:	0.059	yaw:	8.878	yaw rate:	0.106	Roll:	0.415	Pitch:	0.429	Yaw:	13.426	Thrust:	0.000
Time:	2.250	Roll Set Point:	-0.022	Pitch Set Point:	-0.026	Yaw Set Point:	-0.155	X_WP:	0.000	Y_WP:	0.000	Y_WP:	0.000	X:	0.010	Y:	0.014	Z:	0.059	yaw:	8.878	yaw rate:	0.106	Roll:	0.415	Pitch:	0.424	Yaw:	13.398	Thrust:	0.000
Time:	2.260	Roll Set Point:	-0.022	Pitch Set Point:	-0.026	Yaw Set Point:	-0.155	X_WP:	0.000	Y_WP:	0.000	Y_WP:	0.000	X:	0.010	Y:	0.014	Z:	0.059	yaw:	8.879	yaw rate:	0.099	Roll:	0.417	Pitch:	0.416	Yaw:	13.426	Thrust:	0.000
Time:	2.270	Roll Set Point:	-0.022	Pitch Set Point:	-0.026	Yaw Set Point:	-0.155	X_WP:	0.000	Y_WP:	0.000	Y_WP:	0.000	X:	0.010	Y:	0.014	Z:	0.059	yaw:	8.876	yaw rate:	-0.304	Roll:	0.414	Pitch:	0.441	Yaw:	13.316	Thrust:	0.000
Time:	2.280	Roll Set Point:	-0.022	Pitch Set Point:	-0.026	Yaw Set Point:	-0.155	X_WP:	0.000	Y_WP:	0.000	Y_WP:	0.000	X:	0.010	Y:	0.014	Z:	0.059	yaw:	8.877	yaw rate:	0.138	Roll:	0.414	Pitch:	0.422	Yaw:	13.434	Thrust:	0.000
Time:	2.290	Roll Set Point:	-0.022	Pitch Set Point:	-0.026	Yaw Set Point:	-0.155	X_WP:	0.000	Y_WP:	0.000	Y_WP:	0.000	X:	0.010	Y:	0.014	Z:	0.059	yaw:	8.881	yaw rate:	0.346	Roll:	0.416	Pitch:	0.414	Yaw:	13.493	Thrust:	0.000
Time:	2.300	Roll Set Point:	-0.022	Pitch Set Point:	-0.026	Yaw Set Point:	-0.155	X_WP:	0.000	Y_WP:	0.000	Y_WP:	0.000	X:	0.010	Y:	0.014	Z:	0.059	yaw:	8.870	yaw rate:	-1.013	Roll:	0.423	Pitch:	0.420	Yaw:	13.124	Thrust:	0.000
Time:	2.310	Roll Set Point:	-0.022	Pitch Set Point:	-0.026	Yaw Set Point:	-0.155	X_WP:	0.000	Y_WP:	0.000	Y_WP:	0.000	X:	0.010	Y:	0.014	Z:	0.059	yaw:	8.878	yaw rate:	0.766	Roll:	0.415	Pitch:	0.446	Yaw:	13.599	Thrust:	0.000
Time:	2.320	Roll Set Point:	-0.022	Pitch Set Point:	-0.026	Yaw Set Point:	-0.155	X_WP:	0.000	Y_WP:	0.000	Y_WP:	0.000	X:	0.010	Y:	0.014	Z:	0.059	yaw:	8.881	yaw rate:	0.283	Roll:	0.414	Pitch:	0.413	Yaw:	13.477	Thrust:	0.000
Time:	2.330	Roll Set Point:	-0.022	Pitch Set Point:	-0.026	Yaw Set Point:	-0.155	X_WP:	0.000	Y_WP:	0.000	Y_WP:	0.000	X:	0.010	Y:	0.014	Z:	0.059	yaw:	8.876	yaw rate:	-0.504	Roll:	0.418	Pitch:	0.424	Yaw:	13.267	Thrust:	0.000
Time:	2.340	Roll Set Point:	-0.022	Pitch Set Point:	-0.026	Yaw Set Point:	-0.155	X_WP:	0.000	Y_WP:	0.000	Y_WP:	0.000	X:	0.010	Y:	0.014	Z:	0.059	yaw:	8.882	yaw rate:	0.642	Roll:	0.433	Pitch:	0.439	Yaw:	13.570	Thrust:	0.000
Time:	2.350	Roll Set Point:	-0.022	Pitch Set Point:	-0.026	Yaw Set Point:	-0.155	X_WP:	0.000	Y_WP:	0.000	Y_WP:	0.000	X:	0.010	Y:	0.014	Z:	0.059	yaw:	8.880	yaw rate:	-0.202	Roll:	0.393	Pitch:	0.421	Yaw:	13.349	Thrust:	0.000
Time:	2.360	Roll Set Point:	-0.022	Pitch Set Point:	-0.026	Yaw Set Point:	-0.155	X_WP:	0.000	Y_WP:	0.000	Y_WP:	0.000	X:	0.010	Y:	0.014	Z:	0.059	yaw:	8.874	yaw rate:	-0.642	Roll:	0.420	Pitch:	0.423	Yaw:	13.225	Thrust:	0.000
Time:	2.370	Roll Set Point:	-0.022	Pitch Set Point:	-0.026	Yaw Set Point:	-0.155	X_WP:	0.000	Y_WP:	0.000	Y_WP:	0.000	X:	0.010	Y:	0.014	Z:	0.059	yaw:	8.874	yaw rate:	-0.642	Roll:	0.418	Pitch:	0.427	Yaw:	13.393	Thrust:	0.000
Time:	2.380	Roll Set Point:	-0.022	Pitch Set Point:	-0.026	Yaw Set Point:	-0.155	X_WP:	0.000	Y_WP:	0.000	Y_WP:	0.000	X:	0.010	Y:	0.014	Z:	0.059	yaw:	8.887	yaw rate:	1.268	Roll:	0.418	Pitch:	0.424	Yaw:	13.742	Thrust:	0.000
Time:	2.390	Roll Set Point:	-0.022	Pitch Set Point:	-0.026	Yaw Set Point:	-0.155	X_WP:	0.000	Y_WP:	0.000	Y_WP:	0.000	X:	0.010	Y:	0.014	Z:	0.059	yaw:	8.882	yaw rate:	-0.426	Roll:	0.421	Pitch:	0.441	Yaw:	13.294	Thrust:	0.000
Time:	2.400	Roll Set Point:	-0.022	Pitch Set Point:	-0.026	Yaw Set Point:	-0.155	X_WP:	0.000	Y_WP:	0.000	Y_WP:	0.000	X:	0.010	Y:	0.014	Z:	0.059	yaw:	8.875	yaw rate:	-0.747	Roll:	0.438	Pitch:	0.425	Yaw:	13.199	Thrust:	0.000
Time:	2.410	Roll Set Point:	-0.022	Pitch Set Point:	-0.026	Yaw Set Point:	-0.155	X_WP:	0.000	Y_WP:	0.000	Y_WP:	0.000	X:	0.010	Y:	0.014	Z:	0.059	yaw:	8.877	yaw rate:	0.245	Roll:	0.408	Pitch:	0.417	Yaw:	13.462	Thrust:	0.000
Time:	2.420	Roll Set Point:	-0.022	Pitch Set Point:	-0.026	Yaw Set Point:	-0.155	X_WP:	0.000	Y_WP:	0.000	Y_WP:	0.000	X:	0.010	Y:	0.014	Z:	0.059	yaw:	8.874	yaw rate:	-0.357	Roll:	0.418	Pitch:	0.439	Yaw:	13.299	Thrust:	0.000
Time:	2.430	Roll Set Point:	-0.022	Pitch Set Point:	-0.026	Yaw Set Point:	-0.155	X_WP:	0.000	Y_WP:	0.000	Y_WP:	0.000	X:	0.010	Y:	0.014	Z:	0.059	yaw:	8.880	yaw rate:	0.587	Roll:	0.421	Pitch:	0.436	Yaw:	13.554	Thrust:	0.000
Time:	2.440	Roll Set Point:	-0.022	Pitch Set Point:	-0.026	Yaw Set Point:	-0.155	X_WP:	0.000	Y_WP:	0.000	Y_WP:	0.000	X:	0.010	Y:	0.014	Z:	0.059	yaw:	8.878	yaw rate:	-0.132	Roll:	0.403	Pitch:	0.430	Yaw:	13.365	Thrust:	0.000
Time:	2.451	Roll Set Point:	-0.022	Pitch Set Point:	-0.026	Yaw Set Point:	-0.155	X_WP:	0.000	Y_WP:	0.000	Y_WP:	0.000	X:	0.010	Y:	0.014	Z:	0.059	yaw:	8.872	yaw rate:	-0.603	Roll:	0.436	Pitch:	0.420	Yaw:	13.233	Thrust:	0.000
Time:	2.461	Roll Set Point:	-0.022	Pitch Set Point:	-0.026	Yaw Set Point:	-0.155	X_WP:	0.000	Y_WP:	0.000	Y_WP:	0.000	X:	0.010	Y:	0.014	Z:	0.059	yaw:	8.880	yaw rate:	0.789	Roll:	0.424	Pitch:	0.429	Yaw:	13.608	Thrust:	0.000
Time:	2.471	Roll Set Point:	-0.022	Pitch Set Point:	-0.026	Yaw Set Point:	-0.155	X_WP:	0.000	Y_WP:	0.000	Y_WP:	0.000	X:	0.010	Y:	0.014	Z:	0.059	yaw:	8.880	yaw rate:	0.789	Roll:	0.421	Pitch:	0.431	Yaw:	13.402	Thrust:	0.000
Time:	2.484	Roll Set Point:	-0.022	Pitch Set Point:	-0.026	Yaw Set Point:	-0.155	X_WP:	0.000	Y_WP:	0.000	Y_WP:	0.000	X:	0.010	Y:	0.014	Z:	0.059	yaw:	8.875	yaw rate:	-0.531	Roll:	0.428	Pitch:	0.432	Yaw:	13.589	Thrust:	0.000
Time:	2.494	Roll Set Point:	-0.022	Pitch Set Point:	-0.026	Yaw Set Point:	-0.155	X_WP:	0.000	Y_WP:	0.000	Y_WP:	0.000	X:	0.010	Y:	0.014	Z:	0.059	yaw:	8.878	yaw rate:	0.264	Roll:	0.438	Pitch:	0.452	Yaw:	13.467	Thrust:	0.000
Time:	2.504	Roll Set Point:	-0.022	Pitch Set Point:	-0.026	Yaw Set Point:	-0.155	X_WP:	0.000	Y_WP:	0.000	Y_WP:	0.000	X:	0.010	Y:	0.014	Z:	0.059	yaw:	8.878	yaw rate:	0.034	Roll:	0.408	Pitch:	0.439	Yaw:	13.414	Thrust:	0.000
Time:	2.515	Roll Set Point:	-0.022	Pitch Set Point:	-0.026	Yaw Set Point:	-0.155	X_WP:	0.000	Y_WP:	0.000	Y_WP:	0.000	X:	0.010	Y:	0.014	Z:	0.059	yaw:	8.880	yaw rate:	0.205	Roll:	0.440	Pitch:	0.437	Yaw:	13.550	Thrust:	0.000
Time:	2.526	Roll Set Point:	-0.022	Pitch Set Point:	-0.026	Yaw Set Point:	-0.155	X_WP:	0.000	Y_WP:	0.000	Y_WP:	0.000	X:	0.010	Y:	0.014	Z:	0.059	yaw:	8.877	yaw rate:	-0.296	Roll:	0.428	Pitch:	0.438	Yaw:	13.422	Thrust:	0.000
Time:	2.537	Roll Set Point:	-0.022	Pitch Set Point:	-0.026	Yaw Set Point:	-0.155	X_WP:	0.000	Y_WP:	0.000	Y_WP:	0.000	X:	0.010	Y:	0.014	Z:	0.059	yaw:	8.878	yaw rate:	0.121	Roll:	0.441	Pitch:	0.442	Yaw:	13.527	Thrust:	0.000
Time:	2.547	Roll Set Point:	-0.022	Pitch Set Point:	-0.026	Yaw Set Point:	-0.155	X_WP:	0.000	Y_WP:	0.000	Y_WP:	0.000	X:	0.010	Y:	0.014	Z:	0.059	yaw:	8.871	yaw rate:	-0.717	Roll:	0.418	Pitch:	0.436	Yaw:	13.203	Thrust:	0.000
Time:	2.557	Roll Set Point:	-0.022	Pitch Set Point:	-0.026	Yaw Set Point:	-0.155	X_WP:	0.000	Y_WP:	0.000	Y_WP:	0.000	X:	0.010	Y:	0.014	Z:	0.059	yaw:	8.880	yaw rate:	0.857	Roll:	0.428	Pitch:	0.436	Yaw:	13.629	Thrust:	0.000
Time:	2.567	Roll Set Point:	-0.022	Pitch Set Point:	-0.026	Yaw Set Point:	-0.155	X_WP:	0.000	Y_WP:	0.000	Y_WP:	0.000	X:	0.010	Y:	0.014	Z:	0.059	yaw:	8.878	yaw rate:	-0.160	Roll:	0.416	Pitch:	0.434	Yaw:	13.357	Thrust:	0.000
Time:	2.578	Roll Set Point:	-0.022	Pitch Set Point:	-0.026	Yaw Set Point:	-0.155	X_WP:	0.000	Y_WP:	0.000	Y_WP:	0.000	X:	0.010	Y:	0.014	Z:	0.059	yaw:	8.879	yaw rate:	0.077	Roll:	0.430	Pitch:	0.439	Yaw:	13.512	Thrust:	0.000
Time:	2.588	Roll Set Point:	-0.022	Pitch Set Point:	-0.026	Yaw Set Point:	-0.155	X_WP:	0.000	Y_WP:	0.000	Y_WP:	0.000	X:	0.010	Y:	0.014	Z:	0.059	yaw:	8.876	yaw rate:	-0.239	Roll:	0.431	Pitch:	0.433	Yaw:	13.334	Thrust:	0.000
Time:	2.598	Roll Set Point:	-0.022	Pitch Set Point:	-0.026	Yaw Set Point:	-0.155	X_WP:	0.000	Y_WP:	0.000	Y_WP:	0.000	X:	0.010	Y:	0.014	Z:	0.059	yaw:	8.872	yaw rate:	-0.403	Roll:	0.424	Pitch:	0.441	Yaw:	13.285	Thrust:	0.000
Time:	2.608	Roll Set Point:	-0.022	Pitch Set Point:	-0.026	Yaw Set Point:	-0.155	X_WP:	0.000	Y_WP:	0.000	Y_WP:	0.000	X:	0.010	Y:	0.014	Z:	0.059	yaw:	8.875	yaw rate:	0.260	Roll:	0.421	Pitch:	0.430	Yaw:	13.462	Thrust:	0.000
Time:	2.618	Roll Set Point:	-0.022	Pitch Set Point:	-0.026	Yaw Set Point:	-0.155	X_WP:	0.000	Y_WP:	0.000	Y_WP:	0.000	X:	0.010	Y:	0.014	Z:	0.059	yaw:	8.875	yaw rate:	-0.040	Roll:	0.431	Pitch:	0.441	Yaw:	13.383	Thrust:	0.000
Time:	2.628	Roll Set Point:	-0.022	Pitch Set Point:	-0.026	Yaw Set Point:	-0.155	X_WP:	0.000	Y_WP:	0.000	Y_WP:	0.000	X:	0.010	Y:	0.014	Z:	0.059	yaw:	8.876	yaw rate:	0.159	Roll:	0.410	Pitch:	0.433	Yaw:	13.440	Thrust:	0.000
Time:	2.639	Roll Set Point:	-0.022	Pitch Set Point:	-0.026	Yaw Set Point:	-0.155	X_WP:	0.000	Y_WP:	0.000	Y_WP:	0.000	X:	0.010	Y:	0.014	Z:	0.059	yaw:	8.875	yaw rate:	-0.133	Roll:	0.434	Pitch:	0.430	Yaw:	13.460	Thrust:	0.000
Time:	2.649	Roll Set Point:	-0.022	Pitch Set Point:	-0.026	Yaw Set Point:	-0.155	X_WP:	0.000	Y_WP:	0.000	Y_WP:	0.000	X:	0.010	Y:	0.014	Z:	0.059	yaw:	8.877	yaw rate:	0.203	Roll:	0.440	Pitch:	0.455	Yaw:	13.450	Thrust:	0.000
Time:	2.660	Roll Set Point:	-0.022	Pitch Set Point:	-0.026	Yaw Set Point:	-0.155	X_WP:	0.000	Y_WP:	0.000	Y_WP:	0.000	X:	0.010	Y:	0.014	Z:	0.059	yaw:	8.874	yaw rate:	-0.285	Roll:	0.432	Pitch:	0.425	Yaw:	13.427	Thrust:	0.000
Time:	2.672	Roll Set Point:	-0.022	Pitch Set Point:	-0.026	Yaw Set Point:	-0.155	X_WP:	0.000	Y_WP:	0.000	Y_WP:	0.000	X:	0.010	Y:	0.014	Z:	0.059	yaw:	8.876	yaw rate:	0.191	Roll:	0.440	Pitch:	0.449	Yaw:	13.637	Thrust:	0.000
Time:	2.683	Roll Set Point:	-0.022	Pitch Set Point:	-0.026	Yaw Set Point:	-0.155	X_WP:	0.000	Y_WP:	0.000	Y_WP:	0.000	X:	0.010	Y:	0.014	Z:	0.059	yaw:	8.881	yaw rate:	0.540	Roll:	0.424	Pitch:	0.449	Yaw:	13.631	Thrust:	0.000
Time:	2.694	Roll Set Point:	-0.022	Pitch Set Point:	-0.026	Yaw Set Point:	-0.155	X_WP:	0.000	Y_WP:	0.000	Y_WP:	0.000	X:	0.010	Y:	0.014	Z:	0.059	yaw:	8.879	yaw rate:	-0.202	Roll:	0.425	Pitch:	0.438	Yaw:	13.453	Thrust:	0.000
Time:	2.705	Roll Set Point:	-0.022	Pitch Set Point:	-0.026	Yaw Set Point:	-0.155	X_WP:	0.000	Y_WP:	0.000	Y_WP:	0.000	X:	0.010	Y:	0.014	Z:	0.059	yaw:	8.881	yaw rate:	0.173	Roll:	0.454	Pitch:	0.455	Yaw:	13.546	Thrust:	0.000
Time:	2.716	Roll Set Point:	-0.022	Pitch Set Point:	-0.026	Yaw Set Point:	-0.155	X_WP:	0.000	Y_WP:	0.000	Y_WP:	0.000	X:	0.010	Y:	0.014	Z:	0.059	yaw:	8.874	yaw rate:	-0.720	Roll:	0.441	Pitch:	0.450	Yaw:	13.323	Thrust:	0.000
Time:	2.728	Roll Set Point:	-0.022	Pitch Set Point:	-0.026	Yaw Set Point:	-0.155	X_WP:	0.000	Y_WP:	0.000	Y_WP:	0.000	X:	0.010	Y:	0.014	Z:	0.059	yaw:	8.878	yaw rate:	0.409	Roll:	0.453	Pitch:	0.448	Yaw:	13.596	Thrust:	0.000
Time:	2.739	Roll Set Point:	-0.022	Pitch Set Point:	-0.026	Yaw Set Point:	-0.155	X_WP:	0.000	Y_WP:	0.000	Y_WP:	0.000	X:	0.010	Y:	0.014	Z:	0.059	yaw:	8.875	yaw rate:	-0.247	Roll:	0.412	Pitch:	0.444	Yaw:	13.539	Thrust:	0.000
Time:	2.749	Roll Set Point:	-0.022	Pitch Set Point:	-0.026	Yaw Set Point:	-0.155	X_WP:	0.000	Y_WP:	0.000	Y_WP:	0.000	X:	0.010	Y:	0.014	Z:	0.059	yaw:	8.875	yaw rate:	0.005	Roll:	0.443	Pitch:	0.456	Yaw:	13.399	Thrust:	0.000
Time:	2.761	Roll Set Point:	-0.022	Pitch Set Point:	-0.026	Yaw Set Point:	-0.155	X_WP:	0.000	Y_WP:	0.000	Y_WP:	0.000	X:	0.010	Y:	0.014	Z:	0.059	yaw:	8.880	yaw rate:	0.482	Roll:	0.449	Pitch:	0.446	Yaw:	13.705	Thrust:	0.000
Time:	2.772	Roll Set Point:	-0.022	Pitch Set Point:	-0.026	Yaw Set Point:	-0.155	X_WP:	0.000	Y_WP:	0.000	Y_WP:	0.000	X:	0.010	Y:	0.014	Z:	0.059	yaw:	8.876	yaw rate:	-0.451	Roll:	0.413	Pitch:	0.432	Yaw:	13.278	Thrust:	0.000
Time:	2.783	Roll Set Point:	-0.022	Pitch Set Point:	-0.026	Yaw Set Point:	-0.155	X_WP:	0.000	Y_WP:	0.000	Y_WP:	0.000	X:	0.010	Y:	0.014	Z:	0.059	yaw:	8.883	yaw rate:	0.734	Roll:	0.451	Pitch:	0.452	Yaw:	13.680	Thrust:	0.000
Time:	2.794	Roll Set Point:	-0.022	Pitch Set Point:	-0.026	Yaw Set Point:	-0.155	X_WP:	0.000	Y_WP:	0.000	Y_WP:	0.000	X:	0.010	Y:	0.014	Z:	0.059	yaw:	8.877	yaw rate:	-0.643	Roll:	0.445	Pitch:	0.460	Yaw:	13.457	Thrust:	0.000
Time:	2.806	Roll Set Point:	-0.022	Pitch Set Point:	-0.026	Yaw Set Point:	-0.155	X_WP:	0.000	Y_WP:	0.000	Y_WP:	0.000	X:	0.010	Y:	0.014	Z:	0.059	yaw:	8.878	yaw rate:	0.182	Roll:	0.437	Pitch:	0.442	Yaw:	13.543	Thrust:	0.000
Time:	2.817	Roll Set Point:	-0.022	Pitch Set Point:	-0.026	Yaw Set Point:	-0.155	X_WP:	0.000	Y_WP:	0.000	Y_WP:	0.000	X:	0.010	Y:	0.014	Z:	0.059	yaw:	8.878	yaw rate:	-0.026	Roll:	0.448	Pitch:	0.454	Yaw:	13.593	Thrust:	0.000
Time:	2.828	Roll Set Point:	-0.022	Pitch Set Point:	-0.026	Yaw Set Point:	-0.155	X_WP:	0.000	Y_WP:	0.000	Y_WP:	0.000	X:	0.010	Y:	0.014	Z:	0.059	yaw:	8.882	yaw rate:	0.409	Roll:	0.437	Pitch:	0.461	Yaw:	13.514	Thrust:	0.000
Time:	2.840	Roll Set Point:	-0.022	Pitch Set Point:	-0.026	Yaw Set Point:	-0.155	X_WP:	0.000	Y_WP:	0.000	Y_WP:	0.000	X:	0.010	Y:	0.014	Z:	0.059	yaw:	8.879	yaw rate:	-0.330	Roll:	0.426	Pitch:	0.443	Yaw:	13.526	Thrust:	0.000
