Time:	0.081	Roll Set Point:	-0.357	Pitch Set Point:	0.481	Yaw Set Point:	1.520	X_WP:	0.000	Y_WP:	0.000	Y_WP:	0.000	X:	-0.050	Y:	-0.410	Z:	0.665	yaw:	-87.080	yaw rate:	8.994	Roll:	11.799	Pitch:	-2.049	Yaw:	-121.587	Thrust:	0.000
Time:	0.111	Roll Set Point:	-0.357	Pitch Set Point:	0.480	Yaw Set Point:	1.522	X_WP:	0.000	Y_WP:	0.000	Y_WP:	0.000	X:	-0.050	Y:	-0.410	Z:	0.665	yaw:	-87.184	yaw rate:	0.519	Roll:	11.899	Pitch:	-1.704	Yaw:	-123.548	Thrust:	0.000
Time:	0.141	Roll Set Point:	-0.357	Pitch Set Point:	0.481	Yaw Set Point:	1.519	X_WP:	0.000	Y_WP:	0.000	Y_WP:	0.000	X:	-0.050	Y:	-0.410	Z:	0.665	yaw:	-87.060	yaw rate:	12.390	Roll:	11.768	Pitch:	-2.497	Yaw:	-122.312	Thrust:	0.000
Time:	0.173	Roll Set Point:	-0.357	Pitch Set Point:	0.481	Yaw Set Point:	1.520	X_WP:	0.000	Y_WP:	0.000	Y_WP:	0.000	X:	-0.050	Y:	-0.410	Z:	0.665	yaw:	-87.071	yaw rate:	12.350	Roll:	11.895	Pitch:	-1.999	Yaw:	-124.417	Thrust:	0.000
Time:	0.209	Roll Set Point:	-0.357	Pitch Set Point:	0.480	Yaw Set Point:	1.522	X_WP:	0.000	Y_WP:	0.000	Y_WP:	0.000	X:	-0.050	Y:	-0.410	Z:	0.665	yaw:	-87.214	yaw rate:	-0.392	Roll:	12.052	Pitch:	-1.549	Yaw:	-126.669	Thrust:	0.000
Time:	0.242	Roll Set Point:	-0.357	Pitch Set Point:	0.480	Yaw Set Point:	1.522	X_WP:	0.000	Y_WP:	0.000	Y_WP:	0.000	X:	-0.050	Y:	-0.410	Z:	0.665	yaw:	-87.208	yaw rate:	-3.099	Roll:	11.998	Pitch:	-2.075	Yaw:	-127.830	Thrust:	0.000
Time:	0.282	Roll Set Point:	-0.357	Pitch Set Point:	0.480	Yaw Set Point:	1.522	X_WP:	0.000	Y_WP:	0.000	Y_WP:	0.000	X:	-0.050	Y:	-0.410	Z:	0.665	yaw:	-87.214	yaw rate:	-3.962	Roll:	12.057	Pitch:	-2.050	Yaw:	-129.132	Thrust:	0.000
Time:	0.312	Roll Set Point:	-0.357	Pitch Set Point:	0.480	Yaw Set Point:	1.522	X_WP:	0.000	Y_WP:	0.000	Y_WP:	0.000	X:	-0.050	Y:	-0.410	Z:	0.665	yaw:	-87.183	yaw rate:	-13.011	Roll:	11.975	Pitch:	-2.216	Yaw:	-127.474	Thrust:	0.000
Time:	0.342	Roll Set Point:	-0.357	Pitch Set Point:	0.480	Yaw Set Point:	1.522	X_WP:	0.000	Y_WP:	0.000	Y_WP:	0.000	X:	-0.050	Y:	-0.410	Z:	0.665	yaw:	-87.205	yaw rate:	-0.176	Roll:	12.074	Pitch:	-1.963	Yaw:	-127.771	Thrust:	0.000
Time:	0.420	Roll Set Point:	-0.357	Pitch Set Point:	0.480	Yaw Set Point:	1.522	X_WP:	0.000	Y_WP:	0.000	Y_WP:	0.000	X:	-0.050	Y:	-0.410	Z:	0.665	yaw:	-87.192	yaw rate:	2.616	Roll:	12.153	Pitch:	-2.149	Yaw:	-135.533	Thrust:	0.000
Time:	0.470	Roll Set Point:	-0.357	Pitch Set Point:	0.480	Yaw Set Point:	1.522	X_WP:	0.000	Y_WP:	0.000	Y_WP:	0.000	X:	-0.050	Y:	-0.410	Z:	0.665	yaw:	-87.197	yaw rate:	1.483	Roll:	12.518	Pitch:	-2.130	Yaw:	-131.804	Thrust:	0.000
Time:	0.502	Roll Set Point:	-0.357	Pitch Set Point:	0.480	Yaw Set Point:	1.522	X_WP:	0.000	Y_WP:	0.000	Y_WP:	0.000	X:	-0.050	Y:	-0.410	Z:	0.665	yaw:	-87.196	yaw rate:	1.472	Roll:	12.369	Pitch:	-2.109	Yaw:	-130.162	Thrust:	0.000
Time:	0.539	Roll Set Point:	-0.357	Pitch Set Point:	0.480	Yaw Set Point:	1.522	X_WP:	0.000	Y_WP:	0.000	Y_WP:	0.000	X:	-0.050	Y:	-0.410	Z:	0.665	yaw:	-87.202	yaw rate:	0.572	Roll:	12.177	Pitch:	-2.072	Yaw:	-127.627	Thrust:	0.000
Time:	0.582	Roll Set Point:	-0.357	Pitch Set Point:	0.480	Yaw Set Point:	1.522	X_WP:	0.000	Y_WP:	0.000	Y_WP:	0.000	X:	-0.050	Y:	-0.410	Z:	0.665	yaw:	-87.207	yaw rate:	-2.112	Roll:	12.472	Pitch:	-2.127	Yaw:	-131.816	Thrust:	0.000
Time:	0.641	Roll Set Point:	-0.357	Pitch Set Point:	0.480	Yaw Set Point:	1.522	X_WP:	0.000	Y_WP:	0.000	Y_WP:	0.000	X:	-0.050	Y:	-0.410	Z:	0.665	yaw:	-87.204	yaw rate:	-1.555	Roll:	12.371	Pitch:	-2.153	Yaw:	-131.781	Thrust:	0.000
Time:	0.682	Roll Set Point:	-0.357	Pitch Set Point:	0.480	Yaw Set Point:	1.522	X_WP:	0.000	Y_WP:	0.000	Y_WP:	0.000	X:	-0.050	Y:	-0.410	Z:	0.665	yaw:	-87.215	yaw rate:	-3.327	Roll:	12.730	Pitch:	-2.132	Yaw:	-131.848	Thrust:	0.000
Time:	0.730	Roll Set Point:	-0.357	Pitch Set Point:	0.480	Yaw Set Point:	1.522	X_WP:	0.000	Y_WP:	0.000	Y_WP:	0.000	X:	-0.050	Y:	-0.410	Z:	0.665	yaw:	-87.214	yaw rate:	0.815	Roll:	12.431	Pitch:	-2.136	Yaw:	-131.411	Thrust:	0.000
Time:	0.771	Roll Set Point:	-0.357	Pitch Set Point:	0.480	Yaw Set Point:	1.522	X_WP:	0.000	Y_WP:	0.000	Y_WP:	0.000	X:	-0.050	Y:	-0.410	Z:	0.665	yaw:	-87.199	yaw rate:	-0.155	Roll:	12.662	Pitch:	-2.215	Yaw:	-129.861	Thrust:	0.000
Time:	0.811	Roll Set Point:	-0.357	Pitch Set Point:	0.481	Yaw Set Point:	1.519	X_WP:	0.000	Y_WP:	0.000	Y_WP:	0.000	X:	-0.050	Y:	-0.410	Z:	0.665	yaw:	-87.050	yaw rate:	15.149	Roll:	12.228	Pitch:	-2.618	Yaw:	-128.599	Thrust:	0.000
Time:	0.841	Roll Set Point:	-0.357	Pitch Set Point:	0.480	Yaw Set Point:	1.522	X_WP:	0.000	Y_WP:	0.000	Y_WP:	0.000	X:	-0.050	Y:	-0.410	Z:	0.665	yaw:	-87.209	yaw rate:	-0.536	Roll:	12.680	Pitch:	-1.511	Yaw:	-129.163	Thrust:	0.000
Time:	0.870	Roll Set Point:	-0.357	Pitch Set Point:	0.480	Yaw Set Point:	1.522	X_WP:	0.000	Y_WP:	0.000	Y_WP:	0.000	X:	-0.050	Y:	-0.410	Z:	0.665	yaw:	-87.200	yaw rate:	-11.994	Roll:	12.413	Pitch:	-2.191	Yaw:	-127.489	Thrust:	0.000
Time:	0.930	Roll Set Point:	-0.357	Pitch Set Point:	0.480	Yaw Set Point:	1.522	X_WP:	0.000	Y_WP:	0.000	Y_WP:	0.000	X:	-0.050	Y:	-0.410	Z:	0.665	yaw:	-87.208	yaw rate:	-0.856	Roll:	12.661	Pitch:	-2.179	Yaw:	-133.647	Thrust:	0.000
Time:	0.961	Roll Set Point:	-0.357	Pitch Set Point:	0.480	Yaw Set Point:	1.521	X_WP:	0.000	Y_WP:	0.000	Y_WP:	0.000	X:	-0.050	Y:	-0.410	Z:	0.665	yaw:	-87.174	yaw rate:	0.802	Roll:	12.901	Pitch:	-2.297	Yaw:	-127.843	Thrust:	0.000
Time:	0.991	Roll Set Point:	-0.357	Pitch Set Point:	0.480	Yaw Set Point:	1.522	X_WP:	0.000	Y_WP:	0.000	Y_WP:	0.000	X:	-0.050	Y:	-0.410	Z:	0.665	yaw:	-87.199	yaw rate:	-0.346	Roll:	12.518	Pitch:	-2.046	Yaw:	-127.795	Thrust:	0.000
Time:	1.041	Roll Set Point:	-0.357	Pitch Set Point:	0.480	Yaw Set Point:	1.522	X_WP:	0.000	Y_WP:	0.000	Y_WP:	0.000	X:	-0.050	Y:	-0.410	Z:	0.665	yaw:	-87.202	yaw rate:	0.120	Roll:	12.762	Pitch:	-2.229	Yaw:	-131.796	Thrust:	0.000
Time:	1.100	Roll Set Point:	-0.357	Pitch Set Point:	0.480	Yaw Set Point:	1.522	X_WP:	0.000	Y_WP:	0.000	Y_WP:	0.000	X:	-0.050	Y:	-0.410	Z:	0.665	yaw:	-87.199	yaw rate:	2.220	Roll:	13.079	Pitch:	-2.251	Yaw:	-133.575	Thrust:	0.000
Time:	1.141	Roll Set Point:	-0.357	Pitch Set Point:	0.480	Yaw Set Point:	1.522	X_WP:	0.000	Y_WP:	0.000	Y_WP:	0.000	X:	-0.050	Y:	-0.410	Z:	0.665	yaw:	-87.197	yaw rate:	1.597	Roll:	13.391	Pitch:	-2.266	Yaw:	-129.759	Thrust:	0.000
Time:	1.170	Roll Set Point:	-0.357	Pitch Set Point:	0.480	Yaw Set Point:	1.522	X_WP:	0.000	Y_WP:	0.000	Y_WP:	0.000	X:	-0.050	Y:	-0.410	Z:	0.665	yaw:	-87.200	yaw rate:	-1.166	Roll:	12.635	Pitch:	-2.158	Yaw:	-127.794	Thrust:	0.000
Time:	1.200	Roll Set Point:	-0.357	Pitch Set Point:	0.481	Yaw Set Point:	1.520	X_WP:	0.000	Y_WP:	0.000	Y_WP:	0.000	X:	-0.050	Y:	-0.410	Z:	0.665	yaw:	-87.076	yaw rate:	10.075	Roll:	12.553	Pitch:	-2.628	Yaw:	-126.514	Thrust:	0.000
Time:	1.230	Roll Set Point:	-0.357	Pitch Set Point:	0.481	Yaw Set Point:	1.520	X_WP:	0.000	Y_WP:	0.000	Y_WP:	0.000	X:	-0.050	Y:	-0.410	Z:	0.665	yaw:	-87.071	yaw rate:	12.105	Roll:	12.687	Pitch:	-2.223	Yaw:	-127.546	Thrust:	0.000
Time:	1.260	Roll Set Point:	-0.357	Pitch Set Point:	0.480	Yaw Set Point:	1.522	X_WP:	0.000	Y_WP:	0.000	Y_WP:	0.000	X:	-0.050	Y:	-0.410	Z:	0.665	yaw:	-87.193	yaw rate:	0.056	Roll:	12.807	Pitch:	-1.787	Yaw:	-128.820	Thrust:	0.000
Time:	1.290	Roll Set Point:	-0.357	Pitch Set Point:	0.480	Yaw Set Point:	1.522	X_WP:	0.000	Y_WP:	0.000	Y_WP:	0.000	X:	-0.050	Y:	-0.410	Z:	0.665	yaw:	-87.189	yaw rate:	-0.172	Roll:	12.730	Pitch:	-2.195	Yaw:	-127.724	Thrust:	0.000
Time:	1.311	Roll Set Point:	-0.357	Pitch Set Point:	0.480	Yaw Set Point:	1.521	X_WP:	0.000	Y_WP:	0.000	Y_WP:	0.000	X:	-0.050	Y:	-0.410	Z:	0.665	yaw:	-87.172	yaw rate:	1.442	Roll:	12.426	Pitch:	-2.260	Yaw:	-125.722	Thrust:	0.000
Time:	1.361	Roll Set Point:	-0.357	Pitch Set Point:	0.481	Yaw Set Point:	1.519	X_WP:	0.000	Y_WP:	0.000	Y_WP:	0.000	X:	-0.050	Y:	-0.410	Z:	0.665	yaw:	-87.048	yaw rate:	13.306	Roll:	13.073	Pitch:	-2.602	Yaw:	-130.704	Thrust:	0.000
Time:	1.411	Roll Set Point:	-0.357	Pitch Set Point:	0.480	Yaw Set Point:	1.522	X_WP:	0.000	Y_WP:	0.000	Y_WP:	0.000	X:	-0.050	Y:	-0.410	Z:	0.665	yaw:	-87.193	yaw rate:	1.348	Roll:	13.595	Pitch:	-2.025	Yaw:	-132.527	Thrust:	0.000
Time:	1.451	Roll Set Point:	-0.357	Pitch Set Point:	0.480	Yaw Set Point:	1.522	X_WP:	0.000	Y_WP:	0.000	Y_WP:	0.000	X:	-0.050	Y:	-0.410	Z:	0.665	yaw:	-87.208	yaw rate:	-1.594	Roll:	13.607	Pitch:	-2.208	Yaw:	-129.884	Thrust:	0.000
