Time:	0.073	Roll Set Point:	-0.357	Pitch Set Point:	0.480	Yaw Set Point:	1.522	X_WP:	0.000	Y_WP:	0.000	Y_WP:	0.000	X:	-0.050	Y:	-0.410	Z:	0.665	yaw:	-87.176	yaw rate:	2.121	Roll:	11.802	Pitch:	-2.033	Yaw:	-121.720	Thrust:	0.000
Time:	0.103	Roll Set Point:	-0.357	Pitch Set Point:	0.480	Yaw Set Point:	1.522	X_WP:	0.000	Y_WP:	0.000	Y_WP:	0.000	X:	-0.050	Y:	-0.410	Z:	0.665	yaw:	-87.203	yaw rate:	-0.251	Roll:	11.864	Pitch:	-1.912	Yaw:	-122.910	Thrust:	0.000
Time:	0.133	Roll Set Point:	-0.357	Pitch Set Point:	0.480	Yaw Set Point:	1.522	X_WP:	0.000	Y_WP:	0.000	Y_WP:	0.000	X:	-0.050	Y:	-0.410	Z:	0.665	yaw:	-87.187	yaw rate:	-11.504	Roll:	11.851	Pitch:	-2.126	Yaw:	-123.495	Thrust:	0.000
Time:	0.165	Roll Set Point:	-0.357	Pitch Set Point:	0.480	Yaw Set Point:	1.522	X_WP:	0.000	Y_WP:	0.000	Y_WP:	0.000	X:	-0.050	Y:	-0.410	Z:	0.665	yaw:	-87.198	yaw rate:	-13.746	Roll:	11.917	Pitch:	-1.981	Yaw:	-124.504	Thrust:	0.000
Time:	0.222	Roll Set Point:	-0.357	Pitch Set Point:	0.480	Yaw Set Point:	1.522	X_WP:	0.000	Y_WP:	0.000	Y_WP:	0.000	X:	-0.050	Y:	-0.410	Z:	0.665	yaw:	-87.188	yaw rate:	0.491	Roll:	11.905	Pitch:	-2.106	Yaw:	-128.896	Thrust:	0.000
Time:	0.262	Roll Set Point:	-0.357	Pitch Set Point:	0.480	Yaw Set Point:	1.522	X_WP:	0.000	Y_WP:	0.000	Y_WP:	0.000	X:	-0.050	Y:	-0.410	Z:	0.665	yaw:	-87.198	yaw rate:	-0.769	Roll:	12.116	Pitch:	-2.043	Yaw:	-126.562	Thrust:	0.000
Time:	0.294	Roll Set Point:	-0.357	Pitch Set Point:	0.481	Yaw Set Point:	1.520	X_WP:	0.000	Y_WP:	0.000	Y_WP:	0.000	X:	-0.050	Y:	-0.410	Z:	0.665	yaw:	-87.068	yaw rate:	-0.483	Roll:	11.967	Pitch:	-2.448	Yaw:	-128.046	Thrust:	0.000
Time:	0.323	Roll Set Point:	-0.357	Pitch Set Point:	0.481	Yaw Set Point:	1.519	X_WP:	0.000	Y_WP:	0.000	Y_WP:	0.000	X:	-0.050	Y:	-0.410	Z:	0.665	yaw:	-87.060	yaw rate:	12.717	Roll:	11.997	Pitch:	-2.137	Yaw:	-127.507	Thrust:	0.000
Time:	0.353	Roll Set Point:	-0.357	Pitch Set Point:	0.481	Yaw Set Point:	1.520	X_WP:	0.000	Y_WP:	0.000	Y_WP:	0.000	X:	-0.050	Y:	-0.410	Z:	0.665	yaw:	-87.066	yaw rate:	12.256	Roll:	12.051	Pitch:	-2.053	Yaw:	-127.638	Thrust:	0.000
Time:	0.392	Roll Set Point:	-0.357	Pitch Set Point:	0.480	Yaw Set Point:	1.522	X_WP:	0.000	Y_WP:	0.000	Y_WP:	0.000	X:	-0.050	Y:	-0.410	Z:	0.665	yaw:	-87.184	yaw rate:	-10.468	Roll:	12.164	Pitch:	-1.694	Yaw:	-128.770	Thrust:	0.000
Time:	0.423	Roll Set Point:	-0.357	Pitch Set Point:	0.480	Yaw Set Point:	1.522	X_WP:	0.000	Y_WP:	0.000	Y_WP:	0.000	X:	-0.050	Y:	-0.410	Z:	0.665	yaw:	-87.195	yaw rate:	-14.351	Roll:	12.221	Pitch:	-2.055	Yaw:	-129.844	Thrust:	0.000
Time:	0.453	Roll Set Point:	-0.357	Pitch Set Point:	0.480	Yaw Set Point:	1.522	X_WP:	0.000	Y_WP:	0.000	Y_WP:	0.000	X:	-0.050	Y:	-0.410	Z:	0.665	yaw:	-87.205	yaw rate:	-2.583	Roll:	12.152	Pitch:	-2.042	Yaw:	-127.867	Thrust:	0.000
Time:	0.501	Roll Set Point:	-0.357	Pitch Set Point:	0.480	Yaw Set Point:	1.522	X_WP:	0.000	Y_WP:	0.000	Y_WP:	0.000	X:	-0.050	Y:	-0.410	Z:	0.665	yaw:	-87.179	yaw rate:	-11.414	Roll:	12.142	Pitch:	-2.210	Yaw:	-129.368	Thrust:	0.000
Time:	0.533	Roll Set Point:	-0.357	Pitch Set Point:	0.480	Yaw Set Point:	1.522	X_WP:	0.000	Y_WP:	0.000	Y_WP:	0.000	X:	-0.050	Y:	-0.410	Z:	0.665	yaw:	-87.187	yaw rate:	1.132	Roll:	12.456	Pitch:	-2.097	Yaw:	-130.009	Thrust:	0.000
Time:	0.571	Roll Set Point:	-0.357	Pitch Set Point:	0.480	Yaw Set Point:	1.522	X_WP:	0.000	Y_WP:	0.000	Y_WP:	0.000	X:	-0.050	Y:	-0.410	Z:	0.665	yaw:	-87.192	yaw rate:	-0.323	Roll:	12.235	Pitch:	-2.091	Yaw:	-127.609	Thrust:	0.000
Time:	0.622	Roll Set Point:	-0.357	Pitch Set Point:	0.480	Yaw Set Point:	1.522	X_WP:	0.000	Y_WP:	0.000	Y_WP:	0.000	X:	-0.050	Y:	-0.410	Z:	0.665	yaw:	-87.185	yaw rate:	0.853	Roll:	12.414	Pitch:	-2.178	Yaw:	-131.714	Thrust:	0.000
Time:	0.673	Roll Set Point:	-0.357	Pitch Set Point:	0.480	Yaw Set Point:	1.522	X_WP:	0.000	Y_WP:	0.000	Y_WP:	0.000	X:	-0.050	Y:	-0.410	Z:	0.665	yaw:	-87.200	yaw rate:	0.405	Roll:	12.634	Pitch:	-2.126	Yaw:	-133.653	Thrust:	0.000
Time:	0.693	Roll Set Point:	-0.357	Pitch Set Point:	0.480	Yaw Set Point:	1.522	X_WP:	0.000	Y_WP:	0.000	Y_WP:	0.000	X:	-0.050	Y:	-0.410	Z:	0.665	yaw:	-87.197	yaw rate:	0.256	Roll:	12.486	Pitch:	-2.106	Yaw:	-125.920	Thrust:	0.000
Time:	0.723	Roll Set Point:	-0.357	Pitch Set Point:	0.480	Yaw Set Point:	1.522	X_WP:	0.000	Y_WP:	0.000	Y_WP:	0.000	X:	-0.050	Y:	-0.410	Z:	0.665	yaw:	-87.206	yaw rate:	0.063	Roll:	12.368	Pitch:	-2.093	Yaw:	-127.863	Thrust:	0.000
Time:	0.754	Roll Set Point:	-0.357	Pitch Set Point:	0.481	Yaw Set Point:	1.519	X_WP:	0.000	Y_WP:	0.000	Y_WP:	0.000	X:	-0.050	Y:	-0.410	Z:	0.665	yaw:	-87.045	yaw rate:	15.729	Roll:	12.249	Pitch:	-2.753	Yaw:	-126.148	Thrust:	0.000
Time:	0.792	Roll Set Point:	-0.357	Pitch Set Point:	0.480	Yaw Set Point:	1.522	X_WP:	0.000	Y_WP:	0.000	Y_WP:	0.000	X:	-0.050	Y:	-0.410	Z:	0.665	yaw:	-87.213	yaw rate:	-0.001	Roll:	12.558	Pitch:	-1.542	Yaw:	-129.257	Thrust:	0.000
Time:	0.841	Roll Set Point:	-0.357	Pitch Set Point:	0.481	Yaw Set Point:	1.519	X_WP:	0.000	Y_WP:	0.000	Y_WP:	0.000	X:	-0.050	Y:	-0.410	Z:	0.665	yaw:	-87.052	yaw rate:	13.275	Roll:	12.529	Pitch:	-2.597	Yaw:	-130.504	Thrust:	0.000
Time:	0.882	Roll Set Point:	-0.357	Pitch Set Point:	0.480	Yaw Set Point:	1.522	X_WP:	0.000	Y_WP:	0.000	Y_WP:	0.000	X:	-0.050	Y:	-0.410	Z:	0.665	yaw:	-87.190	yaw rate:	0.947	Roll:	13.005	Pitch:	-1.838	Yaw:	-130.848	Thrust:	0.000
Time:	0.913	Roll Set Point:	-0.357	Pitch Set Point:	0.480	Yaw Set Point:	1.522	X_WP:	0.000	Y_WP:	0.000	Y_WP:	0.000	X:	-0.050	Y:	-0.410	Z:	0.665	yaw:	-87.230	yaw rate:	-3.754	Roll:	12.755	Pitch:	-2.047	Yaw:	-129.879	Thrust:	0.000
Time:	0.943	Roll Set Point:	-0.357	Pitch Set Point:	0.481	Yaw Set Point:	1.519	X_WP:	0.000	Y_WP:	0.000	Y_WP:	0.000	X:	-0.050	Y:	-0.410	Z:	0.665	yaw:	-87.054	yaw rate:	13.375	Roll:	12.363	Pitch:	-2.832	Yaw:	-126.039	Thrust:	0.000
Time:	0.974	Roll Set Point:	-0.357	Pitch Set Point:	0.480	Yaw Set Point:	1.522	X_WP:	0.000	Y_WP:	0.000	Y_WP:	0.000	X:	-0.050	Y:	-0.410	Z:	0.665	yaw:	-87.216	yaw rate:	-2.275	Roll:	12.718	Pitch:	-1.570	Yaw:	-129.205	Thrust:	0.000
Time:	1.004	Roll Set Point:	-0.357	Pitch Set Point:	0.480	Yaw Set Point:	1.522	X_WP:	0.000	Y_WP:	0.000	Y_WP:	0.000	X:	-0.050	Y:	-0.410	Z:	0.665	yaw:	-87.189	yaw rate:	2.867	Roll:	12.573	Pitch:	-2.288	Yaw:	-127.722	Thrust:	0.000
Time:	1.034	Roll Set Point:	-0.357	Pitch Set Point:	0.481	Yaw Set Point:	1.519	X_WP:	0.000	Y_WP:	0.000	Y_WP:	0.000	X:	-0.050	Y:	-0.410	Z:	0.665	yaw:	-87.059	yaw rate:	12.584	Roll:	12.515	Pitch:	-2.660	Yaw:	-126.209	Thrust:	0.000
Time:	1.063	Roll Set Point:	-0.357	Pitch Set Point:	0.480	Yaw Set Point:	1.522	X_WP:	0.000	Y_WP:	0.000	Y_WP:	0.000	X:	-0.050	Y:	-0.410	Z:	0.665	yaw:	-87.200	yaw rate:	-12.038	Roll:	12.786	Pitch:	-1.632	Yaw:	-128.996	Thrust:	0.000
Time:	1.093	Roll Set Point:	-0.357	Pitch Set Point:	0.480	Yaw Set Point:	1.522	X_WP:	0.000	Y_WP:	0.000	Y_WP:	0.000	X:	-0.050	Y:	-0.410	Z:	0.665	yaw:	-87.201	yaw rate:	0.753	Roll:	12.694	Pitch:	-2.166	Yaw:	-127.783	Thrust:	0.000
Time:	1.124	Roll Set Point:	-0.357	Pitch Set Point:	0.480	Yaw Set Point:	1.522	X_WP:	0.000	Y_WP:	0.000	Y_WP:	0.000	X:	-0.050	Y:	-0.410	Z:	0.665	yaw:	-87.186	yaw rate:	2.950	Roll:	12.693	Pitch:	-2.270	Yaw:	-127.613	Thrust:	0.000
Time:	1.153	Roll Set Point:	-0.357	Pitch Set Point:	0.480	Yaw Set Point:	1.522	X_WP:	0.000	Y_WP:	0.000	Y_WP:	0.000	X:	-0.050	Y:	-0.410	Z:	0.665	yaw:	-87.208	yaw rate:	-1.325	Roll:	12.754	Pitch:	-2.084	Yaw:	-127.973	Thrust:	0.000
Time:	1.191	Roll Set Point:	-0.357	Pitch Set Point:	0.480	Yaw Set Point:	1.522	X_WP:	0.000	Y_WP:	0.000	Y_WP:	0.000	X:	-0.050	Y:	-0.410	Z:	0.665	yaw:	-87.200	yaw rate:	1.037	Roll:	12.804	Pitch:	-2.232	Yaw:	-127.899	Thrust:	0.000
Time:	1.223	Roll Set Point:	-0.357	Pitch Set Point:	0.480	Yaw Set Point:	1.522	X_WP:	0.000	Y_WP:	0.000	Y_WP:	0.000	X:	-0.050	Y:	-0.410	Z:	0.665	yaw:	-87.205	yaw rate:	-1.219	Roll:	13.125	Pitch:	-2.242	Yaw:	-129.431	Thrust:	0.000
Time:	1.271	Roll Set Point:	-0.357	Pitch Set Point:	0.480	Yaw Set Point:	1.522	X_WP:	0.000	Y_WP:	0.000	Y_WP:	0.000	X:	-0.050	Y:	-0.410	Z:	0.665	yaw:	-87.185	yaw rate:	-10.380	Roll:	12.819	Pitch:	-2.342	Yaw:	-129.614	Thrust:	0.000
Time:	1.303	Roll Set Point:	-0.357	Pitch Set Point:	0.480	Yaw Set Point:	1.522	X_WP:	0.000	Y_WP:	0.000	Y_WP:	0.000	X:	-0.050	Y:	-0.410	Z:	0.665	yaw:	-87.202	yaw rate:	-0.584	Roll:	13.601	Pitch:	-2.218	Yaw:	-130.090	Thrust:	0.000
Time:	1.362	Roll Set Point:	-0.357	Pitch Set Point:	0.480	Yaw Set Point:	1.522	X_WP:	0.000	Y_WP:	0.000	Y_WP:	0.000	X:	-0.050	Y:	-0.410	Z:	0.665	yaw:	-87.197	yaw rate:	-1.510	Roll:	13.272	Pitch:	-2.297	Yaw:	-129.734	Thrust:	0.000
Time:	1.395	Roll Set Point:	-0.357	Pitch Set Point:	0.481	Yaw Set Point:	1.520	X_WP:	0.000	Y_WP:	0.000	Y_WP:	0.000	X:	-0.050	Y:	-0.410	Z:	0.665	yaw:	-87.084	yaw rate:	-1.543	Roll:	13.621	Pitch:	-2.604	Yaw:	-131.029	Thrust:	0.000
Time:	1.424	Roll Set Point:	-0.357	Pitch Set Point:	0.480	Yaw Set Point:	1.522	X_WP:	0.000	Y_WP:	0.000	Y_WP:	0.000	X:	-0.050	Y:	-0.410	Z:	0.665	yaw:	-87.190	yaw rate:	2.094	Roll:	13.010	Pitch:	-1.865	Yaw:	-128.686	Thrust:	0.000
Time:	1.472	Roll Set Point:	-0.357	Pitch Set Point:	0.480	Yaw Set Point:	1.522	X_WP:	0.000	Y_WP:	0.000	Y_WP:	0.000	X:	-0.050	Y:	-0.410	Z:	0.665	yaw:	-87.184	yaw rate:	1.156	Roll:	12.919	Pitch:	-2.319	Yaw:	-129.306	Thrust:	0.000
Time:	1.503	Roll Set Point:	-0.357	Pitch Set Point:	0.480	Yaw Set Point:	1.522	X_WP:	0.000	Y_WP:	0.000	Y_WP:	0.000	X:	-0.050	Y:	-0.410	Z:	0.665	yaw:	-87.203	yaw rate:	-0.511	Roll:	13.702	Pitch:	-2.243	Yaw:	-130.106	Thrust:	0.000
Time:	1.541	Roll Set Point:	-0.357	Pitch Set Point:	0.480	Yaw Set Point:	1.522	X_WP:	0.000	Y_WP:	0.000	Y_WP:	0.000	X:	-0.050	Y:	-0.410	Z:	0.665	yaw:	-87.194	yaw rate:	-0.712	Roll:	12.930	Pitch:	-2.288	Yaw:	-127.686	Thrust:	0.000
Time:	1.582	Roll Set Point:	-0.357	Pitch Set Point:	0.480	Yaw Set Point:	1.522	X_WP:	0.000	Y_WP:	0.000	Y_WP:	0.000	X:	-0.050	Y:	-0.410	Z:	0.665	yaw:	-87.211	yaw rate:	0.267	Roll:	13.278	Pitch:	-2.276	Yaw:	-129.697	Thrust:	0.000
Time:	1.641	Roll Set Point:	-0.357	Pitch Set Point:	0.480	Yaw Set Point:	1.522	X_WP:	0.000	Y_WP:	0.000	Y_WP:	0.000	X:	-0.050	Y:	-0.410	Z:	0.665	yaw:	-87.211	yaw rate:	-1.725	Roll:	13.309	Pitch:	-2.391	Yaw:	-133.598	Thrust:	0.000
Time:	1.682	Roll Set Point:	-0.357	Pitch Set Point:	0.480	Yaw Set Point:	1.522	X_WP:	0.000	Y_WP:	0.000	Y_WP:	0.000	X:	-0.050	Y:	-0.410	Z:	0.665	yaw:	-87.182	yaw rate:	2.664	Roll:	14.040	Pitch:	-2.560	Yaw:	-131.810	Thrust:	0.000
Time:	1.712	Roll Set Point:	-0.357	Pitch Set Point:	0.480	Yaw Set Point:	1.522	X_WP:	0.000	Y_WP:	0.000	Y_WP:	0.000	X:	-0.050	Y:	-0.410	Z:	0.665	yaw:	-87.203	yaw rate:	-0.707	Roll:	13.332	Pitch:	-2.171	Yaw:	-127.783	Thrust:	0.000
Time:	1.752	Roll Set Point:	-0.357	Pitch Set Point:	0.480	Yaw Set Point:	1.522	X_WP:	0.000	Y_WP:	0.000	Y_WP:	0.000	X:	-0.050	Y:	-0.410	Z:	0.665	yaw:	-87.203	yaw rate:	-2.498	Roll:	12.925	Pitch:	-2.272	Yaw:	-127.748	Thrust:	0.000
Time:	1.793	Roll Set Point:	-0.357	Pitch Set Point:	0.480	Yaw Set Point:	1.522	X_WP:	0.000	Y_WP:	0.000	Y_WP:	0.000	X:	-0.050	Y:	-0.410	Z:	0.665	yaw:	-87.197	yaw rate:	-0.694	Roll:	13.301	Pitch:	-2.452	Yaw:	-131.747	Thrust:	0.000
Time:	1.832	Roll Set Point:	-0.357	Pitch Set Point:	0.480	Yaw Set Point:	1.522	X_WP:	0.000	Y_WP:	0.000	Y_WP:	0.000	X:	-0.050	Y:	-0.410	Z:	0.665	yaw:	-87.197	yaw rate:	-1.650	Roll:	13.309	Pitch:	-2.299	Yaw:	-127.968	Thrust:	0.000
Time:	1.882	Roll Set Point:	-0.357	Pitch Set Point:	0.480	Yaw Set Point:	1.522	X_WP:	0.000	Y_WP:	0.000	Y_WP:	0.000	X:	-0.050	Y:	-0.410	Z:	0.665	yaw:	-87.208	yaw rate:	-15.574	Roll:	13.319	Pitch:	-2.417	Yaw:	-131.649	Thrust:	0.000
Time:	1.913	Roll Set Point:	-0.357	Pitch Set Point:	0.480	Yaw Set Point:	1.522	X_WP:	0.000	Y_WP:	0.000	Y_WP:	0.000	X:	-0.050	Y:	-0.410	Z:	0.665	yaw:	-87.218	yaw rate:	-3.001	Roll:	13.687	Pitch:	-2.343	Yaw:	-130.063	Thrust:	0.000
Time:	1.943	Roll Set Point:	-0.357	Pitch Set Point:	0.480	Yaw Set Point:	1.522	X_WP:	0.000	Y_WP:	0.000	Y_WP:	0.000	X:	-0.050	Y:	-0.410	Z:	0.665	yaw:	-87.201	yaw rate:	0.866	Roll:	12.888	Pitch:	-2.372	Yaw:	-127.632	Thrust:	0.000
Time:	1.992	Roll Set Point:	-0.357	Pitch Set Point:	0.480	Yaw Set Point:	1.522	X_WP:	0.000	Y_WP:	0.000	Y_WP:	0.000	X:	-0.050	Y:	-0.410	Z:	0.665	yaw:	-87.198	yaw rate:	1.295	Roll:	12.925	Pitch:	-2.399	Yaw:	-129.751	Thrust:	0.000
Time:	2.031	Roll Set Point:	-0.357	Pitch Set Point:	0.480	Yaw Set Point:	1.522	X_WP:	0.000	Y_WP:	0.000	Y_WP:	0.000	X:	-0.050	Y:	-0.410	Z:	0.665	yaw:	-87.206	yaw rate:	-13.297	Roll:	13.686	Pitch:	-2.369	Yaw:	-129.642	Thrust:	0.000
Time:	2.073	Roll Set Point:	-0.357	Pitch Set Point:	0.480	Yaw Set Point:	1.522	X_WP:	0.000	Y_WP:	0.000	Y_WP:	0.000	X:	-0.050	Y:	-0.410	Z:	0.665	yaw:	-87.213	yaw rate:	-2.201	Roll:	13.311	Pitch:	-2.476	Yaw:	-131.839	Thrust:	0.000
Time:	2.123	Roll Set Point:	-0.357	Pitch Set Point:	0.481	Yaw Set Point:	1.520	X_WP:	0.000	Y_WP:	0.000	Y_WP:	0.000	X:	-0.050	Y:	-0.410	Z:	0.665	yaw:	-87.079	yaw rate:	11.651	Roll:	13.221	Pitch:	-2.800	Yaw:	-130.903	Thrust:	0.000
Time:	2.171	Roll Set Point:	-0.357	Pitch Set Point:	0.480	Yaw Set Point:	1.522	X_WP:	0.000	Y_WP:	0.000	Y_WP:	0.000	X:	-0.050	Y:	-0.410	Z:	0.665	yaw:	-87.197	yaw rate:	0.670	Roll:	13.742	Pitch:	-2.262	Yaw:	-130.362	Thrust:	0.000
Time:	2.203	Roll Set Point:	-0.357	Pitch Set Point:	0.480	Yaw Set Point:	1.522	X_WP:	0.000	Y_WP:	0.000	Y_WP:	0.000	X:	-0.050	Y:	-0.410	Z:	0.665	yaw:	-87.191	yaw rate:	1.288	Roll:	13.667	Pitch:	-2.470	Yaw:	-129.924	Thrust:	0.000
Time:	2.242	Roll Set Point:	-0.357	Pitch Set Point:	0.480	Yaw Set Point:	1.522	X_WP:	0.000	Y_WP:	0.000	Y_WP:	0.000	X:	-0.050	Y:	-0.410	Z:	0.665	yaw:	-87.191	yaw rate:	0.002	Roll:	12.937	Pitch:	-2.440	Yaw:	-129.563	Thrust:	0.000
Time:	2.272	Roll Set Point:	-0.357	Pitch Set Point:	0.480	Yaw Set Point:	1.522	X_WP:	0.000	Y_WP:	0.000	Y_WP:	0.000	X:	-0.050	Y:	-0.410	Z:	0.665	yaw:	-87.216	yaw rate:	-1.126	Roll:	13.297	Pitch:	-2.191	Yaw:	-128.007	Thrust:	0.000
Time:	2.311	Roll Set Point:	-0.357	Pitch Set Point:	0.480	Yaw Set Point:	1.522	X_WP:	0.000	Y_WP:	0.000	Y_WP:	0.000	X:	-0.050	Y:	-0.410	Z:	0.665	yaw:	-87.201	yaw rate:	-0.378	Roll:	12.916	Pitch:	-2.422	Yaw:	-127.646	Thrust:	0.000
Time:	2.343	Roll Set Point:	-0.357	Pitch Set Point:	0.480	Yaw Set Point:	1.522	X_WP:	0.000	Y_WP:	0.000	Y_WP:	0.000	X:	-0.050	Y:	-0.410	Z:	0.665	yaw:	-87.209	yaw rate:	-1.182	Roll:	13.317	Pitch:	-2.428	Yaw:	-129.842	Thrust:	0.000
Time:	2.373	Roll Set Point:	-0.357	Pitch Set Point:	0.480	Yaw Set Point:	1.522	X_WP:	0.000	Y_WP:	0.000	Y_WP:	0.000	X:	-0.050	Y:	-0.410	Z:	0.665	yaw:	-87.193	yaw rate:	-0.049	Roll:	12.907	Pitch:	-2.445	Yaw:	-127.622	Thrust:	0.000
Time:	2.421	Roll Set Point:	-0.357	Pitch Set Point:	0.480	Yaw Set Point:	1.522	X_WP:	0.000	Y_WP:	0.000	Y_WP:	0.000	X:	-0.050	Y:	-0.410	Z:	0.665	yaw:	-87.188	yaw rate:	1.763	Roll:	12.930	Pitch:	-2.479	Yaw:	-129.729	Thrust:	0.000
Time:	2.462	Roll Set Point:	-0.357	Pitch Set Point:	0.480	Yaw Set Point:	1.522	X_WP:	0.000	Y_WP:	0.000	Y_WP:	0.000	X:	-0.050	Y:	-0.410	Z:	0.665	yaw:	-87.206	yaw rate:	-1.857	Roll:	13.697	Pitch:	-2.535	Yaw:	-131.879	Thrust:	0.000
Time:	2.494	Roll Set Point:	-0.357	Pitch Set Point:	0.480	Yaw Set Point:	1.522	X_WP:	0.000	Y_WP:	0.000	Y_WP:	0.000	X:	-0.050	Y:	-0.410	Z:	0.665	yaw:	-87.199	yaw rate:	0.388	Roll:	13.292	Pitch:	-2.426	Yaw:	-127.907	Thrust:	0.000
Time:	2.524	Roll Set Point:	-0.357	Pitch Set Point:	0.480	Yaw Set Point:	1.522	X_WP:	0.000	Y_WP:	0.000	Y_WP:	0.000	X:	-0.050	Y:	-0.410	Z:	0.665	yaw:	-87.190	yaw rate:	-11.673	Roll:	12.922	Pitch:	-2.416	Yaw:	-127.487	Thrust:	0.000
Time:	2.554	Roll Set Point:	-0.357	Pitch Set Point:	0.480	Yaw Set Point:	1.522	X_WP:	0.000	Y_WP:	0.000	Y_WP:	0.000	X:	-0.050	Y:	-0.410	Z:	0.665	yaw:	-87.208	yaw rate:	1.606	Roll:	12.957	Pitch:	-2.282	Yaw:	-127.929	Thrust:	0.000
Time:	2.593	Roll Set Point:	-0.357	Pitch Set Point:	0.480	Yaw Set Point:	1.522	X_WP:	0.000	Y_WP:	0.000	Y_WP:	0.000	X:	-0.050	Y:	-0.410	Z:	0.665	yaw:	-87.199	yaw rate:	-1.829	Roll:	12.926	Pitch:	-2.522	Yaw:	-129.718	Thrust:	0.000
Time:	2.623	Roll Set Point:	-0.357	Pitch Set Point:	0.480	Yaw Set Point:	1.522	X_WP:	0.000	Y_WP:	0.000	Y_WP:	0.000	X:	-0.050	Y:	-0.410	Z:	0.665	yaw:	-87.189	yaw rate:	4.569	Roll:	13.293	Pitch:	-2.461	Yaw:	-127.660	Thrust:	0.000
Time:	2.663	Roll Set Point:	-0.357	Pitch Set Point:	0.480	Yaw Set Point:	1.522	X_WP:	0.000	Y_WP:	0.000	Y_WP:	0.000	X:	-0.050	Y:	-0.410	Z:	0.665	yaw:	-87.195	yaw rate:	0.956	Roll:	12.942	Pitch:	-2.471	Yaw:	-129.607	Thrust:	0.000
Time:	2.692	Roll Set Point:	-0.357	Pitch Set Point:	0.480	Yaw Set Point:	1.522	X_WP:	0.000	Y_WP:	0.000	Y_WP:	0.000	X:	-0.050	Y:	-0.410	Z:	0.665	yaw:	-87.208	yaw rate:	-0.275	Roll:	13.279	Pitch:	-2.361	Yaw:	-127.898	Thrust:	0.000
Time:	2.732	Roll Set Point:	-0.357	Pitch Set Point:	0.480	Yaw Set Point:	1.522	X_WP:	0.000	Y_WP:	0.000	Y_WP:	0.000	X:	-0.050	Y:	-0.410	Z:	0.665	yaw:	-87.200	yaw rate:	-0.166	Roll:	13.309	Pitch:	-2.546	Yaw:	-129.722	Thrust:	0.000
Time:	2.762	Roll Set Point:	-0.357	Pitch Set Point:	0.481	Yaw Set Point:	1.520	X_WP:	0.000	Y_WP:	0.000	Y_WP:	0.000	X:	-0.050	Y:	-0.410	Z:	0.665	yaw:	-87.073	yaw rate:	-2.057	Roll:	12.811	Pitch:	-2.895	Yaw:	-126.489	Thrust:	0.000
Time:	2.801	Roll Set Point:	-0.357	Pitch Set Point:	0.480	Yaw Set Point:	1.522	X_WP:	0.000	Y_WP:	0.000	Y_WP:	0.000	X:	-0.050	Y:	-0.410	Z:	0.665	yaw:	-87.212	yaw rate:	-2.181	Roll:	13.063	Pitch:	-1.932	Yaw:	-128.995	Thrust:	0.000
Time:	2.842	Roll Set Point:	-0.357	Pitch Set Point:	0.481	Yaw Set Point:	1.520	X_WP:	0.000	Y_WP:	0.000	Y_WP:	0.000	X:	-0.050	Y:	-0.410	Z:	0.665	yaw:	-87.070	yaw rate:	14.091	Roll:	13.210	Pitch:	-2.981	Yaw:	-128.449	Thrust:	0.000
Time:	2.882	Roll Set Point:	-0.357	Pitch Set Point:	0.480	Yaw Set Point:	1.522	X_WP:	0.000	Y_WP:	0.000	Y_WP:	0.000	X:	-0.050	Y:	-0.410	Z:	0.665	yaw:	-87.196	yaw rate:	-0.950	Roll:	13.381	Pitch:	-2.219	Yaw:	-130.592	Thrust:	0.000
Time:	2.922	Roll Set Point:	-0.357	Pitch Set Point:	0.480	Yaw Set Point:	1.522	X_WP:	0.000	Y_WP:	0.000	Y_WP:	0.000	X:	-0.050	Y:	-0.410	Z:	0.665	yaw:	-87.194	yaw rate:	2.474	Roll:	13.296	Pitch:	-2.582	Yaw:	-129.754	Thrust:	0.000
Time:	2.963	Roll Set Point:	-0.357	Pitch Set Point:	0.480	Yaw Set Point:	1.522	X_WP:	0.000	Y_WP:	0.000	Y_WP:	0.000	X:	-0.050	Y:	-0.410	Z:	0.665	yaw:	-87.204	yaw rate:	-1.763	Roll:	13.327	Pitch:	-2.679	Yaw:	-131.840	Thrust:	0.000
Time:	3.013	Roll Set Point:	-0.357	Pitch Set Point:	0.480	Yaw Set Point:	1.522	X_WP:	0.000	Y_WP:	0.000	Y_WP:	0.000	X:	-0.050	Y:	-0.410	Z:	0.665	yaw:	-87.191	yaw rate:	1.424	Roll:	13.292	Pitch:	-2.637	Yaw:	-131.700	Thrust:	0.000
Time:	3.052	Roll Set Point:	-0.357	Pitch Set Point:	0.480	Yaw Set Point:	1.522	X_WP:	0.000	Y_WP:	0.000	Y_WP:	0.000	X:	-0.050	Y:	-0.410	Z:	0.665	yaw:	-87.198	yaw rate:	1.704	Roll:	13.690	Pitch:	-2.560	Yaw:	-128.031	Thrust:	0.000
Time:	3.083	Roll Set Point:	-0.357	Pitch Set Point:	0.480	Yaw Set Point:	1.522	X_WP:	0.000	Y_WP:	0.000	Y_WP:	0.000	X:	-0.050	Y:	-0.410	Z:	0.665	yaw:	-87.181	yaw rate:	1.197	Roll:	13.292	Pitch:	-2.663	Yaw:	-129.644	Thrust:	0.000
Time:	3.113	Roll Set Point:	-0.357	Pitch Set Point:	0.480	Yaw Set Point:	1.522	X_WP:	0.000	Y_WP:	0.000	Y_WP:	0.000	X:	-0.050	Y:	-0.410	Z:	0.665	yaw:	-87.179	yaw rate:	1.152	Roll:	12.899	Pitch:	-2.468	Yaw:	-127.714	Thrust:	0.000
Time:	3.151	Roll Set Point:	-0.357	Pitch Set Point:	0.480	Yaw Set Point:	1.522	X_WP:	0.000	Y_WP:	0.000	Y_WP:	0.000	X:	-0.050	Y:	-0.410	Z:	0.665	yaw:	-87.180	yaw rate:	1.467	Roll:	12.924	Pitch:	-2.460	Yaw:	-127.553	Thrust:	0.000
Time:	3.183	Roll Set Point:	-0.357	Pitch Set Point:	0.480	Yaw Set Point:	1.522	X_WP:	0.000	Y_WP:	0.000	Y_WP:	0.000	X:	-0.050	Y:	-0.410	Z:	0.665	yaw:	-87.215	yaw rate:	-1.738	Roll:	13.370	Pitch:	-2.510	Yaw:	-130.023	Thrust:	0.000
Time:	3.212	Roll Set Point:	-0.357	Pitch Set Point:	0.480	Yaw Set Point:	1.522	X_WP:	0.000	Y_WP:	0.000	Y_WP:	0.000	X:	-0.050	Y:	-0.410	Z:	0.665	yaw:	-87.210	yaw rate:	0.119	Roll:	12.899	Pitch:	-2.474	Yaw:	-127.746	Thrust:	0.000
Time:	3.262	Roll Set Point:	-0.357	Pitch Set Point:	0.480	Yaw Set Point:	1.522	X_WP:	0.000	Y_WP:	0.000	Y_WP:	0.000	X:	-0.050	Y:	-0.410	Z:	0.665	yaw:	-87.192	yaw rate:	-1.406	Roll:	12.905	Pitch:	-2.685	Yaw:	-129.443	Thrust:	0.000
Time:	3.303	Roll Set Point:	-0.357	Pitch Set Point:	0.480	Yaw Set Point:	1.522	X_WP:	0.000	Y_WP:	0.000	Y_WP:	0.000	X:	-0.050	Y:	-0.410	Z:	0.665	yaw:	-87.193	yaw rate:	0.033	Roll:	13.688	Pitch:	-2.780	Yaw:	-131.774	Thrust:	0.000
Time:	3.333	Roll Set Point:	-0.357	Pitch Set Point:	0.480	Yaw Set Point:	1.522	X_WP:	0.000	Y_WP:	0.000	Y_WP:	0.000	X:	-0.050	Y:	-0.410	Z:	0.665	yaw:	-87.191	yaw rate:	2.675	Roll:	13.296	Pitch:	-2.536	Yaw:	-127.954	Thrust:	0.000
Time:	3.364	Roll Set Point:	-0.357	Pitch Set Point:	0.480	Yaw Set Point:	1.522	X_WP:	0.000	Y_WP:	0.000	Y_WP:	0.000	X:	-0.050	Y:	-0.410	Z:	0.665	yaw:	-87.187	yaw rate:	0.726	Roll:	12.925	Pitch:	-2.513	Yaw:	-127.713	Thrust:	0.000
Time:	3.393	Roll Set Point:	-0.357	Pitch Set Point:	0.480	Yaw Set Point:	1.522	X_WP:	0.000	Y_WP:	0.000	Y_WP:	0.000	X:	-0.050	Y:	-0.410	Z:	0.665	yaw:	-87.219	yaw rate:	-0.698	Roll:	12.965	Pitch:	-2.344	Yaw:	-128.071	Thrust:	0.000
Time:	3.432	Roll Set Point:	-0.357	Pitch Set Point:	0.480	Yaw Set Point:	1.522	X_WP:	0.000	Y_WP:	0.000	Y_WP:	0.000	X:	-0.050	Y:	-0.410	Z:	0.665	yaw:	-87.219	yaw rate:	-3.533	Roll:	12.939	Pitch:	-2.517	Yaw:	-127.794	Thrust:	0.000
Time:	3.481	Roll Set Point:	-0.357	Pitch Set Point:	0.480	Yaw Set Point:	1.522	X_WP:	0.000	Y_WP:	0.000	Y_WP:	0.000	X:	-0.050	Y:	-0.410	Z:	0.665	yaw:	-87.196	yaw rate:	1.098	Roll:	13.245	Pitch:	-2.888	Yaw:	-131.664	Thrust:	0.000
Time:	3.513	Roll Set Point:	-0.357	Pitch Set Point:	0.480	Yaw Set Point:	1.522	X_WP:	0.000	Y_WP:	0.000	Y_WP:	0.000	X:	-0.050	Y:	-0.410	Z:	0.665	yaw:	-87.216	yaw rate:	-2.583	Roll:	13.739	Pitch:	-2.615	Yaw:	-129.921	Thrust:	0.000
Time:	3.553	Roll Set Point:	-0.357	Pitch Set Point:	0.480	Yaw Set Point:	1.522	X_WP:	0.000	Y_WP:	0.000	Y_WP:	0.000	X:	-0.050	Y:	-0.410	Z:	0.665	yaw:	-87.190	yaw rate:	1.247	Roll:	12.864	Pitch:	-2.767	Yaw:	-129.382	Thrust:	0.000
Time:	3.584	Roll Set Point:	-0.357	Pitch Set Point:	0.480	Yaw Set Point:	1.522	X_WP:	0.000	Y_WP:	0.000	Y_WP:	0.000	X:	-0.050	Y:	-0.410	Z:	0.665	yaw:	-87.196	yaw rate:	0.909	Roll:	13.309	Pitch:	-2.527	Yaw:	-127.829	Thrust:	0.000
Time:	3.623	Roll Set Point:	-0.357	Pitch Set Point:	0.480	Yaw Set Point:	1.522	X_WP:	0.000	Y_WP:	0.000	Y_WP:	0.000	X:	-0.050	Y:	-0.410	Z:	0.665	yaw:	-87.183	yaw rate:	0.691	Roll:	12.919	Pitch:	-2.702	Yaw:	-129.460	Thrust:	0.000
Time:	3.663	Roll Set Point:	-0.357	Pitch Set Point:	0.481	Yaw Set Point:	1.520	X_WP:	0.000	Y_WP:	0.000	Y_WP:	0.000	X:	-0.050	Y:	-0.410	Z:	0.665	yaw:	-87.066	yaw rate:	12.208	Roll:	13.229	Pitch:	-3.061	Yaw:	-129.038	Thrust:	0.000
Time:	3.701	Roll Set Point:	-0.357	Pitch Set Point:	0.480	Yaw Set Point:	1.522	X_WP:	0.000	Y_WP:	0.000	Y_WP:	0.000	X:	-0.050	Y:	-0.410	Z:	0.665	yaw:	-87.185	yaw rate:	0.495	Roll:	13.392	Pitch:	-2.148	Yaw:	-128.783	Thrust:	0.000
Time:	3.724	Roll Set Point:	-0.357	Pitch Set Point:	0.480	Yaw Set Point:	1.522	X_WP:	0.000	Y_WP:	0.000	Y_WP:	0.000	X:	-0.050	Y:	-0.410	Z:	0.665	yaw:	-87.196	yaw rate:	-14.094	Roll:	12.935	Pitch:	-2.510	Yaw:	-127.876	Thrust:	0.000
Time:	3.782	Roll Set Point:	-0.357	Pitch Set Point:	0.480	Yaw Set Point:	1.522	X_WP:	0.000	Y_WP:	0.000	Y_WP:	0.000	X:	-0.050	Y:	-0.410	Z:	0.665	yaw:	-87.211	yaw rate:	0.149	Roll:	12.943	Pitch:	-2.635	Yaw:	-133.472	Thrust:	0.000
Time:	3.813	Roll Set Point:	-0.357	Pitch Set Point:	0.481	Yaw Set Point:	1.520	X_WP:	0.000	Y_WP:	0.000	Y_WP:	0.000	X:	-0.050	Y:	-0.410	Z:	0.665	yaw:	-87.074	yaw rate:	12.476	Roll:	14.003	Pitch:	-3.245	Yaw:	-126.871	Thrust:	0.000
Time:	3.853	Roll Set Point:	-0.357	Pitch Set Point:	0.480	Yaw Set Point:	1.522	X_WP:	0.000	Y_WP:	0.000	Y_WP:	0.000	X:	-0.050	Y:	-0.410	Z:	0.665	yaw:	-87.210	yaw rate:	-0.306	Roll:	13.007	Pitch:	-2.357	Yaw:	-130.489	Thrust:	0.000
Time:	3.892	Roll Set Point:	-0.357	Pitch Set Point:	0.481	Yaw Set Point:	1.519	X_WP:	0.000	Y_WP:	0.000	Y_WP:	0.000	X:	-0.050	Y:	-0.410	Z:	0.665	yaw:	-87.046	yaw rate:	16.902	Roll:	13.193	Pitch:	-3.236	Yaw:	-128.495	Thrust:	0.000
Time:	3.942	Roll Set Point:	-0.357	Pitch Set Point:	0.480	Yaw Set Point:	1.522	X_WP:	0.000	Y_WP:	0.000	Y_WP:	0.000	X:	-0.050	Y:	-0.410	Z:	0.665	yaw:	-87.200	yaw rate:	0.959	Roll:	13.408	Pitch:	-2.326	Yaw:	-132.403	Thrust:	0.000
Time:	3.963	Roll Set Point:	-0.357	Pitch Set Point:	0.480	Yaw Set Point:	1.522	X_WP:	0.000	Y_WP:	0.000	Y_WP:	0.000	X:	-0.050	Y:	-0.410	Z:	0.665	yaw:	-87.220	yaw rate:	-3.502	Roll:	13.324	Pitch:	-2.520	Yaw:	-126.236	Thrust:	0.000
Time:	4.013	Roll Set Point:	-0.357	Pitch Set Point:	0.480	Yaw Set Point:	1.522	X_WP:	0.000	Y_WP:	0.000	Y_WP:	0.000	X:	-0.050	Y:	-0.410	Z:	0.665	yaw:	-87.208	yaw rate:	-2.477	Roll:	12.911	Pitch:	-2.796	Yaw:	-131.531	Thrust:	0.000
Time:	4.052	Roll Set Point:	-0.357	Pitch Set Point:	0.480	Yaw Set Point:	1.522	X_WP:	0.000	Y_WP:	0.000	Y_WP:	0.500	X:	-0.050	Y:	-0.410	Z:	0.665	yaw:	-87.197	yaw rate:	1.235	Roll:	13.683	Pitch:	-2.832	Yaw:	-127.877	Thrust:	100.000
Time:	4.095	Roll Set Point:	-0.357	Pitch Set Point:	0.480	Yaw Set Point:	1.522	X_WP:	0.000	Y_WP:	0.000	Y_WP:	0.500	X:	-0.050	Y:	-0.410	Z:	0.665	yaw:	-87.191	yaw rate:	-11.019	Roll:	13.675	Pitch:	-3.007	Yaw:	-131.937	Thrust:	0.000
Time:	4.123	Roll Set Point:	-0.357	Pitch Set Point:	0.480	Yaw Set Point:	1.522	X_WP:	0.000	Y_WP:	0.000	Y_WP:	0.500	X:	-0.050	Y:	-0.410	Z:	0.665	yaw:	-87.209	yaw rate:	-14.043	Roll:	12.946	Pitch:	-2.463	Yaw:	-127.738	Thrust:	0.000
Time:	4.163	Roll Set Point:	-0.357	Pitch Set Point:	0.480	Yaw Set Point:	1.522	X_WP:	0.000	Y_WP:	0.000	Y_WP:	0.500	X:	-0.050	Y:	-0.410	Z:	0.665	yaw:	-87.197	yaw rate:	-0.941	Roll:	12.878	Pitch:	-2.867	Yaw:	-129.493	Thrust:	0.000
Time:	4.193	Roll Set Point:	-0.357	Pitch Set Point:	0.480	Yaw Set Point:	1.522	X_WP:	0.000	Y_WP:	0.000	Y_WP:	0.500	X:	-0.050	Y:	-0.410	Z:	0.665	yaw:	-87.187	yaw rate:	1.560	Roll:	13.294	Pitch:	-2.636	Yaw:	-127.869	Thrust:	0.000
Time:	4.232	Roll Set Point:	-0.357	Pitch Set Point:	0.480	Yaw Set Point:	1.522	X_WP:	0.000	Y_WP:	0.000	Y_WP:	0.500	X:	-0.050	Y:	-0.410	Z:	0.665	yaw:	-87.204	yaw rate:	-0.623	Roll:	12.965	Pitch:	-2.725	Yaw:	-129.494	Thrust:	0.000
Time:	4.271	Roll Set Point:	-0.357	Pitch Set Point:	0.480	Yaw Set Point:	1.522	X_WP:	0.000	Y_WP:	0.000	Y_WP:	0.500	X:	-0.050	Y:	-0.410	Z:	0.665	yaw:	-87.185	yaw rate:	0.108	Roll:	13.244	Pitch:	-2.884	Yaw:	-129.435	Thrust:	0.000
Time:	4.311	Roll Set Point:	-0.357	Pitch Set Point:	0.480	Yaw Set Point:	1.522	X_WP:	0.000	Y_WP:	0.000	Y_WP:	0.500	X:	-0.050	Y:	-0.410	Z:	0.665	yaw:	-87.200	yaw rate:	-0.764	Roll:	13.312	Pitch:	-2.785	Yaw:	-129.676	Thrust:	0.000
Time:	4.341	Roll Set Point:	-0.357	Pitch Set Point:	0.480	Yaw Set Point:	1.522	X_WP:	0.000	Y_WP:	0.000	Y_WP:	0.500	X:	-0.050	Y:	-0.410	Z:	0.665	yaw:	-87.209	yaw rate:	-2.720	Roll:	13.331	Pitch:	-2.591	Yaw:	-128.060	Thrust:	0.000
Time:	4.373	Roll Set Point:	-0.357	Pitch Set Point:	0.480	Yaw Set Point:	1.522	X_WP:	0.000	Y_WP:	0.000	Y_WP:	0.500	X:	-0.050	Y:	-0.410	Z:	0.665	yaw:	-87.206	yaw rate:	-2.007	Roll:	12.961	Pitch:	-2.657	Yaw:	-127.754	Thrust:	0.000
Time:	4.402	Roll Set Point:	-0.357	Pitch Set Point:	0.480	Yaw Set Point:	1.522	X_WP:	0.000	Y_WP:	0.000	Y_WP:	0.500	X:	-0.050	Y:	-0.410	Z:	0.665	yaw:	-87.195	yaw rate:	0.840	Roll:	12.887	Pitch:	-2.702	Yaw:	-127.666	Thrust:	0.000
Time:	4.432	Roll Set Point:	-0.357	Pitch Set Point:	0.480	Yaw Set Point:	1.522	X_WP:	0.000	Y_WP:	0.000	Y_WP:	0.500	X:	-0.050	Y:	-0.410	Z:	0.665	yaw:	-87.214	yaw rate:	-2.840	Roll:	12.950	Pitch:	-2.549	Yaw:	-127.959	Thrust:	0.000
Time:	4.481	Roll Set Point:	-0.357	Pitch Set Point:	0.480	Yaw Set Point:	1.522	X_WP:	0.000	Y_WP:	0.000	Y_WP:	0.500	X:	-0.050	Y:	-0.410	Z:	0.665	yaw:	-87.183	yaw rate:	1.815	Roll:	12.895	Pitch:	-2.965	Yaw:	-129.547	Thrust:	0.000
Time:	4.513	Roll Set Point:	-0.357	Pitch Set Point:	0.480	Yaw Set Point:	1.522	X_WP:	0.000	Y_WP:	0.000	Y_WP:	0.500	X:	-0.050	Y:	-0.410	Z:	0.665	yaw:	-87.186	yaw rate:	0.810	Roll:	13.683	Pitch:	-2.887	Yaw:	-129.974	Thrust:	0.000
Time:	4.543	Roll Set Point:	-0.357	Pitch Set Point:	0.480	Yaw Set Point:	1.522	X_WP:	0.000	Y_WP:	0.000	Y_WP:	0.500	X:	-0.050	Y:	-0.410	Z:	0.665	yaw:	-87.213	yaw rate:	-1.161	Roll:	12.966	Pitch:	-2.549	Yaw:	-128.030	Thrust:	0.000
Time:	4.573	Roll Set Point:	-0.357	Pitch Set Point:	0.480	Yaw Set Point:	1.522	X_WP:	0.000	Y_WP:	0.000	Y_WP:	0.500	X:	-0.050	Y:	-0.410	Z:	0.665	yaw:	-87.186	yaw rate:	0.216	Roll:	12.901	Pitch:	-2.786	Yaw:	-127.307	Thrust:	0.000
Time:	4.603	Roll Set Point:	-0.357	Pitch Set Point:	0.480	Yaw Set Point:	1.522	X_WP:	0.000	Y_WP:	0.000	Y_WP:	0.500	X:	-0.050	Y:	-0.410	Z:	0.665	yaw:	-87.195	yaw rate:	0.098	Roll:	12.931	Pitch:	-2.645	Yaw:	-127.836	Thrust:	0.000
Time:	4.633	Roll Set Point:	-0.357	Pitch Set Point:	0.480	Yaw Set Point:	1.522	X_WP:	0.000	Y_WP:	0.000	Y_WP:	0.500	X:	-0.050	Y:	-0.410	Z:	0.665	yaw:	-87.202	yaw rate:	-0.798	Roll:	12.950	Pitch:	-2.622	Yaw:	-127.836	Thrust:	0.000
Time:	4.671	Roll Set Point:	-0.357	Pitch Set Point:	0.480	Yaw Set Point:	1.522	X_WP:	0.000	Y_WP:	0.000	Y_WP:	0.500	X:	-0.050	Y:	-0.410	Z:	0.665	yaw:	-87.197	yaw rate:	-1.139	Roll:	12.934	Pitch:	-2.706	Yaw:	-127.727	Thrust:	0.000
Time:	4.702	Roll Set Point:	-0.357	Pitch Set Point:	0.480	Yaw Set Point:	1.522	X_WP:	0.000	Y_WP:	0.000	Y_WP:	0.500	X:	-0.050	Y:	-0.410	Z:	0.665	yaw:	-87.209	yaw rate:	-2.384	Roll:	13.307	Pitch:	-2.867	Yaw:	-129.862	Thrust:	0.000
Time:	4.772	Roll Set Point:	-0.357	Pitch Set Point:	0.480	Yaw Set Point:	1.522	X_WP:	0.000	Y_WP:	0.000	Y_WP:	0.500	X:	-0.050	Y:	-0.410	Z:	0.665	yaw:	-87.201	yaw rate:	0.554	Roll:	12.915	Pitch:	-2.940	Yaw:	-131.539	Thrust:	0.000
Time:	4.813	Roll Set Point:	-0.357	Pitch Set Point:	0.480	Yaw Set Point:	1.522	X_WP:	0.000	Y_WP:	0.000	Y_WP:	0.500	X:	-0.050	Y:	-0.410	Z:	0.665	yaw:	-87.230	yaw rate:	-3.370	Roll:	14.456	Pitch:	-3.532	Yaw:	-133.958	Thrust:	0.000
Time:	4.852	Roll Set Point:	-0.357	Pitch Set Point:	0.480	Yaw Set Point:	1.522	X_WP:	0.000	Y_WP:	0.000	Y_WP:	0.500	X:	-0.050	Y:	-0.410	Z:	0.665	yaw:	-87.220	yaw rate:	-2.559	Roll:	13.296	Pitch:	-2.742	Yaw:	-127.910	Thrust:	0.000
Time:	4.883	Roll Set Point:	-0.357	Pitch Set Point:	0.480	Yaw Set Point:	1.522	X_WP:	0.000	Y_WP:	0.000	Y_WP:	0.500	X:	-0.050	Y:	-0.410	Z:	0.665	yaw:	-87.191	yaw rate:	3.067	Roll:	13.251	Pitch:	-3.046	Yaw:	-129.577	Thrust:	0.000
Time:	4.931	Roll Set Point:	-0.357	Pitch Set Point:	0.480	Yaw Set Point:	1.522	X_WP:	0.000	Y_WP:	0.000	Y_WP:	0.500	X:	-0.050	Y:	-0.410	Z:	0.665	yaw:	-87.195	yaw rate:	0.972	Roll:	12.927	Pitch:	-2.919	Yaw:	-129.594	Thrust:	0.000
Time:	4.981	Roll Set Point:	-0.357	Pitch Set Point:	0.480	Yaw Set Point:	1.522	X_WP:	0.000	Y_WP:	0.000	Y_WP:	0.500	X:	-0.050	Y:	-0.410	Z:	0.665	yaw:	-87.179	yaw rate:	0.425	Roll:	13.673	Pitch:	-3.221	Yaw:	-131.667	Thrust:	0.000
Time:	5.013	Roll Set Point:	-0.357	Pitch Set Point:	0.480	Yaw Set Point:	1.522	X_WP:	0.000	Y_WP:	0.000	Y_WP:	0.500	X:	-0.050	Y:	-0.410	Z:	0.665	yaw:	-87.210	yaw rate:	0.749	Roll:	13.708	Pitch:	-2.889	Yaw:	-129.997	Thrust:	0.000
Time:	5.043	Roll Set Point:	-0.357	Pitch Set Point:	0.480	Yaw Set Point:	1.521	X_WP:	0.000	Y_WP:	0.000	Y_WP:	0.500	X:	-0.050	Y:	-0.410	Z:	0.665	yaw:	-87.174	yaw rate:	4.731	Roll:	12.882	Pitch:	-2.890	Yaw:	-127.417	Thrust:	0.000
Time:	5.082	Roll Set Point:	-0.357	Pitch Set Point:	0.480	Yaw Set Point:	1.522	X_WP:	0.000	Y_WP:	0.000	Y_WP:	0.500	X:	-0.050	Y:	-0.410	Z:	0.665	yaw:	-87.208	yaw rate:	-15.158	Roll:	12.972	Pitch:	-2.839	Yaw:	-130.017	Thrust:	0.000
Time:	5.123	Roll Set Point:	-0.357	Pitch Set Point:	0.480	Yaw Set Point:	1.522	X_WP:	0.000	Y_WP:	0.000	Y_WP:	0.500	X:	-0.050	Y:	-0.410	Z:	0.665	yaw:	-87.195	yaw rate:	-0.913	Roll:	12.927	Pitch:	-2.806	Yaw:	-129.479	Thrust:	0.000
Time:	5.163	Roll Set Point:	-0.357	Pitch Set Point:	0.480	Yaw Set Point:	1.522	X_WP:	0.000	Y_WP:	0.000	Y_WP:	0.500	X:	-0.050	Y:	-0.410	Z:	0.665	yaw:	-87.202	yaw rate:	-0.226	Roll:	13.688	Pitch:	-3.213	Yaw:	-130.016	Thrust:	0.000
Time:	5.211	Roll Set Point:	-0.357	Pitch Set Point:	0.480	Yaw Set Point:	1.522	X_WP:	0.000	Y_WP:	0.000	Y_WP:	0.500	X:	-0.050	Y:	-0.410	Z:	0.665	yaw:	-87.196	yaw rate:	1.716	Roll:	13.300	Pitch:	-2.991	Yaw:	-129.540	Thrust:	0.000
Time:	5.243	Roll Set Point:	-0.357	Pitch Set Point:	0.480	Yaw Set Point:	1.522	X_WP:	0.000	Y_WP:	0.000	Y_WP:	0.500	X:	-0.050	Y:	-0.410	Z:	0.665	yaw:	-87.204	yaw rate:	-1.646	Roll:	13.687	Pitch:	-3.007	Yaw:	-130.020	Thrust:	0.000
Time:	5.273	Roll Set Point:	-0.357	Pitch Set Point:	0.480	Yaw Set Point:	1.522	X_WP:	0.000	Y_WP:	0.000	Y_WP:	0.500	X:	-0.050	Y:	-0.410	Z:	0.665	yaw:	-87.207	yaw rate:	-2.183	Roll:	12.905	Pitch:	-2.731	Yaw:	-127.812	Thrust:	0.000
Time:	5.311	Roll Set Point:	-0.357	Pitch Set Point:	0.480	Yaw Set Point:	1.522	X_WP:	0.000	Y_WP:	0.000	Y_WP:	0.500	X:	-0.050	Y:	-0.410	Z:	0.665	yaw:	-87.216	yaw rate:	-2.759	Roll:	12.929	Pitch:	-2.704	Yaw:	-127.671	Thrust:	0.000
Time:	5.343	Roll Set Point:	-0.357	Pitch Set Point:	0.481	Yaw Set Point:	1.520	X_WP:	0.000	Y_WP:	0.000	Y_WP:	0.500	X:	-0.050	Y:	-0.410	Z:	0.665	yaw:	-87.088	yaw rate:	11.302	Roll:	13.229	Pitch:	-3.401	Yaw:	-128.785	Thrust:	0.000
Time:	5.392	Roll Set Point:	-0.357	Pitch Set Point:	0.480	Yaw Set Point:	1.522	X_WP:	0.000	Y_WP:	0.000	Y_WP:	0.500	X:	-0.050	Y:	-0.410	Z:	0.665	yaw:	-87.210	yaw rate:	-14.767	Roll:	13.028	Pitch:	-2.692	Yaw:	-132.241	Thrust:	0.000
Time:	5.441	Roll Set Point:	-0.357	Pitch Set Point:	0.480	Yaw Set Point:	1.522	X_WP:	0.000	Y_WP:	0.000	Y_WP:	0.500	X:	-0.050	Y:	-0.410	Z:	0.665	yaw:	-87.193	yaw rate:	-0.067	Roll:	14.048	Pitch:	-3.369	Yaw:	-129.858	Thrust:	0.000
Time:	5.492	Roll Set Point:	-0.357	Pitch Set Point:	0.480	Yaw Set Point:	1.522	X_WP:	0.000	Y_WP:	0.000	Y_WP:	0.500	X:	-0.050	Y:	-0.410	Z:	0.665	yaw:	-87.191	yaw rate:	1.496	Roll:	13.302	Pitch:	-3.277	Yaw:	-131.762	Thrust:	0.000
Time:	5.532	Roll Set Point:	-0.357	Pitch Set Point:	0.480	Yaw Set Point:	1.522	X_WP:	0.000	Y_WP:	0.000	Y_WP:	0.500	X:	-0.050	Y:	-0.410	Z:	0.665	yaw:	-87.193	yaw rate:	2.740	Roll:	13.690	Pitch:	-3.039	Yaw:	-129.773	Thrust:	0.000
Time:	5.573	Roll Set Point:	-0.357	Pitch Set Point:	0.480	Yaw Set Point:	1.522	X_WP:	0.000	Y_WP:	0.000	Y_WP:	0.500	X:	-0.050	Y:	-0.410	Z:	0.665	yaw:	-87.195	yaw rate:	-0.227	Roll:	13.304	Pitch:	-3.324	Yaw:	-131.588	Thrust:	0.000
Time:	5.622	Roll Set Point:	-0.357	Pitch Set Point:	0.480	Yaw Set Point:	1.522	X_WP:	0.000	Y_WP:	0.000	Y_WP:	0.500	X:	-0.050	Y:	-0.410	Z:	0.665	yaw:	-87.201	yaw rate:	-2.020	Roll:	13.318	Pitch:	-3.006	Yaw:	-129.816	Thrust:	0.000
Time:	5.661	Roll Set Point:	-0.357	Pitch Set Point:	0.480	Yaw Set Point:	1.522	X_WP:	0.000	Y_WP:	0.000	Y_WP:	0.500	X:	-0.050	Y:	-0.410	Z:	0.665	yaw:	-87.207	yaw rate:	1.911	Roll:	13.690	Pitch:	-3.079	Yaw:	-130.030	Thrust:	0.000
Time:	5.693	Roll Set Point:	-0.357	Pitch Set Point:	0.481	Yaw Set Point:	1.519	X_WP:	0.000	Y_WP:	0.000	Y_WP:	0.500	X:	-0.050	Y:	-0.410	Z:	0.665	yaw:	-87.052	yaw rate:	16.412	Roll:	13.154	Pitch:	-3.552	Yaw:	-128.328	Thrust:	0.000
Time:	5.732	Roll Set Point:	-0.357	Pitch Set Point:	0.481	Yaw Set Point:	1.519	X_WP:	0.000	Y_WP:	0.000	Y_WP:	0.500	X:	-0.050	Y:	-0.410	Z:	0.665	yaw:	-87.057	yaw rate:	-0.330	Roll:	12.934	Pitch:	-3.074	Yaw:	-129.601	Thrust:	0.000
Time:	5.762	Roll Set Point:	-0.357	Pitch Set Point:	0.480	Yaw Set Point:	1.522	X_WP:	0.000	Y_WP:	0.000	Y_WP:	0.500	X:	-0.050	Y:	-0.410	Z:	0.665	yaw:	-87.215	yaw rate:	0.346	Roll:	13.410	Pitch:	-2.228	Yaw:	-129.171	Thrust:	0.000
Time:	5.792	Roll Set Point:	-0.357	Pitch Set Point:	0.480	Yaw Set Point:	1.522	X_WP:	0.000	Y_WP:	0.000	Y_WP:	0.500	X:	-0.050	Y:	-0.410	Z:	0.665	yaw:	-87.216	yaw rate:	-1.268	Roll:	12.928	Pitch:	-2.817	Yaw:	-127.808	Thrust:	0.000
Time:	5.824	Roll Set Point:	-0.357	Pitch Set Point:	0.480	Yaw Set Point:	1.522	X_WP:	0.000	Y_WP:	0.000	Y_WP:	0.500	X:	-0.050	Y:	-0.410	Z:	0.665	yaw:	-87.204	yaw rate:	-0.112	Roll:	12.963	Pitch:	-2.922	Yaw:	-127.873	Thrust:	0.000
Time:	5.872	Roll Set Point:	-0.357	Pitch Set Point:	0.480	Yaw Set Point:	1.522	X_WP:	0.000	Y_WP:	0.000	Y_WP:	0.500	X:	-0.050	Y:	-0.410	Z:	0.665	yaw:	-87.196	yaw rate:	0.329	Roll:	12.885	Pitch:	-3.121	Yaw:	-129.513	Thrust:	0.000
Time:	5.923	Roll Set Point:	-0.357	Pitch Set Point:	0.480	Yaw Set Point:	1.522	X_WP:	0.000	Y_WP:	0.000	Y_WP:	0.500	X:	-0.050	Y:	-0.410	Z:	0.665	yaw:	-87.218	yaw rate:	-2.114	Roll:	13.994	Pitch:	-3.587	Yaw:	-133.707	Thrust:	0.000
Time:	5.961	Roll Set Point:	-0.357	Pitch Set Point:	0.480	Yaw Set Point:	1.522	X_WP:	0.000	Y_WP:	0.000	Y_WP:	0.500	X:	-0.050	Y:	-0.410	Z:	0.665	yaw:	-87.188	yaw rate:	2.039	Roll:	13.363	Pitch:	-3.021	Yaw:	-127.493	Thrust:	0.000
Time:	5.992	Roll Set Point:	-0.357	Pitch Set Point:	0.480	Yaw Set Point:	1.522	X_WP:	0.000	Y_WP:	0.000	Y_WP:	0.500	X:	-0.050	Y:	-0.410	Z:	0.665	yaw:	-87.210	yaw rate:	-2.118	Roll:	13.290	Pitch:	-3.029	Yaw:	-129.934	Thrust:	0.000
Time:	6.051	Roll Set Point:	-0.357	Pitch Set Point:	0.481	Yaw Set Point:	1.520	X_WP:	0.000	Y_WP:	0.000	Y_WP:	0.500	X:	-0.050	Y:	-0.410	Z:	0.665	yaw:	-87.089	yaw rate:	-1.321	Roll:	12.865	Pitch:	-3.478	Yaw:	-130.784	Thrust:	0.000
Time:	6.082	Roll Set Point:	-0.357	Pitch Set Point:	0.481	Yaw Set Point:	1.519	X_WP:	0.000	Y_WP:	0.000	Y_WP:	0.500	X:	-0.050	Y:	-0.410	Z:	0.665	yaw:	-87.051	yaw rate:	14.997	Roll:	13.990	Pitch:	-3.554	Yaw:	-129.315	Thrust:	0.000
Time:	6.121	Roll Set Point:	-0.357	Pitch Set Point:	0.480	Yaw Set Point:	1.522	X_WP:	0.000	Y_WP:	0.000	Y_WP:	0.500	X:	-0.050	Y:	-0.410	Z:	0.665	yaw:	-87.215	yaw rate:	-1.381	Roll:	13.087	Pitch:	-2.320	Yaw:	-129.376	Thrust:	0.000
Time:	6.162	Roll Set Point:	-0.357	Pitch Set Point:	0.480	Yaw Set Point:	1.522	X_WP:	0.000	Y_WP:	0.000	Y_WP:	0.500	X:	-0.050	Y:	-0.410	Z:	0.665	yaw:	-87.204	yaw rate:	1.417	Roll:	13.299	Pitch:	-3.453	Yaw:	-131.737	Thrust:	0.000
Time:	6.192	Roll Set Point:	-0.357	Pitch Set Point:	0.480	Yaw Set Point:	1.522	X_WP:	0.000	Y_WP:	0.000	Y_WP:	0.500	X:	-0.050	Y:	-0.410	Z:	0.665	yaw:	-87.192	yaw rate:	1.832	Roll:	13.291	Pitch:	-2.952	Yaw:	-127.651	Thrust:	0.000
Time:	6.233	Roll Set Point:	-0.357	Pitch Set Point:	0.480	Yaw Set Point:	1.522	X_WP:	0.000	Y_WP:	0.000	Y_WP:	0.500	X:	-0.050	Y:	-0.410	Z:	0.665	yaw:	-87.195	yaw rate:	-0.606	Roll:	12.930	Pitch:	-3.174	Yaw:	-129.578	Thrust:	0.000
Time:	6.273	Roll Set Point:	-0.357	Pitch Set Point:	0.480	Yaw Set Point:	1.523	X_WP:	0.000	Y_WP:	0.000	Y_WP:	0.500	X:	-0.050	Y:	-0.410	Z:	0.665	yaw:	-87.235	yaw rate:	-4.124	Roll:	13.345	Pitch:	-3.008	Yaw:	-130.087	Thrust:	0.000
Time:	6.303	Roll Set Point:	-0.357	Pitch Set Point:	0.480	Yaw Set Point:	1.522	X_WP:	0.000	Y_WP:	0.000	Y_WP:	0.500	X:	-0.050	Y:	-0.410	Z:	0.665	yaw:	-87.215	yaw rate:	-3.589	Roll:	13.254	Pitch:	-3.008	Yaw:	-127.625	Thrust:	0.000
Time:	6.381	Roll Set Point:	-0.357	Pitch Set Point:	0.480	Yaw Set Point:	1.522	X_WP:	0.000	Y_WP:	0.000	Y_WP:	0.500	X:	-0.050	Y:	-0.410	Z:	0.665	yaw:	-87.214	yaw rate:	1.095	Roll:	12.932	Pitch:	-3.210	Yaw:	-133.602	Thrust:	0.000
Time:	6.431	Roll Set Point:	-0.357	Pitch Set Point:	0.480	Yaw Set Point:	1.522	X_WP:	0.000	Y_WP:	0.000	Y_WP:	0.500	X:	-0.050	Y:	-0.410	Z:	0.665	yaw:	-87.209	yaw rate:	-15.801	Roll:	14.811	Pitch:	-4.363	Yaw:	-133.782	Thrust:	0.000
Time:	6.461	Roll Set Point:	-0.357	Pitch Set Point:	0.480	Yaw Set Point:	1.522	X_WP:	0.000	Y_WP:	0.000	Y_WP:	0.500	X:	-0.050	Y:	-0.410	Z:	0.665	yaw:	-87.214	yaw rate:	-0.239	Roll:	13.685	Pitch:	-3.200	Yaw:	-129.817	Thrust:	0.000
Time:	6.500	Roll Set Point:	-0.357	Pitch Set Point:	0.480	Yaw Set Point:	1.522	X_WP:	0.000	Y_WP:	0.000	Y_WP:	0.500	X:	-0.050	Y:	-0.410	Z:	0.665	yaw:	-87.213	yaw rate:	-0.576	Roll:	12.928	Pitch:	-2.907	Yaw:	-127.779	Thrust:	0.000
Time:	6.522	Roll Set Point:	-0.357	Pitch Set Point:	0.480	Yaw Set Point:	1.522	X_WP:	0.000	Y_WP:	0.000	Y_WP:	0.500	X:	-0.050	Y:	-0.410	Z:	0.665	yaw:	-87.198	yaw rate:	-1.564	Roll:	12.916	Pitch:	-3.019	Yaw:	-127.653	Thrust:	0.000
Time:	6.551	Roll Set Point:	-0.357	Pitch Set Point:	0.480	Yaw Set Point:	1.522	X_WP:	0.000	Y_WP:	0.000	Y_WP:	0.500	X:	-0.050	Y:	-0.410	Z:	0.665	yaw:	-87.201	yaw rate:	-1.037	Roll:	12.930	Pitch:	-2.900	Yaw:	-127.780	Thrust:	0.000
Time:	6.581	Roll Set Point:	-0.357	Pitch Set Point:	0.480	Yaw Set Point:	1.522	X_WP:	0.000	Y_WP:	0.000	Y_WP:	0.500	X:	-0.050	Y:	-0.410	Z:	0.665	yaw:	-87.216	yaw rate:	-2.743	Roll:	12.911	Pitch:	-2.859	Yaw:	-127.922	Thrust:	0.000
Time:	6.612	Roll Set Point:	-0.357	Pitch Set Point:	0.480	Yaw Set Point:	1.522	X_WP:	0.000	Y_WP:	0.000	Y_WP:	0.500	X:	-0.050	Y:	-0.410	Z:	0.665	yaw:	-87.208	yaw rate:	-1.778	Roll:	12.968	Pitch:	-2.998	Yaw:	-127.712	Thrust:	0.000
Time:	6.642	Roll Set Point:	-0.357	Pitch Set Point:	0.480	Yaw Set Point:	1.522	X_WP:	0.000	Y_WP:	0.000	Y_WP:	0.500	X:	-0.050	Y:	-0.410	Z:	0.665	yaw:	-87.210	yaw rate:	-2.069	Roll:	12.902	Pitch:	-2.935	Yaw:	-127.804	Thrust:	0.000
Time:	6.682	Roll Set Point:	-0.357	Pitch Set Point:	0.480	Yaw Set Point:	1.522	X_WP:	0.000	Y_WP:	0.000	Y_WP:	0.500	X:	-0.050	Y:	-0.410	Z:	0.665	yaw:	-87.214	yaw rate:	-0.841	Roll:	12.925	Pitch:	-3.211	Yaw:	-129.819	Thrust:	0.000
Time:	6.712	Roll Set Point:	-0.357	Pitch Set Point:	0.480	Yaw Set Point:	1.522	X_WP:	0.000	Y_WP:	0.000	Y_WP:	0.500	X:	-0.050	Y:	-0.410	Z:	0.665	yaw:	-87.179	yaw rate:	2.738	Roll:	13.317	Pitch:	-3.146	Yaw:	-127.434	Thrust:	0.000
Time:	6.752	Roll Set Point:	-0.357	Pitch Set Point:	0.480	Yaw Set Point:	1.522	X_WP:	0.000	Y_WP:	0.000	Y_WP:	0.500	X:	-0.050	Y:	-0.410	Z:	0.665	yaw:	-87.193	yaw rate:	2.380	Roll:	12.908	Pitch:	-3.214	Yaw:	-129.860	Thrust:	0.000
Time:	6.791	Roll Set Point:	-0.357	Pitch Set Point:	0.480	Yaw Set Point:	1.522	X_WP:	0.000	Y_WP:	0.000	Y_WP:	0.500	X:	-0.050	Y:	-0.410	Z:	0.665	yaw:	-87.185	yaw rate:	0.927	Roll:	13.303	Pitch:	-3.309	Yaw:	-129.501	Thrust:	0.000
Time:	6.841	Roll Set Point:	-0.357	Pitch Set Point:	0.480	Yaw Set Point:	1.522	X_WP:	0.000	Y_WP:	0.000	Y_WP:	0.500	X:	-0.050	Y:	-0.410	Z:	0.665	yaw:	-87.217	yaw rate:	-2.810	Roll:	13.711	Pitch:	-3.188	Yaw:	-130.017	Thrust:	0.000
Time:	6.872	Roll Set Point:	-0.357	Pitch Set Point:	0.480	Yaw Set Point:	1.522	X_WP:	0.000	Y_WP:	0.000	Y_WP:	0.500	X:	-0.050	Y:	-0.410	Z:	0.665	yaw:	-87.198	yaw rate:	0.004	Roll:	13.278	Pitch:	-3.359	Yaw:	-129.843	Thrust:	0.000
Time:	6.911	Roll Set Point:	-0.357	Pitch Set Point:	0.480	Yaw Set Point:	1.522	X_WP:	0.000	Y_WP:	0.000	Y_WP:	0.500	X:	-0.050	Y:	-0.410	Z:	0.665	yaw:	-87.206	yaw rate:	-0.040	Roll:	12.921	Pitch:	-2.953	Yaw:	-127.646	Thrust:	0.000
Time:	6.943	Roll Set Point:	-0.357	Pitch Set Point:	0.480	Yaw Set Point:	1.522	X_WP:	0.000	Y_WP:	0.000	Y_WP:	0.500	X:	-0.050	Y:	-0.410	Z:	0.665	yaw:	-87.197	yaw rate:	1.480	Roll:	13.331	Pitch:	-3.381	Yaw:	-129.927	Thrust:	0.000
Time:	6.982	Roll Set Point:	-0.357	Pitch Set Point:	0.481	Yaw Set Point:	1.519	X_WP:	0.000	Y_WP:	0.000	Y_WP:	0.500	X:	-0.050	Y:	-0.410	Z:	0.665	yaw:	-87.056	yaw rate:	15.706	Roll:	12.819	Pitch:	-3.525	Yaw:	-126.572	Thrust:	0.000
Time:	7.022	Roll Set Point:	-0.357	Pitch Set Point:	0.480	Yaw Set Point:	1.522	X_WP:	0.000	Y_WP:	0.000	Y_WP:	0.500	X:	-0.050	Y:	-0.410	Z:	0.665	yaw:	-87.207	yaw rate:	1.021	Roll:	13.401	Pitch:	-2.867	Yaw:	-130.590	Thrust:	0.000
Time:	7.082	Roll Set Point:	-0.357	Pitch Set Point:	0.480	Yaw Set Point:	1.522	X_WP:	0.000	Y_WP:	0.000	Y_WP:	0.500	X:	-0.050	Y:	-0.410	Z:	0.665	yaw:	-87.201	yaw rate:	-1.305	Roll:	13.303	Pitch:	-3.641	Yaw:	-135.370	Thrust:	0.000
Time:	7.141	Roll Set Point:	-0.357	Pitch Set Point:	0.481	Yaw Set Point:	1.519	X_WP:	0.000	Y_WP:	0.000	Y_WP:	0.500	X:	-0.050	Y:	-0.410	Z:	0.665	yaw:	-87.053	yaw rate:	16.216	Roll:	13.949	Pitch:	-4.295	Yaw:	-130.804	Thrust:	0.000
Time:	7.201	Roll Set Point:	-0.357	Pitch Set Point:	0.480	Yaw Set Point:	1.522	X_WP:	0.000	Y_WP:	0.000	Y_WP:	0.500	X:	-0.050	Y:	-0.410	Z:	0.665	yaw:	-87.216	yaw rate:	0.091	Roll:	14.131	Pitch:	-3.703	Yaw:	-136.419	Thrust:	0.000
Time:	7.241	Roll Set Point:	-0.357	Pitch Set Point:	0.480	Yaw Set Point:	1.522	X_WP:	0.000	Y_WP:	0.000	Y_WP:	0.500	X:	-0.050	Y:	-0.410	Z:	0.665	yaw:	-87.212	yaw rate:	-2.250	Roll:	14.060	Pitch:	-3.693	Yaw:	-127.753	Thrust:	0.000
Time:	7.272	Roll Set Point:	-0.357	Pitch Set Point:	0.480	Yaw Set Point:	1.522	X_WP:	0.000	Y_WP:	0.000	Y_WP:	0.500	X:	-0.050	Y:	-0.410	Z:	0.665	yaw:	-87.204	yaw rate:	0.551	Roll:	13.306	Pitch:	-3.390	Yaw:	-129.745	Thrust:	0.000
Time:	7.301	Roll Set Point:	-0.357	Pitch Set Point:	0.481	Yaw Set Point:	1.520	X_WP:	0.000	Y_WP:	0.000	Y_WP:	0.500	X:	-0.050	Y:	-0.410	Z:	0.665	yaw:	-87.072	yaw rate:	12.138	Roll:	12.766	Pitch:	-3.495	Yaw:	-126.422	Thrust:	0.000
Time:	7.331	Roll Set Point:	-0.357	Pitch Set Point:	0.480	Yaw Set Point:	1.522	X_WP:	0.000	Y_WP:	0.000	Y_WP:	0.500	X:	-0.050	Y:	-0.410	Z:	0.665	yaw:	-87.201	yaw rate:	-0.857	Roll:	12.763	Pitch:	-2.639	Yaw:	-128.900	Thrust:	0.000
Time:	7.362	Roll Set Point:	-0.357	Pitch Set Point:	0.481	Yaw Set Point:	1.520	X_WP:	0.000	Y_WP:	0.000	Y_WP:	0.500	X:	-0.050	Y:	-0.410	Z:	0.665	yaw:	-87.079	yaw rate:	12.598	Roll:	13.223	Pitch:	-3.488	Yaw:	-126.537	Thrust:	0.000
Time:	7.392	Roll Set Point:	-0.357	Pitch Set Point:	0.481	Yaw Set Point:	1.519	X_WP:	0.000	Y_WP:	0.000	Y_WP:	0.500	X:	-0.050	Y:	-0.410	Z:	0.665	yaw:	-87.050	yaw rate:	14.487	Roll:	12.852	Pitch:	-3.215	Yaw:	-127.307	Thrust:	0.000
Time:	7.422	Roll Set Point:	-0.357	Pitch Set Point:	0.480	Yaw Set Point:	1.522	X_WP:	0.000	Y_WP:	0.000	Y_WP:	0.500	X:	-0.050	Y:	-0.410	Z:	0.665	yaw:	-87.182	yaw rate:	1.701	Roll:	13.065	Pitch:	-2.586	Yaw:	-128.890	Thrust:	0.000
Time:	7.471	Roll Set Point:	-0.357	Pitch Set Point:	0.480	Yaw Set Point:	1.522	X_WP:	0.000	Y_WP:	0.000	Y_WP:	0.500	X:	-0.050	Y:	-0.410	Z:	0.665	yaw:	-87.215	yaw rate:	0.027	Roll:	12.940	Pitch:	-3.265	Yaw:	-129.828	Thrust:	0.000
Time:	7.502	Roll Set Point:	-0.357	Pitch Set Point:	0.480	Yaw Set Point:	1.522	X_WP:	0.000	Y_WP:	0.000	Y_WP:	0.500	X:	-0.050	Y:	-0.410	Z:	0.665	yaw:	-87.190	yaw rate:	0.008	Roll:	13.663	Pitch:	-3.491	Yaw:	-129.791	Thrust:	0.000
Time:	7.541	Roll Set Point:	-0.357	Pitch Set Point:	0.480	Yaw Set Point:	1.522	X_WP:	0.000	Y_WP:	0.000	Y_WP:	0.500	X:	-0.050	Y:	-0.410	Z:	0.665	yaw:	-87.220	yaw rate:	-2.335	Roll:	12.970	Pitch:	-2.932	Yaw:	-128.067	Thrust:	0.000
Time:	7.572	Roll Set Point:	-0.357	Pitch Set Point:	0.480	Yaw Set Point:	1.522	X_WP:	0.000	Y_WP:	0.000	Y_WP:	0.500	X:	-0.050	Y:	-0.410	Z:	0.665	yaw:	-87.208	yaw rate:	-13.347	Roll:	13.302	Pitch:	-3.465	Yaw:	-129.514	Thrust:	0.000
Time:	7.601	Roll Set Point:	-0.357	Pitch Set Point:	0.480	Yaw Set Point:	1.522	X_WP:	0.000	Y_WP:	0.000	Y_WP:	0.500	X:	-0.050	Y:	-0.410	Z:	0.665	yaw:	-87.221	yaw rate:	-2.057	Roll:	12.942	Pitch:	-3.024	Yaw:	-127.900	Thrust:	0.000
Time:	7.642	Roll Set Point:	-0.357	Pitch Set Point:	0.480	Yaw Set Point:	1.522	X_WP:	0.000	Y_WP:	0.000	Y_WP:	0.500	X:	-0.050	Y:	-0.410	Z:	0.665	yaw:	-87.223	yaw rate:	-3.245	Roll:	12.896	Pitch:	-3.424	Yaw:	-130.021	Thrust:	0.000
Time:	7.672	Roll Set Point:	-0.357	Pitch Set Point:	0.480	Yaw Set Point:	1.522	X_WP:	0.000	Y_WP:	0.000	Y_WP:	0.500	X:	-0.050	Y:	-0.410	Z:	0.665	yaw:	-87.201	yaw rate:	-0.392	Roll:	13.330	Pitch:	-3.186	Yaw:	-127.589	Thrust:	0.000
Time:	7.722	Roll Set Point:	-0.357	Pitch Set Point:	0.480	Yaw Set Point:	1.522	X_WP:	0.000	Y_WP:	0.000	Y_WP:	0.500	X:	-0.050	Y:	-0.410	Z:	0.665	yaw:	-87.194	yaw rate:	0.843	Roll:	12.931	Pitch:	-3.440	Yaw:	-131.732	Thrust:	0.000
Time:	7.763	Roll Set Point:	-0.357	Pitch Set Point:	0.480	Yaw Set Point:	1.522	X_WP:	0.000	Y_WP:	0.000	Y_WP:	0.500	X:	-0.050	Y:	-0.410	Z:	0.665	yaw:	-87.186	yaw rate:	1.934	Roll:	13.635	Pitch:	-3.845	Yaw:	-129.502	Thrust:	0.000
Time:	7.791	Roll Set Point:	-0.357	Pitch Set Point:	0.480	Yaw Set Point:	1.522	X_WP:	0.000	Y_WP:	0.000	Y_WP:	0.500	X:	-0.050	Y:	-0.410	Z:	0.665	yaw:	-87.184	yaw rate:	0.608	Roll:	12.971	Pitch:	-2.844	Yaw:	-126.131	Thrust:	0.000
Time:	7.831	Roll Set Point:	-0.357	Pitch Set Point:	0.480	Yaw Set Point:	1.522	X_WP:	0.000	Y_WP:	0.000	Y_WP:	0.500	X:	-0.050	Y:	-0.410	Z:	0.665	yaw:	-87.205	yaw rate:	-1.854	Roll:	13.326	Pitch:	-3.359	Yaw:	-129.511	Thrust:	0.000
Time:	7.900	Roll Set Point:	-0.357	Pitch Set Point:	0.480	Yaw Set Point:	1.522	X_WP:	0.000	Y_WP:	0.000	Y_WP:	0.500	X:	-0.050	Y:	-0.410	Z:	0.665	yaw:	-87.206	yaw rate:	-2.326	Roll:	13.308	Pitch:	-3.801	Yaw:	-135.601	Thrust:	0.000
Time:	7.931	Roll Set Point:	-0.357	Pitch Set Point:	0.480	Yaw Set Point:	1.522	X_WP:	0.000	Y_WP:	0.000	Y_WP:	0.500	X:	-0.050	Y:	-0.410	Z:	0.665	yaw:	-87.193	yaw rate:	0.190	Roll:	14.008	Pitch:	-3.907	Yaw:	-127.652	Thrust:	0.000
Time:	7.961	Roll Set Point:	-0.357	Pitch Set Point:	0.480	Yaw Set Point:	1.522	X_WP:	0.000	Y_WP:	0.000	Y_WP:	0.500	X:	-0.050	Y:	-0.410	Z:	0.665	yaw:	-87.193	yaw rate:	0.533	Roll:	13.275	Pitch:	-3.480	Yaw:	-129.763	Thrust:	0.000
Time:	7.993	Roll Set Point:	-0.357	Pitch Set Point:	0.481	Yaw Set Point:	1.520	X_WP:	0.000	Y_WP:	0.000	Y_WP:	0.500	X:	-0.050	Y:	-0.410	Z:	0.665	yaw:	-87.083	yaw rate:	11.193	Roll:	12.885	Pitch:	-3.568	Yaw:	-127.111	Thrust:	0.000
Time:	8.023	Roll Set Point:	-0.357	Pitch Set Point:	0.481	Yaw Set Point:	1.520	X_WP:	0.000	Y_WP:	0.000	Y_WP:	0.000	X:	-0.050	Y:	-0.410	Z:	0.665	yaw:	-87.063	yaw rate:	14.866	Roll:	12.925	Pitch:	-3.240	Yaw:	-127.416	Thrust:	0.000
Time:	8.052	Roll Set Point:	-0.357	Pitch Set Point:	0.480	Yaw Set Point:	1.522	X_WP:	0.000	Y_WP:	0.000	Y_WP:	0.000	X:	-0.050	Y:	-0.410	Z:	0.665	yaw:	-87.182	yaw rate:	1.913	Roll:	13.008	Pitch:	-2.704	Yaw:	-128.606	Thrust:	0.000
Time:	8.091	Roll Set Point:	-0.357	Pitch Set Point:	0.480	Yaw Set Point:	1.522	X_WP:	0.000	Y_WP:	0.000	Y_WP:	0.000	X:	-0.050	Y:	-0.410	Z:	0.665	yaw:	-87.206	yaw rate:	-1.004	Roll:	12.965	Pitch:	-3.024	Yaw:	-129.744	Thrust:	0.000
Time:	8.123	Roll Set Point:	-0.357	Pitch Set Point:	0.481	Yaw Set Point:	1.519	X_WP:	0.000	Y_WP:	0.000	Y_WP:	0.000	X:	-0.050	Y:	-0.410	Z:	0.665	yaw:	-87.057	yaw rate:	14.212	Roll:	13.160	Pitch:	-3.978	Yaw:	-126.272	Thrust:	0.000
Time:	8.191	Roll Set Point:	-0.357	Pitch Set Point:	0.480	Yaw Set Point:	1.522	X_WP:	0.000	Y_WP:	0.000	Y_WP:	0.000	X:	-0.050	Y:	-0.410	Z:	0.665	yaw:	-87.211	yaw rate:	-1.549	Roll:	13.063	Pitch:	-3.051	Yaw:	-134.482	Thrust:	0.000
Time:	8.232	Roll Set Point:	-0.357	Pitch Set Point:	0.480	Yaw Set Point:	1.522	X_WP:	0.000	Y_WP:	0.000	Y_WP:	0.000	X:	-0.050	Y:	-0.410	Z:	0.665	yaw:	-87.212	yaw rate:	1.413	Roll:	14.472	Pitch:	-4.658	Yaw:	-131.791	Thrust:	0.000
Time:	8.263	Roll Set Point:	-0.357	Pitch Set Point:	0.480	Yaw Set Point:	1.522	X_WP:	0.000	Y_WP:	0.000	Y_WP:	0.000	X:	-0.050	Y:	-0.410	Z:	0.665	yaw:	-87.216	yaw rate:	-16.709	Roll:	13.312	Pitch:	-3.169	Yaw:	-128.038	Thrust:	0.000
Time:	8.301	Roll Set Point:	-0.357	Pitch Set Point:	0.480	Yaw Set Point:	1.522	X_WP:	0.000	Y_WP:	0.000	Y_WP:	0.000	X:	-0.050	Y:	-0.410	Z:	0.665	yaw:	-87.196	yaw rate:	0.880	Roll:	12.871	Pitch:	-3.257	Yaw:	-127.379	Thrust:	0.000
Time:	8.341	Roll Set Point:	-0.357	Pitch Set Point:	0.480	Yaw Set Point:	1.522	X_WP:	0.000	Y_WP:	0.000	Y_WP:	0.000	X:	-0.050	Y:	-0.410	Z:	0.665	yaw:	-87.200	yaw rate:	-15.359	Roll:	13.306	Pitch:	-3.495	Yaw:	-130.003	Thrust:	0.000
Time:	8.372	Roll Set Point:	-0.357	Pitch Set Point:	0.480	Yaw Set Point:	1.522	X_WP:	0.000	Y_WP:	0.000	Y_WP:	0.000	X:	-0.050	Y:	-0.410	Z:	0.665	yaw:	-87.191	yaw rate:	-10.570	Roll:	13.310	Pitch:	-3.540	Yaw:	-129.495	Thrust:	0.000
Time:	8.430	Roll Set Point:	-0.357	Pitch Set Point:	0.480	Yaw Set Point:	1.522	X_WP:	0.000	Y_WP:	0.000	Y_WP:	0.000	X:	-0.050	Y:	-0.410	Z:	0.665	yaw:	-87.200	yaw rate:	-0.967	Roll:	12.942	Pitch:	-3.498	Yaw:	-131.832	Thrust:	0.000
Time:	8.471	Roll Set Point:	-0.357	Pitch Set Point:	0.481	Yaw Set Point:	1.519	X_WP:	0.000	Y_WP:	0.000	Y_WP:	0.000	X:	-0.050	Y:	-0.410	Z:	0.665	yaw:	-87.057	yaw rate:	14.121	Roll:	13.959	Pitch:	-4.533	Yaw:	-130.617	Thrust:	0.000
Time:	8.513	Roll Set Point:	-0.357	Pitch Set Point:	0.480	Yaw Set Point:	1.522	X_WP:	0.000	Y_WP:	0.000	Y_WP:	0.000	X:	-0.050	Y:	-0.410	Z:	0.665	yaw:	-87.212	yaw rate:	-2.511	Roll:	13.438	Pitch:	-3.161	Yaw:	-130.802	Thrust:	0.000
Time:	8.543	Roll Set Point:	-0.357	Pitch Set Point:	0.481	Yaw Set Point:	1.520	X_WP:	0.000	Y_WP:	0.000	Y_WP:	0.000	X:	-0.050	Y:	-0.410	Z:	0.665	yaw:	-87.062	yaw rate:	13.501	Roll:	13.160	Pitch:	-3.740	Yaw:	-126.274	Thrust:	0.000
Time:	8.573	Roll Set Point:	-0.357	Pitch Set Point:	0.480	Yaw Set Point:	1.522	X_WP:	0.000	Y_WP:	0.000	Y_WP:	0.000	X:	-0.050	Y:	-0.410	Z:	0.665	yaw:	-87.196	yaw rate:	-0.281	Roll:	13.056	Pitch:	-2.659	Yaw:	-128.934	Thrust:	0.000
Time:	8.603	Roll Set Point:	-0.357	Pitch Set Point:	0.480	Yaw Set Point:	1.522	X_WP:	0.000	Y_WP:	0.000	Y_WP:	0.000	X:	-0.050	Y:	-0.410	Z:	0.665	yaw:	-87.212	yaw rate:	-16.121	Roll:	12.935	Pitch:	-3.077	Yaw:	-128.123	Thrust:	0.000
Time:	8.641	Roll Set Point:	-0.357	Pitch Set Point:	0.480	Yaw Set Point:	1.522	X_WP:	0.000	Y_WP:	0.000	Y_WP:	0.000	X:	-0.050	Y:	-0.410	Z:	0.665	yaw:	-87.219	yaw rate:	-2.780	Roll:	12.944	Pitch:	-3.146	Yaw:	-127.653	Thrust:	0.000
Time:	8.673	Roll Set Point:	-0.357	Pitch Set Point:	0.481	Yaw Set Point:	1.520	X_WP:	0.000	Y_WP:	0.000	Y_WP:	0.000	X:	-0.050	Y:	-0.410	Z:	0.665	yaw:	-87.066	yaw rate:	12.188	Roll:	13.206	Pitch:	-3.969	Yaw:	-128.596	Thrust:	0.000
Time:	8.751	Roll Set Point:	-0.357	Pitch Set Point:	0.480	Yaw Set Point:	1.522	X_WP:	0.000	Y_WP:	0.000	Y_WP:	0.000	X:	-0.050	Y:	-0.410	Z:	0.665	yaw:	-87.195	yaw rate:	0.786	Roll:	13.027	Pitch:	-3.152	Yaw:	-134.143	Thrust:	0.000
Time:	8.801	Roll Set Point:	-0.357	Pitch Set Point:	0.480	Yaw Set Point:	1.522	X_WP:	0.000	Y_WP:	0.000	Y_WP:	0.000	X:	-0.050	Y:	-0.410	Z:	0.665	yaw:	-87.195	yaw rate:	-0.340	Roll:	14.814	Pitch:	-5.031	Yaw:	-133.981	Thrust:	0.000
Time:	8.841	Roll Set Point:	-0.357	Pitch Set Point:	0.480	Yaw Set Point:	1.522	X_WP:	0.000	Y_WP:	0.000	Y_WP:	0.000	X:	-0.050	Y:	-0.410	Z:	0.665	yaw:	-87.190	yaw rate:	0.929	Roll:	13.670	Pitch:	-3.550	Yaw:	-129.730	Thrust:	0.000
Time:	8.874	Roll Set Point:	-0.357	Pitch Set Point:	0.481	Yaw Set Point:	1.520	X_WP:	0.000	Y_WP:	0.000	Y_WP:	0.000	X:	-0.050	Y:	-0.410	Z:	0.665	yaw:	-87.074	yaw rate:	11.712	Roll:	13.248	Pitch:	-3.862	Yaw:	-128.851	Thrust:	0.000
Time:	8.931	Roll Set Point:	-0.357	Pitch Set Point:	0.480	Yaw Set Point:	1.522	X_WP:	0.000	Y_WP:	0.000	Y_WP:	0.000	X:	-0.050	Y:	-0.410	Z:	0.665	yaw:	-87.194	yaw rate:	-11.716	Roll:	13.034	Pitch:	-3.174	Yaw:	-132.202	Thrust:	0.000
Time:	8.963	Roll Set Point:	-0.357	Pitch Set Point:	0.480	Yaw Set Point:	1.522	X_WP:	0.000	Y_WP:	0.000	Y_WP:	0.000	X:	-0.050	Y:	-0.410	Z:	0.665	yaw:	-87.178	yaw rate:	2.617	Roll:	14.007	Pitch:	-3.990	Yaw:	-129.645	Thrust:	0.000
Time:	9.041	Roll Set Point:	-0.357	Pitch Set Point:	0.480	Yaw Set Point:	1.522	X_WP:	0.000	Y_WP:	0.000	Y_WP:	0.000	X:	-0.050	Y:	-0.410	Z:	0.665	yaw:	-87.192	yaw rate:	0.710	Roll:	12.980	Pitch:	-3.111	Yaw:	-133.645	Thrust:	0.000
Time:	9.073	Roll Set Point:	-0.357	Pitch Set Point:	0.480	Yaw Set Point:	1.522	X_WP:	0.000	Y_WP:	0.000	Y_WP:	0.000	X:	-0.050	Y:	-0.410	Z:	0.665	yaw:	-87.198	yaw rate:	1.272	Roll:	14.777	Pitch:	-5.019	Yaw:	-132.008	Thrust:	0.000
Time:	9.112	Roll Set Point:	-0.357	Pitch Set Point:	0.480	Yaw Set Point:	1.522	X_WP:	0.000	Y_WP:	0.000	Y_WP:	0.000	X:	-0.050	Y:	-0.410	Z:	0.665	yaw:	-87.186	yaw rate:	2.298	Roll:	12.908	Pitch:	-3.542	Yaw:	-129.671	Thrust:	0.000
Time:	9.143	Roll Set Point:	-0.357	Pitch Set Point:	0.480	Yaw Set Point:	1.522	X_WP:	0.000	Y_WP:	0.000	Y_WP:	0.000	X:	-0.050	Y:	-0.410	Z:	0.665	yaw:	-87.203	yaw rate:	-0.773	Roll:	13.324	Pitch:	-3.070	Yaw:	-127.927	Thrust:	0.000
Time:	9.201	Roll Set Point:	-0.357	Pitch Set Point:	0.481	Yaw Set Point:	1.520	X_WP:	0.000	Y_WP:	0.000	Y_WP:	0.000	X:	-0.050	Y:	-0.410	Z:	0.665	yaw:	-87.072	yaw rate:	14.734	Roll:	12.821	Pitch:	-3.900	Yaw:	-130.696	Thrust:	0.000
Time:	9.272	Roll Set Point:	-0.357	Pitch Set Point:	0.480	Yaw Set Point:	1.522	X_WP:	0.000	Y_WP:	0.000	Y_WP:	0.000	X:	-0.050	Y:	-0.410	Z:	0.665	yaw:	-87.190	yaw rate:	0.102	Roll:	14.103	Pitch:	-4.099	Yaw:	-136.227	Thrust:	0.000
Time:	9.313	Roll Set Point:	-0.357	Pitch Set Point:	0.480	Yaw Set Point:	1.522	X_WP:	0.000	Y_WP:	0.000	Y_WP:	0.000	X:	-0.050	Y:	-0.410	Z:	0.665	yaw:	-87.207	yaw rate:	-14.055	Roll:	14.406	Pitch:	-4.616	Yaw:	-132.068	Thrust:	0.000
Time:	9.362	Roll Set Point:	-0.357	Pitch Set Point:	0.480	Yaw Set Point:	1.522	X_WP:	0.000	Y_WP:	0.000	Y_WP:	0.000	X:	-0.050	Y:	-0.410	Z:	0.665	yaw:	-87.208	yaw rate:	0.509	Roll:	13.311	Pitch:	-3.490	Yaw:	-131.405	Thrust:	0.000
Time:	9.392	Roll Set Point:	-0.357	Pitch Set Point:	0.480	Yaw Set Point:	1.522	X_WP:	0.000	Y_WP:	0.000	Y_WP:	0.000	X:	-0.050	Y:	-0.410	Z:	0.665	yaw:	-87.204	yaw rate:	0.628	Roll:	13.681	Pitch:	-3.537	Yaw:	-127.944	Thrust:	0.000
Time:	9.423	Roll Set Point:	-0.357	Pitch Set Point:	0.480	Yaw Set Point:	1.522	X_WP:	0.000	Y_WP:	0.000	Y_WP:	0.000	X:	-0.050	Y:	-0.410	Z:	0.665	yaw:	-87.206	yaw rate:	-0.172	Roll:	12.933	Pitch:	-3.194	Yaw:	-127.794	Thrust:	0.000
Time:	9.462	Roll Set Point:	-0.357	Pitch Set Point:	0.480	Yaw Set Point:	1.522	X_WP:	0.000	Y_WP:	0.000	Y_WP:	0.000	X:	-0.050	Y:	-0.410	Z:	0.665	yaw:	-87.214	yaw rate:	-0.684	Roll:	12.943	Pitch:	-3.424	Yaw:	-129.648	Thrust:	0.000
Time:	9.492	Roll Set Point:	-0.357	Pitch Set Point:	0.480	Yaw Set Point:	1.522	X_WP:	0.000	Y_WP:	0.000	Y_WP:	0.000	X:	-0.050	Y:	-0.410	Z:	0.665	yaw:	-87.215	yaw rate:	-2.564	Roll:	13.276	Pitch:	-3.188	Yaw:	-128.001	Thrust:	0.000
Time:	9.522	Roll Set Point:	-0.357	Pitch Set Point:	0.480	Yaw Set Point:	1.522	X_WP:	0.000	Y_WP:	0.000	Y_WP:	0.000	X:	-0.050	Y:	-0.410	Z:	0.665	yaw:	-87.184	yaw rate:	0.526	Roll:	12.927	Pitch:	-3.310	Yaw:	-127.470	Thrust:	0.000
Time:	9.561	Roll Set Point:	-0.357	Pitch Set Point:	0.480	Yaw Set Point:	1.522	X_WP:	0.000	Y_WP:	0.000	Y_WP:	0.000	X:	-0.050	Y:	-0.410	Z:	0.665	yaw:	-87.196	yaw rate:	2.441	Roll:	12.900	Pitch:	-3.497	Yaw:	-129.650	Thrust:	0.000
Time:	9.591	Roll Set Point:	-0.357	Pitch Set Point:	0.480	Yaw Set Point:	1.522	X_WP:	0.000	Y_WP:	0.000	Y_WP:	0.000	X:	-0.050	Y:	-0.410	Z:	0.665	yaw:	-87.186	yaw rate:	1.574	Roll:	13.308	Pitch:	-3.195	Yaw:	-127.664	Thrust:	0.000
Time:	9.661	Roll Set Point:	-0.357	Pitch Set Point:	0.480	Yaw Set Point:	1.522	X_WP:	0.000	Y_WP:	0.000	Y_WP:	0.000	X:	-0.050	Y:	-0.410	Z:	0.665	yaw:	-87.219	yaw rate:	-2.285	Roll:	12.968	Pitch:	-3.385	Yaw:	-133.757	Thrust:	0.000
Time:	9.731	Roll Set Point:	-0.357	Pitch Set Point:	0.480	Yaw Set Point:	1.522	X_WP:	0.000	Y_WP:	0.000	Y_WP:	0.000	X:	-0.050	Y:	-0.410	Z:	0.665	yaw:	-87.219	yaw rate:	-1.060	Roll:	14.474	Pitch:	-4.651	Yaw:	-135.833	Thrust:	0.000
Time:	9.831	Roll Set Point:	-0.357	Pitch Set Point:	0.480	Yaw Set Point:	1.522	X_WP:	0.000	Y_WP:	0.000	Y_WP:	0.000	X:	-0.050	Y:	-0.410	Z:	0.665	yaw:	-87.213	yaw rate:	-1.434	Roll:	14.775	Pitch:	-5.454	Yaw:	-142.001	Thrust:	0.000
Time:	9.912	Roll Set Point:	-0.357	Pitch Set Point:	0.480	Yaw Set Point:	1.522	X_WP:	0.000	Y_WP:	0.000	Y_WP:	0.000	X:	-0.050	Y:	-0.410	Z:	0.665	yaw:	-87.201	yaw rate:	0.097	Roll:	15.179	Pitch:	-5.056	Yaw:	-137.555	Thrust:	0.000
Time:	9.992	Roll Set Point:	-0.357	Pitch Set Point:	0.480	Yaw Set Point:	1.522	X_WP:	0.000	Y_WP:	0.000	Y_WP:	0.000	X:	-0.050	Y:	-0.410	Z:	0.665	yaw:	-87.197	yaw rate:	1.421	Roll:	14.772	Pitch:	-5.000	Yaw:	-137.780	Thrust:	0.000
Time:	10.062	Roll Set Point:	-0.357	Pitch Set Point:	0.480	Yaw Set Point:	1.522	X_WP:	0.000	Y_WP:	0.000	Y_WP:	0.000	X:	-0.050	Y:	-0.410	Z:	0.665	yaw:	-87.207	yaw rate:	-0.828	Roll:	14.813	Pitch:	-5.023	Yaw:	-135.839	Thrust:	0.000
Time:	10.142	Roll Set Point:	-0.357	Pitch Set Point:	0.480	Yaw Set Point:	1.522	X_WP:	0.000	Y_WP:	0.000	Y_WP:	0.000	X:	-0.050	Y:	-0.410	Z:	0.665	yaw:	-87.192	yaw rate:	3.322	Roll:	14.431	Pitch:	-4.657	Yaw:	-137.738	Thrust:	0.000
Time:	10.221	Roll Set Point:	-0.357	Pitch Set Point:	0.480	Yaw Set Point:	1.522	X_WP:	0.000	Y_WP:	0.000	Y_WP:	0.000	X:	-0.050	Y:	-0.410	Z:	0.665	yaw:	-87.222	yaw rate:	-3.171	Roll:	14.788	Pitch:	-4.978	Yaw:	-135.731	Thrust:	0.000
Time:	10.302	Roll Set Point:	-0.357	Pitch Set Point:	0.480	Yaw Set Point:	1.522	X_WP:	0.000	Y_WP:	0.000	Y_WP:	0.000	X:	-0.050	Y:	-0.410	Z:	0.665	yaw:	-87.230	yaw rate:	-3.068	Roll:	14.816	Pitch:	-5.393	Yaw:	-139.869	Thrust:	0.000
Time:	10.382	Roll Set Point:	-0.357	Pitch Set Point:	0.480	Yaw Set Point:	1.522	X_WP:	0.000	Y_WP:	0.000	Y_WP:	0.000	X:	-0.050	Y:	-0.410	Z:	0.665	yaw:	-87.214	yaw rate:	-1.864	Roll:	14.806	Pitch:	-4.686	Yaw:	-137.766	Thrust:	0.000
Time:	10.452	Roll Set Point:	-0.357	Pitch Set Point:	0.480	Yaw Set Point:	1.522	X_WP:	0.000	Y_WP:	0.000	Y_WP:	0.000	X:	-0.050	Y:	-0.410	Z:	0.665	yaw:	-87.186	yaw rate:	-13.830	Roll:	14.797	Pitch:	-5.088	Yaw:	-135.671	Thrust:	0.000
Time:	10.542	Roll Set Point:	-0.357	Pitch Set Point:	0.480	Yaw Set Point:	1.522	X_WP:	0.000	Y_WP:	0.000	Y_WP:	0.000	X:	-0.050	Y:	-0.410	Z:	0.665	yaw:	-87.203	yaw rate:	1.103	Roll:	14.408	Pitch:	-4.966	Yaw:	-137.851	Thrust:	0.000
