Time:	0.068	Roll Set Point:	-0.357	Pitch Set Point:	0.481	Yaw Set Point:	1.520	X_WP:	0.000	Y_WP:	0.000	Y_WP:	0.000	X:	-0.050	Y:	-0.410	Z:	0.665	yaw:	-87.066	yaw rate:	12.627	Roll:	11.798	Pitch:	-2.052	Yaw:	-121.566	Thrust:	0.000
Time:	0.108	Roll Set Point:	-0.357	Pitch Set Point:	0.480	Yaw Set Point:	1.522	X_WP:	0.000	Y_WP:	0.000	Y_WP:	0.000	X:	-0.050	Y:	-0.410	Z:	0.665	yaw:	-87.194	yaw rate:	-0.878	Roll:	11.902	Pitch:	-1.704	Yaw:	-123.802	Thrust:	0.000
Time:	0.138	Roll Set Point:	-0.357	Pitch Set Point:	0.480	Yaw Set Point:	1.522	X_WP:	0.000	Y_WP:	0.000	Y_WP:	0.000	X:	-0.050	Y:	-0.410	Z:	0.665	yaw:	-87.187	yaw rate:	1.022	Roll:	11.889	Pitch:	-2.071	Yaw:	-123.573	Thrust:	0.000
Time:	0.188	Roll Set Point:	-0.357	Pitch Set Point:	0.480	Yaw Set Point:	1.522	X_WP:	0.000	Y_WP:	0.000	Y_WP:	0.000	X:	-0.050	Y:	-0.410	Z:	0.665	yaw:	-87.194	yaw rate:	1.045	Roll:	11.927	Pitch:	-2.044	Yaw:	-126.174	Thrust:	0.000
Time:	0.217	Roll Set Point:	-0.357	Pitch Set Point:	0.481	Yaw Set Point:	1.519	X_WP:	0.000	Y_WP:	0.000	Y_WP:	0.000	X:	-0.050	Y:	-0.410	Z:	0.665	yaw:	-87.047	yaw rate:	13.970	Roll:	11.878	Pitch:	-2.603	Yaw:	-124.088	Thrust:	0.000
Time:	0.250	Roll Set Point:	-0.357	Pitch Set Point:	0.480	Yaw Set Point:	1.522	X_WP:	0.000	Y_WP:	0.000	Y_WP:	0.000	X:	-0.050	Y:	-0.410	Z:	0.665	yaw:	-87.209	yaw rate:	-1.208	Roll:	12.083	Pitch:	-1.458	Yaw:	-127.852	Thrust:	0.000
Time:	0.279	Roll Set Point:	-0.357	Pitch Set Point:	0.480	Yaw Set Point:	1.522	X_WP:	0.000	Y_WP:	0.000	Y_WP:	0.000	X:	-0.050	Y:	-0.410	Z:	0.665	yaw:	-87.211	yaw rate:	-0.479	Roll:	11.996	Pitch:	-2.064	Yaw:	-127.096	Thrust:	0.000
Time:	0.318	Roll Set Point:	-0.357	Pitch Set Point:	0.480	Yaw Set Point:	1.522	X_WP:	0.000	Y_WP:	0.000	Y_WP:	0.000	X:	-0.050	Y:	-0.410	Z:	0.665	yaw:	-87.197	yaw rate:	-1.434	Roll:	12.003	Pitch:	-2.110	Yaw:	-129.684	Thrust:	0.000
Time:	0.358	Roll Set Point:	-0.357	Pitch Set Point:	0.480	Yaw Set Point:	1.522	X_WP:	0.000	Y_WP:	0.000	Y_WP:	0.000	X:	-0.050	Y:	-0.410	Z:	0.665	yaw:	-87.191	yaw rate:	-13.864	Roll:	12.200	Pitch:	-2.123	Yaw:	-129.720	Thrust:	0.000
Time:	0.388	Roll Set Point:	-0.357	Pitch Set Point:	0.480	Yaw Set Point:	1.522	X_WP:	0.000	Y_WP:	0.000	Y_WP:	0.000	X:	-0.050	Y:	-0.410	Z:	0.665	yaw:	-87.202	yaw rate:	-1.692	Roll:	12.101	Pitch:	-2.027	Yaw:	-127.676	Thrust:	0.000
Time:	0.436	Roll Set Point:	-0.357	Pitch Set Point:	0.480	Yaw Set Point:	1.522	X_WP:	0.000	Y_WP:	0.000	Y_WP:	0.000	X:	-0.050	Y:	-0.410	Z:	0.665	yaw:	-87.222	yaw rate:	-2.119	Roll:	12.218	Pitch:	-2.009	Yaw:	-131.714	Thrust:	0.000
Time:	0.467	Roll Set Point:	-0.357	Pitch Set Point:	0.480	Yaw Set Point:	1.522	X_WP:	0.000	Y_WP:	0.000	Y_WP:	0.000	X:	-0.050	Y:	-0.410	Z:	0.665	yaw:	-87.207	yaw rate:	1.069	Roll:	12.249	Pitch:	-2.163	Yaw:	-127.859	Thrust:	0.000
Time:	0.526	Roll Set Point:	-0.357	Pitch Set Point:	0.480	Yaw Set Point:	1.522	X_WP:	0.000	Y_WP:	0.000	Y_WP:	0.000	X:	-0.050	Y:	-0.410	Z:	0.665	yaw:	-87.194	yaw rate:	-0.489	Roll:	12.258	Pitch:	-2.167	Yaw:	-133.317	Thrust:	0.000
Time:	0.567	Roll Set Point:	-0.357	Pitch Set Point:	0.480	Yaw Set Point:	1.522	X_WP:	0.000	Y_WP:	0.000	Y_WP:	0.000	X:	-0.050	Y:	-0.410	Z:	0.665	yaw:	-87.217	yaw rate:	-16.741	Roll:	12.619	Pitch:	-2.078	Yaw:	-130.342	Thrust:	0.000
Time:	0.608	Roll Set Point:	-0.357	Pitch Set Point:	0.480	Yaw Set Point:	1.522	X_WP:	0.000	Y_WP:	0.000	Y_WP:	0.000	X:	-0.050	Y:	-0.410	Z:	0.665	yaw:	-87.212	yaw rate:	0.069	Roll:	12.369	Pitch:	-2.141	Yaw:	-129.757	Thrust:	0.000
Time:	0.638	Roll Set Point:	-0.357	Pitch Set Point:	0.480	Yaw Set Point:	1.522	X_WP:	0.000	Y_WP:	0.000	Y_WP:	0.000	X:	-0.050	Y:	-0.410	Z:	0.665	yaw:	-87.215	yaw rate:	-1.802	Roll:	12.264	Pitch:	-2.076	Yaw:	-127.816	Thrust:	0.000
Time:	0.668	Roll Set Point:	-0.357	Pitch Set Point:	0.480	Yaw Set Point:	1.522	X_WP:	0.000	Y_WP:	0.000	Y_WP:	0.000	X:	-0.050	Y:	-0.410	Z:	0.665	yaw:	-87.198	yaw rate:	1.031	Roll:	12.295	Pitch:	-2.192	Yaw:	-127.628	Thrust:	0.000
Time:	0.706	Roll Set Point:	-0.357	Pitch Set Point:	0.480	Yaw Set Point:	1.522	X_WP:	0.000	Y_WP:	0.000	Y_WP:	0.000	X:	-0.050	Y:	-0.410	Z:	0.665	yaw:	-87.212	yaw rate:	0.251	Roll:	12.323	Pitch:	-2.064	Yaw:	-127.904	Thrust:	0.000
Time:	0.756	Roll Set Point:	-0.357	Pitch Set Point:	0.480	Yaw Set Point:	1.522	X_WP:	0.000	Y_WP:	0.000	Y_WP:	0.000	X:	-0.050	Y:	-0.410	Z:	0.665	yaw:	-87.198	yaw rate:	-0.690	Roll:	12.532	Pitch:	-2.220	Yaw:	-131.503	Thrust:	0.000
Time:	0.788	Roll Set Point:	-0.357	Pitch Set Point:	0.480	Yaw Set Point:	1.522	X_WP:	0.000	Y_WP:	0.000	Y_WP:	0.000	X:	-0.050	Y:	-0.410	Z:	0.665	yaw:	-87.192	yaw rate:	1.206	Roll:	12.771	Pitch:	-2.184	Yaw:	-129.923	Thrust:	0.000
Time:	0.818	Roll Set Point:	-0.357	Pitch Set Point:	0.480	Yaw Set Point:	1.522	X_WP:	0.000	Y_WP:	0.000	Y_WP:	0.000	X:	-0.050	Y:	-0.410	Z:	0.665	yaw:	-87.193	yaw rate:	0.463	Roll:	12.401	Pitch:	-2.147	Yaw:	-127.568	Thrust:	0.000
Time:	0.867	Roll Set Point:	-0.357	Pitch Set Point:	0.480	Yaw Set Point:	1.522	X_WP:	0.000	Y_WP:	0.000	Y_WP:	0.000	X:	-0.050	Y:	-0.410	Z:	0.665	yaw:	-87.209	yaw rate:	0.640	Roll:	12.476	Pitch:	-2.099	Yaw:	-131.682	Thrust:	0.000
Time:	0.917	Roll Set Point:	-0.357	Pitch Set Point:	0.480	Yaw Set Point:	1.522	X_WP:	0.000	Y_WP:	0.000	Y_WP:	0.000	X:	-0.050	Y:	-0.410	Z:	0.665	yaw:	-87.210	yaw rate:	-1.841	Roll:	13.149	Pitch:	-2.258	Yaw:	-132.000	Thrust:	0.000
Time:	0.957	Roll Set Point:	-0.357	Pitch Set Point:	0.480	Yaw Set Point:	1.522	X_WP:	0.000	Y_WP:	0.000	Y_WP:	0.000	X:	-0.050	Y:	-0.410	Z:	0.665	yaw:	-87.193	yaw rate:	0.199	Roll:	12.722	Pitch:	-2.257	Yaw:	-129.661	Thrust:	0.000
Time:	1.006	Roll Set Point:	-0.357	Pitch Set Point:	0.481	Yaw Set Point:	1.519	X_WP:	0.000	Y_WP:	0.000	Y_WP:	0.000	X:	-0.050	Y:	-0.410	Z:	0.665	yaw:	-87.052	yaw rate:	0.575	Roll:	12.703	Pitch:	-2.601	Yaw:	-128.413	Thrust:	0.000
Time:	1.038	Roll Set Point:	-0.357	Pitch Set Point:	0.480	Yaw Set Point:	1.522	X_WP:	0.000	Y_WP:	0.000	Y_WP:	0.000	X:	-0.050	Y:	-0.410	Z:	0.665	yaw:	-87.224	yaw rate:	-2.784	Roll:	13.159	Pitch:	-1.722	Yaw:	-131.110	Thrust:	0.000
Time:	1.106	Roll Set Point:	-0.357	Pitch Set Point:	0.480	Yaw Set Point:	1.522	X_WP:	0.000	Y_WP:	0.000	Y_WP:	0.000	X:	-0.050	Y:	-0.410	Z:	0.665	yaw:	-87.179	yaw rate:	1.335	Roll:	12.805	Pitch:	-2.387	Yaw:	-135.188	Thrust:	0.000
Time:	1.137	Roll Set Point:	-0.357	Pitch Set Point:	0.480	Yaw Set Point:	1.522	X_WP:	0.000	Y_WP:	0.000	Y_WP:	0.000	X:	-0.050	Y:	-0.410	Z:	0.665	yaw:	-87.192	yaw rate:	-0.727	Roll:	13.462	Pitch:	-2.233	Yaw:	-128.070	Thrust:	0.000
Time:	1.197	Roll Set Point:	-0.357	Pitch Set Point:	0.480	Yaw Set Point:	1.522	X_WP:	0.000	Y_WP:	0.000	Y_WP:	0.000	X:	-0.050	Y:	-0.410	Z:	0.665	yaw:	-87.188	yaw rate:	-0.447	Roll:	12.940	Pitch:	-2.291	Yaw:	-133.749	Thrust:	0.000
Time:	1.228	Roll Set Point:	-0.357	Pitch Set Point:	0.480	Yaw Set Point:	1.522	X_WP:	0.000	Y_WP:	0.000	Y_WP:	0.000	X:	-0.050	Y:	-0.410	Z:	0.665	yaw:	-87.191	yaw rate:	-13.385	Roll:	13.290	Pitch:	-2.218	Yaw:	-127.789	Thrust:	0.000
Time:	1.276	Roll Set Point:	-0.357	Pitch Set Point:	0.480	Yaw Set Point:	1.522	X_WP:	0.000	Y_WP:	0.000	Y_WP:	0.000	X:	-0.050	Y:	-0.410	Z:	0.665	yaw:	-87.188	yaw rate:	-0.451	Roll:	12.707	Pitch:	-2.260	Yaw:	-131.548	Thrust:	0.000
Time:	1.307	Roll Set Point:	-0.357	Pitch Set Point:	0.480	Yaw Set Point:	1.522	X_WP:	0.000	Y_WP:	0.000	Y_WP:	0.000	X:	-0.050	Y:	-0.410	Z:	0.665	yaw:	-87.208	yaw rate:	-2.582	Roll:	13.403	Pitch:	-2.167	Yaw:	-128.145	Thrust:	0.000
Time:	1.338	Roll Set Point:	-0.357	Pitch Set Point:	0.481	Yaw Set Point:	1.519	X_WP:	0.000	Y_WP:	0.000	Y_WP:	0.000	X:	-0.050	Y:	-0.410	Z:	0.665	yaw:	-87.060	yaw rate:	14.942	Roll:	12.640	Pitch:	-2.756	Yaw:	-126.530	Thrust:	0.000
Time:	1.368	Roll Set Point:	-0.357	Pitch Set Point:	0.480	Yaw Set Point:	1.522	X_WP:	0.000	Y_WP:	0.000	Y_WP:	0.000	X:	-0.050	Y:	-0.410	Z:	0.665	yaw:	-87.190	yaw rate:	-0.610	Roll:	12.923	Pitch:	-1.728	Yaw:	-128.730	Thrust:	0.000
Time:	1.408	Roll Set Point:	-0.357	Pitch Set Point:	0.480	Yaw Set Point:	1.522	X_WP:	0.000	Y_WP:	0.000	Y_WP:	0.000	X:	-0.050	Y:	-0.410	Z:	0.665	yaw:	-87.185	yaw rate:	0.851	Roll:	13.157	Pitch:	-2.290	Yaw:	-129.518	Thrust:	0.000
Time:	1.437	Roll Set Point:	-0.357	Pitch Set Point:	0.480	Yaw Set Point:	1.522	X_WP:	0.000	Y_WP:	0.000	Y_WP:	0.000	X:	-0.050	Y:	-0.410	Z:	0.665	yaw:	-87.196	yaw rate:	0.880	Roll:	12.889	Pitch:	-2.148	Yaw:	-127.859	Thrust:	0.000
Time:	1.487	Roll Set Point:	-0.357	Pitch Set Point:	0.480	Yaw Set Point:	1.522	X_WP:	0.000	Y_WP:	0.000	Y_WP:	0.000	X:	-0.050	Y:	-0.410	Z:	0.665	yaw:	-87.208	yaw rate:	-2.028	Roll:	13.641	Pitch:	-2.301	Yaw:	-131.853	Thrust:	0.000
Time:	1.517	Roll Set Point:	-0.357	Pitch Set Point:	0.480	Yaw Set Point:	1.522	X_WP:	0.000	Y_WP:	0.000	Y_WP:	0.000	X:	-0.050	Y:	-0.410	Z:	0.665	yaw:	-87.198	yaw rate:	0.494	Roll:	12.930	Pitch:	-2.290	Yaw:	-127.476	Thrust:	0.000
Time:	1.555	Roll Set Point:	-0.357	Pitch Set Point:	0.480	Yaw Set Point:	1.522	X_WP:	0.000	Y_WP:	0.000	Y_WP:	0.000	X:	-0.050	Y:	-0.410	Z:	0.665	yaw:	-87.210	yaw rate:	-13.520	Roll:	12.947	Pitch:	-2.160	Yaw:	-128.095	Thrust:	0.000
Time:	1.598	Roll Set Point:	-0.357	Pitch Set Point:	0.481	Yaw Set Point:	1.520	X_WP:	0.000	Y_WP:	0.000	Y_WP:	0.000	X:	-0.050	Y:	-0.410	Z:	0.665	yaw:	-87.063	yaw rate:	14.931	Roll:	13.601	Pitch:	-2.716	Yaw:	-131.036	Thrust:	0.000
Time:	1.636	Roll Set Point:	-0.357	Pitch Set Point:	0.480	Yaw Set Point:	1.522	X_WP:	0.000	Y_WP:	0.000	Y_WP:	0.000	X:	-0.050	Y:	-0.410	Z:	0.665	yaw:	-87.189	yaw rate:	-11.033	Roll:	13.040	Pitch:	-1.946	Yaw:	-130.223	Thrust:	0.000
Time:	1.676	Roll Set Point:	-0.357	Pitch Set Point:	0.480	Yaw Set Point:	1.522	X_WP:	0.000	Y_WP:	0.000	Y_WP:	0.000	X:	-0.050	Y:	-0.410	Z:	0.665	yaw:	-87.181	yaw rate:	4.926	Roll:	13.294	Pitch:	-2.358	Yaw:	-129.700	Thrust:	0.000
Time:	1.706	Roll Set Point:	-0.357	Pitch Set Point:	0.480	Yaw Set Point:	1.522	X_WP:	0.000	Y_WP:	0.000	Y_WP:	0.000	X:	-0.050	Y:	-0.410	Z:	0.665	yaw:	-87.198	yaw rate:	-1.772	Roll:	13.289	Pitch:	-2.178	Yaw:	-127.913	Thrust:	0.000
Time:	1.727	Roll Set Point:	-0.357	Pitch Set Point:	0.480	Yaw Set Point:	1.522	X_WP:	0.000	Y_WP:	0.000	Y_WP:	0.000	X:	-0.050	Y:	-0.410	Z:	0.665	yaw:	-87.221	yaw rate:	-1.555	Roll:	12.587	Pitch:	-2.024	Yaw:	-126.091	Thrust:	0.000
Time:	1.757	Roll Set Point:	-0.357	Pitch Set Point:	0.480	Yaw Set Point:	1.522	X_WP:	0.000	Y_WP:	0.000	Y_WP:	0.000	X:	-0.050	Y:	-0.410	Z:	0.665	yaw:	-87.181	yaw rate:	1.658	Roll:	12.887	Pitch:	-2.443	Yaw:	-127.393	Thrust:	0.000
Time:	1.787	Roll Set Point:	-0.357	Pitch Set Point:	0.480	Yaw Set Point:	1.522	X_WP:	0.000	Y_WP:	0.000	Y_WP:	0.000	X:	-0.050	Y:	-0.410	Z:	0.665	yaw:	-87.213	yaw rate:	-1.607	Roll:	12.977	Pitch:	-2.122	Yaw:	-128.067	Thrust:	0.000
Time:	1.826	Roll Set Point:	-0.357	Pitch Set Point:	0.480	Yaw Set Point:	1.522	X_WP:	0.000	Y_WP:	0.000	Y_WP:	0.000	X:	-0.050	Y:	-0.410	Z:	0.665	yaw:	-87.188	yaw rate:	1.244	Roll:	12.921	Pitch:	-2.374	Yaw:	-127.744	Thrust:	0.000
Time:	1.858	Roll Set Point:	-0.357	Pitch Set Point:	0.481	Yaw Set Point:	1.519	X_WP:	0.000	Y_WP:	0.000	Y_WP:	0.000	X:	-0.050	Y:	-0.410	Z:	0.665	yaw:	-87.054	yaw rate:	12.943	Roll:	13.226	Pitch:	-2.758	Yaw:	-128.697	Thrust:	0.000
Time:	1.888	Roll Set Point:	-0.357	Pitch Set Point:	0.480	Yaw Set Point:	1.522	X_WP:	0.000	Y_WP:	0.000	Y_WP:	0.000	X:	-0.050	Y:	-0.410	Z:	0.665	yaw:	-87.189	yaw rate:	1.722	Roll:	13.012	Pitch:	-1.792	Yaw:	-128.776	Thrust:	0.000
Time:	1.918	Roll Set Point:	-0.357	Pitch Set Point:	0.480	Yaw Set Point:	1.522	X_WP:	0.000	Y_WP:	0.000	Y_WP:	0.000	X:	-0.050	Y:	-0.410	Z:	0.665	yaw:	-87.193	yaw rate:	-0.293	Roll:	12.944	Pitch:	-2.263	Yaw:	-127.789	Thrust:	0.000
Time:	1.957	Roll Set Point:	-0.357	Pitch Set Point:	0.480	Yaw Set Point:	1.522	X_WP:	0.000	Y_WP:	0.000	Y_WP:	0.000	X:	-0.050	Y:	-0.410	Z:	0.665	yaw:	-87.194	yaw rate:	0.887	Roll:	12.917	Pitch:	-2.383	Yaw:	-129.578	Thrust:	0.000
Time:	2.017	Roll Set Point:	-0.357	Pitch Set Point:	0.480	Yaw Set Point:	1.522	X_WP:	0.000	Y_WP:	0.000	Y_WP:	0.000	X:	-0.050	Y:	-0.410	Z:	0.665	yaw:	-87.198	yaw rate:	-0.732	Roll:	13.697	Pitch:	-2.457	Yaw:	-133.802	Thrust:	0.000
Time:	2.057	Roll Set Point:	-0.357	Pitch Set Point:	0.481	Yaw Set Point:	1.520	X_WP:	0.000	Y_WP:	0.000	Y_WP:	0.000	X:	-0.050	Y:	-0.410	Z:	0.665	yaw:	-87.086	yaw rate:	10.409	Roll:	13.621	Pitch:	-2.728	Yaw:	-128.887	Thrust:	0.000
Time:	2.108	Roll Set Point:	-0.357	Pitch Set Point:	0.480	Yaw Set Point:	1.522	X_WP:	0.000	Y_WP:	0.000	Y_WP:	0.000	X:	-0.050	Y:	-0.410	Z:	0.665	yaw:	-87.215	yaw rate:	0.685	Roll:	13.740	Pitch:	-2.224	Yaw:	-132.657	Thrust:	0.000
Time:	2.129	Roll Set Point:	-0.357	Pitch Set Point:	0.480	Yaw Set Point:	1.522	X_WP:	0.000	Y_WP:	0.000	Y_WP:	0.000	X:	-0.050	Y:	-0.410	Z:	0.665	yaw:	-87.206	yaw rate:	0.968	Roll:	12.934	Pitch:	-2.261	Yaw:	-125.654	Thrust:	0.000
Time:	2.168	Roll Set Point:	-0.357	Pitch Set Point:	0.480	Yaw Set Point:	1.522	X_WP:	0.000	Y_WP:	0.000	Y_WP:	0.000	X:	-0.050	Y:	-0.410	Z:	0.665	yaw:	-87.213	yaw rate:	-0.247	Roll:	13.312	Pitch:	-2.395	Yaw:	-129.846	Thrust:	0.000
Time:	2.208	Roll Set Point:	-0.357	Pitch Set Point:	0.480	Yaw Set Point:	1.522	X_WP:	0.000	Y_WP:	0.000	Y_WP:	0.000	X:	-0.050	Y:	-0.410	Z:	0.665	yaw:	-87.178	yaw rate:	-0.058	Roll:	12.859	Pitch:	-2.543	Yaw:	-129.308	Thrust:	0.000
Time:	2.238	Roll Set Point:	-0.357	Pitch Set Point:	0.480	Yaw Set Point:	1.522	X_WP:	0.000	Y_WP:	0.000	Y_WP:	0.000	X:	-0.050	Y:	-0.410	Z:	0.665	yaw:	-87.194	yaw rate:	1.243	Roll:	13.360	Pitch:	-2.261	Yaw:	-128.099	Thrust:	0.000
Time:	2.268	Roll Set Point:	-0.357	Pitch Set Point:	0.481	Yaw Set Point:	1.519	X_WP:	0.000	Y_WP:	0.000	Y_WP:	0.000	X:	-0.050	Y:	-0.410	Z:	0.665	yaw:	-87.041	yaw rate:	15.552	Roll:	12.748	Pitch:	-2.926	Yaw:	-126.219	Thrust:	0.000
Time:	2.307	Roll Set Point:	-0.357	Pitch Set Point:	0.480	Yaw Set Point:	1.522	X_WP:	0.000	Y_WP:	0.000	Y_WP:	0.000	X:	-0.050	Y:	-0.410	Z:	0.665	yaw:	-87.219	yaw rate:	-0.724	Roll:	13.087	Pitch:	-1.910	Yaw:	-130.791	Thrust:	0.000
Time:	2.357	Roll Set Point:	-0.357	Pitch Set Point:	0.480	Yaw Set Point:	1.522	X_WP:	0.000	Y_WP:	0.000	Y_WP:	0.000	X:	-0.050	Y:	-0.410	Z:	0.665	yaw:	-87.194	yaw rate:	-0.372	Roll:	13.672	Pitch:	-2.620	Yaw:	-131.640	Thrust:	0.000
Time:	2.387	Roll Set Point:	-0.357	Pitch Set Point:	0.480	Yaw Set Point:	1.522	X_WP:	0.000	Y_WP:	0.000	Y_WP:	0.000	X:	-0.050	Y:	-0.410	Z:	0.665	yaw:	-87.187	yaw rate:	2.483	Roll:	13.297	Pitch:	-2.368	Yaw:	-127.696	Thrust:	0.000
Time:	2.417	Roll Set Point:	-0.357	Pitch Set Point:	0.480	Yaw Set Point:	1.522	X_WP:	0.000	Y_WP:	0.000	Y_WP:	0.000	X:	-0.050	Y:	-0.410	Z:	0.665	yaw:	-87.222	yaw rate:	-2.838	Roll:	12.959	Pitch:	-2.221	Yaw:	-128.103	Thrust:	0.000
Time:	2.457	Roll Set Point:	-0.357	Pitch Set Point:	0.480	Yaw Set Point:	1.522	X_WP:	0.000	Y_WP:	0.000	Y_WP:	0.000	X:	-0.050	Y:	-0.410	Z:	0.665	yaw:	-87.209	yaw rate:	-2.230	Roll:	13.309	Pitch:	-2.508	Yaw:	-129.702	Thrust:	0.000
Time:	2.517	Roll Set Point:	-0.357	Pitch Set Point:	0.481	Yaw Set Point:	1.520	X_WP:	0.000	Y_WP:	0.000	Y_WP:	0.000	X:	-0.050	Y:	-0.410	Z:	0.665	yaw:	-87.066	yaw rate:	14.270	Roll:	13.213	Pitch:	-2.916	Yaw:	-132.766	Thrust:	0.000
Time:	2.558	Roll Set Point:	-0.357	Pitch Set Point:	0.480	Yaw Set Point:	1.522	X_WP:	0.000	Y_WP:	0.000	Y_WP:	0.000	X:	-0.050	Y:	-0.410	Z:	0.665	yaw:	-87.202	yaw rate:	-14.704	Roll:	14.080	Pitch:	-2.325	Yaw:	-130.844	Thrust:	0.000
Time:	2.588	Roll Set Point:	-0.357	Pitch Set Point:	0.481	Yaw Set Point:	1.520	X_WP:	0.000	Y_WP:	0.000	Y_WP:	0.000	X:	-0.050	Y:	-0.410	Z:	0.665	yaw:	-87.074	yaw rate:	12.996	Roll:	12.820	Pitch:	-2.856	Yaw:	-126.480	Thrust:	0.000
Time:	2.627	Roll Set Point:	-0.357	Pitch Set Point:	0.480	Yaw Set Point:	1.522	X_WP:	0.000	Y_WP:	0.000	Y_WP:	0.000	X:	-0.050	Y:	-0.410	Z:	0.665	yaw:	-87.193	yaw rate:	1.212	Roll:	13.060	Pitch:	-2.168	Yaw:	-130.364	Thrust:	0.000
Time:	2.667	Roll Set Point:	-0.357	Pitch Set Point:	0.480	Yaw Set Point:	1.522	X_WP:	0.000	Y_WP:	0.000	Y_WP:	0.000	X:	-0.050	Y:	-0.410	Z:	0.665	yaw:	-87.213	yaw rate:	-2.279	Roll:	13.286	Pitch:	-2.448	Yaw:	-129.920	Thrust:	0.000
Time:	2.707	Roll Set Point:	-0.357	Pitch Set Point:	0.480	Yaw Set Point:	1.522	X_WP:	0.000	Y_WP:	0.000	Y_WP:	0.000	X:	-0.050	Y:	-0.410	Z:	0.665	yaw:	-87.213	yaw rate:	-2.309	Roll:	13.343	Pitch:	-2.503	Yaw:	-129.794	Thrust:	0.000
Time:	2.756	Roll Set Point:	-0.357	Pitch Set Point:	0.480	Yaw Set Point:	1.522	X_WP:	0.000	Y_WP:	0.000	Y_WP:	0.000	X:	-0.050	Y:	-0.410	Z:	0.665	yaw:	-87.197	yaw rate:	-0.810	Roll:	13.293	Pitch:	-2.465	Yaw:	-129.467	Thrust:	0.000
Time:	2.807	Roll Set Point:	-0.357	Pitch Set Point:	0.481	Yaw Set Point:	1.519	X_WP:	0.000	Y_WP:	0.000	Y_WP:	0.000	X:	-0.050	Y:	-0.410	Z:	0.665	yaw:	-87.057	yaw rate:	16.024	Roll:	13.956	Pitch:	-3.149	Yaw:	-133.184	Thrust:	0.000
Time:	2.858	Roll Set Point:	-0.357	Pitch Set Point:	0.480	Yaw Set Point:	1.522	X_WP:	0.000	Y_WP:	0.000	Y_WP:	0.000	X:	-0.050	Y:	-0.410	Z:	0.665	yaw:	-87.219	yaw rate:	-0.394	Roll:	13.767	Pitch:	-2.284	Yaw:	-132.470	Thrust:	0.000
Time:	2.897	Roll Set Point:	-0.357	Pitch Set Point:	0.480	Yaw Set Point:	1.522	X_WP:	0.000	Y_WP:	0.000	Y_WP:	0.000	X:	-0.050	Y:	-0.410	Z:	0.665	yaw:	-87.196	yaw rate:	-0.024	Roll:	13.291	Pitch:	-2.496	Yaw:	-127.773	Thrust:	0.000
Time:	2.939	Roll Set Point:	-0.357	Pitch Set Point:	0.481	Yaw Set Point:	1.520	X_WP:	0.000	Y_WP:	0.000	Y_WP:	0.000	X:	-0.050	Y:	-0.410	Z:	0.665	yaw:	-87.076	yaw rate:	11.846	Roll:	13.625	Pitch:	-2.970	Yaw:	-130.981	Thrust:	0.000
Time:	2.968	Roll Set Point:	-0.357	Pitch Set Point:	0.480	Yaw Set Point:	1.522	X_WP:	0.000	Y_WP:	0.000	Y_WP:	0.000	X:	-0.050	Y:	-0.410	Z:	0.665	yaw:	-87.195	yaw rate:	0.110	Roll:	13.025	Pitch:	-1.980	Yaw:	-128.796	Thrust:	0.000
Time:	3.008	Roll Set Point:	-0.357	Pitch Set Point:	0.480	Yaw Set Point:	1.522	X_WP:	0.000	Y_WP:	0.000	Y_WP:	0.000	X:	-0.050	Y:	-0.410	Z:	0.665	yaw:	-87.200	yaw rate:	0.408	Roll:	13.313	Pitch:	-2.547	Yaw:	-129.813	Thrust:	0.000
Time:	3.038	Roll Set Point:	-0.357	Pitch Set Point:	0.480	Yaw Set Point:	1.522	X_WP:	0.000	Y_WP:	0.000	Y_WP:	0.000	X:	-0.050	Y:	-0.410	Z:	0.665	yaw:	-87.220	yaw rate:	-1.998	Roll:	12.951	Pitch:	-2.354	Yaw:	-127.968	Thrust:	0.000
Time:	3.088	Roll Set Point:	-0.357	Pitch Set Point:	0.480	Yaw Set Point:	1.522	X_WP:	0.000	Y_WP:	0.000	Y_WP:	0.000	X:	-0.050	Y:	-0.410	Z:	0.665	yaw:	-87.184	yaw rate:	1.619	Roll:	13.237	Pitch:	-2.793	Yaw:	-131.570	Thrust:	0.000
Time:	3.118	Roll Set Point:	-0.357	Pitch Set Point:	0.480	Yaw Set Point:	1.522	X_WP:	0.000	Y_WP:	0.000	Y_WP:	0.000	X:	-0.050	Y:	-0.410	Z:	0.665	yaw:	-87.220	yaw rate:	-1.495	Roll:	13.339	Pitch:	-2.308	Yaw:	-127.931	Thrust:	0.000
Time:	3.167	Roll Set Point:	-0.357	Pitch Set Point:	0.480	Yaw Set Point:	1.522	X_WP:	0.000	Y_WP:	0.000	Y_WP:	0.000	X:	-0.050	Y:	-0.410	Z:	0.665	yaw:	-87.193	yaw rate:	2.082	Roll:	13.257	Pitch:	-2.780	Yaw:	-131.419	Thrust:	0.000
Time:	3.208	Roll Set Point:	-0.357	Pitch Set Point:	0.480	Yaw Set Point:	1.522	X_WP:	0.000	Y_WP:	0.000	Y_WP:	0.000	X:	-0.050	Y:	-0.410	Z:	0.665	yaw:	-87.180	yaw rate:	0.850	Roll:	13.712	Pitch:	-2.659	Yaw:	-129.866	Thrust:	0.000
Time:	3.238	Roll Set Point:	-0.357	Pitch Set Point:	0.480	Yaw Set Point:	1.522	X_WP:	0.000	Y_WP:	0.000	Y_WP:	0.000	X:	-0.050	Y:	-0.410	Z:	0.665	yaw:	-87.195	yaw rate:	0.644	Roll:	12.937	Pitch:	-2.376	Yaw:	-127.893	Thrust:	0.000
Time:	3.277	Roll Set Point:	-0.357	Pitch Set Point:	0.480	Yaw Set Point:	1.522	X_WP:	0.000	Y_WP:	0.000	Y_WP:	0.000	X:	-0.050	Y:	-0.410	Z:	0.665	yaw:	-87.197	yaw rate:	2.092	Roll:	12.934	Pitch:	-2.463	Yaw:	-127.785	Thrust:	0.000
Time:	3.317	Roll Set Point:	-0.357	Pitch Set Point:	0.481	Yaw Set Point:	1.520	X_WP:	0.000	Y_WP:	0.000	Y_WP:	0.000	X:	-0.050	Y:	-0.410	Z:	0.665	yaw:	-87.075	yaw rate:	13.037	Roll:	13.234	Pitch:	-3.034	Yaw:	-130.751	Thrust:	0.000
Time:	3.377	Roll Set Point:	-0.357	Pitch Set Point:	0.480	Yaw Set Point:	1.522	X_WP:	0.000	Y_WP:	0.000	Y_WP:	0.000	X:	-0.050	Y:	-0.410	Z:	0.665	yaw:	-87.184	yaw rate:	0.689	Roll:	13.330	Pitch:	-2.361	Yaw:	-134.060	Thrust:	0.000
Time:	3.418	Roll Set Point:	-0.357	Pitch Set Point:	0.480	Yaw Set Point:	1.522	X_WP:	0.000	Y_WP:	0.000	Y_WP:	0.000	X:	-0.050	Y:	-0.410	Z:	0.665	yaw:	-87.212	yaw rate:	-1.120	Roll:	14.448	Pitch:	-2.881	Yaw:	-130.362	Thrust:	0.000
Time:	3.477	Roll Set Point:	-0.357	Pitch Set Point:	0.480	Yaw Set Point:	1.522	X_WP:	0.000	Y_WP:	0.000	Y_WP:	0.000	X:	-0.050	Y:	-0.410	Z:	0.665	yaw:	-87.186	yaw rate:	2.009	Roll:	13.286	Pitch:	-2.858	Yaw:	-133.240	Thrust:	0.000
Time:	3.527	Roll Set Point:	-0.357	Pitch Set Point:	0.481	Yaw Set Point:	1.520	X_WP:	0.000	Y_WP:	0.000	Y_WP:	0.000	X:	-0.050	Y:	-0.410	Z:	0.665	yaw:	-87.077	yaw rate:	11.851	Roll:	14.014	Pitch:	-3.160	Yaw:	-131.251	Thrust:	0.000
Time:	3.558	Roll Set Point:	-0.357	Pitch Set Point:	0.481	Yaw Set Point:	1.520	X_WP:	0.000	Y_WP:	0.000	Y_WP:	0.000	X:	-0.050	Y:	-0.410	Z:	0.665	yaw:	-87.085	yaw rate:	13.191	Roll:	13.303	Pitch:	-2.458	Yaw:	-127.677	Thrust:	0.000
Time:	3.587	Roll Set Point:	-0.357	Pitch Set Point:	0.480	Yaw Set Point:	1.522	X_WP:	0.000	Y_WP:	0.000	Y_WP:	0.000	X:	-0.050	Y:	-0.410	Z:	0.665	yaw:	-87.183	yaw rate:	2.054	Roll:	13.008	Pitch:	-2.216	Yaw:	-128.599	Thrust:	0.000
Time:	3.627	Roll Set Point:	-0.357	Pitch Set Point:	0.480	Yaw Set Point:	1.522	X_WP:	0.000	Y_WP:	0.000	Y_WP:	0.000	X:	-0.050	Y:	-0.410	Z:	0.665	yaw:	-87.181	yaw rate:	0.885	Roll:	12.933	Pitch:	-2.663	Yaw:	-129.533	Thrust:	0.000
Time:	3.668	Roll Set Point:	-0.357	Pitch Set Point:	0.481	Yaw Set Point:	1.519	X_WP:	0.000	Y_WP:	0.000	Y_WP:	0.000	X:	-0.050	Y:	-0.410	Z:	0.665	yaw:	-87.050	yaw rate:	12.737	Roll:	13.217	Pitch:	-3.054	Yaw:	-128.934	Thrust:	0.000
Time:	3.727	Roll Set Point:	-0.357	Pitch Set Point:	0.480	Yaw Set Point:	1.522	X_WP:	0.000	Y_WP:	0.000	Y_WP:	0.000	X:	-0.050	Y:	-0.410	Z:	0.665	yaw:	-87.199	yaw rate:	-0.088	Roll:	13.769	Pitch:	-2.501	Yaw:	-134.243	Thrust:	0.000
Time:	3.758	Roll Set Point:	-0.357	Pitch Set Point:	0.481	Yaw Set Point:	1.520	X_WP:	0.000	Y_WP:	0.000	Y_WP:	0.000	X:	-0.050	Y:	-0.410	Z:	0.665	yaw:	-87.069	yaw rate:	15.399	Roll:	13.574	Pitch:	-3.057	Yaw:	-126.699	Thrust:	0.000
Time:	3.808	Roll Set Point:	-0.357	Pitch Set Point:	0.480	Yaw Set Point:	1.522	X_WP:	0.000	Y_WP:	0.000	Y_WP:	0.000	X:	-0.050	Y:	-0.410	Z:	0.665	yaw:	-87.185	yaw rate:	2.048	Roll:	13.366	Pitch:	-2.612	Yaw:	-132.174	Thrust:	0.000
Time:	3.856	Roll Set Point:	-0.357	Pitch Set Point:	0.480	Yaw Set Point:	1.522	X_WP:	0.000	Y_WP:	0.000	Y_WP:	0.000	X:	-0.050	Y:	-0.410	Z:	0.665	yaw:	-87.198	yaw rate:	-11.820	Roll:	13.697	Pitch:	-2.674	Yaw:	-131.650	Thrust:	0.000
Time:	3.888	Roll Set Point:	-0.357	Pitch Set Point:	0.480	Yaw Set Point:	1.522	X_WP:	0.000	Y_WP:	0.000	Y_WP:	0.000	X:	-0.050	Y:	-0.410	Z:	0.665	yaw:	-87.205	yaw rate:	-1.529	Roll:	13.312	Pitch:	-2.688	Yaw:	-128.036	Thrust:	0.000
Time:	3.937	Roll Set Point:	-0.357	Pitch Set Point:	0.480	Yaw Set Point:	1.522	X_WP:	0.000	Y_WP:	0.000	Y_WP:	0.000	X:	-0.050	Y:	-0.410	Z:	0.665	yaw:	-87.193	yaw rate:	0.363	Roll:	12.911	Pitch:	-2.749	Yaw:	-131.509	Thrust:	0.000
Time:	3.977	Roll Set Point:	-0.357	Pitch Set Point:	0.480	Yaw Set Point:	1.522	X_WP:	0.000	Y_WP:	0.000	Y_WP:	0.000	X:	-0.050	Y:	-0.410	Z:	0.665	yaw:	-87.196	yaw rate:	-13.151	Roll:	14.061	Pitch:	-2.889	Yaw:	-129.984	Thrust:	0.000
Time:	4.008	Roll Set Point:	-0.357	Pitch Set Point:	0.480	Yaw Set Point:	1.522	X_WP:	0.000	Y_WP:	0.000	Y_WP:	0.000	X:	-0.050	Y:	-0.410	Z:	0.665	yaw:	-87.180	yaw rate:	3.799	Roll:	12.910	Pitch:	-2.609	Yaw:	-127.609	Thrust:	0.000
Time:	4.038	Roll Set Point:	-0.357	Pitch Set Point:	0.480	Yaw Set Point:	1.522	X_WP:	0.000	Y_WP:	0.000	Y_WP:	0.000	X:	-0.050	Y:	-0.410	Z:	0.665	yaw:	-87.211	yaw rate:	-0.210	Roll:	12.966	Pitch:	-2.425	Yaw:	-128.049	Thrust:	0.000
Time:	4.068	Roll Set Point:	-0.357	Pitch Set Point:	0.481	Yaw Set Point:	1.520	X_WP:	0.000	Y_WP:	0.000	Y_WP:	0.000	X:	-0.050	Y:	-0.410	Z:	0.665	yaw:	-87.063	yaw rate:	12.444	Roll:	12.771	Pitch:	-3.130	Yaw:	-126.294	Thrust:	0.000
Time:	4.098	Roll Set Point:	-0.357	Pitch Set Point:	0.481	Yaw Set Point:	1.520	X_WP:	0.000	Y_WP:	0.000	Y_WP:	0.000	X:	-0.050	Y:	-0.410	Z:	0.665	yaw:	-87.083	yaw rate:	-1.596	Roll:	12.943	Pitch:	-2.517	Yaw:	-127.779	Thrust:	0.000
Time:	4.128	Roll Set Point:	-0.357	Pitch Set Point:	0.480	Yaw Set Point:	1.522	X_WP:	0.000	Y_WP:	0.000	Y_WP:	0.000	X:	-0.050	Y:	-0.410	Z:	0.665	yaw:	-87.181	yaw rate:	0.065	Roll:	13.008	Pitch:	-2.263	Yaw:	-128.595	Thrust:	0.000
Time:	4.158	Roll Set Point:	-0.357	Pitch Set Point:	0.481	Yaw Set Point:	1.520	X_WP:	0.000	Y_WP:	0.000	Y_WP:	0.000	X:	-0.050	Y:	-0.410	Z:	0.665	yaw:	-87.071	yaw rate:	13.044	Roll:	12.848	Pitch:	-2.960	Yaw:	-126.637	Thrust:	0.000
Time:	4.226	Roll Set Point:	-0.357	Pitch Set Point:	0.480	Yaw Set Point:	1.522	X_WP:	0.000	Y_WP:	0.000	Y_WP:	0.000	X:	-0.050	Y:	-0.410	Z:	0.665	yaw:	-87.191	yaw rate:	-12.951	Roll:	13.376	Pitch:	-2.698	Yaw:	-135.840	Thrust:	0.000
Time:	4.277	Roll Set Point:	-0.357	Pitch Set Point:	0.480	Yaw Set Point:	1.522	X_WP:	0.000	Y_WP:	0.000	Y_WP:	0.000	X:	-0.050	Y:	-0.410	Z:	0.665	yaw:	-87.193	yaw rate:	-0.145	Roll:	14.435	Pitch:	-3.336	Yaw:	-131.981	Thrust:	0.000
Time:	4.337	Roll Set Point:	-0.357	Pitch Set Point:	0.480	Yaw Set Point:	1.522	X_WP:	0.000	Y_WP:	0.000	Y_WP:	0.000	X:	-0.050	Y:	-0.410	Z:	0.665	yaw:	-87.186	yaw rate:	0.826	Roll:	14.051	Pitch:	-3.193	Yaw:	-133.732	Thrust:	0.000
Time:	4.368	Roll Set Point:	-0.357	Pitch Set Point:	0.480	Yaw Set Point:	1.522	X_WP:	0.000	Y_WP:	0.000	Y_WP:	0.000	X:	-0.050	Y:	-0.410	Z:	0.665	yaw:	-87.208	yaw rate:	-1.796	Roll:	13.331	Pitch:	-2.499	Yaw:	-127.980	Thrust:	0.000
Time:	4.408	Roll Set Point:	-0.357	Pitch Set Point:	0.480	Yaw Set Point:	1.522	X_WP:	0.000	Y_WP:	0.000	Y_WP:	0.000	X:	-0.050	Y:	-0.410	Z:	0.665	yaw:	-87.194	yaw rate:	1.717	Roll:	12.921	Pitch:	-2.844	Yaw:	-129.469	Thrust:	0.000
Time:	4.468	Roll Set Point:	-0.357	Pitch Set Point:	0.480	Yaw Set Point:	1.522	X_WP:	0.000	Y_WP:	0.000	Y_WP:	0.000	X:	-0.050	Y:	-0.410	Z:	0.665	yaw:	-87.200	yaw rate:	-0.148	Roll:	13.648	Pitch:	-2.973	Yaw:	-133.815	Thrust:	0.000
Time:	4.508	Roll Set Point:	-0.357	Pitch Set Point:	0.480	Yaw Set Point:	1.522	X_WP:	0.000	Y_WP:	0.000	Y_WP:	0.000	X:	-0.050	Y:	-0.410	Z:	0.665	yaw:	-87.185	yaw rate:	1.800	Roll:	13.666	Pitch:	-3.068	Yaw:	-129.862	Thrust:	0.000
Time:	4.557	Roll Set Point:	-0.357	Pitch Set Point:	0.480	Yaw Set Point:	1.522	X_WP:	0.000	Y_WP:	0.000	Y_WP:	0.000	X:	-0.050	Y:	-0.410	Z:	0.665	yaw:	-87.197	yaw rate:	-1.046	Roll:	13.697	Pitch:	-2.970	Yaw:	-131.636	Thrust:	0.000
Time:	4.617	Roll Set Point:	-0.357	Pitch Set Point:	0.480	Yaw Set Point:	1.522	X_WP:	0.000	Y_WP:	0.000	Y_WP:	0.000	X:	-0.050	Y:	-0.410	Z:	0.665	yaw:	-87.204	yaw rate:	0.267	Roll:	13.689	Pitch:	-3.020	Yaw:	-133.622	Thrust:	0.000
Time:	4.667	Roll Set Point:	-0.357	Pitch Set Point:	0.480	Yaw Set Point:	1.522	X_WP:	0.000	Y_WP:	0.000	Y_WP:	0.000	X:	-0.050	Y:	-0.410	Z:	0.665	yaw:	-87.176	yaw rate:	0.632	Roll:	14.043	Pitch:	-3.301	Yaw:	-131.605	Thrust:	0.000
Time:	4.707	Roll Set Point:	-0.357	Pitch Set Point:	0.480	Yaw Set Point:	1.522	X_WP:	0.000	Y_WP:	0.000	Y_WP:	0.000	X:	-0.050	Y:	-0.410	Z:	0.665	yaw:	-87.202	yaw rate:	-12.924	Roll:	13.321	Pitch:	-2.721	Yaw:	-130.143	Thrust:	0.000
Time:	4.757	Roll Set Point:	-0.357	Pitch Set Point:	0.480	Yaw Set Point:	1.522	X_WP:	0.000	Y_WP:	0.000	Y_WP:	0.000	X:	-0.050	Y:	-0.410	Z:	0.665	yaw:	-87.214	yaw rate:	0.218	Roll:	13.318	Pitch:	-2.825	Yaw:	-131.664	Thrust:	0.000
Time:	4.836	Roll Set Point:	-0.357	Pitch Set Point:	0.480	Yaw Set Point:	1.522	X_WP:	0.000	Y_WP:	0.000	Y_WP:	0.000	X:	-0.050	Y:	-0.410	Z:	0.665	yaw:	-87.204	yaw rate:	-2.176	Roll:	14.057	Pitch:	-3.290	Yaw:	-135.558	Thrust:	0.000
Time:	4.867	Roll Set Point:	-0.357	Pitch Set Point:	0.480	Yaw Set Point:	1.522	X_WP:	0.000	Y_WP:	0.000	Y_WP:	0.000	X:	-0.050	Y:	-0.410	Z:	0.665	yaw:	-87.193	yaw rate:	1.281	Roll:	14.388	Pitch:	-3.309	Yaw:	-129.897	Thrust:	0.000
Time:	4.907	Roll Set Point:	-0.357	Pitch Set Point:	0.480	Yaw Set Point:	1.522	X_WP:	0.000	Y_WP:	0.000	Y_WP:	0.000	X:	-0.050	Y:	-0.410	Z:	0.665	yaw:	-87.182	yaw rate:	4.121	Roll:	13.305	Pitch:	-2.935	Yaw:	-129.680	Thrust:	0.000
Time:	4.957	Roll Set Point:	-0.357	Pitch Set Point:	0.480	Yaw Set Point:	1.522	X_WP:	0.000	Y_WP:	0.000	Y_WP:	0.000	X:	-0.050	Y:	-0.410	Z:	0.665	yaw:	-87.198	yaw rate:	-1.532	Roll:	13.314	Pitch:	-3.032	Yaw:	-131.860	Thrust:	0.000
Time:	5.016	Roll Set Point:	-0.357	Pitch Set Point:	0.480	Yaw Set Point:	1.522	X_WP:	0.000	Y_WP:	0.000	Y_WP:	0.000	X:	-0.050	Y:	-0.410	Z:	0.665	yaw:	-87.186	yaw rate:	1.090	Roll:	13.643	Pitch:	-3.134	Yaw:	-133.511	Thrust:	0.000
Time:	5.057	Roll Set Point:	-0.357	Pitch Set Point:	0.480	Yaw Set Point:	1.522	X_WP:	0.000	Y_WP:	0.000	Y_WP:	0.000	X:	-0.050	Y:	-0.410	Z:	0.665	yaw:	-87.181	yaw rate:	-13.258	Roll:	14.092	Pitch:	-3.120	Yaw:	-129.921	Thrust:	0.000
Time:	5.107	Roll Set Point:	-0.357	Pitch Set Point:	0.480	Yaw Set Point:	1.522	X_WP:	0.000	Y_WP:	0.000	Y_WP:	0.000	X:	-0.050	Y:	-0.410	Z:	0.665	yaw:	-87.201	yaw rate:	0.988	Roll:	12.942	Pitch:	-2.842	Yaw:	-131.686	Thrust:	0.000
Time:	5.149	Roll Set Point:	-0.357	Pitch Set Point:	0.480	Yaw Set Point:	1.522	X_WP:	0.000	Y_WP:	0.000	Y_WP:	0.000	X:	-0.050	Y:	-0.410	Z:	0.665	yaw:	-87.196	yaw rate:	-1.752	Roll:	14.060	Pitch:	-3.150	Yaw:	-129.941	Thrust:	0.000
Time:	5.188	Roll Set Point:	-0.357	Pitch Set Point:	0.480	Yaw Set Point:	1.522	X_WP:	0.000	Y_WP:	0.000	Y_WP:	0.000	X:	-0.050	Y:	-0.410	Z:	0.665	yaw:	-87.186	yaw rate:	-10.949	Roll:	13.267	Pitch:	-2.941	Yaw:	-129.692	Thrust:	0.000
Time:	5.227	Roll Set Point:	-0.357	Pitch Set Point:	0.480	Yaw Set Point:	1.522	X_WP:	0.000	Y_WP:	0.000	Y_WP:	0.000	X:	-0.050	Y:	-0.410	Z:	0.665	yaw:	-87.201	yaw rate:	-0.017	Roll:	12.988	Pitch:	-2.621	Yaw:	-129.491	Thrust:	0.000
Time:	5.287	Roll Set Point:	-0.357	Pitch Set Point:	0.480	Yaw Set Point:	1.522	X_WP:	0.000	Y_WP:	0.000	Y_WP:	0.000	X:	-0.050	Y:	-0.410	Z:	0.665	yaw:	-87.205	yaw rate:	-0.360	Roll:	13.647	Pitch:	-3.345	Yaw:	-133.999	Thrust:	0.000
Time:	5.337	Roll Set Point:	-0.357	Pitch Set Point:	0.480	Yaw Set Point:	1.522	X_WP:	0.000	Y_WP:	0.000	Y_WP:	0.000	X:	-0.050	Y:	-0.410	Z:	0.665	yaw:	-87.199	yaw rate:	-14.711	Roll:	14.055	Pitch:	-3.390	Yaw:	-131.755	Thrust:	0.000
Time:	5.368	Roll Set Point:	-0.357	Pitch Set Point:	0.480	Yaw Set Point:	1.522	X_WP:	0.000	Y_WP:	0.000	Y_WP:	0.000	X:	-0.050	Y:	-0.410	Z:	0.665	yaw:	-87.197	yaw rate:	-11.218	Roll:	13.308	Pitch:	-2.769	Yaw:	-127.942	Thrust:	0.000
Time:	5.407	Roll Set Point:	-0.357	Pitch Set Point:	0.480	Yaw Set Point:	1.522	X_WP:	0.000	Y_WP:	0.000	Y_WP:	0.000	X:	-0.050	Y:	-0.410	Z:	0.665	yaw:	-87.200	yaw rate:	-14.743	Roll:	13.310	Pitch:	-2.911	Yaw:	-129.595	Thrust:	0.000
Time:	5.456	Roll Set Point:	-0.357	Pitch Set Point:	0.480	Yaw Set Point:	1.522	X_WP:	0.000	Y_WP:	0.000	Y_WP:	0.000	X:	-0.050	Y:	-0.410	Z:	0.665	yaw:	-87.193	yaw rate:	0.920	Roll:	12.905	Pitch:	-2.982	Yaw:	-131.534	Thrust:	0.000
Time:	5.525	Roll Set Point:	-0.357	Pitch Set Point:	0.480	Yaw Set Point:	1.522	X_WP:	0.000	Y_WP:	0.000	Y_WP:	0.000	X:	-0.050	Y:	-0.410	Z:	0.665	yaw:	-87.199	yaw rate:	-0.538	Roll:	14.033	Pitch:	-3.398	Yaw:	-135.409	Thrust:	0.000
Time:	5.567	Roll Set Point:	-0.357	Pitch Set Point:	0.480	Yaw Set Point:	1.522	X_WP:	0.000	Y_WP:	0.000	Y_WP:	0.000	X:	-0.050	Y:	-0.410	Z:	0.665	yaw:	-87.211	yaw rate:	-1.499	Roll:	14.436	Pitch:	-3.425	Yaw:	-130.265	Thrust:	0.000
Time:	5.605	Roll Set Point:	-0.357	Pitch Set Point:	0.480	Yaw Set Point:	1.522	X_WP:	0.000	Y_WP:	0.000	Y_WP:	0.000	X:	-0.050	Y:	-0.410	Z:	0.665	yaw:	-87.187	yaw rate:	1.549	Roll:	12.908	Pitch:	-2.851	Yaw:	-127.551	Thrust:	0.000
Time:	5.676	Roll Set Point:	-0.357	Pitch Set Point:	0.480	Yaw Set Point:	1.522	X_WP:	0.000	Y_WP:	0.000	Y_WP:	0.000	X:	-0.050	Y:	-0.410	Z:	0.665	yaw:	-87.208	yaw rate:	-0.532	Roll:	13.665	Pitch:	-3.380	Yaw:	-137.489	Thrust:	0.000
Time:	5.707	Roll Set Point:	-0.357	Pitch Set Point:	0.480	Yaw Set Point:	1.522	X_WP:	0.000	Y_WP:	0.000	Y_WP:	0.000	X:	-0.050	Y:	-0.410	Z:	0.665	yaw:	-87.196	yaw rate:	-10.939	Roll:	14.085	Pitch:	-3.297	Yaw:	-127.851	Thrust:	0.000
Time:	5.776	Roll Set Point:	-0.357	Pitch Set Point:	0.481	Yaw Set Point:	1.519	X_WP:	0.000	Y_WP:	0.000	Y_WP:	0.000	X:	-0.050	Y:	-0.410	Z:	0.665	yaw:	-87.058	yaw rate:	15.898	Roll:	13.178	Pitch:	-3.549	Yaw:	-134.881	Thrust:	0.000
Time:	5.816	Roll Set Point:	-0.357	Pitch Set Point:	0.480	Yaw Set Point:	1.522	X_WP:	0.000	Y_WP:	0.000	Y_WP:	0.000	X:	-0.050	Y:	-0.410	Z:	0.665	yaw:	-87.207	yaw rate:	-0.092	Roll:	14.495	Pitch:	-3.240	Yaw:	-130.922	Thrust:	0.000
Time:	5.848	Roll Set Point:	-0.357	Pitch Set Point:	0.481	Yaw Set Point:	1.520	X_WP:	0.000	Y_WP:	0.000	Y_WP:	0.000	X:	-0.050	Y:	-0.410	Z:	0.665	yaw:	-87.079	yaw rate:	13.038	Roll:	12.858	Pitch:	-3.261	Yaw:	-126.960	Thrust:	0.000
Time:	5.888	Roll Set Point:	-0.357	Pitch Set Point:	0.480	Yaw Set Point:	1.522	X_WP:	0.000	Y_WP:	0.000	Y_WP:	0.000	X:	-0.050	Y:	-0.410	Z:	0.665	yaw:	-87.200	yaw rate:	-1.062	Roll:	13.023	Pitch:	-2.613	Yaw:	-130.206	Thrust:	0.000
Time:	5.928	Roll Set Point:	-0.357	Pitch Set Point:	0.481	Yaw Set Point:	1.520	X_WP:	0.000	Y_WP:	0.000	Y_WP:	0.000	X:	-0.050	Y:	-0.410	Z:	0.665	yaw:	-87.065	yaw rate:	12.433	Roll:	13.610	Pitch:	-3.458	Yaw:	-128.925	Thrust:	0.000
Time:	5.968	Roll Set Point:	-0.357	Pitch Set Point:	0.480	Yaw Set Point:	1.522	X_WP:	0.000	Y_WP:	0.000	Y_WP:	0.000	X:	-0.050	Y:	-0.410	Z:	0.665	yaw:	-87.186	yaw rate:	0.652	Roll:	13.346	Pitch:	-2.706	Yaw:	-130.372	Thrust:	0.000
