Time:	0.031	Roll Set Point:	-0.522	Pitch Set Point:	-0.098	Yaw Set Point:	-1.528	X_WP:	0.000	Y_WP:	0.000	Y_WP:	0.000	X:	0.214	Y:	0.299	Z:	0.055	yaw:	87.534	yaw rate:	-0.235	Roll:	8.932	Pitch:	-5.819	Yaw:	122.220	Thrust:	0.000
Time:	0.041	Roll Set Point:	-0.522	Pitch Set Point:	-0.098	Yaw Set Point:	-1.528	X_WP:	0.000	Y_WP:	0.000	Y_WP:	0.000	X:	0.214	Y:	0.299	Z:	0.055	yaw:	87.534	yaw rate:	-0.235	Roll:	8.939	Pitch:	-5.824	Yaw:	122.526	Thrust:	0.000
Time:	0.051	Roll Set Point:	-0.522	Pitch Set Point:	-0.098	Yaw Set Point:	-1.528	X_WP:	0.000	Y_WP:	0.000	Y_WP:	0.000	X:	0.214	Y:	0.299	Z:	0.055	yaw:	87.541	yaw rate:	0.713	Roll:	8.897	Pitch:	-5.878	Yaw:	123.029	Thrust:	0.000
Time:	0.061	Roll Set Point:	-0.522	Pitch Set Point:	-0.098	Yaw Set Point:	-1.528	X_WP:	0.000	Y_WP:	0.000	Y_WP:	0.000	X:	0.214	Y:	0.299	Z:	0.055	yaw:	87.542	yaw rate:	0.099	Roll:	8.955	Pitch:	-5.851	Yaw:	123.176	Thrust:	0.000
Time:	0.072	Roll Set Point:	-0.522	Pitch Set Point:	-0.098	Yaw Set Point:	-1.528	X_WP:	0.000	Y_WP:	0.000	Y_WP:	0.000	X:	0.214	Y:	0.299	Z:	0.055	yaw:	87.533	yaw rate:	-0.901	Roll:	9.023	Pitch:	-5.769	Yaw:	123.108	Thrust:	0.000
Time:	0.082	Roll Set Point:	-0.522	Pitch Set Point:	-0.098	Yaw Set Point:	-1.528	X_WP:	0.000	Y_WP:	0.000	Y_WP:	0.000	X:	0.214	Y:	0.299	Z:	0.055	yaw:	87.537	yaw rate:	0.409	Roll:	8.935	Pitch:	-5.880	Yaw:	123.334	Thrust:	0.000
Time:	0.092	Roll Set Point:	-0.522	Pitch Set Point:	-0.098	Yaw Set Point:	-1.528	X_WP:	0.000	Y_WP:	0.000	Y_WP:	0.000	X:	0.214	Y:	0.299	Z:	0.055	yaw:	87.541	yaw rate:	0.413	Roll:	8.952	Pitch:	-5.908	Yaw:	123.341	Thrust:	0.000
Time:	0.102	Roll Set Point:	-0.522	Pitch Set Point:	-0.098	Yaw Set Point:	-1.528	X_WP:	0.000	Y_WP:	0.000	Y_WP:	0.000	X:	0.214	Y:	0.299	Z:	0.055	yaw:	87.535	yaw rate:	-0.638	Roll:	9.034	Pitch:	-5.786	Yaw:	123.056	Thrust:	0.000
Time:	0.112	Roll Set Point:	-0.522	Pitch Set Point:	-0.098	Yaw Set Point:	-1.528	X_WP:	0.000	Y_WP:	0.000	Y_WP:	0.000	X:	0.214	Y:	0.299	Z:	0.055	yaw:	87.534	yaw rate:	-0.089	Roll:	8.992	Pitch:	-5.844	Yaw:	123.200	Thrust:	0.000
Time:	0.122	Roll Set Point:	-0.522	Pitch Set Point:	-0.098	Yaw Set Point:	-1.528	X_WP:	0.000	Y_WP:	0.000	Y_WP:	0.000	X:	0.214	Y:	0.299	Z:	0.055	yaw:	87.544	yaw rate:	0.998	Roll:	8.936	Pitch:	-5.949	Yaw:	123.502	Thrust:	0.000
Time:	0.133	Roll Set Point:	-0.522	Pitch Set Point:	-0.098	Yaw Set Point:	-1.528	X_WP:	0.000	Y_WP:	0.000	Y_WP:	0.000	X:	0.214	Y:	0.299	Z:	0.055	yaw:	87.533	yaw rate:	-1.089	Roll:	9.074	Pitch:	-5.801	Yaw:	123.056	Thrust:	0.000
Time:	0.143	Roll Set Point:	-0.522	Pitch Set Point:	-0.098	Yaw Set Point:	-1.528	X_WP:	0.000	Y_WP:	0.000	Y_WP:	0.000	X:	0.214	Y:	0.299	Z:	0.055	yaw:	87.541	yaw rate:	0.861	Roll:	8.972	Pitch:	-5.942	Yaw:	123.458	Thrust:	0.000
Time:	0.153	Roll Set Point:	-0.522	Pitch Set Point:	-0.098	Yaw Set Point:	-1.528	X_WP:	0.000	Y_WP:	0.000	Y_WP:	0.000	X:	0.214	Y:	0.299	Z:	0.055	yaw:	87.534	yaw rate:	-0.725	Roll:	9.069	Pitch:	-5.832	Yaw:	123.035	Thrust:	0.000
Time:	0.163	Roll Set Point:	-0.522	Pitch Set Point:	-0.098	Yaw Set Point:	-1.528	X_WP:	0.000	Y_WP:	0.000	Y_WP:	0.000	X:	0.214	Y:	0.299	Z:	0.055	yaw:	87.537	yaw rate:	0.288	Roll:	9.011	Pitch:	-5.909	Yaw:	123.302	Thrust:	0.000
Time:	0.173	Roll Set Point:	-0.522	Pitch Set Point:	-0.098	Yaw Set Point:	-1.528	X_WP:	0.000	Y_WP:	0.000	Y_WP:	0.000	X:	0.214	Y:	0.299	Z:	0.055	yaw:	87.538	yaw rate:	0.094	Roll:	9.038	Pitch:	-5.879	Yaw:	123.253	Thrust:	0.000
Time:	0.183	Roll Set Point:	-0.522	Pitch Set Point:	-0.098	Yaw Set Point:	-1.528	X_WP:	0.000	Y_WP:	0.000	Y_WP:	0.000	X:	0.214	Y:	0.299	Z:	0.055	yaw:	87.538	yaw rate:	0.094	Roll:	9.047	Pitch:	-5.895	Yaw:	123.230	Thrust:	0.000
Time:	0.193	Roll Set Point:	-0.522	Pitch Set Point:	-0.098	Yaw Set Point:	-1.528	X_WP:	0.000	Y_WP:	0.000	Y_WP:	0.000	X:	0.214	Y:	0.299	Z:	0.055	yaw:	87.538	yaw rate:	-0.004	Roll:	9.058	Pitch:	-5.898	Yaw:	123.227	Thrust:	0.000
Time:	0.203	Roll Set Point:	-0.522	Pitch Set Point:	-0.098	Yaw Set Point:	-1.528	X_WP:	0.000	Y_WP:	0.000	Y_WP:	0.000	X:	0.214	Y:	0.299	Z:	0.055	yaw:	87.543	yaw rate:	0.472	Roll:	9.010	Pitch:	-5.952	Yaw:	123.359	Thrust:	0.000
Time:	0.214	Roll Set Point:	-0.522	Pitch Set Point:	-0.098	Yaw Set Point:	-1.528	X_WP:	0.000	Y_WP:	0.000	Y_WP:	0.000	X:	0.214	Y:	0.299	Z:	0.055	yaw:	87.543	yaw rate:	0.009	Roll:	9.076	Pitch:	-5.908	Yaw:	123.244	Thrust:	0.000
Time:	0.224	Roll Set Point:	-0.522	Pitch Set Point:	-0.098	Yaw Set Point:	-1.528	X_WP:	0.000	Y_WP:	0.000	Y_WP:	0.000	X:	0.214	Y:	0.299	Z:	0.055	yaw:	87.542	yaw rate:	-0.090	Roll:	9.089	Pitch:	-5.909	Yaw:	123.211	Thrust:	0.000
Time:	0.236	Roll Set Point:	-0.522	Pitch Set Point:	-0.098	Yaw Set Point:	-1.528	X_WP:	0.000	Y_WP:	0.000	Y_WP:	0.000	X:	0.214	Y:	0.299	Z:	0.055	yaw:	87.534	yaw rate:	-0.768	Roll:	9.153	Pitch:	-5.886	Yaw:	123.138	Thrust:	0.000
Time:	0.247	Roll Set Point:	-0.522	Pitch Set Point:	-0.098	Yaw Set Point:	-1.528	X_WP:	0.000	Y_WP:	0.000	Y_WP:	0.000	X:	0.214	Y:	0.299	Z:	0.055	yaw:	87.537	yaw rate:	0.324	Roll:	9.084	Pitch:	-5.953	Yaw:	123.402	Thrust:	0.000
Time:	0.258	Roll Set Point:	-0.522	Pitch Set Point:	-0.098	Yaw Set Point:	-1.528	X_WP:	0.000	Y_WP:	0.000	Y_WP:	0.000	X:	0.214	Y:	0.299	Z:	0.055	yaw:	87.540	yaw rate:	0.260	Roll:	9.109	Pitch:	-5.954	Yaw:	123.397	Thrust:	0.000
Time:	0.268	Roll Set Point:	-0.522	Pitch Set Point:	-0.098	Yaw Set Point:	-1.528	X_WP:	0.000	Y_WP:	0.000	Y_WP:	0.000	X:	0.214	Y:	0.299	Z:	0.055	yaw:	87.540	yaw rate:	-0.016	Roll:	9.115	Pitch:	-5.949	Yaw:	123.328	Thrust:	0.000
Time:	0.280	Roll Set Point:	-0.522	Pitch Set Point:	-0.098	Yaw Set Point:	-1.528	X_WP:	0.000	Y_WP:	0.000	Y_WP:	0.000	X:	0.214	Y:	0.299	Z:	0.055	yaw:	87.538	yaw rate:	-0.193	Roll:	9.143	Pitch:	-5.946	Yaw:	123.280	Thrust:	0.000
Time:	0.291	Roll Set Point:	-0.522	Pitch Set Point:	-0.098	Yaw Set Point:	-1.528	X_WP:	0.000	Y_WP:	0.000	Y_WP:	0.000	X:	0.214	Y:	0.299	Z:	0.055	yaw:	87.533	yaw rate:	-0.513	Roll:	9.181	Pitch:	-5.911	Yaw:	123.200	Thrust:	0.000
Time:	0.301	Roll Set Point:	-0.522	Pitch Set Point:	-0.098	Yaw Set Point:	-1.528	X_WP:	0.000	Y_WP:	0.000	Y_WP:	0.000	X:	0.214	Y:	0.299	Z:	0.055	yaw:	87.537	yaw rate:	0.388	Roll:	9.129	Pitch:	-5.996	Yaw:	123.419	Thrust:	0.000
Time:	0.313	Roll Set Point:	-0.522	Pitch Set Point:	-0.098	Yaw Set Point:	-1.528	X_WP:	0.000	Y_WP:	0.000	Y_WP:	0.000	X:	0.214	Y:	0.299	Z:	0.055	yaw:	87.543	yaw rate:	0.644	Roll:	9.115	Pitch:	-6.009	Yaw:	123.489	Thrust:	0.000
Time:	0.324	Roll Set Point:	-0.522	Pitch Set Point:	-0.098	Yaw Set Point:	-1.528	X_WP:	0.000	Y_WP:	0.000	Y_WP:	0.000	X:	0.214	Y:	0.299	Z:	0.055	yaw:	87.542	yaw rate:	-0.139	Roll:	9.187	Pitch:	-5.961	Yaw:	123.301	Thrust:	0.000
Time:	0.334	Roll Set Point:	-0.522	Pitch Set Point:	-0.098	Yaw Set Point:	-1.528	X_WP:	0.000	Y_WP:	0.000	Y_WP:	0.000	X:	0.214	Y:	0.299	Z:	0.055	yaw:	87.538	yaw rate:	-0.352	Roll:	9.207	Pitch:	-5.953	Yaw:	123.246	Thrust:	0.000
Time:	0.346	Roll Set Point:	-0.522	Pitch Set Point:	-0.098	Yaw Set Point:	-1.528	X_WP:	0.000	Y_WP:	0.000	Y_WP:	0.000	X:	0.214	Y:	0.299	Z:	0.055	yaw:	87.538	yaw rate:	-0.071	Roll:	9.179	Pitch:	-5.997	Yaw:	123.311	Thrust:	0.000
Time:	0.357	Roll Set Point:	-0.522	Pitch Set Point:	-0.098	Yaw Set Point:	-1.528	X_WP:	0.000	Y_WP:	0.000	Y_WP:	0.000	X:	0.214	Y:	0.299	Z:	0.055	yaw:	87.537	yaw rate:	-0.013	Roll:	9.186	Pitch:	-5.993	Yaw:	123.329	Thrust:	0.000
Time:	0.368	Roll Set Point:	-0.522	Pitch Set Point:	-0.099	Yaw Set Point:	-1.528	X_WP:	0.000	Y_WP:	0.000	Y_WP:	0.000	X:	0.214	Y:	0.299	Z:	0.055	yaw:	87.532	yaw rate:	-0.546	Roll:	9.331	Pitch:	-5.719	Yaw:	123.186	Thrust:	0.000
Time:	0.379	Roll Set Point:	-0.522	Pitch Set Point:	-0.098	Yaw Set Point:	-1.528	X_WP:	0.000	Y_WP:	0.000	Y_WP:	0.000	X:	0.214	Y:	0.299	Z:	0.055	yaw:	87.542	yaw rate:	1.014	Roll:	9.078	Pitch:	-6.299	Yaw:	123.656	Thrust:	0.000
Time:	0.389	Roll Set Point:	-0.522	Pitch Set Point:	-0.098	Yaw Set Point:	-1.528	X_WP:	0.000	Y_WP:	0.000	Y_WP:	0.000	X:	0.214	Y:	0.299	Z:	0.055	yaw:	87.542	yaw rate:	-0.045	Roll:	9.219	Pitch:	-5.994	Yaw:	123.222	Thrust:	0.000
Time:	0.401	Roll Set Point:	-0.522	Pitch Set Point:	-0.098	Yaw Set Point:	-1.528	X_WP:	0.000	Y_WP:	0.000	Y_WP:	0.000	X:	0.214	Y:	0.299	Z:	0.055	yaw:	87.543	yaw rate:	0.149	Roll:	9.208	Pitch:	-6.034	Yaw:	123.469	Thrust:	0.000
Time:	0.412	Roll Set Point:	-0.522	Pitch Set Point:	-0.098	Yaw Set Point:	-1.528	X_WP:	0.000	Y_WP:	0.000	Y_WP:	0.000	X:	0.214	Y:	0.299	Z:	0.055	yaw:	87.539	yaw rate:	-0.392	Roll:	9.253	Pitch:	-5.997	Yaw:	123.238	Thrust:	0.000
Time:	0.423	Roll Set Point:	-0.522	Pitch Set Point:	-0.098	Yaw Set Point:	-1.528	X_WP:	0.000	Y_WP:	0.000	Y_WP:	0.000	X:	0.214	Y:	0.299	Z:	0.055	yaw:	87.540	yaw rate:	0.035	Roll:	9.246	Pitch:	-6.029	Yaw:	123.339	Thrust:	0.000
Time:	0.434	Roll Set Point:	-0.522	Pitch Set Point:	-0.098	Yaw Set Point:	-1.528	X_WP:	0.000	Y_WP:	0.000	Y_WP:	0.000	X:	0.214	Y:	0.299	Z:	0.055	yaw:	87.537	yaw rate:	-0.278	Roll:	9.279	Pitch:	-6.009	Yaw:	123.261	Thrust:	0.000
Time:	0.445	Roll Set Point:	-0.522	Pitch Set Point:	-0.098	Yaw Set Point:	-1.528	X_WP:	0.000	Y_WP:	0.000	Y_WP:	0.000	X:	0.214	Y:	0.299	Z:	0.055	yaw:	87.541	yaw rate:	0.382	Roll:	9.245	Pitch:	-6.061	Yaw:	123.423	Thrust:	0.000
Time:	0.456	Roll Set Point:	-0.522	Pitch Set Point:	-0.098	Yaw Set Point:	-1.528	X_WP:	0.000	Y_WP:	0.000	Y_WP:	0.000	X:	0.214	Y:	0.299	Z:	0.055	yaw:	87.545	yaw rate:	0.423	Roll:	9.226	Pitch:	-6.067	Yaw:	123.439	Thrust:	0.000
Time:	0.467	Roll Set Point:	-0.522	Pitch Set Point:	-0.098	Yaw Set Point:	-1.528	X_WP:	0.000	Y_WP:	0.000	Y_WP:	0.000	X:	0.214	Y:	0.299	Z:	0.055	yaw:	87.533	yaw rate:	-1.136	Roll:	9.358	Pitch:	-5.958	Yaw:	123.053	Thrust:	0.000
Time:	0.478	Roll Set Point:	-0.522	Pitch Set Point:	-0.098	Yaw Set Point:	-1.528	X_WP:	0.000	Y_WP:	0.000	Y_WP:	0.000	X:	0.214	Y:	0.299	Z:	0.055	yaw:	87.539	yaw rate:	0.525	Roll:	9.243	Pitch:	-6.093	Yaw:	123.367	Thrust:	0.000
Time:	0.488	Roll Set Point:	-0.522	Pitch Set Point:	-0.098	Yaw Set Point:	-1.528	X_WP:	0.000	Y_WP:	0.000	Y_WP:	0.000	X:	0.214	Y:	0.299	Z:	0.055	yaw:	87.540	yaw rate:	0.128	Roll:	9.313	Pitch:	-6.082	Yaw:	123.366	Thrust:	0.000
Time:	0.500	Roll Set Point:	-0.522	Pitch Set Point:	-0.098	Yaw Set Point:	-1.528	X_WP:	0.000	Y_WP:	0.000	Y_WP:	0.000	X:	0.214	Y:	0.299	Z:	0.055	yaw:	87.538	yaw rate:	-0.236	Roll:	9.311	Pitch:	-6.030	Yaw:	123.268	Thrust:	0.000
Time:	0.511	Roll Set Point:	-0.522	Pitch Set Point:	-0.098	Yaw Set Point:	-1.528	X_WP:	0.000	Y_WP:	0.000	Y_WP:	0.000	X:	0.214	Y:	0.299	Z:	0.055	yaw:	87.537	yaw rate:	-0.105	Roll:	9.303	Pitch:	-6.059	Yaw:	123.302	Thrust:	0.000
Time:	0.521	Roll Set Point:	-0.522	Pitch Set Point:	-0.098	Yaw Set Point:	-1.528	X_WP:	0.000	Y_WP:	0.000	Y_WP:	0.000	X:	0.214	Y:	0.299	Z:	0.055	yaw:	87.539	yaw rate:	0.247	Roll:	9.310	Pitch:	-6.104	Yaw:	123.393	Thrust:	0.000
Time:	0.533	Roll Set Point:	-0.522	Pitch Set Point:	-0.098	Yaw Set Point:	-1.528	X_WP:	0.000	Y_WP:	0.000	Y_WP:	0.000	X:	0.214	Y:	0.299	Z:	0.055	yaw:	87.536	yaw rate:	-0.319	Roll:	9.357	Pitch:	-6.055	Yaw:	123.246	Thrust:	0.000
Time:	0.543	Roll Set Point:	-0.522	Pitch Set Point:	-0.098	Yaw Set Point:	-1.528	X_WP:	0.000	Y_WP:	0.000	Y_WP:	0.000	X:	0.214	Y:	0.299	Z:	0.055	yaw:	87.540	yaw rate:	0.425	Roll:	9.319	Pitch:	-6.115	Yaw:	123.433	Thrust:	0.000
Time:	0.554	Roll Set Point:	-0.522	Pitch Set Point:	-0.098	Yaw Set Point:	-1.528	X_WP:	0.000	Y_WP:	0.000	Y_WP:	0.000	X:	0.214	Y:	0.299	Z:	0.055	yaw:	87.536	yaw rate:	-0.417	Roll:	9.368	Pitch:	-6.052	Yaw:	123.227	Thrust:	0.000
Time:	0.565	Roll Set Point:	-0.522	Pitch Set Point:	-0.098	Yaw Set Point:	-1.528	X_WP:	0.000	Y_WP:	0.000	Y_WP:	0.000	X:	0.214	Y:	0.299	Z:	0.055	yaw:	87.541	yaw rate:	0.522	Roll:	9.327	Pitch:	-6.135	Yaw:	123.458	Thrust:	0.000
Time:	0.577	Roll Set Point:	-0.522	Pitch Set Point:	-0.098	Yaw Set Point:	-1.528	X_WP:	0.000	Y_WP:	0.000	Y_WP:	0.000	X:	0.214	Y:	0.299	Z:	0.055	yaw:	87.535	yaw rate:	-0.598	Roll:	9.362	Pitch:	-6.054	Yaw:	123.295	Thrust:	0.000
Time:	0.589	Roll Set Point:	-0.522	Pitch Set Point:	-0.098	Yaw Set Point:	-1.528	X_WP:	0.000	Y_WP:	0.000	Y_WP:	0.000	X:	0.214	Y:	0.299	Z:	0.055	yaw:	87.538	yaw rate:	0.255	Roll:	9.317	Pitch:	-6.119	Yaw:	123.295	Thrust:	0.000
Time:	0.600	Roll Set Point:	-0.522	Pitch Set Point:	-0.098	Yaw Set Point:	-1.528	X_WP:	0.000	Y_WP:	0.000	Y_WP:	0.000	X:	0.214	Y:	0.299	Z:	0.055	yaw:	87.540	yaw rate:	0.241	Roll:	9.357	Pitch:	-6.155	Yaw:	123.485	Thrust:	0.000
Time:	0.611	Roll Set Point:	-0.522	Pitch Set Point:	-0.098	Yaw Set Point:	-1.528	X_WP:	0.000	Y_WP:	0.000	Y_WP:	0.000	X:	0.214	Y:	0.299	Z:	0.055	yaw:	87.546	yaw rate:	0.627	Roll:	9.310	Pitch:	-6.152	Yaw:	123.404	Thrust:	0.000
Time:	0.621	Roll Set Point:	-0.522	Pitch Set Point:	-0.098	Yaw Set Point:	-1.528	X_WP:	0.000	Y_WP:	0.000	Y_WP:	0.000	X:	0.214	Y:	0.299	Z:	0.055	yaw:	87.536	yaw rate:	-1.038	Roll:	9.390	Pitch:	-6.049	Yaw:	123.084	Thrust:	0.000
Time:	0.632	Roll Set Point:	-0.522	Pitch Set Point:	-0.098	Yaw Set Point:	-1.528	X_WP:	0.000	Y_WP:	0.000	Y_WP:	0.000	X:	0.214	Y:	0.299	Z:	0.055	yaw:	87.535	yaw rate:	-0.137	Roll:	9.359	Pitch:	-6.122	Yaw:	123.293	Thrust:	0.000
Time:	0.644	Roll Set Point:	-0.522	Pitch Set Point:	-0.098	Yaw Set Point:	-1.528	X_WP:	0.000	Y_WP:	0.000	Y_WP:	0.000	X:	0.214	Y:	0.299	Z:	0.055	yaw:	87.532	yaw rate:	-0.270	Roll:	9.358	Pitch:	-6.097	Yaw:	123.255	Thrust:	0.000
Time:	0.655	Roll Set Point:	-0.522	Pitch Set Point:	-0.098	Yaw Set Point:	-1.528	X_WP:	0.000	Y_WP:	0.000	Y_WP:	0.000	X:	0.214	Y:	0.299	Z:	0.055	yaw:	87.542	yaw rate:	0.963	Roll:	9.304	Pitch:	-6.220	Yaw:	123.563	Thrust:	0.000
Time:	0.666	Roll Set Point:	-0.522	Pitch Set Point:	-0.098	Yaw Set Point:	-1.528	X_WP:	0.000	Y_WP:	0.000	Y_WP:	0.000	X:	0.214	Y:	0.299	Z:	0.055	yaw:	87.541	yaw rate:	-0.053	Roll:	9.325	Pitch:	-6.160	Yaw:	123.317	Thrust:	0.000
Time:	0.677	Roll Set Point:	-0.522	Pitch Set Point:	-0.098	Yaw Set Point:	-1.528	X_WP:	0.000	Y_WP:	0.000	Y_WP:	0.000	X:	0.214	Y:	0.299	Z:	0.055	yaw:	87.537	yaw rate:	-0.360	Roll:	9.372	Pitch:	-6.106	Yaw:	123.242	Thrust:	0.000
Time:	0.688	Roll Set Point:	-0.522	Pitch Set Point:	-0.098	Yaw Set Point:	-1.528	X_WP:	0.000	Y_WP:	0.000	Y_WP:	0.000	X:	0.214	Y:	0.299	Z:	0.055	yaw:	87.535	yaw rate:	-0.211	Roll:	9.352	Pitch:	-6.148	Yaw:	123.380	Thrust:	0.000
Time:	0.699	Roll Set Point:	-0.522	Pitch Set Point:	-0.098	Yaw Set Point:	-1.528	X_WP:	0.000	Y_WP:	0.000	Y_WP:	0.000	X:	0.214	Y:	0.299	Z:	0.055	yaw:	87.536	yaw rate:	0.039	Roll:	9.354	Pitch:	-6.159	Yaw:	123.335	Thrust:	0.000
Time:	0.710	Roll Set Point:	-0.522	Pitch Set Point:	-0.098	Yaw Set Point:	-1.528	X_WP:	0.000	Y_WP:	0.000	Y_WP:	0.000	X:	0.214	Y:	0.299	Z:	0.055	yaw:	87.540	yaw rate:	0.461	Roll:	9.320	Pitch:	-6.199	Yaw:	123.352	Thrust:	0.000
Time:	0.720	Roll Set Point:	-0.522	Pitch Set Point:	-0.098	Yaw Set Point:	-1.528	X_WP:	0.000	Y_WP:	0.000	Y_WP:	0.000	X:	0.214	Y:	0.299	Z:	0.055	yaw:	87.534	yaw rate:	-0.660	Roll:	9.381	Pitch:	-6.119	Yaw:	123.166	Thrust:	0.000
Time:	0.731	Roll Set Point:	-0.522	Pitch Set Point:	-0.098	Yaw Set Point:	-1.528	X_WP:	0.000	Y_WP:	0.000	Y_WP:	0.000	X:	0.214	Y:	0.299	Z:	0.055	yaw:	87.541	yaw rate:	0.723	Roll:	9.296	Pitch:	-6.251	Yaw:	123.505	Thrust:	0.000
Time:	0.742	Roll Set Point:	-0.522	Pitch Set Point:	-0.098	Yaw Set Point:	-1.528	X_WP:	0.000	Y_WP:	0.000	Y_WP:	0.000	X:	0.214	Y:	0.299	Z:	0.055	yaw:	87.535	yaw rate:	-0.613	Roll:	9.370	Pitch:	-6.127	Yaw:	123.179	Thrust:	0.000
Time:	0.754	Roll Set Point:	-0.522	Pitch Set Point:	-0.098	Yaw Set Point:	-1.528	X_WP:	0.000	Y_WP:	0.000	Y_WP:	0.000	X:	0.214	Y:	0.299	Z:	0.055	yaw:	87.535	yaw rate:	-0.030	Roll:	9.354	Pitch:	-6.183	Yaw:	123.418	Thrust:	0.000
Time:	0.764	Roll Set Point:	-0.522	Pitch Set Point:	-0.098	Yaw Set Point:	-1.528	X_WP:	0.000	Y_WP:	0.000	Y_WP:	0.000	X:	0.214	Y:	0.299	Z:	0.055	yaw:	87.539	yaw rate:	0.401	Roll:	9.332	Pitch:	-6.236	Yaw:	123.338	Thrust:	0.000
Time:	0.775	Roll Set Point:	-0.522	Pitch Set Point:	-0.098	Yaw Set Point:	-1.528	X_WP:	0.000	Y_WP:	0.000	Y_WP:	0.000	X:	0.214	Y:	0.299	Z:	0.055	yaw:	87.544	yaw rate:	0.511	Roll:	9.314	Pitch:	-6.236	Yaw:	123.455	Thrust:	0.000
Time:	0.787	Roll Set Point:	-0.522	Pitch Set Point:	-0.098	Yaw Set Point:	-1.528	X_WP:	0.000	Y_WP:	0.000	Y_WP:	0.000	X:	0.214	Y:	0.299	Z:	0.055	yaw:	87.533	yaw rate:	-1.019	Roll:	9.394	Pitch:	-6.123	Yaw:	123.202	Thrust:	0.000
Time:	0.797	Roll Set Point:	-0.522	Pitch Set Point:	-0.098	Yaw Set Point:	-1.528	X_WP:	0.000	Y_WP:	0.000	Y_WP:	0.000	X:	0.214	Y:	0.299	Z:	0.055	yaw:	87.536	yaw rate:	0.243	Roll:	9.328	Pitch:	-6.254	Yaw:	123.289	Thrust:	0.000
Time:	0.809	Roll Set Point:	-0.522	Pitch Set Point:	-0.098	Yaw Set Point:	-1.528	X_WP:	0.000	Y_WP:	0.000	Y_WP:	0.000	X:	0.214	Y:	0.299	Z:	0.055	yaw:	87.537	yaw rate:	0.154	Roll:	9.335	Pitch:	-6.225	Yaw:	123.462	Thrust:	0.000
Time:	0.821	Roll Set Point:	-0.522	Pitch Set Point:	-0.098	Yaw Set Point:	-1.528	X_WP:	0.000	Y_WP:	0.000	Y_WP:	0.000	X:	0.214	Y:	0.299	Z:	0.055	yaw:	87.538	yaw rate:	0.068	Roll:	9.386	Pitch:	-6.243	Yaw:	123.445	Thrust:	0.000
Time:	0.831	Roll Set Point:	-0.522	Pitch Set Point:	-0.098	Yaw Set Point:	-1.528	X_WP:	0.000	Y_WP:	0.000	Y_WP:	0.000	X:	0.214	Y:	0.299	Z:	0.055	yaw:	87.542	yaw rate:	0.432	Roll:	9.320	Pitch:	-6.267	Yaw:	123.348	Thrust:	0.000
Time:	0.842	Roll Set Point:	-0.522	Pitch Set Point:	-0.098	Yaw Set Point:	-1.528	X_WP:	0.000	Y_WP:	0.000	Y_WP:	0.000	X:	0.214	Y:	0.299	Z:	0.055	yaw:	87.539	yaw rate:	-0.328	Roll:	9.368	Pitch:	-6.222	Yaw:	123.253	Thrust:	0.000
Time:	0.854	Roll Set Point:	-0.522	Pitch Set Point:	-0.098	Yaw Set Point:	-1.528	X_WP:	0.000	Y_WP:	0.000	Y_WP:	0.000	X:	0.214	Y:	0.299	Z:	0.055	yaw:	87.535	yaw rate:	-0.437	Roll:	9.371	Pitch:	-6.170	Yaw:	123.221	Thrust:	0.000
Time:	0.864	Roll Set Point:	-0.522	Pitch Set Point:	-0.098	Yaw Set Point:	-1.528	X_WP:	0.000	Y_WP:	0.000	Y_WP:	0.000	X:	0.214	Y:	0.299	Z:	0.055	yaw:	87.538	yaw rate:	0.300	Roll:	9.316	Pitch:	-6.287	Yaw:	123.400	Thrust:	0.000
Time:	0.875	Roll Set Point:	-0.522	Pitch Set Point:	-0.098	Yaw Set Point:	-1.528	X_WP:	0.000	Y_WP:	0.000	Y_WP:	0.000	X:	0.214	Y:	0.299	Z:	0.055	yaw:	87.533	yaw rate:	-0.510	Roll:	9.367	Pitch:	-6.198	Yaw:	123.200	Thrust:	0.000
Time:	0.888	Roll Set Point:	-0.522	Pitch Set Point:	-0.098	Yaw Set Point:	-1.528	X_WP:	0.000	Y_WP:	0.000	Y_WP:	0.000	X:	0.214	Y:	0.299	Z:	0.055	yaw:	87.543	yaw rate:	1.048	Roll:	9.342	Pitch:	-6.335	Yaw:	123.748	Thrust:	0.000
Time:	0.898	Roll Set Point:	-0.522	Pitch Set Point:	-0.098	Yaw Set Point:	-1.528	X_WP:	0.000	Y_WP:	0.000	Y_WP:	0.000	X:	0.214	Y:	0.299	Z:	0.055	yaw:	87.540	yaw rate:	-0.318	Roll:	9.362	Pitch:	-6.203	Yaw:	123.154	Thrust:	0.000
Time:	0.908	Roll Set Point:	-0.522	Pitch Set Point:	-0.098	Yaw Set Point:	-1.528	X_WP:	0.000	Y_WP:	0.000	Y_WP:	0.000	X:	0.214	Y:	0.299	Z:	0.055	yaw:	87.536	yaw rate:	-0.450	Roll:	9.329	Pitch:	-6.167	Yaw:	123.108	Thrust:	0.000
Time:	0.919	Roll Set Point:	-0.522	Pitch Set Point:	-0.098	Yaw Set Point:	-1.528	X_WP:	0.000	Y_WP:	0.000	Y_WP:	0.000	X:	0.214	Y:	0.299	Z:	0.055	yaw:	87.534	yaw rate:	-0.156	Roll:	9.361	Pitch:	-6.222	Yaw:	123.281	Thrust:	0.000
Time:	0.929	Roll Set Point:	-0.522	Pitch Set Point:	-0.098	Yaw Set Point:	-1.528	X_WP:	0.000	Y_WP:	0.000	Y_WP:	0.000	X:	0.214	Y:	0.299	Z:	0.055	yaw:	87.530	yaw rate:	-0.366	Roll:	9.319	Pitch:	-6.156	Yaw:	123.122	Thrust:	0.000
Time:	0.939	Roll Set Point:	-0.522	Pitch Set Point:	-0.098	Yaw Set Point:	-1.528	X_WP:	0.000	Y_WP:	0.000	Y_WP:	0.000	X:	0.214	Y:	0.299	Z:	0.055	yaw:	87.538	yaw rate:	0.759	Roll:	9.257	Pitch:	-6.264	Yaw:	123.427	Thrust:	0.000
Time:	0.949	Roll Set Point:	-0.522	Pitch Set Point:	-0.098	Yaw Set Point:	-1.528	X_WP:	0.000	Y_WP:	0.000	Y_WP:	0.000	X:	0.214	Y:	0.299	Z:	0.055	yaw:	87.544	yaw rate:	0.608	Roll:	9.276	Pitch:	-6.241	Yaw:	123.396	Thrust:	0.000
Time:	0.959	Roll Set Point:	-0.522	Pitch Set Point:	-0.098	Yaw Set Point:	-1.528	X_WP:	0.000	Y_WP:	0.000	Y_WP:	0.000	X:	0.214	Y:	0.299	Z:	0.055	yaw:	87.541	yaw rate:	-0.269	Roll:	9.328	Pitch:	-6.158	Yaw:	123.163	Thrust:	0.000
Time:	0.970	Roll Set Point:	-0.522	Pitch Set Point:	-0.098	Yaw Set Point:	-1.528	X_WP:	0.000	Y_WP:	0.000	Y_WP:	0.000	X:	0.214	Y:	0.299	Z:	0.055	yaw:	87.542	yaw rate:	0.089	Roll:	9.289	Pitch:	-6.211	Yaw:	123.258	Thrust:	0.000
Time:	0.980	Roll Set Point:	-0.522	Pitch Set Point:	-0.098	Yaw Set Point:	-1.528	X_WP:	0.000	Y_WP:	0.000	Y_WP:	0.000	X:	0.214	Y:	0.299	Z:	0.055	yaw:	87.536	yaw rate:	-0.655	Roll:	9.349	Pitch:	-6.166	Yaw:	123.054	Thrust:	0.000
Time:	0.990	Roll Set Point:	-0.522	Pitch Set Point:	-0.099	Yaw Set Point:	-1.528	X_WP:	0.000	Y_WP:	0.000	Y_WP:	0.000	X:	0.214	Y:	0.299	Z:	0.055	yaw:	87.540	yaw rate:	0.472	Roll:	9.400	Pitch:	-5.958	Yaw:	123.355	Thrust:	0.000
Time:	1.000	Roll Set Point:	-0.522	Pitch Set Point:	-0.099	Yaw Set Point:	-1.528	X_WP:	0.000	Y_WP:	0.000	Y_WP:	0.000	X:	0.214	Y:	0.299	Z:	0.055	yaw:	87.540	yaw rate:	0.472	Roll:	9.309	Pitch:	-6.191	Yaw:	123.232	Thrust:	0.000
Time:	1.010	Roll Set Point:	-0.522	Pitch Set Point:	-0.098	Yaw Set Point:	-1.528	X_WP:	0.000	Y_WP:	0.000	Y_WP:	0.000	X:	0.214	Y:	0.299	Z:	0.055	yaw:	87.537	yaw rate:	-0.318	Roll:	9.213	Pitch:	-6.431	Yaw:	123.145	Thrust:	0.000
Time:	1.020	Roll Set Point:	-0.522	Pitch Set Point:	-0.098	Yaw Set Point:	-1.528	X_WP:	0.000	Y_WP:	0.000	Y_WP:	0.000	X:	0.214	Y:	0.299	Z:	0.055	yaw:	87.540	yaw rate:	0.272	Roll:	9.296	Pitch:	-6.200	Yaw:	123.302	Thrust:	0.000
Time:	1.030	Roll Set Point:	-0.522	Pitch Set Point:	-0.098	Yaw Set Point:	-1.528	X_WP:	0.000	Y_WP:	0.000	Y_WP:	0.000	X:	0.214	Y:	0.299	Z:	0.055	yaw:	87.546	yaw rate:	0.653	Roll:	9.272	Pitch:	-6.251	Yaw:	123.411	Thrust:	0.000
Time:	1.040	Roll Set Point:	-0.522	Pitch Set Point:	-0.098	Yaw Set Point:	-1.528	X_WP:	0.000	Y_WP:	0.000	Y_WP:	0.000	X:	0.214	Y:	0.299	Z:	0.055	yaw:	87.540	yaw rate:	-0.681	Roll:	9.326	Pitch:	-6.166	Yaw:	123.053	Thrust:	0.000
Time:	1.050	Roll Set Point:	-0.522	Pitch Set Point:	-0.098	Yaw Set Point:	-1.528	X_WP:	0.000	Y_WP:	0.000	Y_WP:	0.000	X:	0.214	Y:	0.299	Z:	0.055	yaw:	87.541	yaw rate:	0.110	Roll:	9.308	Pitch:	-6.196	Yaw:	123.261	Thrust:	0.000
Time:	1.061	Roll Set Point:	-0.522	Pitch Set Point:	-0.098	Yaw Set Point:	-1.528	X_WP:	0.000	Y_WP:	0.000	Y_WP:	0.000	X:	0.214	Y:	0.299	Z:	0.055	yaw:	87.539	yaw rate:	-0.146	Roll:	9.367	Pitch:	-6.210	Yaw:	123.296	Thrust:	0.000
Time:	1.071	Roll Set Point:	-0.522	Pitch Set Point:	-0.098	Yaw Set Point:	-1.528	X_WP:	0.000	Y_WP:	0.000	Y_WP:	0.000	X:	0.214	Y:	0.299	Z:	0.055	yaw:	87.537	yaw rate:	-0.178	Roll:	9.306	Pitch:	-6.183	Yaw:	123.187	Thrust:	0.000
Time:	1.082	Roll Set Point:	-0.522	Pitch Set Point:	-0.098	Yaw Set Point:	-1.528	X_WP:	0.000	Y_WP:	0.000	Y_WP:	0.000	X:	0.214	Y:	0.299	Z:	0.055	yaw:	87.533	yaw rate:	-0.461	Roll:	9.361	Pitch:	-6.194	Yaw:	123.207	Thrust:	0.000
Time:	1.092	Roll Set Point:	-0.522	Pitch Set Point:	-0.098	Yaw Set Point:	-1.528	X_WP:	0.000	Y_WP:	0.000	Y_WP:	0.000	X:	0.214	Y:	0.299	Z:	0.055	yaw:	87.537	yaw rate:	0.430	Roll:	9.295	Pitch:	-6.222	Yaw:	123.340	Thrust:	0.000
Time:	1.102	Roll Set Point:	-0.522	Pitch Set Point:	-0.098	Yaw Set Point:	-1.528	X_WP:	0.000	Y_WP:	0.000	Y_WP:	0.000	X:	0.214	Y:	0.299	Z:	0.055	yaw:	87.539	yaw rate:	0.219	Roll:	9.289	Pitch:	-6.219	Yaw:	123.292	Thrust:	0.000
Time:	1.113	Roll Set Point:	-0.522	Pitch Set Point:	-0.098	Yaw Set Point:	-1.528	X_WP:	0.000	Y_WP:	0.000	Y_WP:	0.000	X:	0.214	Y:	0.299	Z:	0.055	yaw:	87.536	yaw rate:	-0.357	Roll:	9.362	Pitch:	-6.219	Yaw:	123.237	Thrust:	0.000
Time:	1.123	Roll Set Point:	-0.522	Pitch Set Point:	-0.098	Yaw Set Point:	-1.528	X_WP:	0.000	Y_WP:	0.000	Y_WP:	0.000	X:	0.214	Y:	0.299	Z:	0.055	yaw:	87.538	yaw rate:	0.220	Roll:	9.295	Pitch:	-6.204	Yaw:	123.286	Thrust:	0.000
Time:	1.133	Roll Set Point:	-0.522	Pitch Set Point:	-0.098	Yaw Set Point:	-1.528	X_WP:	0.000	Y_WP:	0.000	Y_WP:	0.000	X:	0.214	Y:	0.299	Z:	0.055	yaw:	87.543	yaw rate:	0.492	Roll:	9.267	Pitch:	-6.246	Yaw:	123.363	Thrust:	0.000
Time:	1.143	Roll Set Point:	-0.522	Pitch Set Point:	-0.098	Yaw Set Point:	-1.528	X_WP:	0.000	Y_WP:	0.000	Y_WP:	0.000	X:	0.214	Y:	0.299	Z:	0.055	yaw:	87.544	yaw rate:	0.160	Roll:	9.304	Pitch:	-6.210	Yaw:	123.287	Thrust:	0.000
Time:	1.154	Roll Set Point:	-0.522	Pitch Set Point:	-0.098	Yaw Set Point:	-1.528	X_WP:	0.000	Y_WP:	0.000	Y_WP:	0.000	X:	0.214	Y:	0.299	Z:	0.055	yaw:	87.539	yaw rate:	-0.500	Roll:	9.397	Pitch:	-6.188	Yaw:	123.210	Thrust:	0.000
Time:	1.165	Roll Set Point:	-0.522	Pitch Set Point:	-0.098	Yaw Set Point:	-1.528	X_WP:	0.000	Y_WP:	0.000	Y_WP:	0.000	X:	0.214	Y:	0.299	Z:	0.055	yaw:	87.540	yaw rate:	0.041	Roll:	9.321	Pitch:	-6.233	Yaw:	123.336	Thrust:	0.000
Time:	1.175	Roll Set Point:	-0.522	Pitch Set Point:	-0.098	Yaw Set Point:	-1.528	X_WP:	0.000	Y_WP:	0.000	Y_WP:	0.000	X:	0.214	Y:	0.299	Z:	0.055	yaw:	87.540	yaw rate:	0.041	Roll:	9.309	Pitch:	-6.198	Yaw:	123.237	Thrust:	0.000
Time:	1.186	Roll Set Point:	-0.522	Pitch Set Point:	-0.098	Yaw Set Point:	-1.528	X_WP:	0.000	Y_WP:	0.000	Y_WP:	0.000	X:	0.214	Y:	0.299	Z:	0.055	yaw:	87.535	yaw rate:	-0.504	Roll:	9.321	Pitch:	-6.161	Yaw:	123.093	Thrust:	0.000
Time:	1.196	Roll Set Point:	-0.522	Pitch Set Point:	-0.098	Yaw Set Point:	-1.528	X_WP:	0.000	Y_WP:	0.000	Y_WP:	0.000	X:	0.214	Y:	0.299	Z:	0.055	yaw:	87.536	yaw rate:	0.067	Roll:	9.367	Pitch:	-6.246	Yaw:	123.342	Thrust:	0.000
Time:	1.206	Roll Set Point:	-0.522	Pitch Set Point:	-0.098	Yaw Set Point:	-1.528	X_WP:	0.000	Y_WP:	0.000	Y_WP:	0.000	X:	0.214	Y:	0.299	Z:	0.055	yaw:	87.538	yaw rate:	0.296	Roll:	9.280	Pitch:	-6.200	Yaw:	123.306	Thrust:	0.000
Time:	1.217	Roll Set Point:	-0.522	Pitch Set Point:	-0.098	Yaw Set Point:	-1.528	X_WP:	0.000	Y_WP:	0.000	Y_WP:	0.000	X:	0.214	Y:	0.299	Z:	0.055	yaw:	87.544	yaw rate:	0.541	Roll:	9.294	Pitch:	-6.279	Yaw:	123.466	Thrust:	0.000
Time:	1.228	Roll Set Point:	-0.522	Pitch Set Point:	-0.098	Yaw Set Point:	-1.528	X_WP:	0.000	Y_WP:	0.000	Y_WP:	0.000	X:	0.214	Y:	0.299	Z:	0.055	yaw:	87.539	yaw rate:	-0.479	Roll:	9.396	Pitch:	-6.194	Yaw:	123.217	Thrust:	0.000
Time:	1.239	Roll Set Point:	-0.522	Pitch Set Point:	-0.098	Yaw Set Point:	-1.528	X_WP:	0.000	Y_WP:	0.000	Y_WP:	0.000	X:	0.214	Y:	0.299	Z:	0.055	yaw:	87.535	yaw rate:	-0.422	Roll:	9.363	Pitch:	-6.203	Yaw:	123.219	Thrust:	0.000
Time:	1.249	Roll Set Point:	-0.522	Pitch Set Point:	-0.098	Yaw Set Point:	-1.528	X_WP:	0.000	Y_WP:	0.000	Y_WP:	0.000	X:	0.214	Y:	0.299	Z:	0.055	yaw:	87.532	yaw rate:	-0.291	Roll:	9.320	Pitch:	-6.179	Yaw:	123.144	Thrust:	0.000
Time:	1.259	Roll Set Point:	-0.522	Pitch Set Point:	-0.098	Yaw Set Point:	-1.528	X_WP:	0.000	Y_WP:	0.000	Y_WP:	0.000	X:	0.214	Y:	0.299	Z:	0.055	yaw:	87.536	yaw rate:	0.393	Roll:	9.278	Pitch:	-6.220	Yaw:	123.328	Thrust:	0.000
Time:	1.270	Roll Set Point:	-0.522	Pitch Set Point:	-0.098	Yaw Set Point:	-1.528	X_WP:	0.000	Y_WP:	0.000	Y_WP:	0.000	X:	0.214	Y:	0.299	Z:	0.055	yaw:	87.545	yaw rate:	0.946	Roll:	9.290	Pitch:	-6.294	Yaw:	123.564	Thrust:	0.000
Time:	1.281	Roll Set Point:	-0.522	Pitch Set Point:	-0.098	Yaw Set Point:	-1.528	X_WP:	0.000	Y_WP:	0.000	Y_WP:	0.000	X:	0.214	Y:	0.299	Z:	0.055	yaw:	87.543	yaw rate:	-0.236	Roll:	9.348	Pitch:	-6.227	Yaw:	123.280	Thrust:	0.000
Time:	1.291	Roll Set Point:	-0.522	Pitch Set Point:	-0.098	Yaw Set Point:	-1.528	X_WP:	0.000	Y_WP:	0.000	Y_WP:	0.000	X:	0.214	Y:	0.299	Z:	0.055	yaw:	87.535	yaw rate:	-0.812	Roll:	9.375	Pitch:	-6.126	Yaw:	123.012	Thrust:	0.000
Time:	1.301	Roll Set Point:	-0.522	Pitch Set Point:	-0.098	Yaw Set Point:	-1.528	X_WP:	0.000	Y_WP:	0.000	Y_WP:	0.000	X:	0.214	Y:	0.299	Z:	0.055	yaw:	87.540	yaw rate:	0.493	Roll:	9.276	Pitch:	-6.238	Yaw:	123.360	Thrust:	0.000
Time:	1.311	Roll Set Point:	-0.522	Pitch Set Point:	-0.098	Yaw Set Point:	-1.528	X_WP:	0.000	Y_WP:	0.000	Y_WP:	0.000	X:	0.214	Y:	0.299	Z:	0.055	yaw:	87.534	yaw rate:	-0.532	Roll:	9.344	Pitch:	-6.156	Yaw:	123.091	Thrust:	0.000
Time:	1.322	Roll Set Point:	-0.522	Pitch Set Point:	-0.098	Yaw Set Point:	-1.528	X_WP:	0.000	Y_WP:	0.000	Y_WP:	0.000	X:	0.214	Y:	0.299	Z:	0.055	yaw:	87.539	yaw rate:	0.415	Roll:	9.308	Pitch:	-6.262	Yaw:	123.424	Thrust:	0.000
Time:	1.332	Roll Set Point:	-0.522	Pitch Set Point:	-0.098	Yaw Set Point:	-1.528	X_WP:	0.000	Y_WP:	0.000	Y_WP:	0.000	X:	0.214	Y:	0.299	Z:	0.055	yaw:	87.535	yaw rate:	-0.398	Roll:	9.347	Pitch:	-6.159	Yaw:	123.120	Thrust:	0.000
Time:	1.343	Roll Set Point:	-0.522	Pitch Set Point:	-0.098	Yaw Set Point:	-1.528	X_WP:	0.000	Y_WP:	0.000	Y_WP:	0.000	X:	0.214	Y:	0.299	Z:	0.055	yaw:	87.538	yaw rate:	0.338	Roll:	9.275	Pitch:	-6.230	Yaw:	123.321	Thrust:	0.000
Time:	1.354	Roll Set Point:	-0.522	Pitch Set Point:	-0.098	Yaw Set Point:	-1.528	X_WP:	0.000	Y_WP:	0.000	Y_WP:	0.000	X:	0.214	Y:	0.299	Z:	0.055	yaw:	87.539	yaw rate:	0.051	Roll:	9.334	Pitch:	-6.237	Yaw:	123.337	Thrust:	0.000
Time:	1.364	Roll Set Point:	-0.522	Pitch Set Point:	-0.098	Yaw Set Point:	-1.528	X_WP:	0.000	Y_WP:	0.000	Y_WP:	0.000	X:	0.214	Y:	0.299	Z:	0.055	yaw:	87.538	yaw rate:	-0.076	Roll:	9.330	Pitch:	-6.190	Yaw:	123.209	Thrust:	0.000
Time:	1.374	Roll Set Point:	-0.522	Pitch Set Point:	-0.098	Yaw Set Point:	-1.528	X_WP:	0.000	Y_WP:	0.000	Y_WP:	0.000	X:	0.214	Y:	0.299	Z:	0.055	yaw:	87.527	yaw rate:	-1.038	Roll:	9.374	Pitch:	-6.103	Yaw:	122.942	Thrust:	0.000
Time:	1.384	Roll Set Point:	-0.522	Pitch Set Point:	-0.098	Yaw Set Point:	-1.528	X_WP:	0.000	Y_WP:	0.000	Y_WP:	0.000	X:	0.214	Y:	0.299	Z:	0.055	yaw:	87.527	yaw rate:	-1.038	Roll:	9.308	Pitch:	-6.194	Yaw:	123.214	Thrust:	0.000
Time:	1.395	Roll Set Point:	-0.522	Pitch Set Point:	-0.098	Yaw Set Point:	-1.528	X_WP:	0.000	Y_WP:	0.000	Y_WP:	0.000	X:	0.214	Y:	0.299	Z:	0.055	yaw:	87.536	yaw rate:	0.819	Roll:	9.295	Pitch:	-6.291	Yaw:	123.520	Thrust:	0.000
Time:	1.405	Roll Set Point:	-0.522	Pitch Set Point:	-0.098	Yaw Set Point:	-1.528	X_WP:	0.000	Y_WP:	0.000	Y_WP:	0.000	X:	0.214	Y:	0.299	Z:	0.055	yaw:	87.535	yaw rate:	-0.105	Roll:	9.322	Pitch:	-6.194	Yaw:	123.201	Thrust:	0.000
Time:	1.415	Roll Set Point:	-0.522	Pitch Set Point:	-0.098	Yaw Set Point:	-1.528	X_WP:	0.000	Y_WP:	0.000	Y_WP:	0.000	X:	0.214	Y:	0.299	Z:	0.055	yaw:	87.536	yaw rate:	0.157	Roll:	9.286	Pitch:	-6.188	Yaw:	123.267	Thrust:	0.000
Time:	1.426	Roll Set Point:	-0.522	Pitch Set Point:	-0.098	Yaw Set Point:	-1.528	X_WP:	0.000	Y_WP:	0.000	Y_WP:	0.000	X:	0.214	Y:	0.299	Z:	0.055	yaw:	87.546	yaw rate:	1.005	Roll:	9.282	Pitch:	-6.325	Yaw:	123.579	Thrust:	0.000
Time:	1.437	Roll Set Point:	-0.522	Pitch Set Point:	-0.098	Yaw Set Point:	-1.528	X_WP:	0.000	Y_WP:	0.000	Y_WP:	0.000	X:	0.214	Y:	0.299	Z:	0.055	yaw:	87.538	yaw rate:	-0.805	Roll:	9.386	Pitch:	-6.195	Yaw:	123.138	Thrust:	0.000
Time:	1.448	Roll Set Point:	-0.522	Pitch Set Point:	-0.098	Yaw Set Point:	-1.528	X_WP:	0.000	Y_WP:	0.000	Y_WP:	0.000	X:	0.214	Y:	0.299	Z:	0.055	yaw:	87.541	yaw rate:	0.323	Roll:	9.332	Pitch:	-6.225	Yaw:	123.406	Thrust:	0.000
Time:	1.458	Roll Set Point:	-0.522	Pitch Set Point:	-0.098	Yaw Set Point:	-1.528	X_WP:	0.000	Y_WP:	0.000	Y_WP:	0.000	X:	0.214	Y:	0.299	Z:	0.055	yaw:	87.541	yaw rate:	-0.053	Roll:	9.318	Pitch:	-6.200	Yaw:	123.219	Thrust:	0.000
Time:	1.468	Roll Set Point:	-0.522	Pitch Set Point:	-0.098	Yaw Set Point:	-1.528	X_WP:	0.000	Y_WP:	0.000	Y_WP:	0.000	X:	0.214	Y:	0.299	Z:	0.055	yaw:	87.537	yaw rate:	-0.390	Roll:	9.345	Pitch:	-6.164	Yaw:	123.131	Thrust:	0.000
Time:	1.479	Roll Set Point:	-0.522	Pitch Set Point:	-0.098	Yaw Set Point:	-1.528	X_WP:	0.000	Y_WP:	0.000	Y_WP:	0.000	X:	0.214	Y:	0.299	Z:	0.055	yaw:	87.540	yaw rate:	0.314	Roll:	9.309	Pitch:	-6.253	Yaw:	123.402	Thrust:	0.000
Time:	1.489	Roll Set Point:	-0.522	Pitch Set Point:	-0.098	Yaw Set Point:	-1.528	X_WP:	0.000	Y_WP:	0.000	Y_WP:	0.000	X:	0.214	Y:	0.299	Z:	0.055	yaw:	87.534	yaw rate:	-0.579	Roll:	9.337	Pitch:	-6.162	Yaw:	123.072	Thrust:	0.000
Time:	1.499	Roll Set Point:	-0.522	Pitch Set Point:	-0.098	Yaw Set Point:	-1.528	X_WP:	0.000	Y_WP:	0.000	Y_WP:	0.000	X:	0.214	Y:	0.299	Z:	0.055	yaw:	87.534	yaw rate:	-0.014	Roll:	9.318	Pitch:	-6.197	Yaw:	123.224	Thrust:	0.000
Time:	1.510	Roll Set Point:	-0.522	Pitch Set Point:	-0.098	Yaw Set Point:	-1.528	X_WP:	0.000	Y_WP:	0.000	Y_WP:	0.000	X:	0.214	Y:	0.299	Z:	0.055	yaw:	87.544	yaw rate:	1.003	Roll:	9.285	Pitch:	-6.294	Yaw:	123.572	Thrust:	0.000
Time:	1.520	Roll Set Point:	-0.522	Pitch Set Point:	-0.098	Yaw Set Point:	-1.528	X_WP:	0.000	Y_WP:	0.000	Y_WP:	0.000	X:	0.214	Y:	0.299	Z:	0.055	yaw:	87.544	yaw rate:	0.029	Roll:	9.302	Pitch:	-6.193	Yaw:	123.246	Thrust:	0.000
Time:	1.530	Roll Set Point:	-0.522	Pitch Set Point:	-0.098	Yaw Set Point:	-1.528	X_WP:	0.000	Y_WP:	0.000	Y_WP:	0.000	X:	0.214	Y:	0.299	Z:	0.055	yaw:	87.544	yaw rate:	-0.017	Roll:	9.311	Pitch:	-6.219	Yaw:	123.233	Thrust:	0.000
Time:	1.540	Roll Set Point:	-0.522	Pitch Set Point:	-0.098	Yaw Set Point:	-1.528	X_WP:	0.000	Y_WP:	0.000	Y_WP:	0.000	X:	0.214	Y:	0.299	Z:	0.055	yaw:	87.539	yaw rate:	-0.561	Roll:	9.353	Pitch:	-6.139	Yaw:	123.083	Thrust:	0.000
Time:	1.550	Roll Set Point:	-0.522	Pitch Set Point:	-0.098	Yaw Set Point:	-1.528	X_WP:	0.000	Y_WP:	0.000	Y_WP:	0.000	X:	0.214	Y:	0.299	Z:	0.055	yaw:	87.535	yaw rate:	-0.387	Roll:	9.316	Pitch:	-6.162	Yaw:	123.126	Thrust:	0.000
Time:	1.561	Roll Set Point:	-0.522	Pitch Set Point:	-0.098	Yaw Set Point:	-1.528	X_WP:	0.000	Y_WP:	0.000	Y_WP:	0.000	X:	0.214	Y:	0.299	Z:	0.055	yaw:	87.534	yaw rate:	-0.065	Roll:	9.344	Pitch:	-6.235	Yaw:	123.305	Thrust:	0.000
Time:	1.571	Roll Set Point:	-0.522	Pitch Set Point:	-0.098	Yaw Set Point:	-1.528	X_WP:	0.000	Y_WP:	0.000	Y_WP:	0.000	X:	0.214	Y:	0.299	Z:	0.055	yaw:	87.534	yaw rate:	-0.065	Roll:	9.309	Pitch:	-6.197	Yaw:	123.228	Thrust:	0.000
Time:	1.582	Roll Set Point:	-0.522	Pitch Set Point:	-0.098	Yaw Set Point:	-1.528	X_WP:	0.000	Y_WP:	0.000	Y_WP:	0.000	X:	0.214	Y:	0.299	Z:	0.055	yaw:	87.535	yaw rate:	0.063	Roll:	9.358	Pitch:	-6.218	Yaw:	123.335	Thrust:	0.000
Time:	1.592	Roll Set Point:	-0.522	Pitch Set Point:	-0.098	Yaw Set Point:	-1.528	X_WP:	0.000	Y_WP:	0.000	Y_WP:	0.000	X:	0.214	Y:	0.299	Z:	0.055	yaw:	87.540	yaw rate:	0.553	Roll:	9.257	Pitch:	-6.220	Yaw:	123.377	Thrust:	0.000
Time:	1.602	Roll Set Point:	-0.522	Pitch Set Point:	-0.098	Yaw Set Point:	-1.528	X_WP:	0.000	Y_WP:	0.000	Y_WP:	0.000	X:	0.214	Y:	0.299	Z:	0.055	yaw:	87.536	yaw rate:	-0.379	Roll:	9.325	Pitch:	-6.196	Yaw:	123.127	Thrust:	0.000
Time:	1.613	Roll Set Point:	-0.522	Pitch Set Point:	-0.098	Yaw Set Point:	-1.528	X_WP:	0.000	Y_WP:	0.000	Y_WP:	0.000	X:	0.214	Y:	0.299	Z:	0.055	yaw:	87.538	yaw rate:	0.114	Roll:	9.366	Pitch:	-6.245	Yaw:	123.356	Thrust:	0.000
Time:	1.623	Roll Set Point:	-0.522	Pitch Set Point:	-0.098	Yaw Set Point:	-1.528	X_WP:	0.000	Y_WP:	0.000	Y_WP:	0.000	X:	0.214	Y:	0.299	Z:	0.055	yaw:	87.534	yaw rate:	-0.351	Roll:	9.324	Pitch:	-6.149	Yaw:	123.132	Thrust:	0.000
Time:	1.634	Roll Set Point:	-0.522	Pitch Set Point:	-0.098	Yaw Set Point:	-1.528	X_WP:	0.000	Y_WP:	0.000	Y_WP:	0.000	X:	0.214	Y:	0.299	Z:	0.055	yaw:	87.534	yaw rate:	-0.006	Roll:	9.325	Pitch:	-6.261	Yaw:	123.322	Thrust:	0.000
Time:	1.645	Roll Set Point:	-0.522	Pitch Set Point:	-0.098	Yaw Set Point:	-1.528	X_WP:	0.000	Y_WP:	0.000	Y_WP:	0.000	X:	0.214	Y:	0.299	Z:	0.055	yaw:	87.543	yaw rate:	0.932	Roll:	9.290	Pitch:	-6.274	Yaw:	123.558	Thrust:	0.000
Time:	1.658	Roll Set Point:	-0.522	Pitch Set Point:	-0.098	Yaw Set Point:	-1.528	X_WP:	0.000	Y_WP:	0.000	Y_WP:	0.000	X:	0.214	Y:	0.299	Z:	0.055	yaw:	87.537	yaw rate:	-0.660	Roll:	9.417	Pitch:	-6.238	Yaw:	123.284	Thrust:	0.000
Time:	1.669	Roll Set Point:	-0.522	Pitch Set Point:	-0.098	Yaw Set Point:	-1.528	X_WP:	0.000	Y_WP:	0.000	Y_WP:	0.000	X:	0.214	Y:	0.299	Z:	0.055	yaw:	87.534	yaw rate:	-0.250	Roll:	9.358	Pitch:	-6.208	Yaw:	123.264	Thrust:	0.000
Time:	1.679	Roll Set Point:	-0.522	Pitch Set Point:	-0.098	Yaw Set Point:	-1.528	X_WP:	0.000	Y_WP:	0.000	Y_WP:	0.000	X:	0.214	Y:	0.299	Z:	0.055	yaw:	87.538	yaw rate:	0.333	Roll:	9.349	Pitch:	-6.263	Yaw:	123.408	Thrust:	0.000
Time:	1.689	Roll Set Point:	-0.522	Pitch Set Point:	-0.098	Yaw Set Point:	-1.528	X_WP:	0.000	Y_WP:	0.000	Y_WP:	0.000	X:	0.214	Y:	0.299	Z:	0.055	yaw:	87.534	yaw rate:	-0.356	Roll:	9.316	Pitch:	-6.157	Yaw:	123.130	Thrust:	0.000
Time:	1.699	Roll Set Point:	-0.522	Pitch Set Point:	-0.098	Yaw Set Point:	-1.528	X_WP:	0.000	Y_WP:	0.000	Y_WP:	0.000	X:	0.214	Y:	0.299	Z:	0.055	yaw:	87.541	yaw rate:	0.734	Roll:	9.247	Pitch:	-6.282	Yaw:	123.425	Thrust:	0.000
Time:	1.709	Roll Set Point:	-0.522	Pitch Set Point:	-0.098	Yaw Set Point:	-1.528	X_WP:	0.000	Y_WP:	0.000	Y_WP:	0.000	X:	0.214	Y:	0.299	Z:	0.055	yaw:	87.538	yaw rate:	-0.314	Roll:	9.339	Pitch:	-6.161	Yaw:	123.147	Thrust:	0.000
Time:	1.720	Roll Set Point:	-0.522	Pitch Set Point:	-0.098	Yaw Set Point:	-1.528	X_WP:	0.000	Y_WP:	0.000	Y_WP:	0.000	X:	0.214	Y:	0.299	Z:	0.055	yaw:	87.541	yaw rate:	0.258	Roll:	9.291	Pitch:	-6.192	Yaw:	123.300	Thrust:	0.000
Time:	1.730	Roll Set Point:	-0.522	Pitch Set Point:	-0.098	Yaw Set Point:	-1.528	X_WP:	0.000	Y_WP:	0.000	Y_WP:	0.000	X:	0.214	Y:	0.299	Z:	0.055	yaw:	87.541	yaw rate:	0.028	Roll:	9.287	Pitch:	-6.211	Yaw:	123.241	Thrust:	0.000
Time:	1.740	Roll Set Point:	-0.522	Pitch Set Point:	-0.098	Yaw Set Point:	-1.528	X_WP:	0.000	Y_WP:	0.000	Y_WP:	0.000	X:	0.214	Y:	0.299	Z:	0.055	yaw:	87.536	yaw rate:	-0.499	Roll:	9.354	Pitch:	-6.165	Yaw:	123.097	Thrust:	0.000
Time:	1.750	Roll Set Point:	-0.522	Pitch Set Point:	-0.098	Yaw Set Point:	-1.528	X_WP:	0.000	Y_WP:	0.000	Y_WP:	0.000	X:	0.214	Y:	0.299	Z:	0.055	yaw:	87.542	yaw rate:	0.631	Roll:	9.281	Pitch:	-6.239	Yaw:	123.398	Thrust:	0.000
Time:	1.760	Roll Set Point:	-0.522	Pitch Set Point:	-0.098	Yaw Set Point:	-1.528	X_WP:	0.000	Y_WP:	0.000	Y_WP:	0.000	X:	0.214	Y:	0.299	Z:	0.055	yaw:	87.533	yaw rate:	-0.948	Roll:	9.350	Pitch:	-6.117	Yaw:	122.974	Thrust:	0.000
Time:	1.770	Roll Set Point:	-0.522	Pitch Set Point:	-0.098	Yaw Set Point:	-1.528	X_WP:	0.000	Y_WP:	0.000	Y_WP:	0.000	X:	0.214	Y:	0.299	Z:	0.055	yaw:	87.533	yaw rate:	-0.948	Roll:	9.308	Pitch:	-6.195	Yaw:	123.222	Thrust:	0.000
Time:	1.780	Roll Set Point:	-0.522	Pitch Set Point:	-0.098	Yaw Set Point:	-1.528	X_WP:	0.000	Y_WP:	0.000	Y_WP:	0.000	X:	0.214	Y:	0.299	Z:	0.055	yaw:	87.536	yaw rate:	0.257	Roll:	9.297	Pitch:	-6.203	Yaw:	123.292	Thrust:	0.000
Time:	1.790	Roll Set Point:	-0.522	Pitch Set Point:	-0.098	Yaw Set Point:	-1.528	X_WP:	0.000	Y_WP:	0.000	Y_WP:	0.000	X:	0.214	Y:	0.299	Z:	0.055	yaw:	87.537	yaw rate:	0.140	Roll:	9.284	Pitch:	-6.218	Yaw:	123.264	Thrust:	0.000
Time:	1.800	Roll Set Point:	-0.522	Pitch Set Point:	-0.099	Yaw Set Point:	-1.528	X_WP:	0.000	Y_WP:	0.000	Y_WP:	0.000	X:	0.214	Y:	0.299	Z:	0.055	yaw:	87.535	yaw rate:	-0.162	Roll:	9.438	Pitch:	-5.937	Yaw:	123.183	Thrust:	0.000
Time:	1.810	Roll Set Point:	-0.522	Pitch Set Point:	-0.098	Yaw Set Point:	-1.528	X_WP:	0.000	Y_WP:	0.000	Y_WP:	0.000	X:	0.214	Y:	0.299	Z:	0.055	yaw:	87.533	yaw rate:	-0.243	Roll:	9.213	Pitch:	-6.418	Yaw:	123.159	Thrust:	0.000
Time:	1.820	Roll Set Point:	-0.522	Pitch Set Point:	-0.098	Yaw Set Point:	-1.528	X_WP:	0.000	Y_WP:	0.000	Y_WP:	0.000	X:	0.214	Y:	0.299	Z:	0.055	yaw:	87.542	yaw rate:	0.922	Roll:	9.251	Pitch:	-6.281	Yaw:	123.475	Thrust:	0.000
Time:	1.830	Roll Set Point:	-0.522	Pitch Set Point:	-0.098	Yaw Set Point:	-1.528	X_WP:	0.000	Y_WP:	0.000	Y_WP:	0.000	X:	0.214	Y:	0.299	Z:	0.055	yaw:	87.538	yaw rate:	-0.372	Roll:	9.338	Pitch:	-6.159	Yaw:	123.140	Thrust:	0.000
Time:	1.840	Roll Set Point:	-0.522	Pitch Set Point:	-0.098	Yaw Set Point:	-1.528	X_WP:	0.000	Y_WP:	0.000	Y_WP:	0.000	X:	0.214	Y:	0.299	Z:	0.055	yaw:	87.536	yaw rate:	-0.188	Roll:	9.307	Pitch:	-6.175	Yaw:	123.175	Thrust:	0.000
Time:	1.851	Roll Set Point:	-0.522	Pitch Set Point:	-0.098	Yaw Set Point:	-1.528	X_WP:	0.000	Y_WP:	0.000	Y_WP:	0.000	X:	0.214	Y:	0.299	Z:	0.055	yaw:	87.542	yaw rate:	0.504	Roll:	9.323	Pitch:	-6.272	Yaw:	123.448	Thrust:	0.000
Time:	1.861	Roll Set Point:	-0.522	Pitch Set Point:	-0.098	Yaw Set Point:	-1.528	X_WP:	0.000	Y_WP:	0.000	Y_WP:	0.000	X:	0.214	Y:	0.299	Z:	0.055	yaw:	87.544	yaw rate:	0.274	Roll:	9.304	Pitch:	-6.220	Yaw:	123.309	Thrust:	0.000
Time:	1.871	Roll Set Point:	-0.522	Pitch Set Point:	-0.098	Yaw Set Point:	-1.528	X_WP:	0.000	Y_WP:	0.000	Y_WP:	0.000	X:	0.214	Y:	0.299	Z:	0.055	yaw:	87.540	yaw rate:	-0.456	Roll:	9.324	Pitch:	-6.166	Yaw:	123.112	Thrust:	0.000
Time:	1.881	Roll Set Point:	-0.522	Pitch Set Point:	-0.098	Yaw Set Point:	-1.528	X_WP:	0.000	Y_WP:	0.000	Y_WP:	0.000	X:	0.214	Y:	0.299	Z:	0.055	yaw:	87.540	yaw rate:	0.076	Roll:	9.299	Pitch:	-6.204	Yaw:	123.253	Thrust:	0.000
Time:	1.891	Roll Set Point:	-0.522	Pitch Set Point:	-0.098	Yaw Set Point:	-1.528	X_WP:	0.000	Y_WP:	0.000	Y_WP:	0.000	X:	0.214	Y:	0.299	Z:	0.055	yaw:	87.539	yaw rate:	-0.122	Roll:	9.297	Pitch:	-6.157	Yaw:	123.198	Thrust:	0.000
Time:	1.901	Roll Set Point:	-0.522	Pitch Set Point:	-0.098	Yaw Set Point:	-1.528	X_WP:	0.000	Y_WP:	0.000	Y_WP:	0.000	X:	0.214	Y:	0.299	Z:	0.055	yaw:	87.539	yaw rate:	-0.122	Roll:	9.307	Pitch:	-6.196	Yaw:	123.231	Thrust:	0.000
Time:	1.911	Roll Set Point:	-0.522	Pitch Set Point:	-0.098	Yaw Set Point:	-1.528	X_WP:	0.000	Y_WP:	0.000	Y_WP:	0.000	X:	0.214	Y:	0.299	Z:	0.055	yaw:	87.540	yaw rate:	0.052	Roll:	9.309	Pitch:	-6.214	Yaw:	123.244	Thrust:	0.000
Time:	1.921	Roll Set Point:	-0.522	Pitch Set Point:	-0.098	Yaw Set Point:	-1.528	X_WP:	0.000	Y_WP:	0.000	Y_WP:	0.000	X:	0.214	Y:	0.299	Z:	0.055	yaw:	87.544	yaw rate:	0.400	Roll:	9.300	Pitch:	-6.234	Yaw:	123.341	Thrust:	0.000
Time:	1.931	Roll Set Point:	-0.522	Pitch Set Point:	-0.098	Yaw Set Point:	-1.528	X_WP:	0.000	Y_WP:	0.000	Y_WP:	0.000	X:	0.214	Y:	0.299	Z:	0.055	yaw:	87.540	yaw rate:	-0.406	Roll:	9.333	Pitch:	-6.143	Yaw:	123.125	Thrust:	0.000
Time:	1.941	Roll Set Point:	-0.522	Pitch Set Point:	-0.098	Yaw Set Point:	-1.528	X_WP:	0.000	Y_WP:	0.000	Y_WP:	0.000	X:	0.214	Y:	0.299	Z:	0.055	yaw:	87.543	yaw rate:	0.365	Roll:	9.271	Pitch:	-6.249	Yaw:	123.332	Thrust:	0.000
Time:	1.951	Roll Set Point:	-0.522	Pitch Set Point:	-0.098	Yaw Set Point:	-1.528	X_WP:	0.000	Y_WP:	0.000	Y_WP:	0.000	X:	0.214	Y:	0.299	Z:	0.055	yaw:	87.541	yaw rate:	-0.221	Roll:	9.312	Pitch:	-6.185	Yaw:	123.175	Thrust:	0.000
Time:	1.961	Roll Set Point:	-0.522	Pitch Set Point:	-0.098	Yaw Set Point:	-1.528	X_WP:	0.000	Y_WP:	0.000	Y_WP:	0.000	X:	0.214	Y:	0.299	Z:	0.055	yaw:	87.531	yaw rate:	-1.031	Roll:	9.394	Pitch:	-6.082	Yaw:	122.959	Thrust:	0.000
Time:	1.972	Roll Set Point:	-0.522	Pitch Set Point:	-0.098	Yaw Set Point:	-1.528	X_WP:	0.000	Y_WP:	0.000	Y_WP:	0.000	X:	0.214	Y:	0.299	Z:	0.055	yaw:	87.542	yaw rate:	1.156	Roll:	9.221	Pitch:	-6.293	Yaw:	123.537	Thrust:	0.000
Time:	1.982	Roll Set Point:	-0.522	Pitch Set Point:	-0.098	Yaw Set Point:	-1.528	X_WP:	0.000	Y_WP:	0.000	Y_WP:	0.000	X:	0.214	Y:	0.299	Z:	0.055	yaw:	87.546	yaw rate:	0.400	Roll:	9.322	Pitch:	-6.287	Yaw:	123.432	Thrust:	0.000
Time:	1.993	Roll Set Point:	-0.522	Pitch Set Point:	-0.098	Yaw Set Point:	-1.528	X_WP:	0.000	Y_WP:	0.000	Y_WP:	0.000	X:	0.214	Y:	0.299	Z:	0.055	yaw:	87.545	yaw rate:	-0.125	Roll:	9.362	Pitch:	-6.225	Yaw:	123.311	Thrust:	0.000
Time:	2.004	Roll Set Point:	-0.522	Pitch Set Point:	-0.098	Yaw Set Point:	-1.528	X_WP:	0.000	Y_WP:	0.000	Y_WP:	1.000	X:	0.214	Y:	0.299	Z:	0.055	yaw:	87.538	yaw rate:	-0.695	Roll:	9.374	Pitch:	-6.161	Yaw:	123.158	Thrust:	100.000
Time:	2.014	Roll Set Point:	-0.522	Pitch Set Point:	-0.098	Yaw Set Point:	-1.528	X_WP:	0.000	Y_WP:	0.000	Y_WP:	1.000	X:	0.214	Y:	0.299	Z:	0.055	yaw:	87.538	yaw rate:	-0.066	Roll:	9.305	Pitch:	-6.211	Yaw:	123.211	Thrust:	52.752
Time:	2.024	Roll Set Point:	-0.522	Pitch Set Point:	-0.098	Yaw Set Point:	-1.528	X_WP:	0.000	Y_WP:	0.000	Y_WP:	1.000	X:	0.214	Y:	0.299	Z:	0.055	yaw:	87.536	yaw rate:	-0.119	Roll:	9.350	Pitch:	-6.170	Yaw:	123.195	Thrust:	54.015
Time:	2.034	Roll Set Point:	-0.522	Pitch Set Point:	-0.098	Yaw Set Point:	-1.528	X_WP:	0.000	Y_WP:	0.000	Y_WP:	1.000	X:	0.214	Y:	0.299	Z:	0.055	yaw:	87.536	yaw rate:	-0.119	Roll:	9.310	Pitch:	-6.197	Yaw:	123.231	Thrust:	55.060
Time:	2.045	Roll Set Point:	-0.525	Pitch Set Point:	-0.103	Yaw Set Point:	-1.513	X_WP:	0.000	Y_WP:	0.000	Y_WP:	1.000	X:	0.214	Y:	0.299	Z:	0.055	yaw:	86.670	yaw rate:	-69.023	Roll:	14.170	Pitch:	0.849	Yaw:	101.561	Thrust:	56.063
Time:	2.055	Roll Set Point:	-0.525	Pitch Set Point:	-0.103	Yaw Set Point:	-1.513	X_WP:	0.000	Y_WP:	0.000	Y_WP:	1.000	X:	0.214	Y:	0.299	Z:	0.055	yaw:	86.670	yaw rate:	-69.023	Roll:	9.397	Pitch:	-6.064	Yaw:	122.017	Thrust:	57.312
Time:	2.066	Roll Set Point:	-0.525	Pitch Set Point:	-0.102	Yaw Set Point:	-1.514	X_WP:	0.000	Y_WP:	0.000	Y_WP:	1.000	X:	0.214	Y:	0.299	Z:	0.055	yaw:	86.768	yaw rate:	9.778	Roll:	8.853	Pitch:	-6.872	Yaw:	124.575	Thrust:	59.410
Time:	2.078	Roll Set Point:	-0.525	Pitch Set Point:	-0.103	Yaw Set Point:	-1.514	X_WP:	0.000	Y_WP:	0.000	Y_WP:	1.000	X:	0.214	Y:	0.299	Z:	0.055	yaw:	86.734	yaw rate:	-3.368	Roll:	9.646	Pitch:	-5.592	Yaw:	121.408	Thrust:	59.335
Time:	2.088	Roll Set Point:	-0.522	Pitch Set Point:	-0.098	Yaw Set Point:	-1.528	X_WP:	0.000	Y_WP:	0.000	Y_WP:	1.000	X:	0.214	Y:	0.299	Z:	0.055	yaw:	87.553	yaw rate:	81.935	Roll:	4.806	Pitch:	-13.085	Yaw:	142.885	Thrust:	62.635
Time:	2.099	Roll Set Point:	-0.522	Pitch Set Point:	-0.099	Yaw Set Point:	-1.526	X_WP:	0.000	Y_WP:	0.000	Y_WP:	1.000	X:	0.214	Y:	0.299	Z:	0.055	yaw:	87.426	yaw rate:	-12.712	Roll:	10.170	Pitch:	-4.948	Yaw:	119.764	Thrust:	61.501
Time:	2.109	Roll Set Point:	-0.522	Pitch Set Point:	-0.099	Yaw Set Point:	-1.526	X_WP:	0.000	Y_WP:	0.000	Y_WP:	1.000	X:	0.214	Y:	0.299	Z:	0.055	yaw:	87.444	yaw rate:	1.802	Roll:	9.027	Pitch:	-6.497	Yaw:	123.567	Thrust:	63.212
Time:	2.120	Roll Set Point:	-0.524	Pitch Set Point:	-0.101	Yaw Set Point:	-1.518	X_WP:	0.000	Y_WP:	0.000	Y_WP:	1.000	X:	0.214	Y:	0.299	Z:	0.055	yaw:	86.965	yaw rate:	-47.889	Roll:	12.492	Pitch:	-1.965	Yaw:	111.172	Thrust:	63.578
Time:	2.130	Roll Set Point:	-0.522	Pitch Set Point:	-0.099	Yaw Set Point:	-1.526	X_WP:	0.000	Y_WP:	0.000	Y_WP:	1.000	X:	0.214	Y:	0.299	Z:	0.055	yaw:	87.437	yaw rate:	47.170	Roll:	6.586	Pitch:	-9.951	Yaw:	135.412	Thrust:	66.931
Time:	2.140	Roll Set Point:	-0.522	Pitch Set Point:	-0.099	Yaw Set Point:	-1.525	X_WP:	0.000	Y_WP:	0.000	Y_WP:	1.000	X:	0.214	Y:	0.299	Z:	0.055	yaw:	87.393	yaw rate:	-4.389	Roll:	9.506	Pitch:	-5.705	Yaw:	121.891	Thrust:	66.345
Time:	2.151	Roll Set Point:	-0.524	Pitch Set Point:	-0.102	Yaw Set Point:	-1.516	X_WP:	0.000	Y_WP:	0.000	Y_WP:	1.000	X:	0.214	Y:	0.299	Z:	0.055	yaw:	86.848	yaw rate:	-54.480	Roll:	12.492	Pitch:	-1.762	Yaw:	109.369	Thrust:	68.524
Time:	2.161	Roll Set Point:	-0.523	Pitch Set Point:	-0.100	Yaw Set Point:	-1.523	X_WP:	0.000	Y_WP:	0.000	Y_WP:	1.000	X:	0.214	Y:	0.299	Z:	0.055	yaw:	87.252	yaw rate:	40.373	Roll:	6.648	Pitch:	-9.682	Yaw:	133.366	Thrust:	68.815
Time:	2.171	Roll Set Point:	-0.525	Pitch Set Point:	-0.103	Yaw Set Point:	-1.511	X_WP:	0.000	Y_WP:	0.000	Y_WP:	1.000	X:	0.214	Y:	0.299	Z:	0.055	yaw:	86.585	yaw rate:	-66.759	Roll:	13.433	Pitch:	-0.102	Yaw:	104.458	Thrust:	69.147
Time:	2.182	Roll Set Point:	-0.524	Pitch Set Point:	-0.102	Yaw Set Point:	-1.515	X_WP:	0.000	Y_WP:	0.000	Y_WP:	1.000	X:	0.214	Y:	0.299	Z:	0.055	yaw:	86.823	yaw rate:	23.879	Roll:	7.656	Pitch:	-7.990	Yaw:	127.998	Thrust:	72.690
Time:	2.192	Roll Set Point:	-0.526	Pitch Set Point:	-0.105	Yaw Set Point:	-1.505	X_WP:	0.000	Y_WP:	0.000	Y_WP:	1.000	X:	0.214	Y:	0.299	Z:	0.056	yaw:	86.244	yaw rate:	-57.898	Roll:	12.803	Pitch:	-0.846	Yaw:	106.383	Thrust:	71.116
Time:	2.203	Roll Set Point:	-0.528	Pitch Set Point:	-0.109	Yaw Set Point:	-1.491	X_WP:	0.000	Y_WP:	0.000	Y_WP:	1.000	X:	0.214	Y:	0.298	Z:	0.056	yaw:	85.435	yaw rate:	-80.992	Roll:	13.035	Pitch:	1.289	Yaw:	101.070	Thrust:	72.816
Time:	2.213	Roll Set Point:	-0.528	Pitch Set Point:	-0.109	Yaw Set Point:	-1.489	X_WP:	0.000	Y_WP:	0.000	Y_WP:	1.000	X:	0.214	Y:	0.298	Z:	0.057	yaw:	85.329	yaw rate:	-10.505	Roll:	9.818	Pitch:	-4.963	Yaw:	117.420	Thrust:	72.686
Time:	2.223	Roll Set Point:	-0.528	Pitch Set Point:	-0.110	Yaw Set Point:	-1.486	X_WP:	0.000	Y_WP:	0.000	Y_WP:	1.000	X:	0.213	Y:	0.298	Z:	0.057	yaw:	85.159	yaw rate:	-17.010	Roll:	10.215	Pitch:	-3.978	Yaw:	115.482	Thrust:	72.161
Time:	2.234	Roll Set Point:	-0.529	Pitch Set Point:	-0.112	Yaw Set Point:	-1.480	X_WP:	0.000	Y_WP:	0.000	Y_WP:	1.000	X:	0.213	Y:	0.298	Z:	0.058	yaw:	84.782	yaw rate:	-37.755	Roll:	11.023	Pitch:	-2.213	Yaw:	110.517	Thrust:	76.156
Time:	2.245	Roll Set Point:	-0.530	Pitch Set Point:	-0.115	Yaw Set Point:	-1.471	X_WP:	0.000	Y_WP:	0.000	Y_WP:	1.000	X:	0.213	Y:	0.297	Z:	0.059	yaw:	84.268	yaw rate:	-51.371	Roll:	11.233	Pitch:	-0.826	Yaw:	106.572	Thrust:	76.948
Time:	2.256	Roll Set Point:	-0.530	Pitch Set Point:	-0.117	Yaw Set Point:	-1.464	X_WP:	0.000	Y_WP:	0.000	Y_WP:	1.000	X:	0.212	Y:	0.297	Z:	0.060	yaw:	83.890	yaw rate:	-37.791	Roll:	10.822	Pitch:	-1.777	Yaw:	109.195	Thrust:	77.152
Time:	2.266	Roll Set Point:	-0.530	Pitch Set Point:	-0.118	Yaw Set Point:	-1.462	X_WP:	0.000	Y_WP:	0.000	Y_WP:	1.000	X:	0.212	Y:	0.296	Z:	0.061	yaw:	83.751	yaw rate:	-13.927	Roll:	9.714	Pitch:	-3.546	Yaw:	114.305	Thrust:	74.763
Time:	2.277	Roll Set Point:	-0.530	Pitch Set Point:	-0.122	Yaw Set Point:	-1.451	X_WP:	0.000	Y_WP:	0.000	Y_WP:	1.000	X:	0.211	Y:	0.296	Z:	0.062	yaw:	83.130	yaw rate:	-62.104	Roll:	11.467	Pitch:	0.912	Yaw:	102.433	Thrust:	78.734
Time:	2.287	Roll Set Point:	-0.529	Pitch Set Point:	-0.122	Yaw Set Point:	-1.449	X_WP:	0.000	Y_WP:	0.000	Y_WP:	1.000	X:	0.211	Y:	0.295	Z:	0.063	yaw:	83.006	yaw rate:	-12.410	Roll:	9.396	Pitch:	-3.285	Yaw:	113.660	Thrust:	76.283
Time:	2.297	Roll Set Point:	-0.529	Pitch Set Point:	-0.122	Yaw Set Point:	-1.449	X_WP:	0.000	Y_WP:	0.000	Y_WP:	1.000	X:	0.211	Y:	0.295	Z:	0.063	yaw:	83.006	yaw rate:	-12.410	Roll:	9.623	Pitch:	-5.396	Yaw:	116.905	Thrust:	83.117
Time:	2.308	Roll Set Point:	-0.529	Pitch Set Point:	-0.129	Yaw Set Point:	-1.430	X_WP:	0.000	Y_WP:	0.000	Y_WP:	1.000	X:	0.209	Y:	0.294	Z:	0.066	yaw:	81.948	yaw rate:	-105.800	Roll:	11.929	Pitch:	6.769	Yaw:	90.293	Thrust:	74.434
Time:	2.318	Roll Set Point:	-0.528	Pitch Set Point:	-0.132	Yaw Set Point:	-1.419	X_WP:	0.000	Y_WP:	0.000	Y_WP:	1.000	X:	0.207	Y:	0.293	Z:	0.068	yaw:	81.315	yaw rate:	-63.274	Roll:	11.028	Pitch:	2.696	Yaw:	98.019	Thrust:	77.734
Time:	2.329	Roll Set Point:	-0.528	Pitch Set Point:	-0.137	Yaw Set Point:	-1.406	X_WP:	0.000	Y_WP:	0.000	Y_WP:	1.000	X:	0.206	Y:	0.292	Z:	0.070	yaw:	80.529	yaw rate:	-78.562	Roll:	11.255	Pitch:	3.742	Yaw:	94.898	Thrust:	82.479
Time:	2.339	Roll Set Point:	-0.527	Pitch Set Point:	-0.142	Yaw Set Point:	-1.390	X_WP:	0.000	Y_WP:	0.000	Y_WP:	1.000	X:	0.204	Y:	0.291	Z:	0.072	yaw:	79.657	yaw rate:	-87.279	Roll:	11.379	Pitch:	5.862	Yaw:	89.475	Thrust:	78.891
Time:	2.349	Roll Set Point:	-0.527	Pitch Set Point:	-0.148	Yaw Set Point:	-1.373	X_WP:	0.000	Y_WP:	0.000	Y_WP:	1.000	X:	0.203	Y:	0.290	Z:	0.073	yaw:	78.692	yaw rate:	-96.498	Roll:	11.360	Pitch:	7.151	Yaw:	85.639	Thrust:	79.365
Time:	2.360	Roll Set Point:	-0.525	Pitch Set Point:	-0.153	Yaw Set Point:	-1.357	X_WP:	0.000	Y_WP:	0.000	Y_WP:	1.000	X:	0.201	Y:	0.288	Z:	0.075	yaw:	77.757	yaw rate:	-93.486	Roll:	10.659	Pitch:	6.161	Yaw:	87.480	Thrust:	85.003
Time:	2.370	Roll Set Point:	-0.524	Pitch Set Point:	-0.159	Yaw Set Point:	-1.339	X_WP:	0.000	Y_WP:	0.000	Y_WP:	1.000	X:	0.199	Y:	0.287	Z:	0.077	yaw:	76.727	yaw rate:	-103.008	Roll:	10.464	Pitch:	8.443	Yaw:	81.238	Thrust:	81.030
Time:	2.380	Roll Set Point:	-0.522	Pitch Set Point:	-0.166	Yaw Set Point:	-1.319	X_WP:	0.000	Y_WP:	0.000	Y_WP:	1.000	X:	0.197	Y:	0.285	Z:	0.080	yaw:	75.565	yaw rate:	-116.176	Roll:	10.376	Pitch:	10.248	Yaw:	76.179	Thrust:	80.903
Time:	2.390	Roll Set Point:	-0.520	Pitch Set Point:	-0.172	Yaw Set Point:	-1.298	X_WP:	0.000	Y_WP:	0.000	Y_WP:	1.000	X:	0.195	Y:	0.283	Z:	0.082	yaw:	74.350	yaw rate:	-121.466	Roll:	9.881	Pitch:	11.039	Yaw:	73.096	Thrust:	81.418
Time:	2.400	Roll Set Point:	-0.516	Pitch Set Point:	-0.178	Yaw Set Point:	-1.280	X_WP:	0.000	Y_WP:	0.000	Y_WP:	1.000	X:	0.192	Y:	0.281	Z:	0.084	yaw:	73.364	yaw rate:	-98.654	Roll:	8.366	Pitch:	9.161	Yaw:	77.682	Thrust:	81.743
Time:	2.410	Roll Set Point:	-0.509	Pitch Set Point:	-0.191	Yaw Set Point:	-1.238	X_WP:	0.000	Y_WP:	0.000	Y_WP:	1.000	X:	0.187	Y:	0.277	Z:	0.090	yaw:	70.928	yaw rate:	-243.542	Roll:	6.631	Pitch:	26.642	Yaw:	36.781	Thrust:	68.825
Time:	2.421	Roll Set Point:	-0.505	Pitch Set Point:	-0.197	Yaw Set Point:	-1.216	X_WP:	0.000	Y_WP:	0.000	Y_WP:	1.000	X:	0.184	Y:	0.274	Z:	0.093	yaw:	69.698	yaw rate:	-122.991	Roll:	7.588	Pitch:	10.794	Yaw:	69.080	Thrust:	85.840
Time:	2.431	Roll Set Point:	-0.501	Pitch Set Point:	-0.204	Yaw Set Point:	-1.191	X_WP:	0.000	Y_WP:	0.000	Y_WP:	1.000	X:	0.181	Y:	0.272	Z:	0.097	yaw:	68.258	yaw rate:	-144.038	Roll:	7.038	Pitch:	14.218	Yaw:	58.706	Thrust:	79.950
Time:	2.441	Roll Set Point:	-0.501	Pitch Set Point:	-0.204	Yaw Set Point:	-1.191	X_WP:	0.000	Y_WP:	0.000	Y_WP:	1.000	X:	0.181	Y:	0.272	Z:	0.097	yaw:	68.258	yaw rate:	-144.038	Roll:	9.645	Pitch:	-2.335	Yaw:	96.309	Thrust:	96.651
Time:	2.452	Roll Set Point:	-0.496	Pitch Set Point:	-0.211	Yaw Set Point:	-1.168	X_WP:	0.000	Y_WP:	0.000	Y_WP:	1.000	X:	0.178	Y:	0.269	Z:	0.101	yaw:	66.928	yaw rate:	-132.971	Roll:	6.045	Pitch:	13.344	Yaw:	59.990	Thrust:	81.084
Time:	2.462	Roll Set Point:	-0.490	Pitch Set Point:	-0.217	Yaw Set Point:	-1.145	X_WP:	0.000	Y_WP:	0.000	Y_WP:	1.000	X:	0.175	Y:	0.266	Z:	0.105	yaw:	65.614	yaw rate:	-131.428	Roll:	5.707	Pitch:	11.918	Yaw:	61.310	Thrust:	86.564
Time:	2.473	Roll Set Point:	-0.484	Pitch Set Point:	-0.223	Yaw Set Point:	-1.123	X_WP:	0.000	Y_WP:	0.000	Y_WP:	1.000	X:	0.172	Y:	0.264	Z:	0.109	yaw:	64.368	yaw rate:	-124.649	Roll:	4.517	Pitch:	12.621	Yaw:	58.500	Thrust:	80.727
Time:	2.484	Roll Set Point:	-0.478	Pitch Set Point:	-0.228	Yaw Set Point:	-1.101	X_WP:	0.000	Y_WP:	0.000	Y_WP:	1.000	X:	0.169	Y:	0.261	Z:	0.113	yaw:	63.099	yaw rate:	-126.904	Roll:	4.556	Pitch:	11.388	Yaw:	59.071	Thrust:	87.065
Time:	2.495	Roll Set Point:	-0.471	Pitch Set Point:	-0.233	Yaw Set Point:	-1.078	X_WP:	0.000	Y_WP:	0.000	Y_WP:	1.000	X:	0.166	Y:	0.258	Z:	0.118	yaw:	61.762	yaw rate:	-133.700	Roll:	3.665	Pitch:	12.109	Yaw:	55.457	Thrust:	86.665
Time:	2.509	Roll Set Point:	-0.464	Pitch Set Point:	-0.238	Yaw Set Point:	-1.056	X_WP:	0.000	Y_WP:	0.000	Y_WP:	1.000	X:	0.163	Y:	0.254	Z:	0.123	yaw:	60.525	yaw rate:	-123.683	Roll:	2.682	Pitch:	11.958	Yaw:	62.846	Thrust:	80.257
Time:	2.520	Roll Set Point:	-0.450	Pitch Set Point:	-0.248	Yaw Set Point:	-1.004	X_WP:	0.000	Y_WP:	0.000	Y_WP:	1.000	X:	0.157	Y:	0.247	Z:	0.133	yaw:	57.512	yaw rate:	-301.227	Roll:	-0.882	Pitch:	19.181	Yaw:	9.905	Thrust:	96.805
Time:	2.530	Roll Set Point:	-0.441	Pitch Set Point:	-0.251	Yaw Set Point:	-0.981	X_WP:	0.000	Y_WP:	0.000	Y_WP:	1.000	X:	0.154	Y:	0.244	Z:	0.139	yaw:	56.191	yaw rate:	-132.181	Roll:	0.226	Pitch:	12.139	Yaw:	44.947	Thrust:	77.480
Time:	2.540	Roll Set Point:	-0.433	Pitch Set Point:	-0.252	Yaw Set Point:	-0.966	X_WP:	0.000	Y_WP:	0.000	Y_WP:	1.000	X:	0.150	Y:	0.240	Z:	0.145	yaw:	55.374	yaw rate:	-81.634	Roll:	-0.341	Pitch:	7.926	Yaw:	57.005	Thrust:	76.841
Time:	2.550	Roll Set Point:	-0.425	Pitch Set Point:	-0.256	Yaw Set Point:	-0.937	X_WP:	0.000	Y_WP:	0.000	Y_WP:	1.000	X:	0.148	Y:	0.235	Z:	0.151	yaw:	53.677	yaw rate:	-169.725	Roll:	-0.862	Pitch:	13.742	Yaw:	31.638	Thrust:	75.835
Time:	2.560	Roll Set Point:	-0.416	Pitch Set Point:	-0.257	Yaw Set Point:	-0.916	X_WP:	0.000	Y_WP:	0.000	Y_WP:	1.000	X:	0.145	Y:	0.231	Z:	0.158	yaw:	52.500	yaw rate:	-117.660	Roll:	-1.606	Pitch:	9.483	Yaw:	43.605	Thrust:	76.449
Time:	2.570	Roll Set Point:	-0.407	Pitch Set Point:	-0.257	Yaw Set Point:	-0.898	X_WP:	0.000	Y_WP:	0.000	Y_WP:	1.000	X:	0.141	Y:	0.227	Z:	0.164	yaw:	51.477	yaw rate:	-102.293	Roll:	-1.952	Pitch:	8.064	Yaw:	46.172	Thrust:	75.556
Time:	2.580	Roll Set Point:	-0.398	Pitch Set Point:	-0.257	Yaw Set Point:	-0.876	X_WP:	0.000	Y_WP:	0.000	Y_WP:	1.000	X:	0.138	Y:	0.222	Z:	0.171	yaw:	50.191	yaw rate:	-128.687	Roll:	-2.757	Pitch:	9.533	Yaw:	37.457	Thrust:	74.619
Time:	2.590	Roll Set Point:	-0.389	Pitch Set Point:	-0.256	Yaw Set Point:	-0.855	X_WP:	0.000	Y_WP:	0.000	Y_WP:	1.000	X:	0.136	Y:	0.217	Z:	0.178	yaw:	48.961	yaw rate:	-122.921	Roll:	-3.202	Pitch:	7.749	Yaw:	37.268	Thrust:	75.509
Time:	2.600	Roll Set Point:	-0.379	Pitch Set Point:	-0.255	Yaw Set Point:	-0.835	X_WP:	0.000	Y_WP:	0.000	Y_WP:	1.000	X:	0.133	Y:	0.212	Z:	0.186	yaw:	47.820	yaw rate:	-114.129	Roll:	-3.336	Pitch:	7.075	Yaw:	37.973	Thrust:	73.787
Time:	2.610	Roll Set Point:	-0.370	Pitch Set Point:	-0.253	Yaw Set Point:	-0.813	X_WP:	0.000	Y_WP:	0.000	Y_WP:	1.000	X:	0.130	Y:	0.206	Z:	0.194	yaw:	46.605	yaw rate:	-121.555	Roll:	-3.930	Pitch:	7.043	Yaw:	34.334	Thrust:	72.858
Time:	2.620	Roll Set Point:	-0.352	Pitch Set Point:	-0.248	Yaw Set Point:	-0.776	X_WP:	0.000	Y_WP:	0.000	Y_WP:	1.000	X:	0.125	Y:	0.196	Z:	0.210	yaw:	44.457	yaw rate:	-214.743	Roll:	-15.151	Pitch:	9.785	Yaw:	7.017	Thrust:	36.208
Time:	2.630	Roll Set Point:	-0.352	Pitch Set Point:	-0.248	Yaw Set Point:	-0.776	X_WP:	0.000	Y_WP:	0.000	Y_WP:	1.000	X:	0.125	Y:	0.196	Z:	0.210	yaw:	44.457	yaw rate:	-214.743	Roll:	6.948	Pitch:	1.141	Yaw:	63.081	Thrust:	100.000
Time:	2.641	Roll Set Point:	-0.334	Pitch Set Point:	-0.240	Yaw Set Point:	-0.738	X_WP:	0.000	Y_WP:	0.000	Y_WP:	1.000	X:	0.121	Y:	0.185	Z:	0.227	yaw:	42.296	yaw rate:	-109.069	Roll:	-13.589	Pitch:	6.251	Yaw:	8.634	Thrust:	45.554
Time:	2.652	Roll Set Point:	-0.326	Pitch Set Point:	-0.235	Yaw Set Point:	-0.722	X_WP:	0.000	Y_WP:	0.000	Y_WP:	1.000	X:	0.119	Y:	0.179	Z:	0.236	yaw:	41.342	yaw rate:	-95.335	Roll:	-3.221	Pitch:	2.263	Yaw:	36.203	Thrust:	80.015
Time:	2.664	Roll Set Point:	-0.317	Pitch Set Point:	-0.230	Yaw Set Point:	-0.704	X_WP:	0.000	Y_WP:	0.000	Y_WP:	1.000	X:	0.117	Y:	0.173	Z:	0.244	yaw:	40.357	yaw rate:	-98.497	Roll:	-3.511	Pitch:	1.910	Yaw:	36.118	Thrust:	90.506
Time:	2.676	Roll Set Point:	-0.309	Pitch Set Point:	-0.224	Yaw Set Point:	-0.688	X_WP:	0.000	Y_WP:	0.000	Y_WP:	1.000	X:	0.115	Y:	0.167	Z:	0.254	yaw:	39.432	yaw rate:	-92.502	Roll:	-2.536	Pitch:	1.271	Yaw:	36.131	Thrust:	80.596
Time:	2.687	Roll Set Point:	-0.301	Pitch Set Point:	-0.218	Yaw Set Point:	-0.671	X_WP:	0.000	Y_WP:	0.000	Y_WP:	1.000	X:	0.113	Y:	0.162	Z:	0.263	yaw:	38.445	yaw rate:	-98.736	Roll:	-3.569	Pitch:	1.194	Yaw:	31.346	Thrust:	79.719
Time:	2.699	Roll Set Point:	-0.294	Pitch Set Point:	-0.211	Yaw Set Point:	-0.655	X_WP:	0.000	Y_WP:	0.000	Y_WP:	1.000	X:	0.111	Y:	0.156	Z:	0.272	yaw:	37.536	yaw rate:	-90.910	Roll:	-3.523	Pitch:	0.109	Yaw:	31.935	Thrust:	91.500
Time:	2.710	Roll Set Point:	-0.286	Pitch Set Point:	-0.205	Yaw Set Point:	-0.638	X_WP:	0.000	Y_WP:	0.000	Y_WP:	1.000	X:	0.109	Y:	0.149	Z:	0.281	yaw:	36.537	yaw rate:	-99.846	Roll:	-2.792	Pitch:	0.178	Yaw:	30.492	Thrust:	80.926
Time:	2.721	Roll Set Point:	-0.279	Pitch Set Point:	-0.197	Yaw Set Point:	-0.621	X_WP:	0.000	Y_WP:	0.000	Y_WP:	1.000	X:	0.108	Y:	0.143	Z:	0.290	yaw:	35.589	yaw rate:	-94.885	Roll:	-3.338	Pitch:	-0.522	Yaw:	28.272	Thrust:	80.579
Time:	2.732	Roll Set Point:	-0.265	Pitch Set Point:	-0.182	Yaw Set Point:	-0.590	X_WP:	0.000	Y_WP:	0.000	Y_WP:	1.000	X:	0.105	Y:	0.131	Z:	0.310	yaw:	33.790	yaw rate:	-179.859	Roll:	-11.661	Pitch:	-4.127	Yaw:	5.593	Thrust:	40.692
Time:	2.743	Roll Set Point:	-0.259	Pitch Set Point:	-0.174	Yaw Set Point:	-0.574	X_WP:	0.000	Y_WP:	0.000	Y_WP:	1.000	X:	0.104	Y:	0.125	Z:	0.319	yaw:	32.883	yaw rate:	-90.697	Roll:	-2.688	Pitch:	-2.140	Yaw:	25.487	Thrust:	89.810
Time:	2.754	Roll Set Point:	-0.253	Pitch Set Point:	-0.165	Yaw Set Point:	-0.561	X_WP:	0.000	Y_WP:	0.000	Y_WP:	1.000	X:	0.103	Y:	0.119	Z:	0.330	yaw:	32.144	yaw rate:	-73.883	Roll:	-2.862	Pitch:	-3.124	Yaw:	28.451	Thrust:	67.173
Time:	2.765	Roll Set Point:	-0.248	Pitch Set Point:	-0.157	Yaw Set Point:	-0.542	X_WP:	0.000	Y_WP:	0.000	Y_WP:	1.000	X:	0.102	Y:	0.113	Z:	0.340	yaw:	31.060	yaw rate:	-108.447	Roll:	-2.751	Pitch:	-2.109	Yaw:	18.724	Thrust:	77.171
Time:	2.776	Roll Set Point:	-0.242	Pitch Set Point:	-0.147	Yaw Set Point:	-0.531	X_WP:	0.000	Y_WP:	0.000	Y_WP:	1.000	X:	0.101	Y:	0.107	Z:	0.350	yaw:	30.404	yaw rate:	-65.593	Roll:	-2.172	Pitch:	-4.126	Yaw:	27.984	Thrust:	77.807
Time:	2.787	Roll Set Point:	-0.238	Pitch Set Point:	-0.138	Yaw Set Point:	-0.518	X_WP:	0.000	Y_WP:	0.000	Y_WP:	1.000	X:	0.101	Y:	0.101	Z:	0.361	yaw:	29.692	yaw rate:	-71.188	Roll:	-2.016	Pitch:	-4.285	Yaw:	25.664	Thrust:	76.736
Time:	2.798	Roll Set Point:	-0.233	Pitch Set Point:	-0.129	Yaw Set Point:	-0.505	X_WP:	0.000	Y_WP:	0.000	Y_WP:	1.000	X:	0.100	Y:	0.095	Z:	0.372	yaw:	28.963	yaw rate:	-72.915	Roll:	-1.652	Pitch:	-4.412	Yaw:	24.238	Thrust:	76.355
Time:	2.809	Roll Set Point:	-0.229	Pitch Set Point:	-0.119	Yaw Set Point:	-0.494	X_WP:	0.000	Y_WP:	0.000	Y_WP:	1.000	X:	0.099	Y:	0.088	Z:	0.383	yaw:	28.329	yaw rate:	-63.351	Roll:	-1.595	Pitch:	-4.991	Yaw:	25.622	Thrust:	76.241
Time:	2.820	Roll Set Point:	-0.225	Pitch Set Point:	-0.109	Yaw Set Point:	-0.484	X_WP:	0.000	Y_WP:	0.000	Y_WP:	1.000	X:	0.099	Y:	0.082	Z:	0.394	yaw:	27.753	yaw rate:	-57.595	Roll:	-1.353	Pitch:	-5.440	Yaw:	26.217	Thrust:	87.780
