Time:	0.032	Roll Set Point:	0.005	Pitch Set Point:	-0.544	Yaw Set Point:	0.483	X_WP:	0.000	Y_WP:	0.000	Y_WP:	0.000	X:	0.064	Y:	0.273	Z:	0.057	yaw:	-27.659	yaw rate:	-0.017	Roll:	-2.020	Pitch:	7.870	Yaw:	-38.619	Thrust:	0.000
Time:	0.042	Roll Set Point:	0.005	Pitch Set Point:	-0.544	Yaw Set Point:	0.483	X_WP:	0.000	Y_WP:	0.000	Y_WP:	0.000	X:	0.064	Y:	0.273	Z:	0.057	yaw:	-27.657	yaw rate:	0.134	Roll:	-1.994	Pitch:	7.877	Yaw:	-38.692	Thrust:	0.000
Time:	0.052	Roll Set Point:	0.005	Pitch Set Point:	-0.544	Yaw Set Point:	0.483	X_WP:	0.000	Y_WP:	0.000	Y_WP:	0.000	X:	0.064	Y:	0.273	Z:	0.057	yaw:	-27.662	yaw rate:	-0.470	Roll:	-2.057	Pitch:	7.862	Yaw:	-38.940	Thrust:	0.000
Time:	0.063	Roll Set Point:	0.005	Pitch Set Point:	-0.544	Yaw Set Point:	0.483	X_WP:	0.000	Y_WP:	0.000	Y_WP:	0.000	X:	0.064	Y:	0.273	Z:	0.057	yaw:	-27.655	yaw rate:	0.680	Roll:	-1.970	Pitch:	7.930	Yaw:	-38.729	Thrust:	0.000
Time:	0.073	Roll Set Point:	0.005	Pitch Set Point:	-0.544	Yaw Set Point:	0.483	X_WP:	0.000	Y_WP:	0.000	Y_WP:	0.000	X:	0.064	Y:	0.273	Z:	0.057	yaw:	-27.659	yaw rate:	-0.413	Roll:	-2.049	Pitch:	7.877	Yaw:	-39.142	Thrust:	0.000
Time:	0.083	Roll Set Point:	0.005	Pitch Set Point:	-0.544	Yaw Set Point:	0.483	X_WP:	0.000	Y_WP:	0.000	Y_WP:	0.000	X:	0.064	Y:	0.273	Z:	0.057	yaw:	-27.659	yaw rate:	0.019	Roll:	-2.029	Pitch:	7.903	Yaw:	-39.098	Thrust:	0.000
Time:	0.093	Roll Set Point:	0.005	Pitch Set Point:	-0.544	Yaw Set Point:	0.483	X_WP:	0.000	Y_WP:	0.000	Y_WP:	0.000	X:	0.064	Y:	0.273	Z:	0.057	yaw:	-27.657	yaw rate:	0.190	Roll:	-2.033	Pitch:	7.912	Yaw:	-39.148	Thrust:	0.000
Time:	0.104	Roll Set Point:	0.005	Pitch Set Point:	-0.544	Yaw Set Point:	0.483	X_WP:	0.000	Y_WP:	0.000	Y_WP:	0.000	X:	0.064	Y:	0.273	Z:	0.057	yaw:	-27.658	yaw rate:	-0.051	Roll:	-2.028	Pitch:	7.928	Yaw:	-39.375	Thrust:	0.000
Time:	0.115	Roll Set Point:	0.005	Pitch Set Point:	-0.544	Yaw Set Point:	0.483	X_WP:	0.000	Y_WP:	0.000	Y_WP:	0.000	X:	0.064	Y:	0.273	Z:	0.057	yaw:	-27.665	yaw rate:	-0.692	Roll:	-2.084	Pitch:	7.901	Yaw:	-39.583	Thrust:	0.000
Time:	0.125	Roll Set Point:	0.005	Pitch Set Point:	-0.544	Yaw Set Point:	0.483	X_WP:	0.000	Y_WP:	0.000	Y_WP:	0.000	X:	0.064	Y:	0.273	Z:	0.057	yaw:	-27.666	yaw rate:	-0.084	Roll:	-2.034	Pitch:	7.944	Yaw:	-39.611	Thrust:	0.000
Time:	0.136	Roll Set Point:	0.005	Pitch Set Point:	-0.544	Yaw Set Point:	0.483	X_WP:	0.000	Y_WP:	0.000	Y_WP:	0.000	X:	0.064	Y:	0.273	Z:	0.057	yaw:	-27.658	yaw rate:	0.743	Roll:	-2.008	Pitch:	7.953	Yaw:	-39.506	Thrust:	0.000
Time:	0.148	Roll Set Point:	0.005	Pitch Set Point:	-0.544	Yaw Set Point:	0.483	X_WP:	0.000	Y_WP:	0.000	Y_WP:	0.000	X:	0.064	Y:	0.273	Z:	0.057	yaw:	-27.661	yaw rate:	-0.280	Roll:	-2.039	Pitch:	7.942	Yaw:	-39.860	Thrust:	0.000
Time:	0.158	Roll Set Point:	0.005	Pitch Set Point:	-0.544	Yaw Set Point:	0.483	X_WP:	0.000	Y_WP:	0.000	Y_WP:	0.000	X:	0.064	Y:	0.273	Z:	0.057	yaw:	-27.664	yaw rate:	-0.331	Roll:	-2.074	Pitch:	7.952	Yaw:	-39.978	Thrust:	0.000
Time:	0.169	Roll Set Point:	0.005	Pitch Set Point:	-0.544	Yaw Set Point:	0.483	X_WP:	0.000	Y_WP:	0.000	Y_WP:	0.000	X:	0.064	Y:	0.273	Z:	0.057	yaw:	-27.663	yaw rate:	0.167	Roll:	-2.036	Pitch:	7.978	Yaw:	-39.969	Thrust:	0.000
Time:	0.180	Roll Set Point:	0.005	Pitch Set Point:	-0.544	Yaw Set Point:	0.483	X_WP:	0.000	Y_WP:	0.000	Y_WP:	0.000	X:	0.064	Y:	0.273	Z:	0.057	yaw:	-27.663	yaw rate:	-0.060	Roll:	-2.038	Pitch:	7.973	Yaw:	-40.130	Thrust:	0.000
Time:	0.191	Roll Set Point:	0.005	Pitch Set Point:	-0.544	Yaw Set Point:	0.483	X_WP:	0.000	Y_WP:	0.000	Y_WP:	0.000	X:	0.064	Y:	0.273	Z:	0.057	yaw:	-27.663	yaw rate:	0.034	Roll:	-2.060	Pitch:	7.955	Yaw:	-40.068	Thrust:	0.000
Time:	0.202	Roll Set Point:	0.005	Pitch Set Point:	-0.544	Yaw Set Point:	0.483	X_WP:	0.000	Y_WP:	0.000	Y_WP:	0.000	X:	0.064	Y:	0.273	Z:	0.057	yaw:	-27.656	yaw rate:	0.664	Roll:	-1.996	Pitch:	8.024	Yaw:	-40.162	Thrust:	0.000
Time:	0.212	Roll Set Point:	0.005	Pitch Set Point:	-0.544	Yaw Set Point:	0.483	X_WP:	0.000	Y_WP:	0.000	Y_WP:	0.000	X:	0.064	Y:	0.273	Z:	0.057	yaw:	-27.664	yaw rate:	-0.781	Roll:	-2.125	Pitch:	7.952	Yaw:	-40.476	Thrust:	0.000
Time:	0.222	Roll Set Point:	0.005	Pitch Set Point:	-0.544	Yaw Set Point:	0.483	X_WP:	0.000	Y_WP:	0.000	Y_WP:	0.000	X:	0.064	Y:	0.273	Z:	0.057	yaw:	-27.664	yaw rate:	-0.033	Roll:	-2.045	Pitch:	7.989	Yaw:	-40.378	Thrust:	0.000
Time:	0.232	Roll Set Point:	0.005	Pitch Set Point:	-0.544	Yaw Set Point:	0.483	X_WP:	0.000	Y_WP:	0.000	Y_WP:	0.000	X:	0.064	Y:	0.273	Z:	0.057	yaw:	-27.664	yaw rate:	-0.033	Roll:	-2.053	Pitch:	7.999	Yaw:	-40.467	Thrust:	0.000
Time:	0.243	Roll Set Point:	0.005	Pitch Set Point:	-0.544	Yaw Set Point:	0.483	X_WP:	0.000	Y_WP:	0.000	Y_WP:	0.000	X:	0.064	Y:	0.273	Z:	0.057	yaw:	-27.662	yaw rate:	0.243	Roll:	-2.028	Pitch:	8.039	Yaw:	-40.694	Thrust:	0.000
Time:	0.253	Roll Set Point:	0.005	Pitch Set Point:	-0.544	Yaw Set Point:	0.483	X_WP:	0.000	Y_WP:	0.000	Y_WP:	0.000	X:	0.064	Y:	0.273	Z:	0.057	yaw:	-27.661	yaw rate:	0.063	Roll:	-2.062	Pitch:	8.009	Yaw:	-40.611	Thrust:	0.000
Time:	0.263	Roll Set Point:	0.005	Pitch Set Point:	-0.544	Yaw Set Point:	0.483	X_WP:	0.000	Y_WP:	0.000	Y_WP:	0.000	X:	0.064	Y:	0.273	Z:	0.057	yaw:	-27.654	yaw rate:	0.765	Roll:	-1.994	Pitch:	8.053	Yaw:	-40.417	Thrust:	0.000
Time:	0.273	Roll Set Point:	0.005	Pitch Set Point:	-0.544	Yaw Set Point:	0.483	X_WP:	0.000	Y_WP:	0.000	Y_WP:	0.000	X:	0.064	Y:	0.273	Z:	0.057	yaw:	-27.662	yaw rate:	-0.814	Roll:	-2.141	Pitch:	7.981	Yaw:	-40.841	Thrust:	0.000
Time:	0.283	Roll Set Point:	0.005	Pitch Set Point:	-0.544	Yaw Set Point:	0.483	X_WP:	0.000	Y_WP:	0.000	Y_WP:	0.000	X:	0.064	Y:	0.273	Z:	0.057	yaw:	-27.665	yaw rate:	-0.366	Roll:	-2.087	Pitch:	8.026	Yaw:	-40.730	Thrust:	0.000
Time:	0.294	Roll Set Point:	0.005	Pitch Set Point:	-0.544	Yaw Set Point:	0.483	X_WP:	0.000	Y_WP:	0.000	Y_WP:	0.000	X:	0.064	Y:	0.273	Z:	0.057	yaw:	-27.659	yaw rate:	0.612	Roll:	-2.004	Pitch:	8.069	Yaw:	-40.680	Thrust:	0.000
Time:	0.305	Roll Set Point:	0.005	Pitch Set Point:	-0.544	Yaw Set Point:	0.483	X_WP:	0.000	Y_WP:	0.000	Y_WP:	0.000	X:	0.064	Y:	0.273	Z:	0.057	yaw:	-27.668	yaw rate:	-0.853	Roll:	-2.145	Pitch:	8.065	Yaw:	-41.040	Thrust:	0.000
Time:	0.316	Roll Set Point:	0.005	Pitch Set Point:	-0.544	Yaw Set Point:	0.483	X_WP:	0.000	Y_WP:	0.000	Y_WP:	0.000	X:	0.064	Y:	0.273	Z:	0.057	yaw:	-27.664	yaw rate:	0.359	Roll:	-2.043	Pitch:	8.038	Yaw:	-40.538	Thrust:	0.000
Time:	0.326	Roll Set Point:	0.005	Pitch Set Point:	-0.544	Yaw Set Point:	0.483	X_WP:	0.000	Y_WP:	0.000	Y_WP:	0.000	X:	0.064	Y:	0.273	Z:	0.057	yaw:	-27.660	yaw rate:	0.431	Roll:	-2.038	Pitch:	8.087	Yaw:	-40.735	Thrust:	0.000
Time:	0.337	Roll Set Point:	0.005	Pitch Set Point:	-0.544	Yaw Set Point:	0.483	X_WP:	0.000	Y_WP:	0.000	Y_WP:	0.000	X:	0.064	Y:	0.273	Z:	0.057	yaw:	-27.662	yaw rate:	-0.250	Roll:	-2.091	Pitch:	8.091	Yaw:	-40.889	Thrust:	0.000
Time:	0.349	Roll Set Point:	0.005	Pitch Set Point:	-0.544	Yaw Set Point:	0.483	X_WP:	0.000	Y_WP:	0.000	Y_WP:	0.000	X:	0.064	Y:	0.273	Z:	0.057	yaw:	-27.663	yaw rate:	-0.008	Roll:	-2.087	Pitch:	8.085	Yaw:	-41.031	Thrust:	0.000
Time:	0.360	Roll Set Point:	0.005	Pitch Set Point:	-0.544	Yaw Set Point:	0.483	X_WP:	0.000	Y_WP:	0.000	Y_WP:	0.000	X:	0.064	Y:	0.273	Z:	0.057	yaw:	-27.663	yaw rate:	-0.055	Roll:	-2.080	Pitch:	8.123	Yaw:	-40.836	Thrust:	0.000
Time:	0.370	Roll Set Point:	0.005	Pitch Set Point:	-0.544	Yaw Set Point:	0.483	X_WP:	0.000	Y_WP:	0.000	Y_WP:	0.000	X:	0.064	Y:	0.273	Z:	0.057	yaw:	-27.669	yaw rate:	-0.561	Roll:	-2.116	Pitch:	8.084	Yaw:	-40.794	Thrust:	0.000
Time:	0.381	Roll Set Point:	0.005	Pitch Set Point:	-0.544	Yaw Set Point:	0.483	X_WP:	0.000	Y_WP:	0.000	Y_WP:	0.000	X:	0.064	Y:	0.273	Z:	0.057	yaw:	-27.652	yaw rate:	1.634	Roll:	-1.959	Pitch:	8.163	Yaw:	-40.416	Thrust:	0.000
Time:	0.393	Roll Set Point:	0.005	Pitch Set Point:	-0.544	Yaw Set Point:	0.483	X_WP:	0.000	Y_WP:	0.000	Y_WP:	0.000	X:	0.064	Y:	0.273	Z:	0.057	yaw:	-27.665	yaw rate:	-1.280	Roll:	-2.183	Pitch:	8.080	Yaw:	-41.146	Thrust:	0.000
Time:	0.403	Roll Set Point:	0.005	Pitch Set Point:	-0.544	Yaw Set Point:	0.483	X_WP:	0.000	Y_WP:	0.000	Y_WP:	0.000	X:	0.064	Y:	0.273	Z:	0.057	yaw:	-27.658	yaw rate:	0.692	Roll:	-2.045	Pitch:	8.150	Yaw:	-40.650	Thrust:	0.000
Time:	0.414	Roll Set Point:	0.005	Pitch Set Point:	-0.544	Yaw Set Point:	0.483	X_WP:	0.000	Y_WP:	0.000	Y_WP:	0.000	X:	0.064	Y:	0.273	Z:	0.057	yaw:	-27.663	yaw rate:	-0.444	Roll:	-2.120	Pitch:	8.134	Yaw:	-40.940	Thrust:	0.000
Time:	0.425	Roll Set Point:	0.005	Pitch Set Point:	-0.544	Yaw Set Point:	0.483	X_WP:	0.000	Y_WP:	0.000	Y_WP:	0.000	X:	0.064	Y:	0.273	Z:	0.057	yaw:	-27.663	yaw rate:	-0.066	Roll:	-2.104	Pitch:	8.126	Yaw:	-40.841	Thrust:	0.000
Time:	0.435	Roll Set Point:	0.005	Pitch Set Point:	-0.544	Yaw Set Point:	0.483	X_WP:	0.000	Y_WP:	0.000	Y_WP:	0.000	X:	0.064	Y:	0.273	Z:	0.057	yaw:	-27.661	yaw rate:	0.242	Roll:	-2.051	Pitch:	8.155	Yaw:	-40.564	Thrust:	0.000
Time:	0.445	Roll Set Point:	0.005	Pitch Set Point:	-0.544	Yaw Set Point:	0.483	X_WP:	0.000	Y_WP:	0.000	Y_WP:	0.000	X:	0.064	Y:	0.273	Z:	0.057	yaw:	-27.657	yaw rate:	0.380	Roll:	-2.051	Pitch:	8.157	Yaw:	-40.523	Thrust:	0.000
Time:	0.455	Roll Set Point:	0.005	Pitch Set Point:	-0.544	Yaw Set Point:	0.483	X_WP:	0.000	Y_WP:	0.000	Y_WP:	0.000	X:	0.064	Y:	0.273	Z:	0.057	yaw:	-27.668	yaw rate:	-1.051	Roll:	-2.170	Pitch:	8.110	Yaw:	-40.911	Thrust:	0.000
Time:	0.465	Roll Set Point:	0.005	Pitch Set Point:	-0.544	Yaw Set Point:	0.483	X_WP:	0.000	Y_WP:	0.000	Y_WP:	0.000	X:	0.064	Y:	0.273	Z:	0.057	yaw:	-27.663	yaw rate:	0.433	Roll:	-2.076	Pitch:	8.152	Yaw:	-40.517	Thrust:	0.000
Time:	0.475	Roll Set Point:	0.005	Pitch Set Point:	-0.544	Yaw Set Point:	0.483	X_WP:	0.000	Y_WP:	0.000	Y_WP:	0.000	X:	0.064	Y:	0.273	Z:	0.057	yaw:	-27.660	yaw rate:	0.341	Roll:	-2.077	Pitch:	8.152	Yaw:	-40.537	Thrust:	0.000
Time:	0.485	Roll Set Point:	0.005	Pitch Set Point:	-0.544	Yaw Set Point:	0.483	X_WP:	0.000	Y_WP:	0.000	Y_WP:	0.000	X:	0.064	Y:	0.273	Z:	0.057	yaw:	-27.661	yaw rate:	-0.093	Roll:	-2.065	Pitch:	8.172	Yaw:	-40.652	Thrust:	0.000
Time:	0.495	Roll Set Point:	0.005	Pitch Set Point:	-0.544	Yaw Set Point:	0.483	X_WP:	0.000	Y_WP:	0.000	Y_WP:	0.000	X:	0.064	Y:	0.273	Z:	0.057	yaw:	-27.661	yaw rate:	-0.093	Roll:	-2.096	Pitch:	8.169	Yaw:	-40.627	Thrust:	0.000
Time:	0.505	Roll Set Point:	0.005	Pitch Set Point:	-0.544	Yaw Set Point:	0.483	X_WP:	0.000	Y_WP:	0.000	Y_WP:	0.000	X:	0.064	Y:	0.273	Z:	0.057	yaw:	-27.654	yaw rate:	0.680	Roll:	-2.053	Pitch:	8.201	Yaw:	-40.440	Thrust:	0.000
Time:	0.516	Roll Set Point:	0.005	Pitch Set Point:	-0.544	Yaw Set Point:	0.483	X_WP:	0.000	Y_WP:	0.000	Y_WP:	0.000	X:	0.064	Y:	0.273	Z:	0.057	yaw:	-27.664	yaw rate:	-0.993	Roll:	-2.193	Pitch:	8.154	Yaw:	-40.891	Thrust:	0.000
Time:	0.526	Roll Set Point:	0.005	Pitch Set Point:	-0.544	Yaw Set Point:	0.483	X_WP:	0.000	Y_WP:	0.000	Y_WP:	0.000	X:	0.064	Y:	0.273	Z:	0.057	yaw:	-27.661	yaw rate:	0.332	Roll:	-2.080	Pitch:	8.219	Yaw:	-40.749	Thrust:	0.000
Time:	0.538	Roll Set Point:	0.005	Pitch Set Point:	-0.544	Yaw Set Point:	0.483	X_WP:	0.000	Y_WP:	0.000	Y_WP:	0.000	X:	0.064	Y:	0.273	Z:	0.057	yaw:	-27.658	yaw rate:	0.274	Roll:	-2.098	Pitch:	8.231	Yaw:	-40.768	Thrust:	0.000
Time:	0.548	Roll Set Point:	0.005	Pitch Set Point:	-0.544	Yaw Set Point:	0.483	X_WP:	0.000	Y_WP:	0.000	Y_WP:	0.000	X:	0.064	Y:	0.273	Z:	0.057	yaw:	-27.659	yaw rate:	-0.150	Roll:	-2.127	Pitch:	8.240	Yaw:	-40.852	Thrust:	0.000
Time:	0.560	Roll Set Point:	0.005	Pitch Set Point:	-0.544	Yaw Set Point:	0.483	X_WP:	0.000	Y_WP:	0.000	Y_WP:	0.000	X:	0.064	Y:	0.273	Z:	0.057	yaw:	-27.668	yaw rate:	-0.841	Roll:	-2.179	Pitch:	8.227	Yaw:	-41.046	Thrust:	0.000
Time:	0.571	Roll Set Point:	0.005	Pitch Set Point:	-0.544	Yaw Set Point:	0.483	X_WP:	0.000	Y_WP:	0.000	Y_WP:	0.000	X:	0.064	Y:	0.273	Z:	0.057	yaw:	-27.665	yaw rate:	0.249	Roll:	-2.075	Pitch:	8.260	Yaw:	-40.765	Thrust:	0.000
Time:	0.581	Roll Set Point:	0.005	Pitch Set Point:	-0.544	Yaw Set Point:	0.483	X_WP:	0.000	Y_WP:	0.000	Y_WP:	0.000	X:	0.064	Y:	0.273	Z:	0.057	yaw:	-27.661	yaw rate:	0.398	Roll:	-2.097	Pitch:	8.228	Yaw:	-40.524	Thrust:	0.000
Time:	0.591	Roll Set Point:	0.005	Pitch Set Point:	-0.544	Yaw Set Point:	0.483	X_WP:	0.000	Y_WP:	0.000	Y_WP:	0.000	X:	0.064	Y:	0.273	Z:	0.057	yaw:	-27.669	yaw rate:	-0.732	Roll:	-2.177	Pitch:	8.219	Yaw:	-40.843	Thrust:	0.000
Time:	0.602	Roll Set Point:	0.005	Pitch Set Point:	-0.544	Yaw Set Point:	0.483	X_WP:	0.000	Y_WP:	0.000	Y_WP:	0.000	X:	0.064	Y:	0.273	Z:	0.057	yaw:	-27.662	yaw rate:	0.620	Roll:	-2.076	Pitch:	8.277	Yaw:	-40.666	Thrust:	0.000
Time:	0.612	Roll Set Point:	0.005	Pitch Set Point:	-0.544	Yaw Set Point:	0.483	X_WP:	0.000	Y_WP:	0.000	Y_WP:	0.000	X:	0.064	Y:	0.273	Z:	0.057	yaw:	-27.662	yaw rate:	0.038	Roll:	-2.108	Pitch:	8.258	Yaw:	-40.623	Thrust:	0.000
Time:	0.622	Roll Set Point:	0.005	Pitch Set Point:	-0.544	Yaw Set Point:	0.483	X_WP:	0.000	Y_WP:	0.000	Y_WP:	0.000	X:	0.064	Y:	0.273	Z:	0.057	yaw:	-27.662	yaw rate:	0.052	Roll:	-2.104	Pitch:	8.250	Yaw:	-40.610	Thrust:	0.000
Time:	0.632	Roll Set Point:	0.005	Pitch Set Point:	-0.544	Yaw Set Point:	0.483	X_WP:	0.000	Y_WP:	0.000	Y_WP:	0.000	X:	0.064	Y:	0.273	Z:	0.057	yaw:	-27.665	yaw rate:	-0.306	Roll:	-2.150	Pitch:	8.227	Yaw:	-40.712	Thrust:	0.000
Time:	0.643	Roll Set Point:	0.005	Pitch Set Point:	-0.544	Yaw Set Point:	0.483	X_WP:	0.000	Y_WP:	0.000	Y_WP:	0.000	X:	0.064	Y:	0.273	Z:	0.057	yaw:	-27.662	yaw rate:	0.276	Roll:	-2.100	Pitch:	8.296	Yaw:	-40.780	Thrust:	0.000
Time:	0.654	Roll Set Point:	0.005	Pitch Set Point:	-0.544	Yaw Set Point:	0.483	X_WP:	0.000	Y_WP:	0.000	Y_WP:	0.000	X:	0.064	Y:	0.273	Z:	0.057	yaw:	-27.660	yaw rate:	0.152	Roll:	-2.135	Pitch:	8.287	Yaw:	-40.775	Thrust:	0.000
Time:	0.664	Roll Set Point:	0.005	Pitch Set Point:	-0.544	Yaw Set Point:	0.483	X_WP:	0.000	Y_WP:	0.000	Y_WP:	0.000	X:	0.064	Y:	0.273	Z:	0.057	yaw:	-27.665	yaw rate:	-0.464	Roll:	-2.188	Pitch:	8.222	Yaw:	-40.754	Thrust:	0.000
Time:	0.674	Roll Set Point:	0.005	Pitch Set Point:	-0.544	Yaw Set Point:	0.483	X_WP:	0.000	Y_WP:	0.000	Y_WP:	0.000	X:	0.064	Y:	0.273	Z:	0.057	yaw:	-27.661	yaw rate:	0.433	Roll:	-2.068	Pitch:	8.255	Yaw:	-40.514	Thrust:	0.000
Time:	0.684	Roll Set Point:	0.005	Pitch Set Point:	-0.544	Yaw Set Point:	0.483	X_WP:	0.000	Y_WP:	0.000	Y_WP:	0.000	X:	0.064	Y:	0.273	Z:	0.057	yaw:	-27.667	yaw rate:	-0.618	Roll:	-2.169	Pitch:	8.251	Yaw:	-40.797	Thrust:	0.000
Time:	0.694	Roll Set Point:	0.005	Pitch Set Point:	-0.544	Yaw Set Point:	0.483	X_WP:	0.000	Y_WP:	0.000	Y_WP:	0.000	X:	0.064	Y:	0.273	Z:	0.057	yaw:	-27.666	yaw rate:	0.122	Roll:	-2.121	Pitch:	8.237	Yaw:	-40.602	Thrust:	0.000
Time:	0.704	Roll Set Point:	0.005	Pitch Set Point:	-0.544	Yaw Set Point:	0.483	X_WP:	0.000	Y_WP:	0.000	Y_WP:	0.000	X:	0.064	Y:	0.273	Z:	0.057	yaw:	-27.666	yaw rate:	0.122	Roll:	-2.132	Pitch:	8.247	Yaw:	-40.639	Thrust:	0.000
Time:	0.714	Roll Set Point:	0.005	Pitch Set Point:	-0.544	Yaw Set Point:	0.483	X_WP:	0.000	Y_WP:	0.000	Y_WP:	0.000	X:	0.064	Y:	0.273	Z:	0.057	yaw:	-27.662	yaw rate:	0.393	Roll:	-2.101	Pitch:	8.267	Yaw:	-40.534	Thrust:	0.000
Time:	0.725	Roll Set Point:	0.005	Pitch Set Point:	-0.544	Yaw Set Point:	0.483	X_WP:	0.000	Y_WP:	0.000	Y_WP:	0.000	X:	0.064	Y:	0.273	Z:	0.057	yaw:	-27.660	yaw rate:	0.142	Roll:	-2.158	Pitch:	8.266	Yaw:	-40.780	Thrust:	0.000
Time:	0.735	Roll Set Point:	0.005	Pitch Set Point:	-0.544	Yaw Set Point:	0.483	X_WP:	0.000	Y_WP:	0.000	Y_WP:	0.000	X:	0.064	Y:	0.273	Z:	0.057	yaw:	-27.658	yaw rate:	0.235	Roll:	-2.119	Pitch:	8.255	Yaw:	-40.567	Thrust:	0.000
Time:	0.745	Roll Set Point:	0.005	Pitch Set Point:	-0.544	Yaw Set Point:	0.483	X_WP:	0.000	Y_WP:	0.000	Y_WP:	0.000	X:	0.064	Y:	0.273	Z:	0.057	yaw:	-27.661	yaw rate:	-0.356	Roll:	-2.137	Pitch:	8.246	Yaw:	-40.729	Thrust:	0.000
Time:	0.755	Roll Set Point:	0.005	Pitch Set Point:	-0.544	Yaw Set Point:	0.483	X_WP:	0.000	Y_WP:	0.000	Y_WP:	0.000	X:	0.064	Y:	0.273	Z:	0.057	yaw:	-27.663	yaw rate:	-0.155	Roll:	-2.157	Pitch:	8.234	Yaw:	-40.671	Thrust:	0.000
Time:	0.766	Roll Set Point:	0.005	Pitch Set Point:	-0.544	Yaw Set Point:	0.483	X_WP:	0.000	Y_WP:	0.000	Y_WP:	0.000	X:	0.064	Y:	0.273	Z:	0.057	yaw:	-27.665	yaw rate:	-0.171	Roll:	-2.182	Pitch:	8.288	Yaw:	-40.874	Thrust:	0.000
Time:	0.777	Roll Set Point:	0.005	Pitch Set Point:	-0.544	Yaw Set Point:	0.483	X_WP:	0.000	Y_WP:	0.000	Y_WP:	0.000	X:	0.064	Y:	0.273	Z:	0.057	yaw:	-27.661	yaw rate:	0.400	Roll:	-2.110	Pitch:	8.295	Yaw:	-40.719	Thrust:	0.000
Time:	0.787	Roll Set Point:	0.005	Pitch Set Point:	-0.544	Yaw Set Point:	0.483	X_WP:	0.000	Y_WP:	0.000	Y_WP:	0.000	X:	0.064	Y:	0.273	Z:	0.057	yaw:	-27.661	yaw rate:	-0.077	Roll:	-2.164	Pitch:	8.230	Yaw:	-40.648	Thrust:	0.000
Time:	0.797	Roll Set Point:	0.005	Pitch Set Point:	-0.544	Yaw Set Point:	0.483	X_WP:	0.000	Y_WP:	0.000	Y_WP:	0.000	X:	0.064	Y:	0.273	Z:	0.057	yaw:	-27.662	yaw rate:	-0.087	Roll:	-2.148	Pitch:	8.245	Yaw:	-40.652	Thrust:	0.000
Time:	0.807	Roll Set Point:	0.005	Pitch Set Point:	-0.544	Yaw Set Point:	0.483	X_WP:	0.000	Y_WP:	0.000	Y_WP:	0.000	X:	0.064	Y:	0.273	Z:	0.057	yaw:	-27.667	yaw rate:	-0.467	Roll:	-2.172	Pitch:	8.240	Yaw:	-40.758	Thrust:	0.000
Time:	0.817	Roll Set Point:	0.005	Pitch Set Point:	-0.544	Yaw Set Point:	0.483	X_WP:	0.000	Y_WP:	0.000	Y_WP:	0.000	X:	0.064	Y:	0.273	Z:	0.057	yaw:	-27.667	yaw rate:	0.011	Roll:	-2.165	Pitch:	8.249	Yaw:	-40.645	Thrust:	0.000
Time:	0.828	Roll Set Point:	0.005	Pitch Set Point:	-0.544	Yaw Set Point:	0.483	X_WP:	0.000	Y_WP:	0.000	Y_WP:	0.000	X:	0.064	Y:	0.273	Z:	0.057	yaw:	-27.662	yaw rate:	0.524	Roll:	-2.133	Pitch:	8.291	Yaw:	-40.691	Thrust:	0.000
Time:	0.838	Roll Set Point:	0.005	Pitch Set Point:	-0.544	Yaw Set Point:	0.483	X_WP:	0.000	Y_WP:	0.000	Y_WP:	0.000	X:	0.064	Y:	0.273	Z:	0.057	yaw:	-27.662	yaw rate:	-0.036	Roll:	-2.150	Pitch:	8.242	Yaw:	-40.651	Thrust:	0.000
Time:	0.849	Roll Set Point:	0.005	Pitch Set Point:	-0.544	Yaw Set Point:	0.483	X_WP:	0.000	Y_WP:	0.000	Y_WP:	0.000	X:	0.064	Y:	0.273	Z:	0.057	yaw:	-27.663	yaw rate:	-0.117	Roll:	-2.193	Pitch:	8.272	Yaw:	-40.859	Thrust:	0.000
Time:	0.859	Roll Set Point:	0.005	Pitch Set Point:	-0.544	Yaw Set Point:	0.483	X_WP:	0.000	Y_WP:	0.000	Y_WP:	0.000	X:	0.064	Y:	0.273	Z:	0.057	yaw:	-27.663	yaw rate:	-0.117	Roll:	-2.158	Pitch:	8.245	Yaw:	-40.630	Thrust:	0.000
Time:	0.870	Roll Set Point:	0.005	Pitch Set Point:	-0.544	Yaw Set Point:	0.483	X_WP:	0.000	Y_WP:	0.000	Y_WP:	0.000	X:	0.064	Y:	0.273	Z:	0.057	yaw:	-27.664	yaw rate:	-0.098	Roll:	-2.176	Pitch:	8.282	Yaw:	-40.843	Thrust:	0.000
Time:	0.880	Roll Set Point:	0.005	Pitch Set Point:	-0.544	Yaw Set Point:	0.483	X_WP:	0.000	Y_WP:	0.000	Y_WP:	0.000	X:	0.064	Y:	0.273	Z:	0.057	yaw:	-27.663	yaw rate:	0.110	Roll:	-2.145	Pitch:	8.264	Yaw:	-40.613	Thrust:	0.000
Time:	0.891	Roll Set Point:	0.005	Pitch Set Point:	-0.544	Yaw Set Point:	0.483	X_WP:	0.000	Y_WP:	0.000	Y_WP:	0.000	X:	0.064	Y:	0.273	Z:	0.057	yaw:	-27.660	yaw rate:	0.284	Roll:	-2.149	Pitch:	8.279	Yaw:	-40.762	Thrust:	0.000
Time:	0.902	Roll Set Point:	0.005	Pitch Set Point:	-0.544	Yaw Set Point:	0.483	X_WP:	0.000	Y_WP:	0.000	Y_WP:	0.000	X:	0.064	Y:	0.273	Z:	0.057	yaw:	-27.655	yaw rate:	0.553	Roll:	-2.147	Pitch:	8.308	Yaw:	-40.674	Thrust:	0.000
Time:	0.912	Roll Set Point:	0.005	Pitch Set Point:	-0.544	Yaw Set Point:	0.483	X_WP:	0.000	Y_WP:	0.000	Y_WP:	0.000	X:	0.064	Y:	0.273	Z:	0.057	yaw:	-27.658	yaw rate:	-0.305	Roll:	-2.198	Pitch:	8.221	Yaw:	-40.702	Thrust:	0.000
Time:	0.923	Roll Set Point:	0.005	Pitch Set Point:	-0.544	Yaw Set Point:	0.483	X_WP:	0.000	Y_WP:	0.000	Y_WP:	0.000	X:	0.064	Y:	0.273	Z:	0.057	yaw:	-27.658	yaw rate:	-0.037	Roll:	-2.161	Pitch:	8.244	Yaw:	-40.646	Thrust:	0.000
Time:	0.934	Roll Set Point:	0.005	Pitch Set Point:	-0.544	Yaw Set Point:	0.483	X_WP:	0.000	Y_WP:	0.000	Y_WP:	0.000	X:	0.064	Y:	0.273	Z:	0.057	yaw:	-27.666	yaw rate:	-0.830	Roll:	-2.249	Pitch:	8.279	Yaw:	-41.032	Thrust:	0.000
Time:	0.945	Roll Set Point:	0.005	Pitch Set Point:	-0.544	Yaw Set Point:	0.483	X_WP:	0.000	Y_WP:	0.000	Y_WP:	0.000	X:	0.064	Y:	0.273	Z:	0.057	yaw:	-27.658	yaw rate:	0.828	Roll:	-2.131	Pitch:	8.291	Yaw:	-40.627	Thrust:	0.000
Time:	0.955	Roll Set Point:	0.005	Pitch Set Point:	-0.544	Yaw Set Point:	0.483	X_WP:	0.000	Y_WP:	0.000	Y_WP:	0.000	X:	0.064	Y:	0.273	Z:	0.057	yaw:	-27.659	yaw rate:	-0.061	Roll:	-2.153	Pitch:	8.257	Yaw:	-40.640	Thrust:	0.000
Time:	0.965	Roll Set Point:	0.005	Pitch Set Point:	-0.544	Yaw Set Point:	0.483	X_WP:	0.000	Y_WP:	0.000	Y_WP:	0.000	X:	0.064	Y:	0.273	Z:	0.057	yaw:	-27.655	yaw rate:	0.345	Roll:	-2.165	Pitch:	8.268	Yaw:	-40.527	Thrust:	0.000
Time:	0.976	Roll Set Point:	0.005	Pitch Set Point:	-0.544	Yaw Set Point:	0.483	X_WP:	0.000	Y_WP:	0.000	Y_WP:	0.000	X:	0.064	Y:	0.273	Z:	0.057	yaw:	-27.662	yaw rate:	-0.648	Roll:	-2.250	Pitch:	8.243	Yaw:	-40.972	Thrust:	0.000
Time:	0.986	Roll Set Point:	0.005	Pitch Set Point:	-0.544	Yaw Set Point:	0.483	X_WP:	0.000	Y_WP:	0.000	Y_WP:	0.000	X:	0.064	Y:	0.273	Z:	0.057	yaw:	-27.661	yaw rate:	0.057	Roll:	-2.161	Pitch:	8.242	Yaw:	-40.613	Thrust:	0.000
Time:	0.996	Roll Set Point:	0.005	Pitch Set Point:	-0.544	Yaw Set Point:	0.483	X_WP:	0.000	Y_WP:	0.000	Y_WP:	0.000	X:	0.064	Y:	0.273	Z:	0.057	yaw:	-27.661	yaw rate:	-0.003	Roll:	-2.192	Pitch:	8.258	Yaw:	-40.629	Thrust:	0.000
Time:	1.006	Roll Set Point:	0.005	Pitch Set Point:	-0.544	Yaw Set Point:	0.483	X_WP:	0.000	Y_WP:	0.000	Y_WP:	0.000	X:	0.064	Y:	0.273	Z:	0.057	yaw:	-27.660	yaw rate:	0.131	Roll:	-2.163	Pitch:	8.269	Yaw:	-40.592	Thrust:	0.000
Time:	1.016	Roll Set Point:	0.005	Pitch Set Point:	-0.544	Yaw Set Point:	0.483	X_WP:	0.000	Y_WP:	0.000	Y_WP:	0.000	X:	0.064	Y:	0.273	Z:	0.057	yaw:	-27.661	yaw rate:	-0.098	Roll:	-2.165	Pitch:	8.226	Yaw:	-40.652	Thrust:	0.000
Time:	1.027	Roll Set Point:	0.005	Pitch Set Point:	-0.544	Yaw Set Point:	0.483	X_WP:	0.000	Y_WP:	0.000	Y_WP:	0.000	X:	0.064	Y:	0.273	Z:	0.057	yaw:	-27.665	yaw rate:	-0.437	Roll:	-2.259	Pitch:	8.273	Yaw:	-40.938	Thrust:	0.000
Time:	1.037	Roll Set Point:	0.005	Pitch Set Point:	-0.544	Yaw Set Point:	0.483	X_WP:	0.000	Y_WP:	0.000	Y_WP:	0.000	X:	0.064	Y:	0.273	Z:	0.057	yaw:	-27.664	yaw rate:	0.090	Roll:	-2.208	Pitch:	8.255	Yaw:	-40.622	Thrust:	0.000
Time:	1.048	Roll Set Point:	0.005	Pitch Set Point:	-0.544	Yaw Set Point:	0.483	X_WP:	0.000	Y_WP:	0.000	Y_WP:	0.000	X:	0.064	Y:	0.273	Z:	0.057	yaw:	-27.658	yaw rate:	0.597	Roll:	-2.139	Pitch:	8.283	Yaw:	-40.669	Thrust:	0.000
Time:	1.058	Roll Set Point:	0.005	Pitch Set Point:	-0.544	Yaw Set Point:	0.483	X_WP:	0.000	Y_WP:	0.000	Y_WP:	0.000	X:	0.064	Y:	0.273	Z:	0.057	yaw:	-27.661	yaw rate:	-0.308	Roll:	-2.213	Pitch:	8.244	Yaw:	-40.708	Thrust:	0.000
Time:	1.068	Roll Set Point:	0.005	Pitch Set Point:	-0.544	Yaw Set Point:	0.483	X_WP:	0.000	Y_WP:	0.000	Y_WP:	0.000	X:	0.064	Y:	0.273	Z:	0.057	yaw:	-27.660	yaw rate:	0.119	Roll:	-2.196	Pitch:	8.277	Yaw:	-40.609	Thrust:	0.000
Time:	1.079	Roll Set Point:	0.005	Pitch Set Point:	-0.544	Yaw Set Point:	0.483	X_WP:	0.000	Y_WP:	0.000	Y_WP:	0.000	X:	0.064	Y:	0.273	Z:	0.057	yaw:	-27.662	yaw rate:	-0.178	Roll:	-2.207	Pitch:	8.256	Yaw:	-40.858	Thrust:	0.000
Time:	1.089	Roll Set Point:	0.005	Pitch Set Point:	-0.544	Yaw Set Point:	0.483	X_WP:	0.000	Y_WP:	0.000	Y_WP:	0.000	X:	0.064	Y:	0.273	Z:	0.057	yaw:	-27.662	yaw rate:	-0.178	Roll:	-2.196	Pitch:	8.246	Yaw:	-40.630	Thrust:	0.000
Time:	1.099	Roll Set Point:	0.005	Pitch Set Point:	-0.544	Yaw Set Point:	0.483	X_WP:	0.000	Y_WP:	0.000	Y_WP:	0.000	X:	0.064	Y:	0.273	Z:	0.057	yaw:	-27.662	yaw rate:	-0.024	Roll:	-2.190	Pitch:	8.230	Yaw:	-40.636	Thrust:	0.000
Time:	1.109	Roll Set Point:	0.005	Pitch Set Point:	-0.544	Yaw Set Point:	0.483	X_WP:	0.000	Y_WP:	0.000	Y_WP:	0.000	X:	0.064	Y:	0.273	Z:	0.057	yaw:	-27.666	yaw rate:	-0.333	Roll:	-2.262	Pitch:	8.254	Yaw:	-40.720	Thrust:	0.000
Time:	1.119	Roll Set Point:	0.005	Pitch Set Point:	-0.544	Yaw Set Point:	0.483	X_WP:	0.000	Y_WP:	0.000	Y_WP:	0.000	X:	0.064	Y:	0.273	Z:	0.057	yaw:	-27.660	yaw rate:	0.532	Roll:	-2.161	Pitch:	8.251	Yaw:	-40.486	Thrust:	0.000
Time:	1.129	Roll Set Point:	0.005	Pitch Set Point:	-0.544	Yaw Set Point:	0.483	X_WP:	0.000	Y_WP:	0.000	Y_WP:	0.000	X:	0.064	Y:	0.273	Z:	0.057	yaw:	-27.664	yaw rate:	-0.414	Roll:	-2.221	Pitch:	8.251	Yaw:	-40.741	Thrust:	0.000
Time:	1.139	Roll Set Point:	0.005	Pitch Set Point:	-0.544	Yaw Set Point:	0.483	X_WP:	0.000	Y_WP:	0.000	Y_WP:	0.000	X:	0.064	Y:	0.273	Z:	0.057	yaw:	-27.662	yaw rate:	0.219	Roll:	-2.188	Pitch:	8.247	Yaw:	-40.583	Thrust:	0.000
Time:	1.150	Roll Set Point:	0.005	Pitch Set Point:	-0.544	Yaw Set Point:	0.483	X_WP:	0.000	Y_WP:	0.000	Y_WP:	0.000	X:	0.064	Y:	0.273	Z:	0.057	yaw:	-27.666	yaw rate:	-0.326	Roll:	-2.225	Pitch:	8.274	Yaw:	-40.900	Thrust:	0.000
Time:	1.160	Roll Set Point:	0.005	Pitch Set Point:	-0.544	Yaw Set Point:	0.483	X_WP:	0.000	Y_WP:	0.000	Y_WP:	0.000	X:	0.064	Y:	0.273	Z:	0.057	yaw:	-27.665	yaw rate:	0.044	Roll:	-2.217	Pitch:	8.253	Yaw:	-40.635	Thrust:	0.000
Time:	1.171	Roll Set Point:	0.005	Pitch Set Point:	-0.544	Yaw Set Point:	0.483	X_WP:	0.000	Y_WP:	0.000	Y_WP:	0.000	X:	0.064	Y:	0.273	Z:	0.057	yaw:	-27.656	yaw rate:	0.923	Roll:	-2.191	Pitch:	8.284	Yaw:	-40.593	Thrust:	0.000
Time:	1.181	Roll Set Point:	0.005	Pitch Set Point:	-0.544	Yaw Set Point:	0.483	X_WP:	0.000	Y_WP:	0.000	Y_WP:	0.000	X:	0.064	Y:	0.273	Z:	0.057	yaw:	-27.656	yaw rate:	-0.060	Roll:	-2.215	Pitch:	8.246	Yaw:	-40.632	Thrust:	0.000
Time:	1.191	Roll Set Point:	0.005	Pitch Set Point:	-0.544	Yaw Set Point:	0.483	X_WP:	0.000	Y_WP:	0.000	Y_WP:	0.000	X:	0.064	Y:	0.273	Z:	0.057	yaw:	-27.658	yaw rate:	-0.181	Roll:	-2.201	Pitch:	8.255	Yaw:	-40.671	Thrust:	0.000
Time:	1.201	Roll Set Point:	0.005	Pitch Set Point:	-0.544	Yaw Set Point:	0.483	X_WP:	0.000	Y_WP:	0.000	Y_WP:	0.000	X:	0.064	Y:	0.273	Z:	0.057	yaw:	-27.665	yaw rate:	-0.673	Roll:	-2.284	Pitch:	8.218	Yaw:	-40.809	Thrust:	0.000
Time:	1.211	Roll Set Point:	0.005	Pitch Set Point:	-0.544	Yaw Set Point:	0.483	X_WP:	0.000	Y_WP:	0.000	Y_WP:	0.000	X:	0.064	Y:	0.273	Z:	0.057	yaw:	-27.661	yaw rate:	0.394	Roll:	-2.181	Pitch:	8.267	Yaw:	-40.538	Thrust:	0.000
Time:	1.222	Roll Set Point:	0.005	Pitch Set Point:	-0.544	Yaw Set Point:	0.483	X_WP:	0.000	Y_WP:	0.000	Y_WP:	0.000	X:	0.064	Y:	0.273	Z:	0.057	yaw:	-27.659	yaw rate:	0.240	Roll:	-2.211	Pitch:	8.289	Yaw:	-40.769	Thrust:	0.000
Time:	1.233	Roll Set Point:	0.005	Pitch Set Point:	-0.544	Yaw Set Point:	0.483	X_WP:	0.000	Y_WP:	0.000	Y_WP:	0.000	X:	0.064	Y:	0.273	Z:	0.057	yaw:	-27.660	yaw rate:	-0.154	Roll:	-2.270	Pitch:	8.271	Yaw:	-40.850	Thrust:	0.000
Time:	1.243	Roll Set Point:	0.005	Pitch Set Point:	-0.544	Yaw Set Point:	0.483	X_WP:	0.000	Y_WP:	0.000	Y_WP:	0.000	X:	0.064	Y:	0.273	Z:	0.057	yaw:	-27.654	yaw rate:	0.590	Roll:	-2.168	Pitch:	8.265	Yaw:	-40.464	Thrust:	0.000
Time:	1.253	Roll Set Point:	0.005	Pitch Set Point:	-0.544	Yaw Set Point:	0.483	X_WP:	0.000	Y_WP:	0.000	Y_WP:	0.000	X:	0.064	Y:	0.273	Z:	0.057	yaw:	-27.654	yaw rate:	0.590	Roll:	-2.223	Pitch:	8.246	Yaw:	-40.618	Thrust:	0.000
Time:	1.263	Roll Set Point:	0.005	Pitch Set Point:	-0.544	Yaw Set Point:	0.483	X_WP:	0.000	Y_WP:	0.000	Y_WP:	0.000	X:	0.064	Y:	0.273	Z:	0.057	yaw:	-27.664	yaw rate:	-0.973	Roll:	-2.289	Pitch:	8.204	Yaw:	-40.886	Thrust:	0.000
Time:	1.273	Roll Set Point:	0.005	Pitch Set Point:	-0.544	Yaw Set Point:	0.483	X_WP:	0.000	Y_WP:	0.000	Y_WP:	0.000	X:	0.064	Y:	0.273	Z:	0.057	yaw:	-27.660	yaw rate:	0.421	Roll:	-2.181	Pitch:	8.271	Yaw:	-40.516	Thrust:	0.000
Time:	1.283	Roll Set Point:	0.005	Pitch Set Point:	-0.544	Yaw Set Point:	0.483	X_WP:	0.000	Y_WP:	0.000	Y_WP:	0.000	X:	0.064	Y:	0.273	Z:	0.057	yaw:	-27.657	yaw rate:	0.318	Roll:	-2.227	Pitch:	8.270	Yaw:	-40.538	Thrust:	0.000
Time:	1.293	Roll Set Point:	0.005	Pitch Set Point:	-0.544	Yaw Set Point:	0.483	X_WP:	0.000	Y_WP:	0.000	Y_WP:	0.000	X:	0.064	Y:	0.273	Z:	0.057	yaw:	-27.657	yaw rate:	0.012	Roll:	-2.243	Pitch:	8.228	Yaw:	-40.625	Thrust:	0.000
Time:	1.304	Roll Set Point:	0.005	Pitch Set Point:	-0.544	Yaw Set Point:	0.483	X_WP:	0.000	Y_WP:	0.000	Y_WP:	0.000	X:	0.064	Y:	0.273	Z:	0.057	yaw:	-27.658	yaw rate:	-0.134	Roll:	-2.254	Pitch:	8.281	Yaw:	-40.849	Thrust:	0.000
Time:	1.315	Roll Set Point:	0.005	Pitch Set Point:	-0.544	Yaw Set Point:	0.483	X_WP:	0.000	Y_WP:	0.000	Y_WP:	0.000	X:	0.064	Y:	0.273	Z:	0.057	yaw:	-27.666	yaw rate:	-0.831	Roll:	-2.299	Pitch:	8.235	Yaw:	-40.857	Thrust:	0.000
Time:	1.326	Roll Set Point:	0.005	Pitch Set Point:	-0.544	Yaw Set Point:	0.483	X_WP:	0.000	Y_WP:	0.000	Y_WP:	0.000	X:	0.064	Y:	0.273	Z:	0.057	yaw:	-27.664	yaw rate:	0.254	Roll:	-2.238	Pitch:	8.279	Yaw:	-40.777	Thrust:	0.000
Time:	1.336	Roll Set Point:	0.005	Pitch Set Point:	-0.544	Yaw Set Point:	0.483	X_WP:	0.000	Y_WP:	0.000	Y_WP:	0.000	X:	0.064	Y:	0.273	Z:	0.057	yaw:	-27.660	yaw rate:	0.376	Roll:	-2.201	Pitch:	8.264	Yaw:	-40.528	Thrust:	0.000
Time:	1.347	Roll Set Point:	0.005	Pitch Set Point:	-0.544	Yaw Set Point:	0.483	X_WP:	0.000	Y_WP:	0.000	Y_WP:	0.000	X:	0.064	Y:	0.273	Z:	0.057	yaw:	-27.662	yaw rate:	-0.197	Roll:	-2.281	Pitch:	8.276	Yaw:	-40.876	Thrust:	0.000
Time:	1.357	Roll Set Point:	0.005	Pitch Set Point:	-0.544	Yaw Set Point:	0.483	X_WP:	0.000	Y_WP:	0.000	Y_WP:	0.000	X:	0.064	Y:	0.273	Z:	0.057	yaw:	-27.656	yaw rate:	0.584	Roll:	-2.211	Pitch:	8.263	Yaw:	-40.468	Thrust:	0.000
Time:	1.368	Roll Set Point:	0.005	Pitch Set Point:	-0.544	Yaw Set Point:	0.483	X_WP:	0.000	Y_WP:	0.000	Y_WP:	0.000	X:	0.064	Y:	0.273	Z:	0.057	yaw:	-27.661	yaw rate:	-0.539	Roll:	-2.288	Pitch:	8.266	Yaw:	-40.957	Thrust:	0.000
Time:	1.379	Roll Set Point:	0.005	Pitch Set Point:	-0.544	Yaw Set Point:	0.483	X_WP:	0.000	Y_WP:	0.000	Y_WP:	0.000	X:	0.064	Y:	0.273	Z:	0.057	yaw:	-27.662	yaw rate:	-0.056	Roll:	-2.267	Pitch:	8.283	Yaw:	-40.829	Thrust:	0.000
Time:	1.389	Roll Set Point:	0.005	Pitch Set Point:	-0.544	Yaw Set Point:	0.483	X_WP:	0.000	Y_WP:	0.000	Y_WP:	0.000	X:	0.064	Y:	0.273	Z:	0.057	yaw:	-27.658	yaw rate:	0.386	Roll:	-2.226	Pitch:	8.263	Yaw:	-40.522	Thrust:	0.000
Time:	1.400	Roll Set Point:	0.005	Pitch Set Point:	-0.544	Yaw Set Point:	0.483	X_WP:	0.000	Y_WP:	0.000	Y_WP:	0.000	X:	0.064	Y:	0.273	Z:	0.057	yaw:	-27.659	yaw rate:	-0.104	Roll:	-2.269	Pitch:	8.223	Yaw:	-40.653	Thrust:	0.000
Time:	1.410	Roll Set Point:	0.005	Pitch Set Point:	-0.544	Yaw Set Point:	0.483	X_WP:	0.000	Y_WP:	0.000	Y_WP:	0.000	X:	0.064	Y:	0.273	Z:	0.057	yaw:	-27.660	yaw rate:	-0.090	Roll:	-2.257	Pitch:	8.299	Yaw:	-40.860	Thrust:	0.000
Time:	1.420	Roll Set Point:	0.005	Pitch Set Point:	-0.544	Yaw Set Point:	0.483	X_WP:	0.000	Y_WP:	0.000	Y_WP:	0.000	X:	0.064	Y:	0.273	Z:	0.057	yaw:	-27.658	yaw rate:	0.155	Roll:	-2.257	Pitch:	8.251	Yaw:	-40.589	Thrust:	0.000
Time:	1.431	Roll Set Point:	0.005	Pitch Set Point:	-0.544	Yaw Set Point:	0.483	X_WP:	0.000	Y_WP:	0.000	Y_WP:	0.000	X:	0.064	Y:	0.273	Z:	0.057	yaw:	-27.666	yaw rate:	-0.781	Roll:	-2.330	Pitch:	8.254	Yaw:	-41.010	Thrust:	0.000
Time:	1.442	Roll Set Point:	0.005	Pitch Set Point:	-0.544	Yaw Set Point:	0.483	X_WP:	0.000	Y_WP:	0.000	Y_WP:	0.000	X:	0.064	Y:	0.273	Z:	0.057	yaw:	-27.661	yaw rate:	0.519	Roll:	-2.228	Pitch:	8.304	Yaw:	-40.711	Thrust:	0.000
Time:	1.453	Roll Set Point:	0.005	Pitch Set Point:	-0.544	Yaw Set Point:	0.483	X_WP:	0.000	Y_WP:	0.000	Y_WP:	0.000	X:	0.064	Y:	0.273	Z:	0.057	yaw:	-27.658	yaw rate:	0.341	Roll:	-2.263	Pitch:	8.306	Yaw:	-40.743	Thrust:	0.000
Time:	1.464	Roll Set Point:	0.005	Pitch Set Point:	-0.544	Yaw Set Point:	0.483	X_WP:	0.000	Y_WP:	0.000	Y_WP:	0.000	X:	0.064	Y:	0.273	Z:	0.057	yaw:	-27.660	yaw rate:	-0.229	Roll:	-2.309	Pitch:	8.268	Yaw:	-40.881	Thrust:	0.000
Time:	1.475	Roll Set Point:	0.005	Pitch Set Point:	-0.544	Yaw Set Point:	0.483	X_WP:	0.000	Y_WP:	0.000	Y_WP:	0.000	X:	0.064	Y:	0.273	Z:	0.057	yaw:	-27.663	yaw rate:	-0.351	Roll:	-2.300	Pitch:	8.266	Yaw:	-40.902	Thrust:	0.000
Time:	1.485	Roll Set Point:	0.005	Pitch Set Point:	-0.544	Yaw Set Point:	0.483	X_WP:	0.000	Y_WP:	0.000	Y_WP:	0.000	X:	0.064	Y:	0.273	Z:	0.057	yaw:	-27.662	yaw rate:	0.168	Roll:	-2.256	Pitch:	8.258	Yaw:	-40.590	Thrust:	0.000
Time:	1.495	Roll Set Point:	0.005	Pitch Set Point:	-0.544	Yaw Set Point:	0.483	X_WP:	0.000	Y_WP:	0.000	Y_WP:	0.000	X:	0.064	Y:	0.273	Z:	0.057	yaw:	-27.659	yaw rate:	0.270	Roll:	-2.232	Pitch:	8.243	Yaw:	-40.549	Thrust:	0.000
Time:	1.505	Roll Set Point:	0.005	Pitch Set Point:	-0.544	Yaw Set Point:	0.483	X_WP:	0.000	Y_WP:	0.000	Y_WP:	0.000	X:	0.064	Y:	0.273	Z:	0.057	yaw:	-27.659	yaw rate:	0.009	Roll:	-2.263	Pitch:	8.260	Yaw:	-40.635	Thrust:	0.000
Time:	1.516	Roll Set Point:	0.005	Pitch Set Point:	-0.544	Yaw Set Point:	0.483	X_WP:	0.000	Y_WP:	0.000	Y_WP:	0.000	X:	0.064	Y:	0.273	Z:	0.057	yaw:	-27.657	yaw rate:	0.168	Roll:	-2.295	Pitch:	8.281	Yaw:	-40.770	Thrust:	0.000
Time:	1.526	Roll Set Point:	0.005	Pitch Set Point:	-0.544	Yaw Set Point:	0.483	X_WP:	0.000	Y_WP:	0.000	Y_WP:	0.000	X:	0.064	Y:	0.273	Z:	0.057	yaw:	-27.658	yaw rate:	-0.021	Roll:	-2.266	Pitch:	8.236	Yaw:	-40.628	Thrust:	0.000
Time:	1.536	Roll Set Point:	0.005	Pitch Set Point:	-0.544	Yaw Set Point:	0.483	X_WP:	0.000	Y_WP:	0.000	Y_WP:	0.000	X:	0.064	Y:	0.273	Z:	0.057	yaw:	-27.658	yaw rate:	-0.021	Roll:	-2.272	Pitch:	8.248	Yaw:	-40.635	Thrust:	0.000
Time:	1.546	Roll Set Point:	0.005	Pitch Set Point:	-0.544	Yaw Set Point:	0.483	X_WP:	0.000	Y_WP:	0.000	Y_WP:	0.000	X:	0.064	Y:	0.273	Z:	0.057	yaw:	-27.664	yaw rate:	-0.600	Roll:	-2.313	Pitch:	8.232	Yaw:	-40.788	Thrust:	0.000
Time:	1.556	Roll Set Point:	0.005	Pitch Set Point:	-0.544	Yaw Set Point:	0.483	X_WP:	0.000	Y_WP:	0.000	Y_WP:	0.000	X:	0.064	Y:	0.273	Z:	0.057	yaw:	-27.667	yaw rate:	-0.375	Roll:	-2.303	Pitch:	8.252	Yaw:	-40.734	Thrust:	0.000
Time:	1.567	Roll Set Point:	0.005	Pitch Set Point:	-0.544	Yaw Set Point:	0.483	X_WP:	0.000	Y_WP:	0.000	Y_WP:	0.000	X:	0.064	Y:	0.273	Z:	0.057	yaw:	-27.658	yaw rate:	0.901	Roll:	-2.250	Pitch:	8.292	Yaw:	-40.598	Thrust:	0.000
Time:	1.577	Roll Set Point:	0.005	Pitch Set Point:	-0.544	Yaw Set Point:	0.483	X_WP:	0.000	Y_WP:	0.000	Y_WP:	0.000	X:	0.064	Y:	0.273	Z:	0.057	yaw:	-27.663	yaw rate:	-0.514	Roll:	-2.311	Pitch:	8.230	Yaw:	-40.764	Thrust:	0.000
Time:	1.587	Roll Set Point:	0.005	Pitch Set Point:	-0.544	Yaw Set Point:	0.483	X_WP:	0.000	Y_WP:	0.000	Y_WP:	0.000	X:	0.064	Y:	0.273	Z:	0.057	yaw:	-27.661	yaw rate:	0.277	Roll:	-2.260	Pitch:	8.264	Yaw:	-40.567	Thrust:	0.000
Time:	1.598	Roll Set Point:	0.005	Pitch Set Point:	-0.544	Yaw Set Point:	0.483	X_WP:	0.000	Y_WP:	0.000	Y_WP:	0.000	X:	0.064	Y:	0.273	Z:	0.057	yaw:	-27.661	yaw rate:	0.001	Roll:	-2.299	Pitch:	8.283	Yaw:	-40.815	Thrust:	0.000
Time:	1.608	Roll Set Point:	0.005	Pitch Set Point:	-0.544	Yaw Set Point:	0.483	X_WP:	0.000	Y_WP:	0.000	Y_WP:	0.000	X:	0.064	Y:	0.273	Z:	0.057	yaw:	-27.662	yaw rate:	-0.113	Roll:	-2.299	Pitch:	8.232	Yaw:	-40.658	Thrust:	0.000
Time:	1.618	Roll Set Point:	0.005	Pitch Set Point:	-0.544	Yaw Set Point:	0.483	X_WP:	0.000	Y_WP:	0.000	Y_WP:	0.000	X:	0.064	Y:	0.273	Z:	0.057	yaw:	-27.655	yaw rate:	0.713	Roll:	-2.231	Pitch:	8.272	Yaw:	-40.438	Thrust:	0.000
Time:	1.628	Roll Set Point:	0.005	Pitch Set Point:	-0.544	Yaw Set Point:	0.483	X_WP:	0.000	Y_WP:	0.000	Y_WP:	0.000	X:	0.064	Y:	0.273	Z:	0.057	yaw:	-27.662	yaw rate:	-0.738	Roll:	-2.338	Pitch:	8.215	Yaw:	-40.822	Thrust:	0.000
Time:	1.638	Roll Set Point:	0.005	Pitch Set Point:	-0.544	Yaw Set Point:	0.483	X_WP:	0.000	Y_WP:	0.000	Y_WP:	0.000	X:	0.064	Y:	0.273	Z:	0.057	yaw:	-27.666	yaw rate:	-0.367	Roll:	-2.320	Pitch:	8.253	Yaw:	-40.725	Thrust:	0.000
Time:	1.649	Roll Set Point:	0.005	Pitch Set Point:	-0.544	Yaw Set Point:	0.483	X_WP:	0.000	Y_WP:	0.000	Y_WP:	0.000	X:	0.064	Y:	0.273	Z:	0.057	yaw:	-27.658	yaw rate:	0.817	Roll:	-2.216	Pitch:	8.270	Yaw:	-40.409	Thrust:	0.000
Time:	1.659	Roll Set Point:	0.005	Pitch Set Point:	-0.544	Yaw Set Point:	0.483	X_WP:	0.000	Y_WP:	0.000	Y_WP:	0.000	X:	0.064	Y:	0.273	Z:	0.057	yaw:	-27.658	yaw rate:	-0.077	Roll:	-2.340	Pitch:	8.266	Yaw:	-40.848	Thrust:	0.000
Time:	1.670	Roll Set Point:	0.005	Pitch Set Point:	-0.544	Yaw Set Point:	0.483	X_WP:	0.000	Y_WP:	0.000	Y_WP:	0.000	X:	0.064	Y:	0.273	Z:	0.057	yaw:	-27.664	yaw rate:	-0.531	Roll:	-2.352	Pitch:	8.278	Yaw:	-40.952	Thrust:	0.000
Time:	1.681	Roll Set Point:	0.005	Pitch Set Point:	-0.544	Yaw Set Point:	0.483	X_WP:	0.000	Y_WP:	0.000	Y_WP:	0.000	X:	0.064	Y:	0.273	Z:	0.057	yaw:	-27.663	yaw rate:	0.098	Roll:	-2.299	Pitch:	8.244	Yaw:	-40.615	Thrust:	0.000
Time:	1.691	Roll Set Point:	0.005	Pitch Set Point:	-0.544	Yaw Set Point:	0.483	X_WP:	0.000	Y_WP:	0.000	Y_WP:	0.000	X:	0.064	Y:	0.273	Z:	0.057	yaw:	-27.663	yaw rate:	-0.033	Roll:	-2.289	Pitch:	8.246	Yaw:	-40.641	Thrust:	0.000
Time:	1.702	Roll Set Point:	0.005	Pitch Set Point:	-0.544	Yaw Set Point:	0.483	X_WP:	0.000	Y_WP:	0.000	Y_WP:	0.000	X:	0.064	Y:	0.273	Z:	0.057	yaw:	-27.663	yaw rate:	-0.033	Roll:	-2.327	Pitch:	8.283	Yaw:	-40.830	Thrust:	0.000
Time:	1.713	Roll Set Point:	0.005	Pitch Set Point:	-0.544	Yaw Set Point:	0.483	X_WP:	0.000	Y_WP:	0.000	Y_WP:	0.000	X:	0.064	Y:	0.273	Z:	0.057	yaw:	-27.662	yaw rate:	0.076	Roll:	-2.327	Pitch:	8.279	Yaw:	-40.799	Thrust:	0.000
Time:	1.723	Roll Set Point:	0.005	Pitch Set Point:	-0.544	Yaw Set Point:	0.483	X_WP:	0.000	Y_WP:	0.000	Y_WP:	0.000	X:	0.064	Y:	0.273	Z:	0.057	yaw:	-27.658	yaw rate:	0.392	Roll:	-2.260	Pitch:	8.262	Yaw:	-40.535	Thrust:	0.000
Time:	1.734	Roll Set Point:	0.005	Pitch Set Point:	-0.544	Yaw Set Point:	0.483	X_WP:	0.000	Y_WP:	0.000	Y_WP:	0.000	X:	0.064	Y:	0.273	Z:	0.057	yaw:	-27.662	yaw rate:	-0.401	Roll:	-2.370	Pitch:	8.274	Yaw:	-40.913	Thrust:	0.000
Time:	1.744	Roll Set Point:	0.005	Pitch Set Point:	-0.544	Yaw Set Point:	0.483	X_WP:	0.000	Y_WP:	0.000	Y_WP:	0.000	X:	0.064	Y:	0.273	Z:	0.057	yaw:	-27.662	yaw rate:	0.036	Roll:	-2.310	Pitch:	8.255	Yaw:	-40.632	Thrust:	0.000
Time:	1.755	Roll Set Point:	0.005	Pitch Set Point:	-0.544	Yaw Set Point:	0.483	X_WP:	0.000	Y_WP:	0.000	Y_WP:	0.000	X:	0.064	Y:	0.273	Z:	0.057	yaw:	-27.663	yaw rate:	-0.120	Roll:	-2.346	Pitch:	8.274	Yaw:	-40.859	Thrust:	0.000
Time:	1.766	Roll Set Point:	0.005	Pitch Set Point:	-0.544	Yaw Set Point:	0.483	X_WP:	0.000	Y_WP:	0.000	Y_WP:	0.000	X:	0.064	Y:	0.273	Z:	0.057	yaw:	-27.665	yaw rate:	-0.180	Roll:	-2.346	Pitch:	8.266	Yaw:	-40.863	Thrust:	0.000
Time:	1.776	Roll Set Point:	0.005	Pitch Set Point:	-0.544	Yaw Set Point:	0.483	X_WP:	0.000	Y_WP:	0.000	Y_WP:	0.000	X:	0.064	Y:	0.273	Z:	0.057	yaw:	-27.663	yaw rate:	0.153	Roll:	-2.284	Pitch:	8.279	Yaw:	-40.591	Thrust:	0.000
Time:	1.786	Roll Set Point:	0.005	Pitch Set Point:	-0.544	Yaw Set Point:	0.483	X_WP:	0.000	Y_WP:	0.000	Y_WP:	0.000	X:	0.064	Y:	0.273	Z:	0.057	yaw:	-27.663	yaw rate:	0.028	Roll:	-2.326	Pitch:	8.219	Yaw:	-40.624	Thrust:	0.000
Time:	1.796	Roll Set Point:	0.005	Pitch Set Point:	-0.544	Yaw Set Point:	0.483	X_WP:	0.000	Y_WP:	0.000	Y_WP:	0.000	X:	0.064	Y:	0.273	Z:	0.057	yaw:	-27.662	yaw rate:	0.151	Roll:	-2.294	Pitch:	8.275	Yaw:	-40.606	Thrust:	0.000
Time:	1.807	Roll Set Point:	0.005	Pitch Set Point:	-0.544	Yaw Set Point:	0.483	X_WP:	0.000	Y_WP:	0.000	Y_WP:	0.000	X:	0.064	Y:	0.273	Z:	0.057	yaw:	-27.661	yaw rate:	0.047	Roll:	-2.351	Pitch:	8.270	Yaw:	-40.805	Thrust:	0.000
Time:	1.817	Roll Set Point:	0.005	Pitch Set Point:	-0.544	Yaw Set Point:	0.483	X_WP:	0.000	Y_WP:	0.000	Y_WP:	0.000	X:	0.064	Y:	0.273	Z:	0.057	yaw:	-27.660	yaw rate:	0.094	Roll:	-2.312	Pitch:	8.250	Yaw:	-40.597	Thrust:	0.000
Time:	1.827	Roll Set Point:	0.005	Pitch Set Point:	-0.544	Yaw Set Point:	0.483	X_WP:	0.000	Y_WP:	0.000	Y_WP:	0.000	X:	0.064	Y:	0.273	Z:	0.057	yaw:	-27.661	yaw rate:	-0.108	Roll:	-2.323	Pitch:	8.253	Yaw:	-40.668	Thrust:	0.000
Time:	1.837	Roll Set Point:	0.005	Pitch Set Point:	-0.544	Yaw Set Point:	0.483	X_WP:	0.000	Y_WP:	0.000	Y_WP:	0.000	X:	0.064	Y:	0.273	Z:	0.057	yaw:	-27.668	yaw rate:	-0.678	Roll:	-2.379	Pitch:	8.239	Yaw:	-40.814	Thrust:	0.000
Time:	1.848	Roll Set Point:	0.005	Pitch Set Point:	-0.544	Yaw Set Point:	0.483	X_WP:	0.000	Y_WP:	0.000	Y_WP:	0.000	X:	0.064	Y:	0.273	Z:	0.057	yaw:	-27.661	yaw rate:	0.705	Roll:	-2.290	Pitch:	8.279	Yaw:	-40.647	Thrust:	0.000
Time:	1.858	Roll Set Point:	0.005	Pitch Set Point:	-0.544	Yaw Set Point:	0.483	X_WP:	0.000	Y_WP:	0.000	Y_WP:	0.000	X:	0.064	Y:	0.273	Z:	0.057	yaw:	-27.664	yaw rate:	-0.261	Roll:	-2.351	Pitch:	8.237	Yaw:	-40.699	Thrust:	0.000
Time:	1.868	Roll Set Point:	0.005	Pitch Set Point:	-0.544	Yaw Set Point:	0.483	X_WP:	0.000	Y_WP:	0.000	Y_WP:	0.000	X:	0.064	Y:	0.273	Z:	0.057	yaw:	-27.663	yaw rate:	0.085	Roll:	-2.347	Pitch:	8.256	Yaw:	-40.608	Thrust:	0.000
Time:	1.878	Roll Set Point:	0.005	Pitch Set Point:	-0.544	Yaw Set Point:	0.483	X_WP:	0.000	Y_WP:	0.000	Y_WP:	0.000	X:	0.064	Y:	0.273	Z:	0.057	yaw:	-27.661	yaw rate:	0.177	Roll:	-2.308	Pitch:	8.241	Yaw:	-40.581	Thrust:	0.000
Time:	1.888	Roll Set Point:	0.005	Pitch Set Point:	-0.544	Yaw Set Point:	0.483	X_WP:	0.000	Y_WP:	0.000	Y_WP:	0.000	X:	0.064	Y:	0.273	Z:	0.057	yaw:	-27.663	yaw rate:	-0.221	Roll:	-2.324	Pitch:	8.249	Yaw:	-40.689	Thrust:	0.000
Time:	1.899	Roll Set Point:	0.005	Pitch Set Point:	-0.544	Yaw Set Point:	0.483	X_WP:	0.000	Y_WP:	0.000	Y_WP:	0.000	X:	0.064	Y:	0.273	Z:	0.057	yaw:	-27.659	yaw rate:	0.436	Roll:	-2.338	Pitch:	8.291	Yaw:	-40.721	Thrust:	0.000
Time:	1.909	Roll Set Point:	0.005	Pitch Set Point:	-0.544	Yaw Set Point:	0.483	X_WP:	0.000	Y_WP:	0.000	Y_WP:	0.000	X:	0.064	Y:	0.273	Z:	0.057	yaw:	-27.659	yaw rate:	0.436	Roll:	-2.336	Pitch:	8.248	Yaw:	-40.637	Thrust:	0.000
Time:	1.920	Roll Set Point:	0.005	Pitch Set Point:	-0.544	Yaw Set Point:	0.483	X_WP:	0.000	Y_WP:	0.000	Y_WP:	0.000	X:	0.064	Y:	0.273	Z:	0.057	yaw:	-27.661	yaw rate:	0.257	Roll:	-2.384	Pitch:	8.275	Yaw:	-40.885	Thrust:	0.000
Time:	1.930	Roll Set Point:	0.005	Pitch Set Point:	-0.544	Yaw Set Point:	0.483	X_WP:	0.000	Y_WP:	0.000	Y_WP:	0.000	X:	0.064	Y:	0.273	Z:	0.057	yaw:	-27.661	yaw rate:	0.257	Roll:	-2.337	Pitch:	8.246	Yaw:	-40.628	Thrust:	0.000
Time:	1.940	Roll Set Point:	0.005	Pitch Set Point:	-0.544	Yaw Set Point:	0.483	X_WP:	0.000	Y_WP:	0.000	Y_WP:	0.000	X:	0.064	Y:	0.273	Z:	0.057	yaw:	-27.657	yaw rate:	0.411	Roll:	-2.320	Pitch:	8.254	Yaw:	-40.515	Thrust:	0.000
Time:	1.950	Roll Set Point:	0.005	Pitch Set Point:	-0.544	Yaw Set Point:	0.483	X_WP:	0.000	Y_WP:	0.000	Y_WP:	0.000	X:	0.064	Y:	0.273	Z:	0.057	yaw:	-27.658	yaw rate:	-0.058	Roll:	-2.348	Pitch:	8.240	Yaw:	-40.638	Thrust:	0.000
Time:	1.961	Roll Set Point:	0.005	Pitch Set Point:	-0.544	Yaw Set Point:	0.483	X_WP:	0.000	Y_WP:	0.000	Y_WP:	0.000	X:	0.064	Y:	0.273	Z:	0.057	yaw:	-27.663	yaw rate:	-0.547	Roll:	-2.407	Pitch:	8.275	Yaw:	-40.961	Thrust:	0.000
Time:	1.972	Roll Set Point:	0.005	Pitch Set Point:	-0.544	Yaw Set Point:	0.483	X_WP:	0.000	Y_WP:	0.000	Y_WP:	0.000	X:	0.064	Y:	0.273	Z:	0.057	yaw:	-27.660	yaw rate:	0.283	Roll:	-2.347	Pitch:	8.298	Yaw:	-40.746	Thrust:	0.000
Time:	1.982	Roll Set Point:	0.005	Pitch Set Point:	-0.544	Yaw Set Point:	0.483	X_WP:	0.000	Y_WP:	0.000	Y_WP:	0.000	X:	0.064	Y:	0.273	Z:	0.057	yaw:	-27.663	yaw rate:	-0.299	Roll:	-2.367	Pitch:	8.238	Yaw:	-40.709	Thrust:	0.000
Time:	1.992	Roll Set Point:	0.005	Pitch Set Point:	-0.544	Yaw Set Point:	0.483	X_WP:	0.000	Y_WP:	0.000	Y_WP:	0.000	X:	0.064	Y:	0.273	Z:	0.057	yaw:	-27.655	yaw rate:	0.866	Roll:	-2.304	Pitch:	8.263	Yaw:	-40.398	Thrust:	0.000
Time:	2.002	Roll Set Point:	0.005	Pitch Set Point:	-0.544	Yaw Set Point:	0.483	X_WP:	0.000	Y_WP:	0.000	Y_WP:	0.000	X:	0.064	Y:	0.273	Z:	0.057	yaw:	-27.659	yaw rate:	-0.437	Roll:	-2.370	Pitch:	8.227	Yaw:	-40.746	Thrust:	0.000
Time:	2.013	Roll Set Point:	0.005	Pitch Set Point:	-0.544	Yaw Set Point:	0.483	X_WP:	0.000	Y_WP:	0.000	Y_WP:	0.000	X:	0.064	Y:	0.273	Z:	0.057	yaw:	-27.662	yaw rate:	-0.251	Roll:	-2.401	Pitch:	8.281	Yaw:	-40.889	Thrust:	0.000
Time:	2.024	Roll Set Point:	0.005	Pitch Set Point:	-0.544	Yaw Set Point:	0.483	X_WP:	0.000	Y_WP:	0.000	Y_WP:	0.000	X:	0.064	Y:	0.273	Z:	0.057	yaw:	-27.663	yaw rate:	-0.160	Roll:	-2.410	Pitch:	8.283	Yaw:	-40.856	Thrust:	0.000
Time:	2.034	Roll Set Point:	0.005	Pitch Set Point:	-0.544	Yaw Set Point:	0.483	X_WP:	0.000	Y_WP:	0.000	Y_WP:	0.000	X:	0.064	Y:	0.273	Z:	0.057	yaw:	-27.666	yaw rate:	-0.291	Roll:	-2.350	Pitch:	8.237	Yaw:	-40.711	Thrust:	0.000
Time:	2.044	Roll Set Point:	0.005	Pitch Set Point:	-0.544	Yaw Set Point:	0.483	X_WP:	0.000	Y_WP:	0.000	Y_WP:	0.000	X:	0.064	Y:	0.273	Z:	0.057	yaw:	-27.673	yaw rate:	-0.709	Roll:	-2.424	Pitch:	8.225	Yaw:	-40.829	Thrust:	0.000
Time:	2.055	Roll Set Point:	0.005	Pitch Set Point:	-0.544	Yaw Set Point:	0.483	X_WP:	0.000	Y_WP:	0.000	Y_WP:	0.000	X:	0.064	Y:	0.273	Z:	0.057	yaw:	-27.662	yaw rate:	1.158	Roll:	-2.296	Pitch:	8.270	Yaw:	-40.341	Thrust:	0.000
Time:	2.066	Roll Set Point:	0.005	Pitch Set Point:	-0.544	Yaw Set Point:	0.483	X_WP:	0.000	Y_WP:	0.000	Y_WP:	0.000	X:	0.064	Y:	0.273	Z:	0.057	yaw:	-27.662	yaw rate:	-0.007	Roll:	-2.390	Pitch:	8.287	Yaw:	-40.820	Thrust:	0.000
Time:	2.076	Roll Set Point:	0.005	Pitch Set Point:	-0.544	Yaw Set Point:	0.483	X_WP:	0.000	Y_WP:	0.000	Y_WP:	0.000	X:	0.064	Y:	0.273	Z:	0.057	yaw:	-27.663	yaw rate:	-0.124	Roll:	-2.354	Pitch:	8.248	Yaw:	-40.660	Thrust:	0.000
Time:	2.086	Roll Set Point:	0.005	Pitch Set Point:	-0.544	Yaw Set Point:	0.483	X_WP:	0.000	Y_WP:	0.000	Y_WP:	0.000	X:	0.064	Y:	0.273	Z:	0.057	yaw:	-27.663	yaw rate:	-0.005	Roll:	-2.364	Pitch:	8.230	Yaw:	-40.633	Thrust:	0.000
Time:	2.096	Roll Set Point:	0.005	Pitch Set Point:	-0.544	Yaw Set Point:	0.483	X_WP:	0.000	Y_WP:	0.000	Y_WP:	0.000	X:	0.064	Y:	0.273	Z:	0.057	yaw:	-27.664	yaw rate:	-0.085	Roll:	-2.366	Pitch:	8.269	Yaw:	-40.652	Thrust:	0.000
Time:	2.106	Roll Set Point:	0.005	Pitch Set Point:	-0.544	Yaw Set Point:	0.483	X_WP:	0.000	Y_WP:	0.000	Y_WP:	0.000	X:	0.064	Y:	0.273	Z:	0.057	yaw:	-27.664	yaw rate:	-0.085	Roll:	-2.367	Pitch:	8.246	Yaw:	-40.632	Thrust:	0.000
Time:	2.116	Roll Set Point:	0.005	Pitch Set Point:	-0.544	Yaw Set Point:	0.483	X_WP:	0.000	Y_WP:	0.000	Y_WP:	0.000	X:	0.064	Y:	0.273	Z:	0.057	yaw:	-27.660	yaw rate:	0.416	Roll:	-2.346	Pitch:	8.240	Yaw:	-40.523	Thrust:	0.000
Time:	2.126	Roll Set Point:	0.005	Pitch Set Point:	-0.544	Yaw Set Point:	0.483	X_WP:	0.000	Y_WP:	0.000	Y_WP:	0.000	X:	0.064	Y:	0.273	Z:	0.057	yaw:	-27.659	yaw rate:	0.090	Roll:	-2.380	Pitch:	8.245	Yaw:	-40.608	Thrust:	0.000
Time:	2.137	Roll Set Point:	0.005	Pitch Set Point:	-0.544	Yaw Set Point:	0.483	X_WP:	0.000	Y_WP:	0.000	Y_WP:	0.000	X:	0.064	Y:	0.273	Z:	0.057	yaw:	-27.663	yaw rate:	-0.406	Roll:	-2.426	Pitch:	8.288	Yaw:	-40.927	Thrust:	0.000
Time:	2.148	Roll Set Point:	0.005	Pitch Set Point:	-0.544	Yaw Set Point:	0.483	X_WP:	0.000	Y_WP:	0.000	Y_WP:	0.000	X:	0.064	Y:	0.273	Z:	0.057	yaw:	-27.661	yaw rate:	0.200	Roll:	-2.396	Pitch:	8.277	Yaw:	-40.780	Thrust:	0.000
Time:	2.158	Roll Set Point:	0.005	Pitch Set Point:	-0.544	Yaw Set Point:	0.483	X_WP:	0.000	Y_WP:	0.000	Y_WP:	0.000	X:	0.064	Y:	0.273	Z:	0.057	yaw:	-27.660	yaw rate:	0.084	Roll:	-2.367	Pitch:	8.261	Yaw:	-40.604	Thrust:	0.000
Time:	2.168	Roll Set Point:	0.005	Pitch Set Point:	-0.544	Yaw Set Point:	0.483	X_WP:	0.000	Y_WP:	0.000	Y_WP:	0.000	X:	0.064	Y:	0.273	Z:	0.057	yaw:	-27.662	yaw rate:	-0.223	Roll:	-2.382	Pitch:	8.241	Yaw:	-40.687	Thrust:	0.000
Time:	2.179	Roll Set Point:	0.005	Pitch Set Point:	-0.544	Yaw Set Point:	0.483	X_WP:	0.000	Y_WP:	0.000	Y_WP:	0.000	X:	0.064	Y:	0.273	Z:	0.057	yaw:	-27.667	yaw rate:	-0.477	Roll:	-2.460	Pitch:	8.263	Yaw:	-40.937	Thrust:	0.000
Time:	2.189	Roll Set Point:	0.005	Pitch Set Point:	-0.544	Yaw Set Point:	0.483	X_WP:	0.000	Y_WP:	0.000	Y_WP:	0.000	X:	0.064	Y:	0.273	Z:	0.057	yaw:	-27.663	yaw rate:	0.375	Roll:	-2.361	Pitch:	8.252	Yaw:	-40.533	Thrust:	0.000
Time:	2.199	Roll Set Point:	0.005	Pitch Set Point:	-0.544	Yaw Set Point:	0.483	X_WP:	0.000	Y_WP:	0.000	Y_WP:	0.000	X:	0.064	Y:	0.273	Z:	0.057	yaw:	-27.658	yaw rate:	0.499	Roll:	-2.329	Pitch:	8.266	Yaw:	-40.493	Thrust:	0.000
Time:	2.209	Roll Set Point:	0.005	Pitch Set Point:	-0.544	Yaw Set Point:	0.483	X_WP:	0.000	Y_WP:	0.000	Y_WP:	0.000	X:	0.064	Y:	0.273	Z:	0.057	yaw:	-27.658	yaw rate:	0.022	Roll:	-2.382	Pitch:	8.245	Yaw:	-40.629	Thrust:	0.000
Time:	2.220	Roll Set Point:	0.005	Pitch Set Point:	-0.544	Yaw Set Point:	0.483	X_WP:	0.000	Y_WP:	0.000	Y_WP:	0.000	X:	0.064	Y:	0.273	Z:	0.057	yaw:	-27.667	yaw rate:	-0.875	Roll:	-2.487	Pitch:	8.262	Yaw:	-41.033	Thrust:	0.000
Time:	2.230	Roll Set Point:	0.005	Pitch Set Point:	-0.544	Yaw Set Point:	0.483	X_WP:	0.000	Y_WP:	0.000	Y_WP:	0.000	X:	0.064	Y:	0.273	Z:	0.057	yaw:	-27.662	yaw rate:	0.426	Roll:	-2.355	Pitch:	8.262	Yaw:	-40.523	Thrust:	0.000
Time:	2.240	Roll Set Point:	0.005	Pitch Set Point:	-0.544	Yaw Set Point:	0.483	X_WP:	0.000	Y_WP:	0.000	Y_WP:	0.000	X:	0.064	Y:	0.273	Z:	0.057	yaw:	-27.668	yaw rate:	-0.522	Roll:	-2.439	Pitch:	8.217	Yaw:	-40.781	Thrust:	0.000
Time:	2.250	Roll Set Point:	0.005	Pitch Set Point:	-0.544	Yaw Set Point:	0.483	X_WP:	0.000	Y_WP:	0.000	Y_WP:	0.000	X:	0.064	Y:	0.273	Z:	0.057	yaw:	-27.664	yaw rate:	0.410	Roll:	-2.366	Pitch:	8.264	Yaw:	-40.524	Thrust:	0.000
Time:	2.261	Roll Set Point:	0.005	Pitch Set Point:	-0.544	Yaw Set Point:	0.483	X_WP:	0.000	Y_WP:	0.000	Y_WP:	0.000	X:	0.064	Y:	0.273	Z:	0.057	yaw:	-27.658	yaw rate:	0.530	Roll:	-2.382	Pitch:	8.298	Yaw:	-40.698	Thrust:	0.000
Time:	2.272	Roll Set Point:	0.005	Pitch Set Point:	-0.544	Yaw Set Point:	0.483	X_WP:	0.000	Y_WP:	0.000	Y_WP:	0.000	X:	0.064	Y:	0.273	Z:	0.057	yaw:	-27.660	yaw rate:	-0.196	Roll:	-2.453	Pitch:	8.277	Yaw:	-40.861	Thrust:	0.000
Time:	2.282	Roll Set Point:	0.005	Pitch Set Point:	-0.544	Yaw Set Point:	0.483	X_WP:	0.000	Y_WP:	0.000	Y_WP:	0.000	X:	0.064	Y:	0.273	Z:	0.057	yaw:	-27.663	yaw rate:	-0.269	Roll:	-2.404	Pitch:	8.235	Yaw:	-40.702	Thrust:	0.000
Time:	2.293	Roll Set Point:	0.005	Pitch Set Point:	-0.544	Yaw Set Point:	0.483	X_WP:	0.000	Y_WP:	0.000	Y_WP:	0.000	X:	0.064	Y:	0.273	Z:	0.057	yaw:	-27.661	yaw rate:	0.183	Roll:	-2.426	Pitch:	8.298	Yaw:	-40.783	Thrust:	0.000
Time:	2.303	Roll Set Point:	0.005	Pitch Set Point:	-0.544	Yaw Set Point:	0.483	X_WP:	0.000	Y_WP:	0.000	Y_WP:	0.000	X:	0.064	Y:	0.273	Z:	0.057	yaw:	-27.659	yaw rate:	0.211	Roll:	-2.382	Pitch:	8.252	Yaw:	-40.570	Thrust:	0.000
Time:	2.313	Roll Set Point:	0.005	Pitch Set Point:	-0.544	Yaw Set Point:	0.483	X_WP:	0.000	Y_WP:	0.000	Y_WP:	0.000	X:	0.064	Y:	0.273	Z:	0.057	yaw:	-27.659	yaw rate:	0.211	Roll:	-2.395	Pitch:	8.246	Yaw:	-40.625	Thrust:	0.000
Time:	2.323	Roll Set Point:	0.005	Pitch Set Point:	-0.544	Yaw Set Point:	0.483	X_WP:	0.000	Y_WP:	0.000	Y_WP:	0.000	X:	0.064	Y:	0.273	Z:	0.057	yaw:	-27.665	yaw rate:	-0.591	Roll:	-2.449	Pitch:	8.224	Yaw:	-40.788	Thrust:	0.000
Time:	2.333	Roll Set Point:	0.005	Pitch Set Point:	-0.544	Yaw Set Point:	0.483	X_WP:	0.000	Y_WP:	0.000	Y_WP:	0.000	X:	0.064	Y:	0.273	Z:	0.057	yaw:	-27.655	yaw rate:	0.980	Roll:	-2.311	Pitch:	8.261	Yaw:	-40.380	Thrust:	0.000
Time:	2.344	Roll Set Point:	0.005	Pitch Set Point:	-0.544	Yaw Set Point:	0.483	X_WP:	0.000	Y_WP:	0.000	Y_WP:	0.000	X:	0.064	Y:	0.273	Z:	0.057	yaw:	-27.662	yaw rate:	-0.731	Roll:	-2.482	Pitch:	8.283	Yaw:	-40.990	Thrust:	0.000
Time:	2.355	Roll Set Point:	0.005	Pitch Set Point:	-0.544	Yaw Set Point:	0.483	X_WP:	0.000	Y_WP:	0.000	Y_WP:	0.000	X:	0.064	Y:	0.273	Z:	0.057	yaw:	-27.666	yaw rate:	-0.313	Roll:	-2.469	Pitch:	8.263	Yaw:	-40.920	Thrust:	0.000
Time:	2.366	Roll Set Point:	0.005	Pitch Set Point:	-0.544	Yaw Set Point:	0.483	X_WP:	0.000	Y_WP:	0.000	Y_WP:	0.000	X:	0.064	Y:	0.273	Z:	0.057	yaw:	-27.667	yaw rate:	-0.110	Roll:	-2.423	Pitch:	8.297	Yaw:	-40.862	Thrust:	0.000
Time:	2.377	Roll Set Point:	0.005	Pitch Set Point:	-0.544	Yaw Set Point:	0.483	X_WP:	0.000	Y_WP:	0.000	Y_WP:	0.000	X:	0.064	Y:	0.273	Z:	0.057	yaw:	-27.662	yaw rate:	0.435	Roll:	-2.418	Pitch:	8.286	Yaw:	-40.713	Thrust:	0.000
Time:	2.387	Roll Set Point:	0.005	Pitch Set Point:	-0.544	Yaw Set Point:	0.483	X_WP:	0.000	Y_WP:	0.000	Y_WP:	0.000	X:	0.064	Y:	0.273	Z:	0.057	yaw:	-27.661	yaw rate:	0.114	Roll:	-2.404	Pitch:	8.228	Yaw:	-40.603	Thrust:	0.000
Time:	2.397	Roll Set Point:	0.005	Pitch Set Point:	-0.544	Yaw Set Point:	0.483	X_WP:	0.000	Y_WP:	0.000	Y_WP:	0.000	X:	0.064	Y:	0.273	Z:	0.057	yaw:	-27.665	yaw rate:	-0.335	Roll:	-2.388	Pitch:	8.260	Yaw:	-40.715	Thrust:	0.000
Time:	2.407	Roll Set Point:	0.005	Pitch Set Point:	-0.544	Yaw Set Point:	0.483	X_WP:	0.000	Y_WP:	0.000	Y_WP:	0.000	X:	0.064	Y:	0.273	Z:	0.057	yaw:	-27.659	yaw rate:	0.520	Roll:	-2.355	Pitch:	8.251	Yaw:	-40.491	Thrust:	0.000
Time:	2.417	Roll Set Point:	0.005	Pitch Set Point:	-0.544	Yaw Set Point:	0.483	X_WP:	0.000	Y_WP:	0.000	Y_WP:	0.000	X:	0.064	Y:	0.273	Z:	0.057	yaw:	-27.663	yaw rate:	-0.325	Roll:	-2.420	Pitch:	8.255	Yaw:	-40.713	Thrust:	0.000
Time:	2.428	Roll Set Point:	0.005	Pitch Set Point:	-0.544	Yaw Set Point:	0.483	X_WP:	0.000	Y_WP:	0.000	Y_WP:	0.000	X:	0.064	Y:	0.273	Z:	0.057	yaw:	-27.666	yaw rate:	-0.302	Roll:	-2.432	Pitch:	8.220	Yaw:	-40.725	Thrust:	0.000
Time:	2.438	Roll Set Point:	0.005	Pitch Set Point:	-0.544	Yaw Set Point:	0.483	X_WP:	0.000	Y_WP:	0.000	Y_WP:	0.000	X:	0.064	Y:	0.273	Z:	0.057	yaw:	-27.656	yaw rate:	1.006	Roll:	-2.310	Pitch:	8.284	Yaw:	-40.357	Thrust:	0.000
Time:	2.448	Roll Set Point:	0.005	Pitch Set Point:	-0.544	Yaw Set Point:	0.483	X_WP:	0.000	Y_WP:	0.000	Y_WP:	0.000	X:	0.064	Y:	0.273	Z:	0.057	yaw:	-27.655	yaw rate:	0.064	Roll:	-2.400	Pitch:	8.233	Yaw:	-40.603	Thrust:	0.000
Time:	2.458	Roll Set Point:	0.005	Pitch Set Point:	-0.544	Yaw Set Point:	0.483	X_WP:	0.000	Y_WP:	0.000	Y_WP:	0.000	X:	0.064	Y:	0.273	Z:	0.057	yaw:	-27.665	yaw rate:	-1.040	Roll:	-2.459	Pitch:	8.234	Yaw:	-40.905	Thrust:	0.000
Time:	2.468	Roll Set Point:	0.005	Pitch Set Point:	-0.544	Yaw Set Point:	0.483	X_WP:	0.000	Y_WP:	0.000	Y_WP:	0.000	X:	0.064	Y:	0.273	Z:	0.057	yaw:	-27.665	yaw rate:	-1.040	Roll:	-2.396	Pitch:	8.246	Yaw:	-40.633	Thrust:	0.000
Time:	2.482	Roll Set Point:	0.005	Pitch Set Point:	-0.544	Yaw Set Point:	0.483	X_WP:	0.000	Y_WP:	0.000	Y_WP:	0.000	X:	0.064	Y:	0.273	Z:	0.057	yaw:	-27.667	yaw rate:	-0.201	Roll:	-2.455	Pitch:	8.275	Yaw:	-41.464	Thrust:	0.000
Time:	2.493	Roll Set Point:	0.005	Pitch Set Point:	-0.544	Yaw Set Point:	0.483	X_WP:	0.000	Y_WP:	0.000	Y_WP:	0.000	X:	0.064	Y:	0.273	Z:	0.057	yaw:	-27.663	yaw rate:	0.435	Roll:	-2.529	Pitch:	8.398	Yaw:	-40.727	Thrust:	0.000
Time:	2.503	Roll Set Point:	0.005	Pitch Set Point:	-0.544	Yaw Set Point:	0.483	X_WP:	0.000	Y_WP:	0.000	Y_WP:	0.000	X:	0.064	Y:	0.273	Z:	0.057	yaw:	-27.664	yaw rate:	-0.100	Roll:	-2.396	Pitch:	8.253	Yaw:	-40.669	Thrust:	0.000
Time:	2.513	Roll Set Point:	0.005	Pitch Set Point:	-0.544	Yaw Set Point:	0.483	X_WP:	0.000	Y_WP:	0.000	Y_WP:	0.000	X:	0.064	Y:	0.273	Z:	0.057	yaw:	-27.662	yaw rate:	0.242	Roll:	-2.378	Pitch:	8.248	Yaw:	-40.565	Thrust:	0.000
Time:	2.524	Roll Set Point:	0.005	Pitch Set Point:	-0.544	Yaw Set Point:	0.483	X_WP:	0.000	Y_WP:	0.000	Y_WP:	0.000	X:	0.064	Y:	0.273	Z:	0.057	yaw:	-27.658	yaw rate:	0.352	Roll:	-2.409	Pitch:	8.276	Yaw:	-40.727	Thrust:	0.000
Time:	2.534	Roll Set Point:	0.005	Pitch Set Point:	-0.544	Yaw Set Point:	0.483	X_WP:	0.000	Y_WP:	0.000	Y_WP:	0.000	X:	0.064	Y:	0.273	Z:	0.057	yaw:	-27.660	yaw rate:	-0.245	Roll:	-2.410	Pitch:	8.271	Yaw:	-40.696	Thrust:	0.000
Time:	2.544	Roll Set Point:	0.005	Pitch Set Point:	-0.544	Yaw Set Point:	0.483	X_WP:	0.000	Y_WP:	0.000	Y_WP:	0.000	X:	0.064	Y:	0.273	Z:	0.057	yaw:	-27.668	yaw rate:	-0.705	Roll:	-2.454	Pitch:	8.222	Yaw:	-40.828	Thrust:	0.000
Time:	2.555	Roll Set Point:	0.005	Pitch Set Point:	-0.544	Yaw Set Point:	0.483	X_WP:	0.000	Y_WP:	0.000	Y_WP:	0.000	X:	0.064	Y:	0.273	Z:	0.057	yaw:	-27.660	yaw rate:	0.768	Roll:	-2.358	Pitch:	8.286	Yaw:	-40.635	Thrust:	0.000
Time:	2.565	Roll Set Point:	0.005	Pitch Set Point:	-0.544	Yaw Set Point:	0.483	X_WP:	0.000	Y_WP:	0.000	Y_WP:	0.000	X:	0.064	Y:	0.273	Z:	0.057	yaw:	-27.664	yaw rate:	-0.456	Roll:	-2.463	Pitch:	8.248	Yaw:	-40.747	Thrust:	0.000
Time:	2.575	Roll Set Point:	0.005	Pitch Set Point:	-0.544	Yaw Set Point:	0.483	X_WP:	0.000	Y_WP:	0.000	Y_WP:	0.000	X:	0.064	Y:	0.273	Z:	0.057	yaw:	-27.660	yaw rate:	0.411	Roll:	-2.361	Pitch:	8.257	Yaw:	-40.519	Thrust:	0.000
Time:	2.585	Roll Set Point:	0.005	Pitch Set Point:	-0.544	Yaw Set Point:	0.483	X_WP:	0.000	Y_WP:	0.000	Y_WP:	0.000	X:	0.064	Y:	0.273	Z:	0.057	yaw:	-27.663	yaw rate:	-0.301	Roll:	-2.415	Pitch:	8.210	Yaw:	-40.709	Thrust:	0.000
Time:	2.595	Roll Set Point:	0.005	Pitch Set Point:	-0.544	Yaw Set Point:	0.483	X_WP:	0.000	Y_WP:	0.000	Y_WP:	0.000	X:	0.064	Y:	0.273	Z:	0.057	yaw:	-27.661	yaw rate:	0.203	Roll:	-2.390	Pitch:	8.287	Yaw:	-40.593	Thrust:	0.000
Time:	2.606	Roll Set Point:	0.005	Pitch Set Point:	-0.544	Yaw Set Point:	0.483	X_WP:	0.000	Y_WP:	0.000	Y_WP:	0.000	X:	0.064	Y:	0.273	Z:	0.057	yaw:	-27.658	yaw rate:	0.358	Roll:	-2.395	Pitch:	8.265	Yaw:	-40.720	Thrust:	0.000
Time:	2.616	Roll Set Point:	0.005	Pitch Set Point:	-0.544	Yaw Set Point:	0.483	X_WP:	0.000	Y_WP:	0.000	Y_WP:	0.000	X:	0.064	Y:	0.273	Z:	0.057	yaw:	-27.657	yaw rate:	0.037	Roll:	-2.386	Pitch:	8.251	Yaw:	-40.613	Thrust:	0.000
Time:	2.626	Roll Set Point:	0.005	Pitch Set Point:	-0.544	Yaw Set Point:	0.483	X_WP:	0.000	Y_WP:	0.000	Y_WP:	0.000	X:	0.064	Y:	0.273	Z:	0.057	yaw:	-27.659	yaw rate:	-0.212	Roll:	-2.406	Pitch:	8.258	Yaw:	-40.680	Thrust:	0.000
Time:	2.637	Roll Set Point:	0.005	Pitch Set Point:	-0.544	Yaw Set Point:	0.483	X_WP:	0.000	Y_WP:	0.000	Y_WP:	0.000	X:	0.064	Y:	0.273	Z:	0.057	yaw:	-27.663	yaw rate:	-0.392	Roll:	-2.451	Pitch:	8.225	Yaw:	-40.733	Thrust:	0.000
Time:	2.649	Roll Set Point:	0.005	Pitch Set Point:	-0.544	Yaw Set Point:	0.483	X_WP:	0.000	Y_WP:	0.000	Y_WP:	0.000	X:	0.064	Y:	0.273	Z:	0.057	yaw:	-27.660	yaw rate:	0.383	Roll:	-2.454	Pitch:	8.324	Yaw:	-41.150	Thrust:	0.000
Time:	2.659	Roll Set Point:	0.005	Pitch Set Point:	-0.544	Yaw Set Point:	0.483	X_WP:	0.000	Y_WP:	0.000	Y_WP:	0.000	X:	0.064	Y:	0.273	Z:	0.057	yaw:	-27.660	yaw rate:	-0.026	Roll:	-2.422	Pitch:	8.288	Yaw:	-40.645	Thrust:	0.000
Time:	2.671	Roll Set Point:	0.005	Pitch Set Point:	-0.544	Yaw Set Point:	0.483	X_WP:	0.000	Y_WP:	0.000	Y_WP:	0.000	X:	0.064	Y:	0.273	Z:	0.057	yaw:	-27.663	yaw rate:	-0.363	Roll:	-2.452	Pitch:	8.277	Yaw:	-40.906	Thrust:	0.000
Time:	2.682	Roll Set Point:	0.005	Pitch Set Point:	-0.544	Yaw Set Point:	0.483	X_WP:	0.000	Y_WP:	0.000	Y_WP:	0.000	X:	0.064	Y:	0.273	Z:	0.057	yaw:	-27.660	yaw rate:	0.347	Roll:	-2.418	Pitch:	8.294	Yaw:	-40.952	Thrust:	0.000
Time:	2.692	Roll Set Point:	0.005	Pitch Set Point:	-0.544	Yaw Set Point:	0.483	X_WP:	0.000	Y_WP:	0.000	Y_WP:	0.000	X:	0.064	Y:	0.273	Z:	0.057	yaw:	-27.660	yaw rate:	0.014	Roll:	-2.426	Pitch:	8.282	Yaw:	-40.628	Thrust:	0.000
Time:	2.703	Roll Set Point:	0.005	Pitch Set Point:	-0.544	Yaw Set Point:	0.483	X_WP:	0.000	Y_WP:	0.000	Y_WP:	0.000	X:	0.064	Y:	0.273	Z:	0.057	yaw:	-27.661	yaw rate:	-0.142	Roll:	-2.404	Pitch:	8.226	Yaw:	-40.863	Thrust:	0.000
Time:	2.714	Roll Set Point:	0.005	Pitch Set Point:	-0.544	Yaw Set Point:	0.483	X_WP:	0.000	Y_WP:	0.000	Y_WP:	0.000	X:	0.064	Y:	0.273	Z:	0.057	yaw:	-27.663	yaw rate:	-0.181	Roll:	-2.454	Pitch:	8.299	Yaw:	-40.867	Thrust:	0.000
Time:	2.725	Roll Set Point:	0.005	Pitch Set Point:	-0.544	Yaw Set Point:	0.483	X_WP:	0.000	Y_WP:	0.000	Y_WP:	0.000	X:	0.064	Y:	0.273	Z:	0.057	yaw:	-27.664	yaw rate:	-0.059	Roll:	-2.449	Pitch:	8.278	Yaw:	-40.851	Thrust:	0.000
Time:	2.736	Roll Set Point:	0.005	Pitch Set Point:	-0.544	Yaw Set Point:	0.483	X_WP:	0.000	Y_WP:	0.000	Y_WP:	0.000	X:	0.064	Y:	0.273	Z:	0.057	yaw:	-27.662	yaw rate:	0.199	Roll:	-2.438	Pitch:	8.325	Yaw:	-40.776	Thrust:	0.000
Time:	2.748	Roll Set Point:	0.005	Pitch Set Point:	-0.544	Yaw Set Point:	0.483	X_WP:	0.000	Y_WP:	0.000	Y_WP:	0.000	X:	0.064	Y:	0.273	Z:	0.057	yaw:	-27.658	yaw rate:	0.379	Roll:	-2.446	Pitch:	8.332	Yaw:	-40.942	Thrust:	0.000
Time:	2.759	Roll Set Point:	0.005	Pitch Set Point:	-0.544	Yaw Set Point:	0.483	X_WP:	0.000	Y_WP:	0.000	Y_WP:	0.000	X:	0.064	Y:	0.273	Z:	0.057	yaw:	-27.659	yaw rate:	-0.131	Roll:	-2.450	Pitch:	8.264	Yaw:	-40.869	Thrust:	0.000
Time:	2.771	Roll Set Point:	0.005	Pitch Set Point:	-0.544	Yaw Set Point:	0.483	X_WP:	0.000	Y_WP:	0.000	Y_WP:	0.000	X:	0.064	Y:	0.273	Z:	0.057	yaw:	-27.657	yaw rate:	0.181	Roll:	-2.416	Pitch:	8.301	Yaw:	-40.767	Thrust:	0.000
Time:	2.782	Roll Set Point:	0.005	Pitch Set Point:	-0.544	Yaw Set Point:	0.483	X_WP:	0.000	Y_WP:	0.000	Y_WP:	0.000	X:	0.064	Y:	0.273	Z:	0.057	yaw:	-27.657	yaw rate:	0.066	Roll:	-2.418	Pitch:	8.288	Yaw:	-41.009	Thrust:	0.000
Time:	2.793	Roll Set Point:	0.005	Pitch Set Point:	-0.544	Yaw Set Point:	0.483	X_WP:	0.000	Y_WP:	0.000	Y_WP:	0.000	X:	0.064	Y:	0.273	Z:	0.057	yaw:	-27.662	yaw rate:	-0.506	Roll:	-2.495	Pitch:	8.254	Yaw:	-40.760	Thrust:	0.000
Time:	2.803	Roll Set Point:	0.005	Pitch Set Point:	-0.544	Yaw Set Point:	0.483	X_WP:	0.000	Y_WP:	0.000	Y_WP:	0.000	X:	0.064	Y:	0.273	Z:	0.057	yaw:	-27.657	yaw rate:	0.445	Roll:	-2.392	Pitch:	8.300	Yaw:	-40.717	Thrust:	0.000
Time:	2.815	Roll Set Point:	0.005	Pitch Set Point:	-0.544	Yaw Set Point:	0.483	X_WP:	0.000	Y_WP:	0.000	Y_WP:	0.000	X:	0.064	Y:	0.273	Z:	0.057	yaw:	-27.663	yaw rate:	-0.551	Roll:	-2.456	Pitch:	8.283	Yaw:	-41.154	Thrust:	0.000
