Time:	0.031	Roll Set Point:	-0.106	Pitch Set Point:	-0.227	Yaw Set Point:	-0.027	X_WP:	0.000	Y_WP:	0.000	Y_WP:	0.000	X:	0.051	Y:	0.114	Z:	0.058	yaw:	1.547	yaw rate:	0.451	Roll:	1.578	Pitch:	3.267	Yaw:	2.160	Thrust:	0.000
Time:	0.042	Roll Set Point:	-0.106	Pitch Set Point:	-0.227	Yaw Set Point:	-0.027	X_WP:	0.000	Y_WP:	0.000	Y_WP:	0.000	X:	0.051	Y:	0.114	Z:	0.058	yaw:	1.547	yaw rate:	0.451	Roll:	1.580	Pitch:	3.270	Yaw:	2.166	Thrust:	0.000
Time:	0.053	Roll Set Point:	-0.106	Pitch Set Point:	-0.227	Yaw Set Point:	-0.027	X_WP:	0.000	Y_WP:	0.000	Y_WP:	0.000	X:	0.051	Y:	0.114	Z:	0.058	yaw:	1.543	yaw rate:	-0.404	Roll:	1.586	Pitch:	3.259	Yaw:	2.059	Thrust:	0.000
Time:	0.065	Roll Set Point:	-0.106	Pitch Set Point:	-0.227	Yaw Set Point:	-0.027	X_WP:	0.000	Y_WP:	0.000	Y_WP:	0.000	X:	0.051	Y:	0.114	Z:	0.058	yaw:	1.533	yaw rate:	-1.019	Roll:	1.562	Pitch:	3.299	Yaw:	1.938	Thrust:	0.000
Time:	0.076	Roll Set Point:	-0.106	Pitch Set Point:	-0.227	Yaw Set Point:	-0.027	X_WP:	0.000	Y_WP:	0.000	Y_WP:	0.000	X:	0.051	Y:	0.114	Z:	0.058	yaw:	1.539	yaw rate:	0.656	Roll:	1.580	Pitch:	3.268	Yaw:	2.318	Thrust:	0.000
Time:	0.086	Roll Set Point:	-0.106	Pitch Set Point:	-0.227	Yaw Set Point:	-0.027	X_WP:	0.000	Y_WP:	0.000	Y_WP:	0.000	X:	0.051	Y:	0.114	Z:	0.058	yaw:	1.543	yaw rate:	0.423	Roll:	1.631	Pitch:	3.285	Yaw:	2.292	Thrust:	0.000
Time:	0.098	Roll Set Point:	-0.106	Pitch Set Point:	-0.227	Yaw Set Point:	-0.027	X_WP:	0.000	Y_WP:	0.000	Y_WP:	0.000	X:	0.051	Y:	0.114	Z:	0.058	yaw:	1.529	yaw rate:	-1.480	Roll:	1.526	Pitch:	3.291	Yaw:	1.852	Thrust:	0.000
Time:	0.110	Roll Set Point:	-0.106	Pitch Set Point:	-0.227	Yaw Set Point:	-0.027	X_WP:	0.000	Y_WP:	0.000	Y_WP:	0.000	X:	0.051	Y:	0.114	Z:	0.058	yaw:	1.539	yaw rate:	1.030	Roll:	1.634	Pitch:	3.301	Yaw:	2.419	Thrust:	0.000
Time:	0.120	Roll Set Point:	-0.106	Pitch Set Point:	-0.227	Yaw Set Point:	-0.027	X_WP:	0.000	Y_WP:	0.000	Y_WP:	0.000	X:	0.051	Y:	0.114	Z:	0.058	yaw:	1.541	yaw rate:	0.391	Roll:	1.583	Pitch:	3.261	Yaw:	2.242	Thrust:	0.000
Time:	0.131	Roll Set Point:	-0.106	Pitch Set Point:	-0.227	Yaw Set Point:	-0.027	X_WP:	0.000	Y_WP:	0.000	Y_WP:	0.000	X:	0.051	Y:	0.114	Z:	0.058	yaw:	1.541	yaw rate:	0.391	Roll:	1.592	Pitch:	3.294	Yaw:	2.205	Thrust:	0.000
Time:	0.142	Roll Set Point:	-0.106	Pitch Set Point:	-0.227	Yaw Set Point:	-0.027	X_WP:	0.000	Y_WP:	0.000	Y_WP:	0.000	X:	0.051	Y:	0.114	Z:	0.058	yaw:	1.543	yaw rate:	0.184	Roll:	1.607	Pitch:	3.308	Yaw:	2.257	Thrust:	0.000
Time:	0.153	Roll Set Point:	-0.106	Pitch Set Point:	-0.227	Yaw Set Point:	-0.027	X_WP:	0.000	Y_WP:	0.000	Y_WP:	0.000	X:	0.051	Y:	0.114	Z:	0.058	yaw:	1.540	yaw rate:	-0.295	Roll:	1.576	Pitch:	3.306	Yaw:	2.146	Thrust:	0.000
Time:	0.164	Roll Set Point:	-0.106	Pitch Set Point:	-0.227	Yaw Set Point:	-0.027	X_WP:	0.000	Y_WP:	0.000	Y_WP:	0.000	X:	0.051	Y:	0.114	Z:	0.058	yaw:	1.539	yaw rate:	0.085	Roll:	1.584	Pitch:	3.289	Yaw:	2.202	Thrust:	0.000
Time:	0.174	Roll Set Point:	-0.106	Pitch Set Point:	-0.227	Yaw Set Point:	-0.027	X_WP:	0.000	Y_WP:	0.000	Y_WP:	0.000	X:	0.051	Y:	0.114	Z:	0.058	yaw:	1.539	yaw rate:	0.085	Roll:	1.596	Pitch:	3.303	Yaw:	2.219	Thrust:	0.000
Time:	0.185	Roll Set Point:	-0.106	Pitch Set Point:	-0.227	Yaw Set Point:	-0.027	X_WP:	0.000	Y_WP:	0.000	Y_WP:	0.000	X:	0.051	Y:	0.114	Z:	0.058	yaw:	1.538	yaw rate:	-0.062	Roll:	1.607	Pitch:	3.329	Yaw:	2.208	Thrust:	0.000
Time:	0.196	Roll Set Point:	-0.106	Pitch Set Point:	-0.227	Yaw Set Point:	-0.027	X_WP:	0.000	Y_WP:	0.000	Y_WP:	0.000	X:	0.051	Y:	0.114	Z:	0.058	yaw:	1.553	yaw rate:	1.465	Roll:	1.639	Pitch:	3.280	Yaw:	2.606	Thrust:	0.000
Time:	0.206	Roll Set Point:	-0.106	Pitch Set Point:	-0.227	Yaw Set Point:	-0.027	X_WP:	0.000	Y_WP:	0.000	Y_WP:	0.000	X:	0.051	Y:	0.114	Z:	0.058	yaw:	1.538	yaw rate:	-1.451	Roll:	1.561	Pitch:	3.328	Yaw:	1.855	Thrust:	0.000
Time:	0.216	Roll Set Point:	-0.106	Pitch Set Point:	-0.227	Yaw Set Point:	-0.027	X_WP:	0.000	Y_WP:	0.000	Y_WP:	0.000	X:	0.051	Y:	0.114	Z:	0.058	yaw:	1.540	yaw rate:	0.154	Roll:	1.589	Pitch:	3.330	Yaw:	2.282	Thrust:	0.000
Time:	0.226	Roll Set Point:	-0.106	Pitch Set Point:	-0.227	Yaw Set Point:	-0.027	X_WP:	0.000	Y_WP:	0.000	Y_WP:	0.000	X:	0.051	Y:	0.114	Z:	0.058	yaw:	1.539	yaw rate:	-0.137	Roll:	1.600	Pitch:	3.302	Yaw:	2.209	Thrust:	0.000
Time:	0.236	Roll Set Point:	-0.106	Pitch Set Point:	-0.227	Yaw Set Point:	-0.027	X_WP:	0.000	Y_WP:	0.000	Y_WP:	0.000	X:	0.051	Y:	0.114	Z:	0.058	yaw:	1.536	yaw rate:	-0.281	Roll:	1.604	Pitch:	3.343	Yaw:	2.173	Thrust:	0.000
Time:	0.247	Roll Set Point:	-0.106	Pitch Set Point:	-0.227	Yaw Set Point:	-0.027	X_WP:	0.000	Y_WP:	0.000	Y_WP:	0.000	X:	0.051	Y:	0.114	Z:	0.058	yaw:	1.536	yaw rate:	0.005	Roll:	1.599	Pitch:	3.322	Yaw:	2.264	Thrust:	0.000
Time:	0.257	Roll Set Point:	-0.106	Pitch Set Point:	-0.227	Yaw Set Point:	-0.027	X_WP:	0.000	Y_WP:	0.000	Y_WP:	0.000	X:	0.051	Y:	0.114	Z:	0.058	yaw:	1.537	yaw rate:	0.090	Roll:	1.609	Pitch:	3.326	Yaw:	2.282	Thrust:	0.000
Time:	0.267	Roll Set Point:	-0.106	Pitch Set Point:	-0.227	Yaw Set Point:	-0.027	X_WP:	0.000	Y_WP:	0.000	Y_WP:	0.000	X:	0.051	Y:	0.114	Z:	0.058	yaw:	1.539	yaw rate:	0.208	Roll:	1.634	Pitch:	3.322	Yaw:	2.322	Thrust:	0.000
Time:	0.278	Roll Set Point:	-0.106	Pitch Set Point:	-0.227	Yaw Set Point:	-0.027	X_WP:	0.000	Y_WP:	0.000	Y_WP:	0.000	X:	0.051	Y:	0.114	Z:	0.058	yaw:	1.546	yaw rate:	0.717	Roll:	1.616	Pitch:	3.334	Yaw:	2.465	Thrust:	0.000
Time:	0.288	Roll Set Point:	-0.106	Pitch Set Point:	-0.227	Yaw Set Point:	-0.027	X_WP:	0.000	Y_WP:	0.000	Y_WP:	0.000	X:	0.051	Y:	0.114	Z:	0.058	yaw:	1.547	yaw rate:	0.130	Roll:	1.624	Pitch:	3.325	Yaw:	2.324	Thrust:	0.000
Time:	0.298	Roll Set Point:	-0.106	Pitch Set Point:	-0.227	Yaw Set Point:	-0.027	X_WP:	0.000	Y_WP:	0.000	Y_WP:	0.000	X:	0.051	Y:	0.114	Z:	0.058	yaw:	1.535	yaw rate:	-1.214	Roll:	1.572	Pitch:	3.353	Yaw:	1.961	Thrust:	0.000
Time:	0.308	Roll Set Point:	-0.106	Pitch Set Point:	-0.227	Yaw Set Point:	-0.027	X_WP:	0.000	Y_WP:	0.000	Y_WP:	0.000	X:	0.051	Y:	0.114	Z:	0.058	yaw:	1.542	yaw rate:	0.667	Roll:	1.650	Pitch:	3.340	Yaw:	2.467	Thrust:	0.000
Time:	0.318	Roll Set Point:	-0.106	Pitch Set Point:	-0.227	Yaw Set Point:	-0.027	X_WP:	0.000	Y_WP:	0.000	Y_WP:	0.000	X:	0.051	Y:	0.114	Z:	0.058	yaw:	1.548	yaw rate:	0.580	Roll:	1.616	Pitch:	3.323	Yaw:	2.458	Thrust:	0.000
Time:	0.328	Roll Set Point:	-0.106	Pitch Set Point:	-0.227	Yaw Set Point:	-0.027	X_WP:	0.000	Y_WP:	0.000	Y_WP:	0.000	X:	0.051	Y:	0.114	Z:	0.058	yaw:	1.548	yaw rate:	0.580	Roll:	1.617	Pitch:	3.345	Yaw:	2.312	Thrust:	0.000
Time:	0.338	Roll Set Point:	-0.106	Pitch Set Point:	-0.227	Yaw Set Point:	-0.027	X_WP:	0.000	Y_WP:	0.000	Y_WP:	0.000	X:	0.051	Y:	0.114	Z:	0.058	yaw:	1.540	yaw rate:	-0.798	Roll:	1.593	Pitch:	3.365	Yaw:	2.098	Thrust:	0.000
Time:	0.348	Roll Set Point:	-0.106	Pitch Set Point:	-0.227	Yaw Set Point:	-0.027	X_WP:	0.000	Y_WP:	0.000	Y_WP:	0.000	X:	0.051	Y:	0.114	Z:	0.058	yaw:	1.538	yaw rate:	-0.182	Roll:	1.613	Pitch:	3.374	Yaw:	2.261	Thrust:	0.000
Time:	0.358	Roll Set Point:	-0.106	Pitch Set Point:	-0.227	Yaw Set Point:	-0.027	X_WP:	0.000	Y_WP:	0.000	Y_WP:	0.000	X:	0.051	Y:	0.114	Z:	0.058	yaw:	1.537	yaw rate:	-0.105	Roll:	1.609	Pitch:	3.341	Yaw:	2.287	Thrust:	0.000
Time:	0.369	Roll Set Point:	-0.106	Pitch Set Point:	-0.227	Yaw Set Point:	-0.027	X_WP:	0.000	Y_WP:	0.000	Y_WP:	0.000	X:	0.051	Y:	0.114	Z:	0.058	yaw:	1.551	yaw rate:	1.410	Roll:	1.682	Pitch:	3.339	Yaw:	2.691	Thrust:	0.000
Time:	0.379	Roll Set Point:	-0.106	Pitch Set Point:	-0.227	Yaw Set Point:	-0.027	X_WP:	0.000	Y_WP:	0.000	Y_WP:	0.000	X:	0.051	Y:	0.114	Z:	0.058	yaw:	1.550	yaw rate:	-0.109	Roll:	1.613	Pitch:	3.365	Yaw:	2.314	Thrust:	0.000
Time:	0.389	Roll Set Point:	-0.106	Pitch Set Point:	-0.227	Yaw Set Point:	-0.027	X_WP:	0.000	Y_WP:	0.000	Y_WP:	0.000	X:	0.051	Y:	0.114	Z:	0.058	yaw:	1.541	yaw rate:	-0.854	Roll:	1.605	Pitch:	3.388	Yaw:	2.112	Thrust:	0.000
Time:	0.399	Roll Set Point:	-0.106	Pitch Set Point:	-0.227	Yaw Set Point:	-0.027	X_WP:	0.000	Y_WP:	0.000	Y_WP:	0.000	X:	0.051	Y:	0.114	Z:	0.058	yaw:	1.546	yaw rate:	0.476	Roll:	1.631	Pitch:	3.338	Yaw:	2.472	Thrust:	0.000
Time:	0.409	Roll Set Point:	-0.106	Pitch Set Point:	-0.227	Yaw Set Point:	-0.027	X_WP:	0.000	Y_WP:	0.000	Y_WP:	0.000	X:	0.051	Y:	0.114	Z:	0.058	yaw:	1.535	yaw rate:	-1.091	Roll:	1.614	Pitch:	3.389	Yaw:	2.053	Thrust:	0.000
Time:	0.419	Roll Set Point:	-0.106	Pitch Set Point:	-0.227	Yaw Set Point:	-0.027	X_WP:	0.000	Y_WP:	0.000	Y_WP:	0.000	X:	0.051	Y:	0.114	Z:	0.058	yaw:	1.545	yaw rate:	0.995	Roll:	1.650	Pitch:	3.390	Yaw:	2.617	Thrust:	0.000
Time:	0.429	Roll Set Point:	-0.106	Pitch Set Point:	-0.227	Yaw Set Point:	-0.027	X_WP:	0.000	Y_WP:	0.000	Y_WP:	0.000	X:	0.051	Y:	0.114	Z:	0.058	yaw:	1.530	yaw rate:	-1.534	Roll:	1.549	Pitch:	3.370	Yaw:	1.940	Thrust:	0.000
Time:	0.439	Roll Set Point:	-0.106	Pitch Set Point:	-0.227	Yaw Set Point:	-0.027	X_WP:	0.000	Y_WP:	0.000	Y_WP:	0.000	X:	0.051	Y:	0.114	Z:	0.058	yaw:	1.535	yaw rate:	0.567	Roll:	1.683	Pitch:	3.362	Yaw:	2.502	Thrust:	0.000
Time:	0.449	Roll Set Point:	-0.106	Pitch Set Point:	-0.227	Yaw Set Point:	-0.027	X_WP:	0.000	Y_WP:	0.000	Y_WP:	0.000	X:	0.051	Y:	0.114	Z:	0.058	yaw:	1.548	yaw rate:	1.256	Roll:	1.638	Pitch:	3.375	Yaw:	2.705	Thrust:	0.000
Time:	0.459	Roll Set Point:	-0.106	Pitch Set Point:	-0.227	Yaw Set Point:	-0.027	X_WP:	0.000	Y_WP:	0.000	Y_WP:	0.000	X:	0.051	Y:	0.114	Z:	0.058	yaw:	1.548	yaw rate:	1.256	Roll:	1.635	Pitch:	3.383	Yaw:	2.384	Thrust:	0.000
Time:	0.470	Roll Set Point:	-0.106	Pitch Set Point:	-0.227	Yaw Set Point:	-0.027	X_WP:	0.000	Y_WP:	0.000	Y_WP:	0.000	X:	0.051	Y:	0.114	Z:	0.058	yaw:	1.537	yaw rate:	-1.041	Roll:	1.650	Pitch:	3.394	Yaw:	2.144	Thrust:	0.000
Time:	0.480	Roll Set Point:	-0.106	Pitch Set Point:	-0.227	Yaw Set Point:	-0.027	X_WP:	0.000	Y_WP:	0.000	Y_WP:	0.000	X:	0.051	Y:	0.114	Z:	0.058	yaw:	1.534	yaw rate:	-0.303	Roll:	1.612	Pitch:	3.381	Yaw:	2.295	Thrust:	0.000
Time:	0.490	Roll Set Point:	-0.106	Pitch Set Point:	-0.227	Yaw Set Point:	-0.027	X_WP:	0.000	Y_WP:	0.000	Y_WP:	0.000	X:	0.051	Y:	0.114	Z:	0.058	yaw:	1.539	yaw rate:	0.446	Roll:	1.646	Pitch:	3.418	Yaw:	2.502	Thrust:	0.000
Time:	0.500	Roll Set Point:	-0.106	Pitch Set Point:	-0.227	Yaw Set Point:	-0.027	X_WP:	0.000	Y_WP:	0.000	Y_WP:	0.000	X:	0.051	Y:	0.114	Z:	0.058	yaw:	1.548	yaw rate:	0.943	Roll:	1.675	Pitch:	3.371	Yaw:	2.651	Thrust:	0.000
Time:	0.510	Roll Set Point:	-0.106	Pitch Set Point:	-0.227	Yaw Set Point:	-0.027	X_WP:	0.000	Y_WP:	0.000	Y_WP:	0.000	X:	0.051	Y:	0.114	Z:	0.058	yaw:	1.538	yaw rate:	-1.019	Roll:	1.627	Pitch:	3.397	Yaw:	2.130	Thrust:	0.000
Time:	0.521	Roll Set Point:	-0.106	Pitch Set Point:	-0.227	Yaw Set Point:	-0.027	X_WP:	0.000	Y_WP:	0.000	Y_WP:	0.000	X:	0.051	Y:	0.114	Z:	0.058	yaw:	1.545	yaw rate:	0.648	Roll:	1.651	Pitch:	3.416	Yaw:	2.589	Thrust:	0.000
Time:	0.532	Roll Set Point:	-0.106	Pitch Set Point:	-0.227	Yaw Set Point:	-0.027	X_WP:	0.000	Y_WP:	0.000	Y_WP:	0.000	X:	0.051	Y:	0.114	Z:	0.058	yaw:	1.544	yaw rate:	-0.035	Roll:	1.642	Pitch:	3.431	Yaw:	2.431	Thrust:	0.000
Time:	0.542	Roll Set Point:	-0.106	Pitch Set Point:	-0.227	Yaw Set Point:	-0.027	X_WP:	0.000	Y_WP:	0.000	Y_WP:	0.000	X:	0.051	Y:	0.114	Z:	0.058	yaw:	1.548	yaw rate:	0.353	Roll:	1.662	Pitch:	3.371	Yaw:	2.517	Thrust:	0.000
Time:	0.552	Roll Set Point:	-0.106	Pitch Set Point:	-0.227	Yaw Set Point:	-0.027	X_WP:	0.000	Y_WP:	0.000	Y_WP:	0.000	X:	0.051	Y:	0.114	Z:	0.058	yaw:	1.543	yaw rate:	-0.496	Roll:	1.644	Pitch:	3.423	Yaw:	2.294	Thrust:	0.000
Time:	0.563	Roll Set Point:	-0.106	Pitch Set Point:	-0.227	Yaw Set Point:	-0.027	X_WP:	0.000	Y_WP:	0.000	Y_WP:	0.000	X:	0.051	Y:	0.114	Z:	0.058	yaw:	1.541	yaw rate:	-0.219	Roll:	1.626	Pitch:	3.416	Yaw:	2.369	Thrust:	0.000
Time:	0.573	Roll Set Point:	-0.106	Pitch Set Point:	-0.227	Yaw Set Point:	-0.027	X_WP:	0.000	Y_WP:	0.000	Y_WP:	0.000	X:	0.051	Y:	0.114	Z:	0.058	yaw:	1.539	yaw rate:	-0.124	Roll:	1.663	Pitch:	3.412	Yaw:	2.397	Thrust:	0.000
Time:	0.583	Roll Set Point:	-0.106	Pitch Set Point:	-0.227	Yaw Set Point:	-0.027	X_WP:	0.000	Y_WP:	0.000	Y_WP:	0.000	X:	0.051	Y:	0.114	Z:	0.058	yaw:	1.541	yaw rate:	0.164	Roll:	1.639	Pitch:	3.426	Yaw:	2.482	Thrust:	0.000
Time:	0.593	Roll Set Point:	-0.106	Pitch Set Point:	-0.227	Yaw Set Point:	-0.027	X_WP:	0.000	Y_WP:	0.000	Y_WP:	0.000	X:	0.051	Y:	0.114	Z:	0.058	yaw:	1.547	yaw rate:	0.589	Roll:	1.671	Pitch:	3.399	Yaw:	2.605	Thrust:	0.000
Time:	0.603	Roll Set Point:	-0.106	Pitch Set Point:	-0.227	Yaw Set Point:	-0.027	X_WP:	0.000	Y_WP:	0.000	Y_WP:	0.000	X:	0.051	Y:	0.114	Z:	0.058	yaw:	1.535	yaw rate:	-1.189	Roll:	1.626	Pitch:	3.438	Yaw:	2.130	Thrust:	0.000
Time:	0.614	Roll Set Point:	-0.106	Pitch Set Point:	-0.227	Yaw Set Point:	-0.027	X_WP:	0.000	Y_WP:	0.000	Y_WP:	0.000	X:	0.051	Y:	0.114	Z:	0.058	yaw:	1.541	yaw rate:	0.636	Roll:	1.690	Pitch:	3.439	Yaw:	2.634	Thrust:	0.000
Time:	0.624	Roll Set Point:	-0.106	Pitch Set Point:	-0.227	Yaw Set Point:	-0.027	X_WP:	0.000	Y_WP:	0.000	Y_WP:	0.000	X:	0.051	Y:	0.114	Z:	0.058	yaw:	1.544	yaw rate:	0.229	Roll:	1.642	Pitch:	3.426	Yaw:	2.523	Thrust:	0.000
Time:	0.634	Roll Set Point:	-0.106	Pitch Set Point:	-0.227	Yaw Set Point:	-0.027	X_WP:	0.000	Y_WP:	0.000	Y_WP:	0.000	X:	0.051	Y:	0.114	Z:	0.058	yaw:	1.540	yaw rate:	-0.340	Roll:	1.633	Pitch:	3.422	Yaw:	2.375	Thrust:	0.000
Time:	0.644	Roll Set Point:	-0.106	Pitch Set Point:	-0.227	Yaw Set Point:	-0.027	X_WP:	0.000	Y_WP:	0.000	Y_WP:	0.000	X:	0.051	Y:	0.114	Z:	0.058	yaw:	1.540	yaw rate:	-0.340	Roll:	1.658	Pitch:	3.433	Yaw:	2.469	Thrust:	0.000
Time:	0.654	Roll Set Point:	-0.106	Pitch Set Point:	-0.227	Yaw Set Point:	-0.027	X_WP:	0.000	Y_WP:	0.000	Y_WP:	0.000	X:	0.051	Y:	0.114	Z:	0.058	yaw:	1.540	yaw rate:	-0.024	Roll:	1.687	Pitch:	3.439	Yaw:	2.468	Thrust:	0.000
Time:	0.664	Roll Set Point:	-0.106	Pitch Set Point:	-0.227	Yaw Set Point:	-0.027	X_WP:	0.000	Y_WP:	0.000	Y_WP:	0.000	X:	0.051	Y:	0.114	Z:	0.058	yaw:	1.541	yaw rate:	0.126	Roll:	1.665	Pitch:	3.441	Yaw:	2.514	Thrust:	0.000
Time:	0.674	Roll Set Point:	-0.106	Pitch Set Point:	-0.227	Yaw Set Point:	-0.027	X_WP:	0.000	Y_WP:	0.000	Y_WP:	0.000	X:	0.051	Y:	0.114	Z:	0.058	yaw:	1.539	yaw rate:	-0.221	Roll:	1.635	Pitch:	3.440	Yaw:	2.426	Thrust:	0.000
Time:	0.684	Roll Set Point:	-0.106	Pitch Set Point:	-0.227	Yaw Set Point:	-0.027	X_WP:	0.000	Y_WP:	0.000	Y_WP:	0.000	X:	0.051	Y:	0.114	Z:	0.058	yaw:	1.538	yaw rate:	-0.118	Roll:	1.680	Pitch:	3.440	Yaw:	2.457	Thrust:	0.000
Time:	0.694	Roll Set Point:	-0.106	Pitch Set Point:	-0.227	Yaw Set Point:	-0.027	X_WP:	0.000	Y_WP:	0.000	Y_WP:	0.000	X:	0.051	Y:	0.114	Z:	0.058	yaw:	1.540	yaw rate:	0.245	Roll:	1.651	Pitch:	3.463	Yaw:	2.561	Thrust:	0.000
Time:	0.704	Roll Set Point:	-0.106	Pitch Set Point:	-0.227	Yaw Set Point:	-0.027	X_WP:	0.000	Y_WP:	0.000	Y_WP:	0.000	X:	0.051	Y:	0.114	Z:	0.058	yaw:	1.540	yaw rate:	-0.068	Roll:	1.676	Pitch:	3.441	Yaw:	2.484	Thrust:	0.000
Time:	0.715	Roll Set Point:	-0.106	Pitch Set Point:	-0.227	Yaw Set Point:	-0.027	X_WP:	0.000	Y_WP:	0.000	Y_WP:	0.000	X:	0.051	Y:	0.114	Z:	0.058	yaw:	1.536	yaw rate:	-0.354	Roll:	1.681	Pitch:	3.477	Yaw:	2.450	Thrust:	0.000
Time:	0.725	Roll Set Point:	-0.106	Pitch Set Point:	-0.227	Yaw Set Point:	-0.027	X_WP:	0.000	Y_WP:	0.000	Y_WP:	0.000	X:	0.051	Y:	0.114	Z:	0.058	yaw:	1.538	yaw rate:	0.166	Roll:	1.658	Pitch:	3.456	Yaw:	2.554	Thrust:	0.000
Time:	0.736	Roll Set Point:	-0.106	Pitch Set Point:	-0.227	Yaw Set Point:	-0.027	X_WP:	0.000	Y_WP:	0.000	Y_WP:	0.000	X:	0.051	Y:	0.114	Z:	0.058	yaw:	1.535	yaw rate:	-0.295	Roll:	1.666	Pitch:	3.484	Yaw:	2.474	Thrust:	0.000
Time:	0.746	Roll Set Point:	-0.106	Pitch Set Point:	-0.227	Yaw Set Point:	-0.027	X_WP:	0.000	Y_WP:	0.000	Y_WP:	0.000	X:	0.051	Y:	0.114	Z:	0.058	yaw:	1.541	yaw rate:	0.633	Roll:	1.710	Pitch:	3.442	Yaw:	2.689	Thrust:	0.000
Time:	0.756	Roll Set Point:	-0.106	Pitch Set Point:	-0.227	Yaw Set Point:	-0.027	X_WP:	0.000	Y_WP:	0.000	Y_WP:	0.000	X:	0.051	Y:	0.114	Z:	0.058	yaw:	1.546	yaw rate:	0.486	Roll:	1.691	Pitch:	3.462	Yaw:	2.663	Thrust:	0.000
Time:	0.766	Roll Set Point:	-0.106	Pitch Set Point:	-0.227	Yaw Set Point:	-0.027	X_WP:	0.000	Y_WP:	0.000	Y_WP:	0.000	X:	0.051	Y:	0.114	Z:	0.058	yaw:	1.552	yaw rate:	0.574	Roll:	1.681	Pitch:	3.461	Yaw:	2.701	Thrust:	0.000
Time:	0.777	Roll Set Point:	-0.106	Pitch Set Point:	-0.227	Yaw Set Point:	-0.027	X_WP:	0.000	Y_WP:	0.000	Y_WP:	0.000	X:	0.051	Y:	0.114	Z:	0.058	yaw:	1.537	yaw rate:	-1.471	Roll:	1.646	Pitch:	3.492	Yaw:	2.219	Thrust:	0.000
Time:	0.787	Roll Set Point:	-0.106	Pitch Set Point:	-0.227	Yaw Set Point:	-0.027	X_WP:	0.000	Y_WP:	0.000	Y_WP:	0.000	X:	0.051	Y:	0.114	Z:	0.058	yaw:	1.537	yaw rate:	-1.471	Roll:	1.678	Pitch:	3.474	Yaw:	2.543	Thrust:	0.000
Time:	0.798	Roll Set Point:	-0.106	Pitch Set Point:	-0.227	Yaw Set Point:	-0.027	X_WP:	0.000	Y_WP:	0.000	Y_WP:	0.000	X:	0.051	Y:	0.114	Z:	0.058	yaw:	1.539	yaw rate:	0.209	Roll:	1.690	Pitch:	3.517	Yaw:	2.639	Thrust:	0.000
Time:	0.808	Roll Set Point:	-0.106	Pitch Set Point:	-0.227	Yaw Set Point:	-0.027	X_WP:	0.000	Y_WP:	0.000	Y_WP:	0.000	X:	0.051	Y:	0.114	Z:	0.058	yaw:	1.539	yaw rate:	0.209	Roll:	1.680	Pitch:	3.479	Yaw:	2.554	Thrust:	0.000
Time:	0.818	Roll Set Point:	-0.106	Pitch Set Point:	-0.227	Yaw Set Point:	-0.027	X_WP:	0.000	Y_WP:	0.000	Y_WP:	0.000	X:	0.051	Y:	0.114	Z:	0.058	yaw:	1.543	yaw rate:	0.385	Roll:	1.695	Pitch:	3.463	Yaw:	2.665	Thrust:	0.000
Time:	0.828	Roll Set Point:	-0.106	Pitch Set Point:	-0.227	Yaw Set Point:	-0.027	X_WP:	0.000	Y_WP:	0.000	Y_WP:	0.000	X:	0.051	Y:	0.114	Z:	0.058	yaw:	1.542	yaw rate:	-0.076	Roll:	1.688	Pitch:	3.483	Yaw:	2.549	Thrust:	0.000
Time:	0.838	Roll Set Point:	-0.106	Pitch Set Point:	-0.227	Yaw Set Point:	-0.027	X_WP:	0.000	Y_WP:	0.000	Y_WP:	0.000	X:	0.051	Y:	0.114	Z:	0.058	yaw:	1.540	yaw rate:	-0.264	Roll:	1.677	Pitch:	3.508	Yaw:	2.502	Thrust:	0.000
Time:	0.848	Roll Set Point:	-0.106	Pitch Set Point:	-0.227	Yaw Set Point:	-0.027	X_WP:	0.000	Y_WP:	0.000	Y_WP:	0.000	X:	0.051	Y:	0.114	Z:	0.058	yaw:	1.536	yaw rate:	-0.337	Roll:	1.677	Pitch:	3.480	Yaw:	2.483	Thrust:	0.000
Time:	0.858	Roll Set Point:	-0.106	Pitch Set Point:	-0.227	Yaw Set Point:	-0.027	X_WP:	0.000	Y_WP:	0.000	Y_WP:	0.000	X:	0.051	Y:	0.114	Z:	0.058	yaw:	1.540	yaw rate:	0.331	Roll:	1.686	Pitch:	3.479	Yaw:	2.668	Thrust:	0.000
Time:	0.868	Roll Set Point:	-0.106	Pitch Set Point:	-0.227	Yaw Set Point:	-0.027	X_WP:	0.000	Y_WP:	0.000	Y_WP:	0.000	X:	0.051	Y:	0.114	Z:	0.058	yaw:	1.549	yaw rate:	0.894	Roll:	1.725	Pitch:	3.503	Yaw:	2.833	Thrust:	0.000
Time:	0.878	Roll Set Point:	-0.106	Pitch Set Point:	-0.227	Yaw Set Point:	-0.027	X_WP:	0.000	Y_WP:	0.000	Y_WP:	0.000	X:	0.051	Y:	0.114	Z:	0.058	yaw:	1.536	yaw rate:	-1.251	Roll:	1.636	Pitch:	3.518	Yaw:	2.261	Thrust:	0.000
Time:	0.888	Roll Set Point:	-0.106	Pitch Set Point:	-0.227	Yaw Set Point:	-0.027	X_WP:	0.000	Y_WP:	0.000	Y_WP:	0.000	X:	0.051	Y:	0.114	Z:	0.058	yaw:	1.541	yaw rate:	0.440	Roll:	1.721	Pitch:	3.477	Yaw:	2.714	Thrust:	0.000
Time:	0.898	Roll Set Point:	-0.106	Pitch Set Point:	-0.227	Yaw Set Point:	-0.027	X_WP:	0.000	Y_WP:	0.000	Y_WP:	0.000	X:	0.051	Y:	0.114	Z:	0.058	yaw:	1.532	yaw rate:	-0.806	Roll:	1.667	Pitch:	3.509	Yaw:	2.382	Thrust:	0.000
Time:	0.908	Roll Set Point:	-0.106	Pitch Set Point:	-0.227	Yaw Set Point:	-0.027	X_WP:	0.000	Y_WP:	0.000	Y_WP:	0.000	X:	0.051	Y:	0.114	Z:	0.058	yaw:	1.542	yaw rate:	0.939	Roll:	1.716	Pitch:	3.516	Yaw:	2.856	Thrust:	0.000
Time:	0.918	Roll Set Point:	-0.106	Pitch Set Point:	-0.227	Yaw Set Point:	-0.027	X_WP:	0.000	Y_WP:	0.000	Y_WP:	0.000	X:	0.051	Y:	0.114	Z:	0.058	yaw:	1.535	yaw rate:	-0.726	Roll:	1.670	Pitch:	3.503	Yaw:	2.417	Thrust:	0.000
Time:	0.928	Roll Set Point:	-0.106	Pitch Set Point:	-0.227	Yaw Set Point:	-0.027	X_WP:	0.000	Y_WP:	0.000	Y_WP:	0.000	X:	0.051	Y:	0.114	Z:	0.058	yaw:	1.535	yaw rate:	-0.726	Roll:	1.696	Pitch:	3.512	Yaw:	2.612	Thrust:	0.000
Time:	0.938	Roll Set Point:	-0.106	Pitch Set Point:	-0.227	Yaw Set Point:	-0.027	X_WP:	0.000	Y_WP:	0.000	Y_WP:	0.000	X:	0.051	Y:	0.114	Z:	0.058	yaw:	1.544	yaw rate:	0.963	Roll:	1.743	Pitch:	3.497	Yaw:	2.882	Thrust:	0.000
Time:	0.949	Roll Set Point:	-0.106	Pitch Set Point:	-0.227	Yaw Set Point:	-0.027	X_WP:	0.000	Y_WP:	0.000	Y_WP:	0.000	X:	0.051	Y:	0.114	Z:	0.058	yaw:	1.545	yaw rate:	0.095	Roll:	1.695	Pitch:	3.531	Yaw:	2.662	Thrust:	0.000
Time:	0.959	Roll Set Point:	-0.106	Pitch Set Point:	-0.227	Yaw Set Point:	-0.027	X_WP:	0.000	Y_WP:	0.000	Y_WP:	0.000	X:	0.051	Y:	0.114	Z:	0.058	yaw:	1.536	yaw rate:	-0.957	Roll:	1.674	Pitch:	3.521	Yaw:	2.384	Thrust:	0.000
Time:	0.969	Roll Set Point:	-0.106	Pitch Set Point:	-0.227	Yaw Set Point:	-0.027	X_WP:	0.000	Y_WP:	0.000	Y_WP:	0.000	X:	0.051	Y:	0.114	Z:	0.058	yaw:	1.535	yaw rate:	-0.014	Roll:	1.695	Pitch:	3.532	Yaw:	2.631	Thrust:	0.000
Time:	0.980	Roll Set Point:	-0.106	Pitch Set Point:	-0.227	Yaw Set Point:	-0.027	X_WP:	0.000	Y_WP:	0.000	Y_WP:	0.000	X:	0.051	Y:	0.114	Z:	0.058	yaw:	1.546	yaw rate:	1.035	Roll:	1.750	Pitch:	3.549	Yaw:	2.948	Thrust:	0.000
Time:	0.990	Roll Set Point:	-0.106	Pitch Set Point:	-0.227	Yaw Set Point:	-0.027	X_WP:	0.000	Y_WP:	0.000	Y_WP:	0.000	X:	0.051	Y:	0.114	Z:	0.058	yaw:	1.542	yaw rate:	-0.367	Roll:	1.686	Pitch:	3.521	Yaw:	2.559	Thrust:	0.000
Time:	1.000	Roll Set Point:	-0.106	Pitch Set Point:	-0.227	Yaw Set Point:	-0.027	X_WP:	0.000	Y_WP:	0.000	Y_WP:	0.000	X:	0.051	Y:	0.114	Z:	0.058	yaw:	1.538	yaw rate:	-0.447	Roll:	1.693	Pitch:	3.532	Yaw:	2.537	Thrust:	0.000
Time:	1.010	Roll Set Point:	-0.106	Pitch Set Point:	-0.227	Yaw Set Point:	-0.027	X_WP:	0.000	Y_WP:	0.000	Y_WP:	0.000	X:	0.051	Y:	0.114	Z:	0.058	yaw:	1.535	yaw rate:	-0.226	Roll:	1.713	Pitch:	3.552	Yaw:	2.597	Thrust:	0.000
Time:	1.020	Roll Set Point:	-0.106	Pitch Set Point:	-0.227	Yaw Set Point:	-0.027	X_WP:	0.000	Y_WP:	0.000	Y_WP:	0.000	X:	0.051	Y:	0.114	Z:	0.058	yaw:	1.538	yaw rate:	0.279	Roll:	1.694	Pitch:	3.541	Yaw:	2.738	Thrust:	0.000
Time:	1.030	Roll Set Point:	-0.106	Pitch Set Point:	-0.227	Yaw Set Point:	-0.027	X_WP:	0.000	Y_WP:	0.000	Y_WP:	0.000	X:	0.051	Y:	0.114	Z:	0.058	yaw:	1.537	yaw rate:	-0.153	Roll:	1.726	Pitch:	3.529	Yaw:	2.632	Thrust:	0.000
Time:	1.041	Roll Set Point:	-0.106	Pitch Set Point:	-0.227	Yaw Set Point:	-0.027	X_WP:	0.000	Y_WP:	0.000	Y_WP:	0.000	X:	0.051	Y:	0.114	Z:	0.058	yaw:	1.538	yaw rate:	0.142	Roll:	1.714	Pitch:	3.580	Yaw:	2.760	Thrust:	0.000
Time:	1.051	Roll Set Point:	-0.106	Pitch Set Point:	-0.227	Yaw Set Point:	-0.027	X_WP:	0.000	Y_WP:	0.000	Y_WP:	0.000	X:	0.051	Y:	0.114	Z:	0.058	yaw:	1.539	yaw rate:	0.047	Roll:	1.715	Pitch:	3.524	Yaw:	2.698	Thrust:	0.000
Time:	1.062	Roll Set Point:	-0.106	Pitch Set Point:	-0.227	Yaw Set Point:	-0.027	X_WP:	0.000	Y_WP:	0.000	Y_WP:	0.000	X:	0.051	Y:	0.114	Z:	0.058	yaw:	1.540	yaw rate:	0.093	Roll:	1.732	Pitch:	3.584	Yaw:	2.760	Thrust:	0.000
Time:	1.072	Roll Set Point:	-0.106	Pitch Set Point:	-0.227	Yaw Set Point:	-0.027	X_WP:	0.000	Y_WP:	0.000	Y_WP:	0.000	X:	0.051	Y:	0.114	Z:	0.058	yaw:	1.540	yaw rate:	0.093	Roll:	1.717	Pitch:	3.554	Yaw:	2.698	Thrust:	0.000
Time:	1.083	Roll Set Point:	-0.106	Pitch Set Point:	-0.227	Yaw Set Point:	-0.027	X_WP:	0.000	Y_WP:	0.000	Y_WP:	0.000	X:	0.051	Y:	0.114	Z:	0.058	yaw:	1.536	yaw rate:	0.193	Roll:	1.739	Pitch:	3.593	Yaw:	2.665	Thrust:	0.000
Time:	1.093	Roll Set Point:	-0.106	Pitch Set Point:	-0.227	Yaw Set Point:	-0.027	X_WP:	0.000	Y_WP:	0.000	Y_WP:	0.000	X:	0.051	Y:	0.114	Z:	0.058	yaw:	1.536	yaw rate:	0.193	Roll:	1.719	Pitch:	3.558	Yaw:	2.700	Thrust:	0.000
Time:	1.103	Roll Set Point:	-0.106	Pitch Set Point:	-0.227	Yaw Set Point:	-0.027	X_WP:	0.000	Y_WP:	0.000	Y_WP:	0.000	X:	0.051	Y:	0.114	Z:	0.058	yaw:	1.542	yaw rate:	0.555	Roll:	1.728	Pitch:	3.527	Yaw:	2.859	Thrust:	0.000
Time:	1.113	Roll Set Point:	-0.106	Pitch Set Point:	-0.227	Yaw Set Point:	-0.027	X_WP:	0.000	Y_WP:	0.000	Y_WP:	0.000	X:	0.051	Y:	0.114	Z:	0.058	yaw:	1.540	yaw rate:	-0.163	Roll:	1.726	Pitch:	3.593	Yaw:	2.676	Thrust:	0.000
Time:	1.124	Roll Set Point:	-0.106	Pitch Set Point:	-0.227	Yaw Set Point:	-0.027	X_WP:	0.000	Y_WP:	0.000	Y_WP:	0.000	X:	0.051	Y:	0.114	Z:	0.058	yaw:	1.541	yaw rate:	0.085	Roll:	1.712	Pitch:	3.593	Yaw:	2.797	Thrust:	0.000
Time:	1.134	Roll Set Point:	-0.106	Pitch Set Point:	-0.227	Yaw Set Point:	-0.027	X_WP:	0.000	Y_WP:	0.000	Y_WP:	0.000	X:	0.051	Y:	0.114	Z:	0.058	yaw:	1.540	yaw rate:	-0.118	Roll:	1.727	Pitch:	3.558	Yaw:	2.696	Thrust:	0.000
Time:	1.144	Roll Set Point:	-0.106	Pitch Set Point:	-0.227	Yaw Set Point:	-0.027	X_WP:	0.000	Y_WP:	0.000	Y_WP:	0.000	X:	0.051	Y:	0.114	Z:	0.058	yaw:	1.536	yaw rate:	-0.364	Roll:	1.729	Pitch:	3.578	Yaw:	2.632	Thrust:	0.000
Time:	1.154	Roll Set Point:	-0.106	Pitch Set Point:	-0.227	Yaw Set Point:	-0.027	X_WP:	0.000	Y_WP:	0.000	Y_WP:	0.000	X:	0.051	Y:	0.114	Z:	0.058	yaw:	1.545	yaw rate:	0.861	Roll:	1.752	Pitch:	3.569	Yaw:	2.970	Thrust:	0.000
Time:	1.164	Roll Set Point:	-0.106	Pitch Set Point:	-0.227	Yaw Set Point:	-0.027	X_WP:	0.000	Y_WP:	0.000	Y_WP:	0.000	X:	0.051	Y:	0.114	Z:	0.058	yaw:	1.539	yaw rate:	-0.564	Roll:	1.733	Pitch:	3.571	Yaw:	2.593	Thrust:	0.000
Time:	1.174	Roll Set Point:	-0.106	Pitch Set Point:	-0.227	Yaw Set Point:	-0.027	X_WP:	0.000	Y_WP:	0.000	Y_WP:	0.000	X:	0.051	Y:	0.114	Z:	0.058	yaw:	1.550	yaw rate:	1.131	Roll:	1.745	Pitch:	3.572	Yaw:	3.058	Thrust:	0.000
Time:	1.184	Roll Set Point:	-0.106	Pitch Set Point:	-0.227	Yaw Set Point:	-0.027	X_WP:	0.000	Y_WP:	0.000	Y_WP:	0.000	X:	0.051	Y:	0.114	Z:	0.058	yaw:	1.545	yaw rate:	-0.529	Roll:	1.707	Pitch:	3.600	Yaw:	2.623	Thrust:	0.000
Time:	1.194	Roll Set Point:	-0.106	Pitch Set Point:	-0.227	Yaw Set Point:	-0.027	X_WP:	0.000	Y_WP:	0.000	Y_WP:	0.000	X:	0.051	Y:	0.114	Z:	0.058	yaw:	1.540	yaw rate:	-0.516	Roll:	1.714	Pitch:	3.581	Yaw:	2.624	Thrust:	0.000
Time:	1.204	Roll Set Point:	-0.106	Pitch Set Point:	-0.227	Yaw Set Point:	-0.027	X_WP:	0.000	Y_WP:	0.000	Y_WP:	0.000	X:	0.051	Y:	0.114	Z:	0.058	yaw:	1.545	yaw rate:	0.503	Roll:	1.743	Pitch:	3.575	Yaw:	2.903	Thrust:	0.000
Time:	1.214	Roll Set Point:	-0.106	Pitch Set Point:	-0.227	Yaw Set Point:	-0.027	X_WP:	0.000	Y_WP:	0.000	Y_WP:	0.000	X:	0.051	Y:	0.114	Z:	0.058	yaw:	1.542	yaw rate:	-0.326	Roll:	1.740	Pitch:	3.613	Yaw:	2.692	Thrust:	0.000
Time:	1.225	Roll Set Point:	-0.106	Pitch Set Point:	-0.227	Yaw Set Point:	-0.027	X_WP:	0.000	Y_WP:	0.000	Y_WP:	0.000	X:	0.051	Y:	0.114	Z:	0.058	yaw:	1.551	yaw rate:	0.902	Roll:	1.792	Pitch:	3.615	Yaw:	3.064	Thrust:	0.000
Time:	1.235	Roll Set Point:	-0.106	Pitch Set Point:	-0.227	Yaw Set Point:	-0.027	X_WP:	0.000	Y_WP:	0.000	Y_WP:	0.000	X:	0.051	Y:	0.114	Z:	0.058	yaw:	1.534	yaw rate:	-1.669	Roll:	1.673	Pitch:	3.611	Yaw:	2.348	Thrust:	0.000
Time:	1.246	Roll Set Point:	-0.106	Pitch Set Point:	-0.227	Yaw Set Point:	-0.027	X_WP:	0.000	Y_WP:	0.000	Y_WP:	0.000	X:	0.051	Y:	0.114	Z:	0.058	yaw:	1.549	yaw rate:	1.517	Roll:	1.793	Pitch:	3.608	Yaw:	3.220	Thrust:	0.000
Time:	1.256	Roll Set Point:	-0.106	Pitch Set Point:	-0.227	Yaw Set Point:	-0.027	X_WP:	0.000	Y_WP:	0.000	Y_WP:	0.000	X:	0.051	Y:	0.114	Z:	0.058	yaw:	1.540	yaw rate:	-0.915	Roll:	1.720	Pitch:	3.634	Yaw:	2.554	Thrust:	0.000
Time:	1.266	Roll Set Point:	-0.106	Pitch Set Point:	-0.227	Yaw Set Point:	-0.027	X_WP:	0.000	Y_WP:	0.000	Y_WP:	0.000	X:	0.051	Y:	0.114	Z:	0.058	yaw:	1.540	yaw rate:	-0.915	Roll:	1.742	Pitch:	3.605	Yaw:	2.797	Thrust:	0.000
Time:	1.276	Roll Set Point:	-0.106	Pitch Set Point:	-0.227	Yaw Set Point:	-0.027	X_WP:	0.000	Y_WP:	0.000	Y_WP:	0.000	X:	0.051	Y:	0.114	Z:	0.058	yaw:	1.547	yaw rate:	0.713	Roll:	1.766	Pitch:	3.584	Yaw:	2.999	Thrust:	0.000
Time:	1.286	Roll Set Point:	-0.106	Pitch Set Point:	-0.227	Yaw Set Point:	-0.027	X_WP:	0.000	Y_WP:	0.000	Y_WP:	0.000	X:	0.051	Y:	0.114	Z:	0.058	yaw:	1.541	yaw rate:	-0.567	Roll:	1.744	Pitch:	3.630	Yaw:	2.662	Thrust:	0.000
Time:	1.296	Roll Set Point:	-0.106	Pitch Set Point:	-0.227	Yaw Set Point:	-0.027	X_WP:	0.000	Y_WP:	0.000	Y_WP:	0.000	X:	0.051	Y:	0.114	Z:	0.058	yaw:	1.544	yaw rate:	0.216	Roll:	1.729	Pitch:	3.600	Yaw:	2.876	Thrust:	0.000
Time:	1.306	Roll Set Point:	-0.106	Pitch Set Point:	-0.227	Yaw Set Point:	-0.027	X_WP:	0.000	Y_WP:	0.000	Y_WP:	0.000	X:	0.051	Y:	0.114	Z:	0.058	yaw:	1.545	yaw rate:	0.109	Roll:	1.745	Pitch:	3.612	Yaw:	2.853	Thrust:	0.000
Time:	1.316	Roll Set Point:	-0.106	Pitch Set Point:	-0.227	Yaw Set Point:	-0.027	X_WP:	0.000	Y_WP:	0.000	Y_WP:	0.000	X:	0.051	Y:	0.114	Z:	0.058	yaw:	1.544	yaw rate:	-0.087	Roll:	1.769	Pitch:	3.638	Yaw:	2.807	Thrust:	0.000
Time:	1.327	Roll Set Point:	-0.106	Pitch Set Point:	-0.227	Yaw Set Point:	-0.027	X_WP:	0.000	Y_WP:	0.000	Y_WP:	0.000	X:	0.051	Y:	0.114	Z:	0.058	yaw:	1.546	yaw rate:	0.237	Roll:	1.742	Pitch:	3.620	Yaw:	2.901	Thrust:	0.000
Time:	1.337	Roll Set Point:	-0.106	Pitch Set Point:	-0.227	Yaw Set Point:	-0.027	X_WP:	0.000	Y_WP:	0.000	Y_WP:	0.000	X:	0.051	Y:	0.114	Z:	0.058	yaw:	1.548	yaw rate:	0.151	Roll:	1.738	Pitch:	3.602	Yaw:	2.885	Thrust:	0.000
Time:	1.347	Roll Set Point:	-0.106	Pitch Set Point:	-0.227	Yaw Set Point:	-0.027	X_WP:	0.000	Y_WP:	0.000	Y_WP:	0.000	X:	0.051	Y:	0.114	Z:	0.058	yaw:	1.546	yaw rate:	-0.177	Roll:	1.793	Pitch:	3.640	Yaw:	2.809	Thrust:	0.000
Time:	1.358	Roll Set Point:	-0.106	Pitch Set Point:	-0.227	Yaw Set Point:	-0.027	X_WP:	0.000	Y_WP:	0.000	Y_WP:	0.000	X:	0.051	Y:	0.114	Z:	0.058	yaw:	1.546	yaw rate:	0.040	Roll:	1.759	Pitch:	3.675	Yaw:	2.928	Thrust:	0.000
Time:	1.368	Roll Set Point:	-0.106	Pitch Set Point:	-0.227	Yaw Set Point:	-0.027	X_WP:	0.000	Y_WP:	0.000	Y_WP:	0.000	X:	0.051	Y:	0.114	Z:	0.058	yaw:	1.548	yaw rate:	0.204	Roll:	1.754	Pitch:	3.621	Yaw:	2.916	Thrust:	0.000
Time:	1.378	Roll Set Point:	-0.106	Pitch Set Point:	-0.227	Yaw Set Point:	-0.027	X_WP:	0.000	Y_WP:	0.000	Y_WP:	0.000	X:	0.051	Y:	0.114	Z:	0.058	yaw:	1.538	yaw rate:	-0.996	Roll:	1.738	Pitch:	3.656	Yaw:	2.594	Thrust:	0.000
Time:	1.389	Roll Set Point:	-0.106	Pitch Set Point:	-0.227	Yaw Set Point:	-0.027	X_WP:	0.000	Y_WP:	0.000	Y_WP:	0.000	X:	0.051	Y:	0.114	Z:	0.058	yaw:	1.537	yaw rate:	-0.121	Roll:	1.762	Pitch:	3.663	Yaw:	2.906	Thrust:	0.000
Time:	1.400	Roll Set Point:	-0.106	Pitch Set Point:	-0.227	Yaw Set Point:	-0.027	X_WP:	0.000	Y_WP:	0.000	Y_WP:	0.000	X:	0.051	Y:	0.114	Z:	0.058	yaw:	1.546	yaw rate:	0.905	Roll:	1.793	Pitch:	3.678	Yaw:	3.159	Thrust:	0.000
Time:	1.410	Roll Set Point:	-0.106	Pitch Set Point:	-0.227	Yaw Set Point:	-0.027	X_WP:	0.000	Y_WP:	0.000	Y_WP:	0.000	X:	0.051	Y:	0.114	Z:	0.058	yaw:	1.535	yaw rate:	-1.128	Roll:	1.737	Pitch:	3.650	Yaw:	2.572	Thrust:	0.000
Time:	1.420	Roll Set Point:	-0.106	Pitch Set Point:	-0.227	Yaw Set Point:	-0.027	X_WP:	0.000	Y_WP:	0.000	Y_WP:	0.000	X:	0.051	Y:	0.114	Z:	0.058	yaw:	1.535	yaw rate:	-1.128	Roll:	1.762	Pitch:	3.642	Yaw:	2.871	Thrust:	0.000
Time:	1.430	Roll Set Point:	-0.106	Pitch Set Point:	-0.227	Yaw Set Point:	-0.027	X_WP:	0.000	Y_WP:	0.000	Y_WP:	0.000	X:	0.051	Y:	0.114	Z:	0.058	yaw:	1.537	yaw rate:	0.249	Roll:	1.774	Pitch:	3.662	Yaw:	2.946	Thrust:	0.000
Time:	1.440	Roll Set Point:	-0.106	Pitch Set Point:	-0.227	Yaw Set Point:	-0.027	X_WP:	0.000	Y_WP:	0.000	Y_WP:	0.000	X:	0.051	Y:	0.114	Z:	0.058	yaw:	1.539	yaw rate:	0.104	Roll:	1.767	Pitch:	3.647	Yaw:	2.916	Thrust:	0.000
Time:	1.451	Roll Set Point:	-0.106	Pitch Set Point:	-0.227	Yaw Set Point:	-0.027	X_WP:	0.000	Y_WP:	0.000	Y_WP:	0.000	X:	0.051	Y:	0.114	Z:	0.058	yaw:	1.535	yaw rate:	-0.388	Roll:	1.781	Pitch:	3.653	Yaw:	2.868	Thrust:	0.000
Time:	1.461	Roll Set Point:	-0.106	Pitch Set Point:	-0.227	Yaw Set Point:	-0.027	X_WP:	0.000	Y_WP:	0.000	Y_WP:	0.000	X:	0.051	Y:	0.114	Z:	0.058	yaw:	1.546	yaw rate:	1.094	Roll:	1.812	Pitch:	3.634	Yaw:	3.192	Thrust:	0.000
Time:	1.471	Roll Set Point:	-0.106	Pitch Set Point:	-0.227	Yaw Set Point:	-0.027	X_WP:	0.000	Y_WP:	0.000	Y_WP:	0.000	X:	0.051	Y:	0.114	Z:	0.058	yaw:	1.547	yaw rate:	0.153	Roll:	1.740	Pitch:	3.665	Yaw:	2.955	Thrust:	0.000
Time:	1.481	Roll Set Point:	-0.106	Pitch Set Point:	-0.227	Yaw Set Point:	-0.027	X_WP:	0.000	Y_WP:	0.000	Y_WP:	0.000	X:	0.051	Y:	0.114	Z:	0.058	yaw:	1.541	yaw rate:	-0.568	Roll:	1.764	Pitch:	3.635	Yaw:	2.764	Thrust:	0.000
Time:	1.491	Roll Set Point:	-0.106	Pitch Set Point:	-0.227	Yaw Set Point:	-0.027	X_WP:	0.000	Y_WP:	0.000	Y_WP:	0.000	X:	0.051	Y:	0.114	Z:	0.058	yaw:	1.537	yaw rate:	-0.481	Roll:	1.770	Pitch:	3.652	Yaw:	2.792	Thrust:	0.000
Time:	1.502	Roll Set Point:	-0.106	Pitch Set Point:	-0.227	Yaw Set Point:	-0.027	X_WP:	0.000	Y_WP:	0.000	Y_WP:	0.000	X:	0.051	Y:	0.114	Z:	0.058	yaw:	1.547	yaw rate:	1.026	Roll:	1.822	Pitch:	3.673	Yaw:	3.248	Thrust:	0.000
Time:	1.512	Roll Set Point:	-0.106	Pitch Set Point:	-0.227	Yaw Set Point:	-0.027	X_WP:	0.000	Y_WP:	0.000	Y_WP:	0.000	X:	0.051	Y:	0.114	Z:	0.058	yaw:	1.540	yaw rate:	-0.700	Roll:	1.742	Pitch:	3.619	Yaw:	2.744	Thrust:	0.000
Time:	1.522	Roll Set Point:	-0.106	Pitch Set Point:	-0.227	Yaw Set Point:	-0.027	X_WP:	0.000	Y_WP:	0.000	Y_WP:	0.000	X:	0.051	Y:	0.114	Z:	0.058	yaw:	1.541	yaw rate:	0.120	Roll:	1.785	Pitch:	3.664	Yaw:	2.965	Thrust:	0.000
Time:	1.532	Roll Set Point:	-0.106	Pitch Set Point:	-0.227	Yaw Set Point:	-0.027	X_WP:	0.000	Y_WP:	0.000	Y_WP:	0.000	X:	0.051	Y:	0.114	Z:	0.058	yaw:	1.548	yaw rate:	0.697	Roll:	1.782	Pitch:	3.645	Yaw:	3.131	Thrust:	0.000
Time:	1.542	Roll Set Point:	-0.106	Pitch Set Point:	-0.227	Yaw Set Point:	-0.027	X_WP:	0.000	Y_WP:	0.000	Y_WP:	0.000	X:	0.051	Y:	0.114	Z:	0.058	yaw:	1.548	yaw rate:	0.022	Roll:	1.786	Pitch:	3.629	Yaw:	2.960	Thrust:	0.000
Time:	1.552	Roll Set Point:	-0.106	Pitch Set Point:	-0.227	Yaw Set Point:	-0.027	X_WP:	0.000	Y_WP:	0.000	Y_WP:	0.000	X:	0.051	Y:	0.114	Z:	0.058	yaw:	1.546	yaw rate:	-0.264	Roll:	1.811	Pitch:	3.634	Yaw:	2.888	Thrust:	0.000
Time:	1.562	Roll Set Point:	-0.106	Pitch Set Point:	-0.227	Yaw Set Point:	-0.027	X_WP:	0.000	Y_WP:	0.000	Y_WP:	0.000	X:	0.051	Y:	0.114	Z:	0.058	yaw:	1.546	yaw rate:	-0.264	Roll:	1.782	Pitch:	3.642	Yaw:	2.962	Thrust:	0.000
Time:	1.572	Roll Set Point:	-0.106	Pitch Set Point:	-0.227	Yaw Set Point:	-0.027	X_WP:	0.000	Y_WP:	0.000	Y_WP:	0.000	X:	0.051	Y:	0.114	Z:	0.058	yaw:	1.538	yaw rate:	-0.780	Roll:	1.731	Pitch:	3.675	Yaw:	2.752	Thrust:	0.000
Time:	1.582	Roll Set Point:	-0.106	Pitch Set Point:	-0.227	Yaw Set Point:	-0.027	X_WP:	0.000	Y_WP:	0.000	Y_WP:	0.000	X:	0.051	Y:	0.114	Z:	0.058	yaw:	1.540	yaw rate:	0.255	Roll:	1.784	Pitch:	3.634	Yaw:	3.032	Thrust:	0.000
Time:	1.592	Roll Set Point:	-0.106	Pitch Set Point:	-0.227	Yaw Set Point:	-0.027	X_WP:	0.000	Y_WP:	0.000	Y_WP:	0.000	X:	0.051	Y:	0.114	Z:	0.058	yaw:	1.538	yaw rate:	-0.226	Roll:	1.794	Pitch:	3.639	Yaw:	2.909	Thrust:	0.000
Time:	1.602	Roll Set Point:	-0.106	Pitch Set Point:	-0.227	Yaw Set Point:	-0.027	X_WP:	0.000	Y_WP:	0.000	Y_WP:	0.000	X:	0.051	Y:	0.114	Z:	0.058	yaw:	1.538	yaw rate:	-0.018	Roll:	1.766	Pitch:	3.655	Yaw:	2.968	Thrust:	0.000
Time:	1.612	Roll Set Point:	-0.106	Pitch Set Point:	-0.227	Yaw Set Point:	-0.027	X_WP:	0.000	Y_WP:	0.000	Y_WP:	0.000	X:	0.051	Y:	0.114	Z:	0.058	yaw:	1.543	yaw rate:	0.486	Roll:	1.802	Pitch:	3.632	Yaw:	3.111	Thrust:	0.000
Time:	1.622	Roll Set Point:	-0.106	Pitch Set Point:	-0.227	Yaw Set Point:	-0.027	X_WP:	0.000	Y_WP:	0.000	Y_WP:	0.000	X:	0.051	Y:	0.114	Z:	0.058	yaw:	1.532	yaw rate:	-1.056	Roll:	1.769	Pitch:	3.652	Yaw:	2.708	Thrust:	0.000
Time:	1.633	Roll Set Point:	-0.106	Pitch Set Point:	-0.227	Yaw Set Point:	-0.027	X_WP:	0.000	Y_WP:	0.000	Y_WP:	0.000	X:	0.051	Y:	0.114	Z:	0.058	yaw:	1.543	yaw rate:	1.099	Roll:	1.837	Pitch:	3.660	Yaw:	3.337	Thrust:	0.000
Time:	1.643	Roll Set Point:	-0.106	Pitch Set Point:	-0.227	Yaw Set Point:	-0.027	X_WP:	0.000	Y_WP:	0.000	Y_WP:	0.000	X:	0.051	Y:	0.114	Z:	0.058	yaw:	1.542	yaw rate:	-0.113	Roll:	1.763	Pitch:	3.663	Yaw:	2.970	Thrust:	0.000
Time:	1.653	Roll Set Point:	-0.106	Pitch Set Point:	-0.227	Yaw Set Point:	-0.027	X_WP:	0.000	Y_WP:	0.000	Y_WP:	0.000	X:	0.051	Y:	0.114	Z:	0.058	yaw:	1.548	yaw rate:	0.563	Roll:	1.830	Pitch:	3.631	Yaw:	3.160	Thrust:	0.000
Time:	1.663	Roll Set Point:	-0.106	Pitch Set Point:	-0.227	Yaw Set Point:	-0.027	X_WP:	0.000	Y_WP:	0.000	Y_WP:	0.000	X:	0.051	Y:	0.114	Z:	0.058	yaw:	1.545	yaw rate:	-0.239	Roll:	1.792	Pitch:	3.631	Yaw:	2.953	Thrust:	0.000
Time:	1.673	Roll Set Point:	-0.106	Pitch Set Point:	-0.227	Yaw Set Point:	-0.027	X_WP:	0.000	Y_WP:	0.000	Y_WP:	0.000	X:	0.051	Y:	0.114	Z:	0.058	yaw:	1.545	yaw rate:	-0.239	Roll:	1.797	Pitch:	3.642	Yaw:	3.021	Thrust:	0.000
Time:	1.683	Roll Set Point:	-0.106	Pitch Set Point:	-0.227	Yaw Set Point:	-0.027	X_WP:	0.000	Y_WP:	0.000	Y_WP:	0.000	X:	0.051	Y:	0.114	Z:	0.058	yaw:	1.544	yaw rate:	-0.170	Roll:	1.794	Pitch:	3.652	Yaw:	2.980	Thrust:	0.000
Time:	1.694	Roll Set Point:	-0.106	Pitch Set Point:	-0.227	Yaw Set Point:	-0.027	X_WP:	0.000	Y_WP:	0.000	Y_WP:	0.000	X:	0.051	Y:	0.114	Z:	0.058	yaw:	1.547	yaw rate:	0.338	Roll:	1.823	Pitch:	3.643	Yaw:	3.127	Thrust:	0.000
Time:	1.705	Roll Set Point:	-0.106	Pitch Set Point:	-0.227	Yaw Set Point:	-0.027	X_WP:	0.000	Y_WP:	0.000	Y_WP:	0.000	X:	0.051	Y:	0.114	Z:	0.058	yaw:	1.544	yaw rate:	-0.273	Roll:	1.797	Pitch:	3.662	Yaw:	3.053	Thrust:	0.000
Time:	1.715	Roll Set Point:	-0.106	Pitch Set Point:	-0.227	Yaw Set Point:	-0.027	X_WP:	0.000	Y_WP:	0.000	Y_WP:	0.000	X:	0.051	Y:	0.114	Z:	0.058	yaw:	1.547	yaw rate:	0.288	Roll:	1.819	Pitch:	3.674	Yaw:	3.125	Thrust:	0.000
Time:	1.726	Roll Set Point:	-0.106	Pitch Set Point:	-0.227	Yaw Set Point:	-0.027	X_WP:	0.000	Y_WP:	0.000	Y_WP:	0.000	X:	0.051	Y:	0.114	Z:	0.058	yaw:	1.548	yaw rate:	0.115	Roll:	1.831	Pitch:	3.672	Yaw:	3.163	Thrust:	0.000
Time:	1.736	Roll Set Point:	-0.106	Pitch Set Point:	-0.227	Yaw Set Point:	-0.027	X_WP:	0.000	Y_WP:	0.000	Y_WP:	0.000	X:	0.051	Y:	0.114	Z:	0.058	yaw:	1.537	yaw rate:	-1.118	Roll:	1.757	Pitch:	3.646	Yaw:	2.749	Thrust:	0.000
Time:	1.746	Roll Set Point:	-0.106	Pitch Set Point:	-0.227	Yaw Set Point:	-0.027	X_WP:	0.000	Y_WP:	0.000	Y_WP:	0.000	X:	0.051	Y:	0.114	Z:	0.058	yaw:	1.538	yaw rate:	0.098	Roll:	1.806	Pitch:	3.633	Yaw:	3.074	Thrust:	0.000
Time:	1.756	Roll Set Point:	-0.106	Pitch Set Point:	-0.227	Yaw Set Point:	-0.027	X_WP:	0.000	Y_WP:	0.000	Y_WP:	0.000	X:	0.051	Y:	0.114	Z:	0.058	yaw:	1.542	yaw rate:	0.405	Roll:	1.822	Pitch:	3.637	Yaw:	3.170	Thrust:	0.000
Time:	1.766	Roll Set Point:	-0.106	Pitch Set Point:	-0.227	Yaw Set Point:	-0.027	X_WP:	0.000	Y_WP:	0.000	Y_WP:	0.000	X:	0.051	Y:	0.114	Z:	0.058	yaw:	1.537	yaw rate:	-0.558	Roll:	1.828	Pitch:	3.667	Yaw:	2.914	Thrust:	0.000
Time:	1.776	Roll Set Point:	-0.106	Pitch Set Point:	-0.227	Yaw Set Point:	-0.027	X_WP:	0.000	Y_WP:	0.000	Y_WP:	0.000	X:	0.051	Y:	0.114	Z:	0.058	yaw:	1.546	yaw rate:	0.914	Roll:	1.803	Pitch:	3.626	Yaw:	3.312	Thrust:	0.000
Time:	1.787	Roll Set Point:	-0.106	Pitch Set Point:	-0.227	Yaw Set Point:	-0.027	X_WP:	0.000	Y_WP:	0.000	Y_WP:	0.000	X:	0.051	Y:	0.114	Z:	0.058	yaw:	1.540	yaw rate:	-0.525	Roll:	1.822	Pitch:	3.682	Yaw:	3.035	Thrust:	0.000
Time:	1.797	Roll Set Point:	-0.106	Pitch Set Point:	-0.227	Yaw Set Point:	-0.027	X_WP:	0.000	Y_WP:	0.000	Y_WP:	0.000	X:	0.051	Y:	0.114	Z:	0.058	yaw:	1.544	yaw rate:	0.338	Roll:	1.837	Pitch:	3.623	Yaw:	3.171	Thrust:	0.000
Time:	1.807	Roll Set Point:	-0.106	Pitch Set Point:	-0.227	Yaw Set Point:	-0.027	X_WP:	0.000	Y_WP:	0.000	Y_WP:	0.000	X:	0.051	Y:	0.114	Z:	0.058	yaw:	1.540	yaw rate:	-0.423	Roll:	1.798	Pitch:	3.662	Yaw:	2.972	Thrust:	0.000
Time:	1.817	Roll Set Point:	-0.106	Pitch Set Point:	-0.227	Yaw Set Point:	-0.027	X_WP:	0.000	Y_WP:	0.000	Y_WP:	0.000	X:	0.051	Y:	0.114	Z:	0.058	yaw:	1.545	yaw rate:	0.504	Roll:	1.821	Pitch:	3.644	Yaw:	3.227	Thrust:	0.000
Time:	1.827	Roll Set Point:	-0.106	Pitch Set Point:	-0.227	Yaw Set Point:	-0.027	X_WP:	0.000	Y_WP:	0.000	Y_WP:	0.000	X:	0.051	Y:	0.114	Z:	0.058	yaw:	1.536	yaw rate:	-0.828	Roll:	1.810	Pitch:	3.652	Yaw:	2.873	Thrust:	0.000
Time:	1.837	Roll Set Point:	-0.106	Pitch Set Point:	-0.227	Yaw Set Point:	-0.027	X_WP:	0.000	Y_WP:	0.000	Y_WP:	0.000	X:	0.051	Y:	0.114	Z:	0.058	yaw:	1.536	yaw rate:	-0.828	Roll:	1.818	Pitch:	3.643	Yaw:	3.094	Thrust:	0.000
Time:	1.847	Roll Set Point:	-0.106	Pitch Set Point:	-0.227	Yaw Set Point:	-0.027	X_WP:	0.000	Y_WP:	0.000	Y_WP:	0.000	X:	0.051	Y:	0.114	Z:	0.058	yaw:	1.547	yaw rate:	1.069	Roll:	1.835	Pitch:	3.621	Yaw:	3.394	Thrust:	0.000
Time:	1.857	Roll Set Point:	-0.106	Pitch Set Point:	-0.227	Yaw Set Point:	-0.027	X_WP:	0.000	Y_WP:	0.000	Y_WP:	0.000	X:	0.051	Y:	0.114	Z:	0.058	yaw:	1.542	yaw rate:	-0.504	Roll:	1.811	Pitch:	3.643	Yaw:	2.982	Thrust:	0.000
Time:	1.867	Roll Set Point:	-0.106	Pitch Set Point:	-0.227	Yaw Set Point:	-0.027	X_WP:	0.000	Y_WP:	0.000	Y_WP:	0.000	X:	0.051	Y:	0.114	Z:	0.058	yaw:	1.540	yaw rate:	-0.182	Roll:	1.825	Pitch:	3.651	Yaw:	3.068	Thrust:	0.000
Time:	1.877	Roll Set Point:	-0.106	Pitch Set Point:	-0.227	Yaw Set Point:	-0.027	X_WP:	0.000	Y_WP:	0.000	Y_WP:	0.000	X:	0.051	Y:	0.114	Z:	0.058	yaw:	1.544	yaw rate:	0.427	Roll:	1.825	Pitch:	3.633	Yaw:	3.239	Thrust:	0.000
Time:	1.887	Roll Set Point:	-0.106	Pitch Set Point:	-0.227	Yaw Set Point:	-0.027	X_WP:	0.000	Y_WP:	0.000	Y_WP:	0.000	X:	0.051	Y:	0.114	Z:	0.058	yaw:	1.541	yaw rate:	-0.304	Roll:	1.824	Pitch:	3.675	Yaw:	3.059	Thrust:	0.000
Time:	1.898	Roll Set Point:	-0.106	Pitch Set Point:	-0.227	Yaw Set Point:	-0.027	X_WP:	0.000	Y_WP:	0.000	Y_WP:	0.000	X:	0.051	Y:	0.114	Z:	0.058	yaw:	1.542	yaw rate:	0.058	Roll:	1.850	Pitch:	3.661	Yaw:	3.238	Thrust:	0.000
Time:	1.908	Roll Set Point:	-0.106	Pitch Set Point:	-0.227	Yaw Set Point:	-0.027	X_WP:	0.000	Y_WP:	0.000	Y_WP:	0.000	X:	0.051	Y:	0.114	Z:	0.058	yaw:	1.542	yaw rate:	-0.002	Roll:	1.828	Pitch:	3.628	Yaw:	3.140	Thrust:	0.000
Time:	1.918	Roll Set Point:	-0.106	Pitch Set Point:	-0.227	Yaw Set Point:	-0.027	X_WP:	0.000	Y_WP:	0.000	Y_WP:	0.000	X:	0.051	Y:	0.114	Z:	0.058	yaw:	1.544	yaw rate:	0.198	Roll:	1.833	Pitch:	3.668	Yaw:	3.200	Thrust:	0.000
Time:	1.928	Roll Set Point:	-0.106	Pitch Set Point:	-0.227	Yaw Set Point:	-0.027	X_WP:	0.000	Y_WP:	0.000	Y_WP:	0.000	X:	0.051	Y:	0.114	Z:	0.058	yaw:	1.539	yaw rate:	-0.517	Roll:	1.789	Pitch:	3.640	Yaw:	3.012	Thrust:	0.000
Time:	1.938	Roll Set Point:	-0.106	Pitch Set Point:	-0.227	Yaw Set Point:	-0.027	X_WP:	0.000	Y_WP:	0.000	Y_WP:	0.000	X:	0.051	Y:	0.114	Z:	0.058	yaw:	1.545	yaw rate:	0.650	Roll:	1.883	Pitch:	3.610	Yaw:	3.330	Thrust:	0.000
Time:	1.948	Roll Set Point:	-0.106	Pitch Set Point:	-0.227	Yaw Set Point:	-0.027	X_WP:	0.000	Y_WP:	0.000	Y_WP:	0.000	X:	0.051	Y:	0.114	Z:	0.058	yaw:	1.536	yaw rate:	-0.948	Roll:	1.821	Pitch:	3.686	Yaw:	2.900	Thrust:	0.000
Time:	1.958	Roll Set Point:	-0.106	Pitch Set Point:	-0.227	Yaw Set Point:	-0.027	X_WP:	0.000	Y_WP:	0.000	Y_WP:	0.000	X:	0.051	Y:	0.114	Z:	0.058	yaw:	1.547	yaw rate:	1.160	Roll:	1.829	Pitch:	3.628	Yaw:	3.466	Thrust:	0.000
Time:	1.968	Roll Set Point:	-0.106	Pitch Set Point:	-0.227	Yaw Set Point:	-0.027	X_WP:	0.000	Y_WP:	0.000	Y_WP:	0.000	X:	0.051	Y:	0.114	Z:	0.058	yaw:	1.547	yaw rate:	1.160	Roll:	1.836	Pitch:	3.643	Yaw:	3.163	Thrust:	0.000
Time:	1.978	Roll Set Point:	-0.106	Pitch Set Point:	-0.227	Yaw Set Point:	-0.027	X_WP:	0.000	Y_WP:	0.000	Y_WP:	0.000	X:	0.051	Y:	0.114	Z:	0.058	yaw:	1.541	yaw rate:	-0.615	Roll:	1.853	Pitch:	3.627	Yaw:	2.994	Thrust:	0.000
Time:	1.989	Roll Set Point:	-0.106	Pitch Set Point:	-0.227	Yaw Set Point:	-0.027	X_WP:	0.000	Y_WP:	0.000	Y_WP:	0.000	X:	0.051	Y:	0.114	Z:	0.058	yaw:	1.542	yaw rate:	0.105	Roll:	1.833	Pitch:	3.689	Yaw:	3.281	Thrust:	0.000
Time:	1.999	Roll Set Point:	-0.106	Pitch Set Point:	-0.227	Yaw Set Point:	-0.027	X_WP:	0.000	Y_WP:	0.000	Y_WP:	0.000	X:	0.051	Y:	0.114	Z:	0.058	yaw:	1.547	yaw rate:	0.434	Roll:	1.861	Pitch:	3.640	Yaw:	3.276	Thrust:	0.000
Time:	2.009	Roll Set Point:	-0.106	Pitch Set Point:	-0.227	Yaw Set Point:	-0.027	X_WP:	0.000	Y_WP:	0.000	Y_WP:	0.000	X:	0.051	Y:	0.114	Z:	0.058	yaw:	1.540	yaw rate:	-0.682	Roll:	1.839	Pitch:	3.637	Yaw:	2.974	Thrust:	0.000
Time:	2.019	Roll Set Point:	-0.106	Pitch Set Point:	-0.227	Yaw Set Point:	-0.027	X_WP:	0.000	Y_WP:	0.000	Y_WP:	0.000	X:	0.051	Y:	0.114	Z:	0.058	yaw:	1.550	yaw rate:	1.021	Roll:	1.889	Pitch:	3.640	Yaw:	3.440	Thrust:	0.000
Time:	2.030	Roll Set Point:	-0.106	Pitch Set Point:	-0.227	Yaw Set Point:	-0.027	X_WP:	0.000	Y_WP:	0.000	Y_WP:	0.000	X:	0.051	Y:	0.114	Z:	0.058	yaw:	1.542	yaw rate:	-0.832	Roll:	1.828	Pitch:	3.685	Yaw:	3.047	Thrust:	0.000
Time:	2.040	Roll Set Point:	-0.106	Pitch Set Point:	-0.227	Yaw Set Point:	-0.027	X_WP:	0.000	Y_WP:	0.000	Y_WP:	0.000	X:	0.051	Y:	0.114	Z:	0.058	yaw:	1.545	yaw rate:	0.373	Roll:	1.866	Pitch:	3.620	Yaw:	3.258	Thrust:	0.000
Time:	2.050	Roll Set Point:	-0.106	Pitch Set Point:	-0.227	Yaw Set Point:	-0.027	X_WP:	0.000	Y_WP:	0.000	Y_WP:	0.000	X:	0.051	Y:	0.114	Z:	0.058	yaw:	1.540	yaw rate:	-0.541	Roll:	1.827	Pitch:	3.668	Yaw:	3.012	Thrust:	0.000
Time:	2.060	Roll Set Point:	-0.106	Pitch Set Point:	-0.227	Yaw Set Point:	-0.027	X_WP:	0.000	Y_WP:	0.000	Y_WP:	0.000	X:	0.051	Y:	0.114	Z:	0.058	yaw:	1.554	yaw rate:	1.359	Roll:	1.863	Pitch:	3.640	Yaw:	3.527	Thrust:	0.000
Time:	2.071	Roll Set Point:	-0.106	Pitch Set Point:	-0.227	Yaw Set Point:	-0.027	X_WP:	0.000	Y_WP:	0.000	Y_WP:	0.000	X:	0.051	Y:	0.114	Z:	0.058	yaw:	1.535	yaw rate:	-1.835	Roll:	1.838	Pitch:	3.645	Yaw:	2.667	Thrust:	0.000
Time:	2.081	Roll Set Point:	-0.106	Pitch Set Point:	-0.227	Yaw Set Point:	-0.027	X_WP:	0.000	Y_WP:	0.000	Y_WP:	0.000	X:	0.051	Y:	0.114	Z:	0.058	yaw:	1.544	yaw rate:	0.838	Roll:	1.856	Pitch:	3.610	Yaw:	3.378	Thrust:	0.000
Time:	2.091	Roll Set Point:	-0.106	Pitch Set Point:	-0.227	Yaw Set Point:	-0.027	X_WP:	0.000	Y_WP:	0.000	Y_WP:	0.000	X:	0.051	Y:	0.114	Z:	0.058	yaw:	1.534	yaw rate:	-0.919	Roll:	1.830	Pitch:	3.698	Yaw:	2.905	Thrust:	0.000
Time:	2.101	Roll Set Point:	-0.106	Pitch Set Point:	-0.227	Yaw Set Point:	-0.027	X_WP:	0.000	Y_WP:	0.000	Y_WP:	0.000	X:	0.051	Y:	0.114	Z:	0.058	yaw:	1.534	yaw rate:	-0.919	Roll:	1.853	Pitch:	3.643	Yaw:	3.144	Thrust:	0.000
Time:	2.111	Roll Set Point:	-0.106	Pitch Set Point:	-0.227	Yaw Set Point:	-0.027	X_WP:	0.000	Y_WP:	0.000	Y_WP:	0.000	X:	0.051	Y:	0.114	Z:	0.058	yaw:	1.536	yaw rate:	0.152	Roll:	1.859	Pitch:	3.626	Yaw:	3.187	Thrust:	0.000
Time:	2.121	Roll Set Point:	-0.106	Pitch Set Point:	-0.227	Yaw Set Point:	-0.027	X_WP:	0.000	Y_WP:	0.000	Y_WP:	0.000	X:	0.051	Y:	0.114	Z:	0.058	yaw:	1.539	yaw rate:	0.308	Roll:	1.840	Pitch:	3.624	Yaw:	3.232	Thrust:	0.000
Time:	2.131	Roll Set Point:	-0.106	Pitch Set Point:	-0.227	Yaw Set Point:	-0.027	X_WP:	0.000	Y_WP:	0.000	Y_WP:	0.000	X:	0.051	Y:	0.114	Z:	0.058	yaw:	1.543	yaw rate:	0.373	Roll:	1.875	Pitch:	3.671	Yaw:	3.254	Thrust:	0.000
Time:	2.141	Roll Set Point:	-0.106	Pitch Set Point:	-0.227	Yaw Set Point:	-0.027	X_WP:	0.000	Y_WP:	0.000	Y_WP:	0.000	X:	0.051	Y:	0.114	Z:	0.058	yaw:	1.539	yaw rate:	-0.377	Roll:	1.867	Pitch:	3.622	Yaw:	3.053	Thrust:	0.000
Time:	2.151	Roll Set Point:	-0.106	Pitch Set Point:	-0.227	Yaw Set Point:	-0.027	X_WP:	0.000	Y_WP:	0.000	Y_WP:	0.000	X:	0.051	Y:	0.114	Z:	0.058	yaw:	1.536	yaw rate:	-0.355	Roll:	1.866	Pitch:	3.635	Yaw:	3.055	Thrust:	0.000
Time:	2.161	Roll Set Point:	-0.106	Pitch Set Point:	-0.227	Yaw Set Point:	-0.027	X_WP:	0.000	Y_WP:	0.000	Y_WP:	0.000	X:	0.051	Y:	0.114	Z:	0.058	yaw:	1.540	yaw rate:	0.427	Roll:	1.857	Pitch:	3.653	Yaw:	3.263	Thrust:	0.000
Time:	2.171	Roll Set Point:	-0.106	Pitch Set Point:	-0.227	Yaw Set Point:	-0.027	X_WP:	0.000	Y_WP:	0.000	Y_WP:	0.000	X:	0.051	Y:	0.114	Z:	0.058	yaw:	1.535	yaw rate:	-0.517	Roll:	1.826	Pitch:	3.652	Yaw:	3.010	Thrust:	0.000
Time:	2.181	Roll Set Point:	-0.106	Pitch Set Point:	-0.227	Yaw Set Point:	-0.027	X_WP:	0.000	Y_WP:	0.000	Y_WP:	0.000	X:	0.051	Y:	0.114	Z:	0.058	yaw:	1.543	yaw rate:	0.791	Roll:	1.897	Pitch:	3.621	Yaw:	3.364	Thrust:	0.000
Time:	2.191	Roll Set Point:	-0.106	Pitch Set Point:	-0.227	Yaw Set Point:	-0.027	X_WP:	0.000	Y_WP:	0.000	Y_WP:	0.000	X:	0.051	Y:	0.114	Z:	0.058	yaw:	1.547	yaw rate:	0.423	Roll:	1.886	Pitch:	3.652	Yaw:	3.274	Thrust:	0.000
Time:	2.201	Roll Set Point:	-0.106	Pitch Set Point:	-0.227	Yaw Set Point:	-0.027	X_WP:	0.000	Y_WP:	0.000	Y_WP:	0.000	X:	0.051	Y:	0.114	Z:	0.058	yaw:	1.545	yaw rate:	-0.204	Roll:	1.870	Pitch:	3.636	Yaw:	3.105	Thrust:	0.000
Time:	2.211	Roll Set Point:	-0.106	Pitch Set Point:	-0.227	Yaw Set Point:	-0.027	X_WP:	0.000	Y_WP:	0.000	Y_WP:	0.000	X:	0.051	Y:	0.114	Z:	0.058	yaw:	1.545	yaw rate:	-0.204	Roll:	1.869	Pitch:	3.643	Yaw:	3.160	Thrust:	0.000
Time:	2.221	Roll Set Point:	-0.106	Pitch Set Point:	-0.227	Yaw Set Point:	-0.027	X_WP:	0.000	Y_WP:	0.000	Y_WP:	0.000	X:	0.051	Y:	0.114	Z:	0.058	yaw:	1.529	yaw rate:	-1.552	Roll:	1.818	Pitch:	3.662	Yaw:	2.730	Thrust:	0.000
Time:	2.231	Roll Set Point:	-0.106	Pitch Set Point:	-0.227	Yaw Set Point:	-0.027	X_WP:	0.000	Y_WP:	0.000	Y_WP:	0.000	X:	0.051	Y:	0.114	Z:	0.058	yaw:	1.551	yaw rate:	2.204	Roll:	1.938	Pitch:	3.633	Yaw:	3.744	Thrust:	0.000
Time:	2.241	Roll Set Point:	-0.106	Pitch Set Point:	-0.227	Yaw Set Point:	-0.027	X_WP:	0.000	Y_WP:	0.000	Y_WP:	0.000	X:	0.051	Y:	0.114	Z:	0.058	yaw:	1.541	yaw rate:	-1.031	Roll:	1.817	Pitch:	3.643	Yaw:	2.885	Thrust:	0.000
Time:	2.251	Roll Set Point:	-0.106	Pitch Set Point:	-0.227	Yaw Set Point:	-0.027	X_WP:	0.000	Y_WP:	0.000	Y_WP:	0.000	X:	0.051	Y:	0.114	Z:	0.058	yaw:	1.544	yaw rate:	0.318	Roll:	1.892	Pitch:	3.613	Yaw:	3.242	Thrust:	0.000
Time:	2.261	Roll Set Point:	-0.106	Pitch Set Point:	-0.227	Yaw Set Point:	-0.027	X_WP:	0.000	Y_WP:	0.000	Y_WP:	0.000	X:	0.051	Y:	0.114	Z:	0.058	yaw:	1.543	yaw rate:	-0.088	Roll:	1.901	Pitch:	3.655	Yaw:	3.134	Thrust:	0.000
Time:	2.271	Roll Set Point:	-0.106	Pitch Set Point:	-0.227	Yaw Set Point:	-0.027	X_WP:	0.000	Y_WP:	0.000	Y_WP:	0.000	X:	0.051	Y:	0.114	Z:	0.058	yaw:	1.550	yaw rate:	0.667	Roll:	1.875	Pitch:	3.641	Yaw:	3.341	Thrust:	0.000
Time:	2.281	Roll Set Point:	-0.106	Pitch Set Point:	-0.227	Yaw Set Point:	-0.027	X_WP:	0.000	Y_WP:	0.000	Y_WP:	0.000	X:	0.051	Y:	0.114	Z:	0.058	yaw:	1.543	yaw rate:	-0.696	Roll:	1.866	Pitch:	3.652	Yaw:	2.986	Thrust:	0.000
Time:	2.292	Roll Set Point:	-0.106	Pitch Set Point:	-0.227	Yaw Set Point:	-0.027	X_WP:	0.000	Y_WP:	0.000	Y_WP:	0.000	X:	0.051	Y:	0.114	Z:	0.058	yaw:	1.536	yaw rate:	-0.717	Roll:	1.888	Pitch:	3.688	Yaw:	3.074	Thrust:	0.000
Time:	2.302	Roll Set Point:	-0.106	Pitch Set Point:	-0.227	Yaw Set Point:	-0.027	X_WP:	0.000	Y_WP:	0.000	Y_WP:	0.000	X:	0.051	Y:	0.114	Z:	0.058	yaw:	1.539	yaw rate:	0.296	Roll:	1.887	Pitch:	3.645	Yaw:	3.229	Thrust:	0.000
Time:	2.313	Roll Set Point:	-0.106	Pitch Set Point:	-0.227	Yaw Set Point:	-0.027	X_WP:	0.000	Y_WP:	0.000	Y_WP:	0.000	X:	0.051	Y:	0.114	Z:	0.058	yaw:	1.540	yaw rate:	0.118	Roll:	1.918	Pitch:	3.670	Yaw:	3.281	Thrust:	0.000
Time:	2.324	Roll Set Point:	-0.106	Pitch Set Point:	-0.227	Yaw Set Point:	-0.027	X_WP:	0.000	Y_WP:	0.000	Y_WP:	0.000	X:	0.051	Y:	0.114	Z:	0.058	yaw:	1.544	yaw rate:	0.460	Roll:	1.915	Pitch:	3.680	Yaw:	3.363	Thrust:	0.000
Time:	2.334	Roll Set Point:	-0.106	Pitch Set Point:	-0.227	Yaw Set Point:	-0.027	X_WP:	0.000	Y_WP:	0.000	Y_WP:	0.000	X:	0.051	Y:	0.114	Z:	0.058	yaw:	1.546	yaw rate:	0.197	Roll:	1.921	Pitch:	3.655	Yaw:	3.213	Thrust:	0.000
Time:	2.344	Roll Set Point:	-0.106	Pitch Set Point:	-0.227	Yaw Set Point:	-0.027	X_WP:	0.000	Y_WP:	0.000	Y_WP:	0.000	X:	0.051	Y:	0.114	Z:	0.058	yaw:	1.545	yaw rate:	-0.186	Roll:	1.872	Pitch:	3.622	Yaw:	3.111	Thrust:	0.000
Time:	2.354	Roll Set Point:	-0.106	Pitch Set Point:	-0.227	Yaw Set Point:	-0.027	X_WP:	0.000	Y_WP:	0.000	Y_WP:	0.000	X:	0.051	Y:	0.114	Z:	0.058	yaw:	1.544	yaw rate:	-0.026	Roll:	1.882	Pitch:	3.623	Yaw:	3.154	Thrust:	0.000
Time:	2.364	Roll Set Point:	-0.106	Pitch Set Point:	-0.227	Yaw Set Point:	-0.027	X_WP:	0.000	Y_WP:	0.000	Y_WP:	0.000	X:	0.051	Y:	0.114	Z:	0.058	yaw:	1.544	yaw rate:	-0.026	Roll:	1.889	Pitch:	3.641	Yaw:	3.158	Thrust:	0.000
Time:	2.374	Roll Set Point:	-0.106	Pitch Set Point:	-0.227	Yaw Set Point:	-0.027	X_WP:	0.000	Y_WP:	0.000	Y_WP:	0.000	X:	0.051	Y:	0.114	Z:	0.058	yaw:	1.536	yaw rate:	-0.879	Roll:	1.888	Pitch:	3.683	Yaw:	2.917	Thrust:	0.000
Time:	2.384	Roll Set Point:	-0.106	Pitch Set Point:	-0.227	Yaw Set Point:	-0.027	X_WP:	0.000	Y_WP:	0.000	Y_WP:	0.000	X:	0.051	Y:	0.114	Z:	0.058	yaw:	1.545	yaw rate:	0.937	Roll:	1.903	Pitch:	3.630	Yaw:	3.405	Thrust:	0.000
Time:	2.394	Roll Set Point:	-0.106	Pitch Set Point:	-0.227	Yaw Set Point:	-0.027	X_WP:	0.000	Y_WP:	0.000	Y_WP:	0.000	X:	0.051	Y:	0.114	Z:	0.058	yaw:	1.536	yaw rate:	-0.851	Roll:	1.843	Pitch:	3.653	Yaw:	2.925	Thrust:	0.000
Time:	2.405	Roll Set Point:	-0.106	Pitch Set Point:	-0.227	Yaw Set Point:	-0.027	X_WP:	0.000	Y_WP:	0.000	Y_WP:	0.000	X:	0.051	Y:	0.114	Z:	0.058	yaw:	1.537	yaw rate:	0.074	Roll:	1.942	Pitch:	3.701	Yaw:	3.266	Thrust:	0.000
Time:	2.416	Roll Set Point:	-0.106	Pitch Set Point:	-0.227	Yaw Set Point:	-0.027	X_WP:	0.000	Y_WP:	0.000	Y_WP:	0.000	X:	0.051	Y:	0.114	Z:	0.058	yaw:	1.533	yaw rate:	-0.372	Roll:	1.881	Pitch:	3.637	Yaw:	3.056	Thrust:	0.000
Time:	2.427	Roll Set Point:	-0.106	Pitch Set Point:	-0.227	Yaw Set Point:	-0.027	X_WP:	0.000	Y_WP:	0.000	Y_WP:	0.000	X:	0.051	Y:	0.114	Z:	0.058	yaw:	1.543	yaw rate:	0.989	Roll:	1.981	Pitch:	3.648	Yaw:	3.491	Thrust:	0.000
Time:	2.441	Roll Set Point:	-0.106	Pitch Set Point:	-0.227	Yaw Set Point:	-0.027	X_WP:	0.000	Y_WP:	0.000	Y_WP:	0.000	X:	0.051	Y:	0.114	Z:	0.058	yaw:	1.532	yaw rate:	-1.150	Roll:	1.894	Pitch:	3.709	Yaw:	3.325	Thrust:	0.000
Time:	2.453	Roll Set Point:	-0.106	Pitch Set Point:	-0.227	Yaw Set Point:	-0.027	X_WP:	0.000	Y_WP:	0.000	Y_WP:	0.000	X:	0.051	Y:	0.114	Z:	0.058	yaw:	1.544	yaw rate:	1.258	Roll:	2.072	Pitch:	3.834	Yaw:	3.631	Thrust:	0.000
Time:	2.463	Roll Set Point:	-0.106	Pitch Set Point:	-0.227	Yaw Set Point:	-0.027	X_WP:	0.000	Y_WP:	0.000	Y_WP:	0.000	X:	0.051	Y:	0.114	Z:	0.058	yaw:	1.537	yaw rate:	-0.750	Roll:	1.882	Pitch:	3.631	Yaw:	2.953	Thrust:	0.000
Time:	2.473	Roll Set Point:	-0.106	Pitch Set Point:	-0.227	Yaw Set Point:	-0.027	X_WP:	0.000	Y_WP:	0.000	Y_WP:	0.000	X:	0.051	Y:	0.114	Z:	0.058	yaw:	1.547	yaw rate:	0.992	Roll:	1.965	Pitch:	3.623	Yaw:	3.426	Thrust:	0.000
Time:	2.484	Roll Set Point:	-0.106	Pitch Set Point:	-0.227	Yaw Set Point:	-0.027	X_WP:	0.000	Y_WP:	0.000	Y_WP:	0.000	X:	0.051	Y:	0.114	Z:	0.058	yaw:	1.544	yaw rate:	-0.266	Roll:	1.894	Pitch:	3.689	Yaw:	3.189	Thrust:	0.000
Time:	2.494	Roll Set Point:	-0.106	Pitch Set Point:	-0.227	Yaw Set Point:	-0.027	X_WP:	0.000	Y_WP:	0.000	Y_WP:	0.000	X:	0.051	Y:	0.114	Z:	0.058	yaw:	1.538	yaw rate:	-0.626	Roll:	1.888	Pitch:	3.645	Yaw:	2.986	Thrust:	0.000
Time:	2.504	Roll Set Point:	-0.106	Pitch Set Point:	-0.227	Yaw Set Point:	-0.027	X_WP:	0.000	Y_WP:	0.000	Y_WP:	0.000	X:	0.051	Y:	0.114	Z:	0.058	yaw:	1.538	yaw rate:	0.054	Roll:	1.925	Pitch:	3.642	Yaw:	3.165	Thrust:	0.000
Time:	2.514	Roll Set Point:	-0.106	Pitch Set Point:	-0.227	Yaw Set Point:	-0.027	X_WP:	0.000	Y_WP:	0.000	Y_WP:	0.000	X:	0.051	Y:	0.114	Z:	0.058	yaw:	1.551	yaw rate:	1.251	Roll:	1.931	Pitch:	3.629	Yaw:	3.495	Thrust:	0.000
Time:	2.524	Roll Set Point:	-0.106	Pitch Set Point:	-0.227	Yaw Set Point:	-0.027	X_WP:	0.000	Y_WP:	0.000	Y_WP:	0.000	X:	0.051	Y:	0.114	Z:	0.058	yaw:	1.537	yaw rate:	-1.360	Roll:	1.893	Pitch:	3.663	Yaw:	2.793	Thrust:	0.000
Time:	2.534	Roll Set Point:	-0.106	Pitch Set Point:	-0.227	Yaw Set Point:	-0.027	X_WP:	0.000	Y_WP:	0.000	Y_WP:	0.000	X:	0.051	Y:	0.114	Z:	0.058	yaw:	1.538	yaw rate:	0.105	Roll:	1.906	Pitch:	3.639	Yaw:	3.178	Thrust:	0.000
Time:	2.545	Roll Set Point:	-0.106	Pitch Set Point:	-0.227	Yaw Set Point:	-0.027	X_WP:	0.000	Y_WP:	0.000	Y_WP:	0.000	X:	0.051	Y:	0.114	Z:	0.058	yaw:	1.546	yaw rate:	0.770	Roll:	1.916	Pitch:	3.642	Yaw:	3.444	Thrust:	0.000
Time:	2.555	Roll Set Point:	-0.106	Pitch Set Point:	-0.227	Yaw Set Point:	-0.027	X_WP:	0.000	Y_WP:	0.000	Y_WP:	0.000	X:	0.051	Y:	0.114	Z:	0.058	yaw:	1.540	yaw rate:	-0.656	Roll:	1.940	Pitch:	3.688	Yaw:	2.988	Thrust:	0.000
Time:	2.565	Roll Set Point:	-0.106	Pitch Set Point:	-0.227	Yaw Set Point:	-0.027	X_WP:	0.000	Y_WP:	0.000	Y_WP:	0.000	X:	0.051	Y:	0.114	Z:	0.058	yaw:	1.541	yaw rate:	0.097	Roll:	1.923	Pitch:	3.633	Yaw:	3.179	Thrust:	0.000
Time:	2.575	Roll Set Point:	-0.106	Pitch Set Point:	-0.227	Yaw Set Point:	-0.027	X_WP:	0.000	Y_WP:	0.000	Y_WP:	0.000	X:	0.051	Y:	0.114	Z:	0.058	yaw:	1.542	yaw rate:	0.159	Roll:	1.902	Pitch:	3.654	Yaw:	3.198	Thrust:	0.000
Time:	2.586	Roll Set Point:	-0.106	Pitch Set Point:	-0.227	Yaw Set Point:	-0.027	X_WP:	0.000	Y_WP:	0.000	Y_WP:	0.000	X:	0.051	Y:	0.114	Z:	0.058	yaw:	1.539	yaw rate:	-0.347	Roll:	1.945	Pitch:	3.671	Yaw:	3.161	Thrust:	0.000
Time:	2.596	Roll Set Point:	-0.106	Pitch Set Point:	-0.227	Yaw Set Point:	-0.027	X_WP:	0.000	Y_WP:	0.000	Y_WP:	0.000	X:	0.051	Y:	0.114	Z:	0.058	yaw:	1.542	yaw rate:	0.311	Roll:	1.955	Pitch:	3.619	Yaw:	3.236	Thrust:	0.000
Time:	2.607	Roll Set Point:	-0.106	Pitch Set Point:	-0.227	Yaw Set Point:	-0.027	X_WP:	0.000	Y_WP:	0.000	Y_WP:	0.000	X:	0.051	Y:	0.114	Z:	0.058	yaw:	1.540	yaw rate:	-0.207	Roll:	1.929	Pitch:	3.704	Yaw:	3.204	Thrust:	0.000
Time:	2.619	Roll Set Point:	-0.106	Pitch Set Point:	-0.227	Yaw Set Point:	-0.027	X_WP:	0.000	Y_WP:	0.000	Y_WP:	0.000	X:	0.051	Y:	0.114	Z:	0.058	yaw:	1.540	yaw rate:	0.043	Roll:	1.950	Pitch:	3.690	Yaw:	3.362	Thrust:	0.000
Time:	2.630	Roll Set Point:	-0.106	Pitch Set Point:	-0.227	Yaw Set Point:	-0.027	X_WP:	0.000	Y_WP:	0.000	Y_WP:	0.000	X:	0.051	Y:	0.114	Z:	0.058	yaw:	1.539	yaw rate:	-0.147	Roll:	1.961	Pitch:	3.660	Yaw:	3.216	Thrust:	0.000
Time:	2.640	Roll Set Point:	-0.106	Pitch Set Point:	-0.227	Yaw Set Point:	-0.027	X_WP:	0.000	Y_WP:	0.000	Y_WP:	0.000	X:	0.051	Y:	0.114	Z:	0.058	yaw:	1.544	yaw rate:	0.543	Roll:	1.983	Pitch:	3.690	Yaw:	3.301	Thrust:	0.000
Time:	2.652	Roll Set Point:	-0.106	Pitch Set Point:	-0.227	Yaw Set Point:	-0.027	X_WP:	0.000	Y_WP:	0.000	Y_WP:	0.000	X:	0.051	Y:	0.114	Z:	0.058	yaw:	1.548	yaw rate:	0.441	Roll:	1.969	Pitch:	3.662	Yaw:	3.369	Thrust:	0.000
Time:	2.663	Roll Set Point:	-0.106	Pitch Set Point:	-0.227	Yaw Set Point:	-0.027	X_WP:	0.000	Y_WP:	0.000	Y_WP:	0.000	X:	0.051	Y:	0.114	Z:	0.058	yaw:	1.542	yaw rate:	-0.630	Roll:	1.943	Pitch:	3.691	Yaw:	3.219	Thrust:	0.000
Time:	2.673	Roll Set Point:	-0.106	Pitch Set Point:	-0.227	Yaw Set Point:	-0.027	X_WP:	0.000	Y_WP:	0.000	Y_WP:	0.000	X:	0.051	Y:	0.114	Z:	0.058	yaw:	1.547	yaw rate:	0.446	Roll:	1.969	Pitch:	3.690	Yaw:	3.284	Thrust:	0.000
Time:	2.684	Roll Set Point:	-0.106	Pitch Set Point:	-0.227	Yaw Set Point:	-0.027	X_WP:	0.000	Y_WP:	0.000	Y_WP:	0.000	X:	0.051	Y:	0.114	Z:	0.058	yaw:	1.545	yaw rate:	-0.154	Roll:	1.956	Pitch:	3.672	Yaw:	3.217	Thrust:	0.000
Time:	2.696	Roll Set Point:	-0.106	Pitch Set Point:	-0.227	Yaw Set Point:	-0.027	X_WP:	0.000	Y_WP:	0.000	Y_WP:	0.000	X:	0.051	Y:	0.114	Z:	0.058	yaw:	1.544	yaw rate:	-0.085	Roll:	1.977	Pitch:	3.674	Yaw:	3.341	Thrust:	0.000
Time:	2.706	Roll Set Point:	-0.106	Pitch Set Point:	-0.227	Yaw Set Point:	-0.027	X_WP:	0.000	Y_WP:	0.000	Y_WP:	0.000	X:	0.051	Y:	0.114	Z:	0.058	yaw:	1.548	yaw rate:	0.409	Roll:	1.991	Pitch:	3.672	Yaw:	3.277	Thrust:	0.000
Time:	2.718	Roll Set Point:	-0.106	Pitch Set Point:	-0.227	Yaw Set Point:	-0.027	X_WP:	0.000	Y_WP:	0.000	Y_WP:	0.000	X:	0.051	Y:	0.114	Z:	0.058	yaw:	1.540	yaw rate:	-0.809	Roll:	1.943	Pitch:	3.703	Yaw:	3.062	Thrust:	0.000
Time:	2.729	Roll Set Point:	-0.106	Pitch Set Point:	-0.227	Yaw Set Point:	-0.027	X_WP:	0.000	Y_WP:	0.000	Y_WP:	0.000	X:	0.051	Y:	0.114	Z:	0.058	yaw:	1.542	yaw rate:	0.145	Roll:	1.960	Pitch:	3.682	Yaw:	3.382	Thrust:	0.000
Time:	2.739	Roll Set Point:	-0.106	Pitch Set Point:	-0.227	Yaw Set Point:	-0.027	X_WP:	0.000	Y_WP:	0.000	Y_WP:	0.000	X:	0.051	Y:	0.114	Z:	0.058	yaw:	1.544	yaw rate:	0.267	Roll:	1.978	Pitch:	3.665	Yaw:	3.230	Thrust:	0.000
Time:	2.750	Roll Set Point:	-0.106	Pitch Set Point:	-0.227	Yaw Set Point:	-0.027	X_WP:	0.000	Y_WP:	0.000	Y_WP:	0.000	X:	0.051	Y:	0.114	Z:	0.058	yaw:	1.540	yaw rate:	-0.454	Roll:	1.974	Pitch:	3.697	Yaw:	3.148	Thrust:	0.000
Time:	2.762	Roll Set Point:	-0.106	Pitch Set Point:	-0.227	Yaw Set Point:	-0.027	X_WP:	0.000	Y_WP:	0.000	Y_WP:	0.000	X:	0.051	Y:	0.114	Z:	0.058	yaw:	1.546	yaw rate:	0.585	Roll:	1.995	Pitch:	3.662	Yaw:	3.485	Thrust:	0.000
Time:	2.772	Roll Set Point:	-0.106	Pitch Set Point:	-0.227	Yaw Set Point:	-0.027	X_WP:	0.000	Y_WP:	0.000	Y_WP:	0.000	X:	0.051	Y:	0.114	Z:	0.058	yaw:	1.545	yaw rate:	-0.064	Roll:	1.980	Pitch:	3.679	Yaw:	3.143	Thrust:	0.000
Time:	2.783	Roll Set Point:	-0.106	Pitch Set Point:	-0.227	Yaw Set Point:	-0.027	X_WP:	0.000	Y_WP:	0.000	Y_WP:	0.000	X:	0.051	Y:	0.114	Z:	0.058	yaw:	1.546	yaw rate:	0.139	Roll:	1.977	Pitch:	3.693	Yaw:	3.294	Thrust:	0.000
Time:	2.795	Roll Set Point:	-0.106	Pitch Set Point:	-0.227	Yaw Set Point:	-0.027	X_WP:	0.000	Y_WP:	0.000	Y_WP:	0.000	X:	0.051	Y:	0.114	Z:	0.058	yaw:	1.541	yaw rate:	-0.538	Roll:	1.963	Pitch:	3.685	Yaw:	3.127	Thrust:	0.000
Time:	2.806	Roll Set Point:	-0.106	Pitch Set Point:	-0.227	Yaw Set Point:	-0.027	X_WP:	0.000	Y_WP:	0.000	Y_WP:	0.000	X:	0.051	Y:	0.114	Z:	0.058	yaw:	1.543	yaw rate:	0.235	Roll:	1.981	Pitch:	3.670	Yaw:	3.412	Thrust:	0.000
