Time:	2.008	Roll Set Point:	0.433	Pitch Set Point:	2.119	Yaw Set Point:	-1.320	X_WP:	0.000	Y_WP:	0.000	Y_WP:	0.000	X:	0.605	Y:	-1.228	Z:	0.392	yaw:	75.617	yaw rate:	-5.389	Roll:	-30.000	Pitch:	-25.851	Yaw:	105.582	Thrust:	0.000
Time:	2.011	Roll Set Point:	0.433	Pitch Set Point:	2.119	Yaw Set Point:	-1.320	X_WP:	0.000	Y_WP:	0.000	Y_WP:	0.000	X:	0.605	Y:	-1.228	Z:	0.392	yaw:	75.617	yaw rate:	-5.389	Roll:	-30.000	Pitch:	-25.858	Yaw:	105.634	Thrust:	0.000
Time:	2.013	Roll Set Point:	0.433	Pitch Set Point:	2.119	Yaw Set Point:	-1.320	X_WP:	0.000	Y_WP:	0.000	Y_WP:	0.000	X:	0.605	Y:	-1.228	Z:	0.392	yaw:	75.617	yaw rate:	-5.389	Roll:	-30.000	Pitch:	-25.860	Yaw:	105.740	Thrust:	0.000
Time:	2.017	Roll Set Point:	0.428	Pitch Set Point:	2.125	Yaw Set Point:	-1.314	X_WP:	0.000	Y_WP:	0.000	Y_WP:	0.000	X:	0.605	Y:	-1.228	Z:	0.393	yaw:	75.282	yaw rate:	-33.565	Roll:	-7.822	Pitch:	-30.000	Yaw:	83.728	Thrust:	0.000
Time:	2.020	Roll Set Point:	0.428	Pitch Set Point:	2.125	Yaw Set Point:	-1.314	X_WP:	0.000	Y_WP:	0.000	Y_WP:	0.000	X:	0.605	Y:	-1.228	Z:	0.393	yaw:	75.282	yaw rate:	-33.565	Roll:	-30.000	Pitch:	-26.050	Yaw:	105.411	Thrust:	0.000
Time:	2.026	Roll Set Point:	0.428	Pitch Set Point:	2.125	Yaw Set Point:	-1.314	X_WP:	0.000	Y_WP:	0.000	Y_WP:	0.000	X:	0.605	Y:	-1.228	Z:	0.393	yaw:	75.282	yaw rate:	-33.565	Roll:	-30.000	Pitch:	-26.078	Yaw:	105.665	Thrust:	0.000
Time:	2.029	Roll Set Point:	0.434	Pitch Set Point:	2.119	Yaw Set Point:	-1.320	X_WP:	0.000	Y_WP:	0.000	Y_WP:	0.000	X:	0.605	Y:	-1.228	Z:	0.392	yaw:	75.628	yaw rate:	34.665	Roll:	-30.000	Pitch:	-2.895	Yaw:	131.521	Thrust:	0.000
Time:	2.033	Roll Set Point:	0.434	Pitch Set Point:	2.119	Yaw Set Point:	-1.320	X_WP:	0.000	Y_WP:	0.000	Y_WP:	0.000	X:	0.605	Y:	-1.228	Z:	0.392	yaw:	75.628	yaw rate:	34.665	Roll:	-30.000	Pitch:	-25.892	Yaw:	105.894	Thrust:	0.000
Time:	2.036	Roll Set Point:	0.434	Pitch Set Point:	2.119	Yaw Set Point:	-1.320	X_WP:	0.000	Y_WP:	0.000	Y_WP:	0.000	X:	0.605	Y:	-1.228	Z:	0.392	yaw:	75.628	yaw rate:	34.665	Roll:	-30.000	Pitch:	-25.908	Yaw:	105.948	Thrust:	0.000
Time:	2.039	Roll Set Point:	0.434	Pitch Set Point:	2.119	Yaw Set Point:	-1.320	X_WP:	0.000	Y_WP:	0.000	Y_WP:	0.000	X:	0.605	Y:	-1.228	Z:	0.392	yaw:	75.628	yaw rate:	34.665	Roll:	-30.000	Pitch:	-25.906	Yaw:	105.898	Thrust:	0.000
Time:	2.042	Roll Set Point:	0.434	Pitch Set Point:	2.118	Yaw Set Point:	-1.321	X_WP:	0.000	Y_WP:	0.000	Y_WP:	0.000	X:	0.605	Y:	-1.228	Z:	0.392	yaw:	75.659	yaw rate:	3.084	Roll:	-30.000	Pitch:	-22.365	Yaw:	108.618	Thrust:	0.000
Time:	2.046	Roll Set Point:	0.434	Pitch Set Point:	2.118	Yaw Set Point:	-1.321	X_WP:	0.000	Y_WP:	0.000	Y_WP:	0.000	X:	0.605	Y:	-1.228	Z:	0.392	yaw:	75.659	yaw rate:	3.084	Roll:	-30.000	Pitch:	-25.928	Yaw:	106.041	Thrust:	0.000
Time:	2.049	Roll Set Point:	0.434	Pitch Set Point:	2.118	Yaw Set Point:	-1.321	X_WP:	0.000	Y_WP:	0.000	Y_WP:	0.000	X:	0.605	Y:	-1.228	Z:	0.392	yaw:	75.659	yaw rate:	3.084	Roll:	-30.000	Pitch:	-25.911	Yaw:	105.941	Thrust:	0.000
Time:	2.052	Roll Set Point:	0.433	Pitch Set Point:	2.120	Yaw Set Point:	-1.319	X_WP:	0.000	Y_WP:	0.000	Y_WP:	0.000	X:	0.605	Y:	-1.228	Z:	0.392	yaw:	75.595	yaw rate:	-6.400	Roll:	-24.483	Pitch:	-30.000	Yaw:	100.344	Thrust:	0.000
Time:	2.055	Roll Set Point:	0.433	Pitch Set Point:	2.120	Yaw Set Point:	-1.319	X_WP:	0.000	Y_WP:	0.000	Y_WP:	0.000	X:	0.605	Y:	-1.228	Z:	0.392	yaw:	75.595	yaw rate:	-6.400	Roll:	-30.000	Pitch:	-25.955	Yaw:	105.747	Thrust:	0.000
Time:	2.058	Roll Set Point:	0.433	Pitch Set Point:	2.120	Yaw Set Point:	-1.319	X_WP:	0.000	Y_WP:	0.000	Y_WP:	0.000	X:	0.605	Y:	-1.228	Z:	0.392	yaw:	75.595	yaw rate:	-6.400	Roll:	-30.000	Pitch:	-25.980	Yaw:	105.902	Thrust:	0.000
Time:	2.060	Roll Set Point:	0.433	Pitch Set Point:	2.120	Yaw Set Point:	-1.319	X_WP:	0.000	Y_WP:	0.000	Y_WP:	0.000	X:	0.605	Y:	-1.228	Z:	0.392	yaw:	75.595	yaw rate:	-6.400	Roll:	-30.000	Pitch:	-25.954	Yaw:	105.852	Thrust:	0.000
Time:	2.062	Roll Set Point:	0.433	Pitch Set Point:	2.120	Yaw Set Point:	-1.319	X_WP:	0.000	Y_WP:	0.000	Y_WP:	0.000	X:	0.605	Y:	-1.228	Z:	0.392	yaw:	75.595	yaw rate:	-6.400	Roll:	-30.000	Pitch:	-25.938	Yaw:	105.752	Thrust:	0.000
Time:	2.065	Roll Set Point:	0.435	Pitch Set Point:	2.117	Yaw Set Point:	-1.322	X_WP:	0.000	Y_WP:	0.000	Y_WP:	0.000	X:	0.605	Y:	-1.228	Z:	0.392	yaw:	75.720	yaw rate:	12.471	Roll:	-30.000	Pitch:	-6.334	Yaw:	122.220	Thrust:	0.000
Time:	2.068	Roll Set Point:	0.435	Pitch Set Point:	2.117	Yaw Set Point:	-1.322	X_WP:	0.000	Y_WP:	0.000	Y_WP:	0.000	X:	0.605	Y:	-1.228	Z:	0.392	yaw:	75.720	yaw rate:	12.471	Roll:	-30.000	Pitch:	-25.931	Yaw:	106.075	Thrust:	0.000
Time:	2.070	Roll Set Point:	0.435	Pitch Set Point:	2.117	Yaw Set Point:	-1.322	X_WP:	0.000	Y_WP:	0.000	Y_WP:	0.000	X:	0.605	Y:	-1.228	Z:	0.392	yaw:	75.720	yaw rate:	12.471	Roll:	-30.000	Pitch:	-25.874	Yaw:	105.925	Thrust:	0.000
Time:	2.072	Roll Set Point:	0.435	Pitch Set Point:	2.117	Yaw Set Point:	-1.322	X_WP:	0.000	Y_WP:	0.000	Y_WP:	0.000	X:	0.605	Y:	-1.228	Z:	0.392	yaw:	75.720	yaw rate:	12.471	Roll:	-30.000	Pitch:	-25.870	Yaw:	105.925	Thrust:	0.000
Time:	2.075	Roll Set Point:	0.434	Pitch Set Point:	2.118	Yaw Set Point:	-1.321	X_WP:	0.000	Y_WP:	0.000	Y_WP:	0.000	X:	0.605	Y:	-1.228	Z:	0.392	yaw:	75.662	yaw rate:	-5.797	Roll:	-24.055	Pitch:	-30.000	Yaw:	99.938	Thrust:	0.000
Time:	2.077	Roll Set Point:	0.434	Pitch Set Point:	2.118	Yaw Set Point:	-1.321	X_WP:	0.000	Y_WP:	0.000	Y_WP:	0.000	X:	0.605	Y:	-1.228	Z:	0.392	yaw:	75.662	yaw rate:	-5.797	Roll:	-30.000	Pitch:	-25.903	Yaw:	105.890	Thrust:	0.000
Time:	2.079	Roll Set Point:	0.434	Pitch Set Point:	2.118	Yaw Set Point:	-1.321	X_WP:	0.000	Y_WP:	0.000	Y_WP:	0.000	X:	0.605	Y:	-1.228	Z:	0.392	yaw:	75.662	yaw rate:	-5.797	Roll:	-30.000	Pitch:	-25.902	Yaw:	105.844	Thrust:	0.000
Time:	2.081	Roll Set Point:	0.434	Pitch Set Point:	2.118	Yaw Set Point:	-1.321	X_WP:	0.000	Y_WP:	0.000	Y_WP:	0.000	X:	0.605	Y:	-1.228	Z:	0.392	yaw:	75.662	yaw rate:	-5.797	Roll:	-30.000	Pitch:	-25.905	Yaw:	105.801	Thrust:	0.000
Time:	2.083	Roll Set Point:	0.434	Pitch Set Point:	2.118	Yaw Set Point:	-1.321	X_WP:	0.000	Y_WP:	0.000	Y_WP:	0.000	X:	0.605	Y:	-1.228	Z:	0.392	yaw:	75.662	yaw rate:	-5.797	Roll:	-30.000	Pitch:	-25.939	Yaw:	105.938	Thrust:	0.000
Time:	2.086	Roll Set Point:	0.428	Pitch Set Point:	2.125	Yaw Set Point:	-1.314	X_WP:	0.000	Y_WP:	0.000	Y_WP:	0.000	X:	0.605	Y:	-1.228	Z:	0.393	yaw:	75.280	yaw rate:	-38.167	Roll:	3.331	Pitch:	-30.000	Yaw:	72.640	Thrust:	0.000
Time:	2.089	Roll Set Point:	0.428	Pitch Set Point:	2.125	Yaw Set Point:	-1.314	X_WP:	0.000	Y_WP:	0.000	Y_WP:	0.000	X:	0.605	Y:	-1.228	Z:	0.393	yaw:	75.280	yaw rate:	-38.167	Roll:	-30.000	Pitch:	-26.100	Yaw:	105.314	Thrust:	0.000
Time:	2.092	Roll Set Point:	0.428	Pitch Set Point:	2.125	Yaw Set Point:	-1.314	X_WP:	0.000	Y_WP:	0.000	Y_WP:	0.000	X:	0.605	Y:	-1.228	Z:	0.393	yaw:	75.280	yaw rate:	-38.167	Roll:	-30.000	Pitch:	-26.116	Yaw:	105.407	Thrust:	0.000
Time:	2.094	Roll Set Point:	0.428	Pitch Set Point:	2.125	Yaw Set Point:	-1.314	X_WP:	0.000	Y_WP:	0.000	Y_WP:	0.000	X:	0.605	Y:	-1.228	Z:	0.393	yaw:	75.280	yaw rate:	-38.167	Roll:	-30.000	Pitch:	-26.118	Yaw:	105.361	Thrust:	0.000
Time:	2.096	Roll Set Point:	0.435	Pitch Set Point:	2.118	Yaw Set Point:	-1.321	X_WP:	0.000	Y_WP:	0.000	Y_WP:	0.000	X:	0.605	Y:	-1.228	Z:	0.392	yaw:	75.698	yaw rate:	41.738	Roll:	-30.000	Pitch:	30.000	Yaw:	160.474	Thrust:	0.000
Time:	2.098	Roll Set Point:	0.435	Pitch Set Point:	2.118	Yaw Set Point:	-1.321	X_WP:	0.000	Y_WP:	0.000	Y_WP:	0.000	X:	0.605	Y:	-1.228	Z:	0.392	yaw:	75.698	yaw rate:	41.738	Roll:	-30.000	Pitch:	-25.904	Yaw:	105.945	Thrust:	0.000
Time:	2.101	Roll Set Point:	0.435	Pitch Set Point:	2.118	Yaw Set Point:	-1.321	X_WP:	0.000	Y_WP:	0.000	Y_WP:	0.000	X:	0.605	Y:	-1.228	Z:	0.392	yaw:	75.698	yaw rate:	41.738	Roll:	-30.000	Pitch:	-25.905	Yaw:	105.945	Thrust:	0.000
Time:	2.104	Roll Set Point:	0.435	Pitch Set Point:	2.118	Yaw Set Point:	-1.321	X_WP:	0.000	Y_WP:	0.000	Y_WP:	0.000	X:	0.605	Y:	-1.228	Z:	0.392	yaw:	75.698	yaw rate:	41.738	Roll:	-30.000	Pitch:	-25.915	Yaw:	105.986	Thrust:	0.000
Time:	2.106	Roll Set Point:	0.434	Pitch Set Point:	2.118	Yaw Set Point:	-1.321	X_WP:	0.000	Y_WP:	0.000	Y_WP:	0.000	X:	0.605	Y:	-1.228	Z:	0.392	yaw:	75.667	yaw rate:	-3.056	Roll:	-27.065	Pitch:	-29.693	Yaw:	101.778	Thrust:	0.000
Time:	2.107	Roll Set Point:	0.434	Pitch Set Point:	2.118	Yaw Set Point:	-1.321	X_WP:	0.000	Y_WP:	0.000	Y_WP:	0.000	X:	0.605	Y:	-1.228	Z:	0.392	yaw:	75.667	yaw rate:	-3.056	Roll:	-30.000	Pitch:	-25.882	Yaw:	105.802	Thrust:	0.000
Time:	2.109	Roll Set Point:	0.434	Pitch Set Point:	2.118	Yaw Set Point:	-1.321	X_WP:	0.000	Y_WP:	0.000	Y_WP:	0.000	X:	0.605	Y:	-1.228	Z:	0.392	yaw:	75.667	yaw rate:	-3.056	Roll:	-30.000	Pitch:	-25.901	Yaw:	105.852	Thrust:	0.000
Time:	2.111	Roll Set Point:	0.434	Pitch Set Point:	2.118	Yaw Set Point:	-1.321	X_WP:	0.000	Y_WP:	0.000	Y_WP:	0.000	X:	0.605	Y:	-1.228	Z:	0.392	yaw:	75.667	yaw rate:	-3.056	Roll:	-30.000	Pitch:	-25.903	Yaw:	105.858	Thrust:	0.000
Time:	2.115	Roll Set Point:	0.434	Pitch Set Point:	2.118	Yaw Set Point:	-1.321	X_WP:	0.000	Y_WP:	0.000	Y_WP:	0.000	X:	0.605	Y:	-1.228	Z:	0.392	yaw:	75.667	yaw rate:	-3.056	Roll:	-30.000	Pitch:	-25.939	Yaw:	105.952	Thrust:	0.000
Time:	2.117	Roll Set Point:	0.434	Pitch Set Point:	2.119	Yaw Set Point:	-1.320	X_WP:	0.000	Y_WP:	0.000	Y_WP:	0.000	X:	0.605	Y:	-1.228	Z:	0.392	yaw:	75.648	yaw rate:	-1.871	Roll:	-28.493	Pitch:	-27.888	Yaw:	104.294	Thrust:	0.000
Time:	2.120	Roll Set Point:	0.434	Pitch Set Point:	2.119	Yaw Set Point:	-1.320	X_WP:	0.000	Y_WP:	0.000	Y_WP:	0.000	X:	0.605	Y:	-1.228	Z:	0.392	yaw:	75.648	yaw rate:	-1.871	Roll:	-30.000	Pitch:	-25.946	Yaw:	105.919	Thrust:	0.000
Time:	2.124	Roll Set Point:	0.434	Pitch Set Point:	2.119	Yaw Set Point:	-1.320	X_WP:	0.000	Y_WP:	0.000	Y_WP:	0.000	X:	0.605	Y:	-1.228	Z:	0.392	yaw:	75.648	yaw rate:	-1.871	Roll:	-30.000	Pitch:	-25.912	Yaw:	105.925	Thrust:	0.000
Time:	2.126	Roll Set Point:	0.434	Pitch Set Point:	2.119	Yaw Set Point:	-1.320	X_WP:	0.000	Y_WP:	0.000	Y_WP:	0.000	X:	0.605	Y:	-1.228	Z:	0.392	yaw:	75.648	yaw rate:	-1.871	Roll:	-30.000	Pitch:	-25.966	Yaw:	105.926	Thrust:	0.000
Time:	2.128	Roll Set Point:	0.435	Pitch Set Point:	2.118	Yaw Set Point:	-1.321	X_WP:	0.000	Y_WP:	0.000	Y_WP:	0.000	X:	0.605	Y:	-1.228	Z:	0.392	yaw:	75.710	yaw rate:	6.136	Roll:	-30.000	Pitch:	-16.600	Yaw:	113.912	Thrust:	0.000
Time:	2.131	Roll Set Point:	0.435	Pitch Set Point:	2.118	Yaw Set Point:	-1.321	X_WP:	0.000	Y_WP:	0.000	Y_WP:	0.000	X:	0.605	Y:	-1.228	Z:	0.392	yaw:	75.710	yaw rate:	6.136	Roll:	-30.000	Pitch:	-25.898	Yaw:	105.961	Thrust:	0.000
Time:	2.134	Roll Set Point:	0.435	Pitch Set Point:	2.118	Yaw Set Point:	-1.321	X_WP:	0.000	Y_WP:	0.000	Y_WP:	0.000	X:	0.605	Y:	-1.228	Z:	0.392	yaw:	75.710	yaw rate:	6.136	Roll:	-30.000	Pitch:	-25.917	Yaw:	105.961	Thrust:	0.000
Time:	2.137	Roll Set Point:	0.435	Pitch Set Point:	2.118	Yaw Set Point:	-1.321	X_WP:	0.000	Y_WP:	0.000	Y_WP:	0.000	X:	0.605	Y:	-1.228	Z:	0.392	yaw:	75.710	yaw rate:	6.136	Roll:	-30.000	Pitch:	-25.881	Yaw:	105.965	Thrust:	0.000
Time:	2.139	Roll Set Point:	0.435	Pitch Set Point:	2.118	Yaw Set Point:	-1.321	X_WP:	0.000	Y_WP:	0.000	Y_WP:	0.000	X:	0.605	Y:	-1.228	Z:	0.392	yaw:	75.710	yaw rate:	6.136	Roll:	-30.000	Pitch:	-25.900	Yaw:	105.969	Thrust:	0.000
Time:	2.142	Roll Set Point:	0.427	Pitch Set Point:	2.126	Yaw Set Point:	-1.313	X_WP:	0.000	Y_WP:	0.000	Y_WP:	0.000	X:	0.605	Y:	-1.228	Z:	0.393	yaw:	75.222	yaw rate:	-48.780	Roll:	22.550	Pitch:	-30.000	Yaw:	61.495	Thrust:	0.000
Time:	2.143	Roll Set Point:	0.427	Pitch Set Point:	2.126	Yaw Set Point:	-1.313	X_WP:	0.000	Y_WP:	0.000	Y_WP:	0.000	X:	0.605	Y:	-1.228	Z:	0.393	yaw:	75.222	yaw rate:	-48.780	Roll:	-30.000	Pitch:	-26.127	Yaw:	105.130	Thrust:	0.000
Time:	2.145	Roll Set Point:	0.427	Pitch Set Point:	2.126	Yaw Set Point:	-1.313	X_WP:	0.000	Y_WP:	0.000	Y_WP:	0.000	X:	0.605	Y:	-1.228	Z:	0.393	yaw:	75.222	yaw rate:	-48.780	Roll:	-30.000	Pitch:	-26.132	Yaw:	105.236	Thrust:	0.000
Time:	2.147	Roll Set Point:	0.427	Pitch Set Point:	2.126	Yaw Set Point:	-1.313	X_WP:	0.000	Y_WP:	0.000	Y_WP:	0.000	X:	0.605	Y:	-1.228	Z:	0.393	yaw:	75.222	yaw rate:	-48.780	Roll:	-30.000	Pitch:	-26.130	Yaw:	105.230	Thrust:	0.000
Time:	2.149	Roll Set Point:	0.427	Pitch Set Point:	2.126	Yaw Set Point:	-1.313	X_WP:	0.000	Y_WP:	0.000	Y_WP:	0.000	X:	0.605	Y:	-1.228	Z:	0.393	yaw:	75.222	yaw rate:	-48.780	Roll:	-30.000	Pitch:	-26.127	Yaw:	105.223	Thrust:	0.000
Time:	2.151	Roll Set Point:	0.427	Pitch Set Point:	2.126	Yaw Set Point:	-1.313	X_WP:	0.000	Y_WP:	0.000	Y_WP:	0.000	X:	0.605	Y:	-1.228	Z:	0.393	yaw:	75.222	yaw rate:	-48.780	Roll:	-30.000	Pitch:	-26.132	Yaw:	105.236	Thrust:	0.000
Time:	2.154	Roll Set Point:	0.429	Pitch Set Point:	2.124	Yaw Set Point:	-1.315	X_WP:	0.000	Y_WP:	0.000	Y_WP:	0.000	X:	0.605	Y:	-1.228	Z:	0.393	yaw:	75.320	yaw rate:	9.845	Roll:	-30.000	Pitch:	-10.859	Yaw:	118.355	Thrust:	0.000
Time:	2.155	Roll Set Point:	0.429	Pitch Set Point:	2.124	Yaw Set Point:	-1.315	X_WP:	0.000	Y_WP:	0.000	Y_WP:	0.000	X:	0.605	Y:	-1.228	Z:	0.393	yaw:	75.320	yaw rate:	9.845	Roll:	-30.000	Pitch:	-26.076	Yaw:	105.363	Thrust:	0.000
Time:	2.158	Roll Set Point:	0.429	Pitch Set Point:	2.124	Yaw Set Point:	-1.315	X_WP:	0.000	Y_WP:	0.000	Y_WP:	0.000	X:	0.605	Y:	-1.228	Z:	0.393	yaw:	75.320	yaw rate:	9.845	Roll:	-30.000	Pitch:	-26.078	Yaw:	105.367	Thrust:	0.000
Time:	2.160	Roll Set Point:	0.429	Pitch Set Point:	2.124	Yaw Set Point:	-1.315	X_WP:	0.000	Y_WP:	0.000	Y_WP:	0.000	X:	0.605	Y:	-1.228	Z:	0.393	yaw:	75.320	yaw rate:	9.845	Roll:	-30.000	Pitch:	-26.119	Yaw:	105.418	Thrust:	0.000
Time:	2.162	Roll Set Point:	0.429	Pitch Set Point:	2.124	Yaw Set Point:	-1.315	X_WP:	0.000	Y_WP:	0.000	Y_WP:	0.000	X:	0.605	Y:	-1.228	Z:	0.393	yaw:	75.320	yaw rate:	9.845	Roll:	-30.000	Pitch:	-26.078	Yaw:	105.367	Thrust:	0.000
Time:	2.165	Roll Set Point:	0.434	Pitch Set Point:	2.119	Yaw Set Point:	-1.320	X_WP:	0.000	Y_WP:	0.000	Y_WP:	0.000	X:	0.605	Y:	-1.228	Z:	0.392	yaw:	75.638	yaw rate:	31.732	Roll:	-30.000	Pitch:	6.128	Yaw:	133.525	Thrust:	0.000
Time:	2.168	Roll Set Point:	0.434	Pitch Set Point:	2.119	Yaw Set Point:	-1.320	X_WP:	0.000	Y_WP:	0.000	Y_WP:	0.000	X:	0.605	Y:	-1.228	Z:	0.392	yaw:	75.638	yaw rate:	31.732	Roll:	-30.000	Pitch:	-25.937	Yaw:	105.861	Thrust:	0.000
Time:	2.170	Roll Set Point:	0.434	Pitch Set Point:	2.119	Yaw Set Point:	-1.320	X_WP:	0.000	Y_WP:	0.000	Y_WP:	0.000	X:	0.605	Y:	-1.228	Z:	0.392	yaw:	75.638	yaw rate:	31.732	Roll:	-30.000	Pitch:	-25.916	Yaw:	105.810	Thrust:	0.000
Time:	2.171	Roll Set Point:	0.434	Pitch Set Point:	2.119	Yaw Set Point:	-1.320	X_WP:	0.000	Y_WP:	0.000	Y_WP:	0.000	X:	0.605	Y:	-1.228	Z:	0.392	yaw:	75.638	yaw rate:	31.732	Roll:	-30.000	Pitch:	-25.897	Yaw:	105.760	Thrust:	0.000
Time:	2.173	Roll Set Point:	0.434	Pitch Set Point:	2.119	Yaw Set Point:	-1.320	X_WP:	0.000	Y_WP:	0.000	Y_WP:	0.000	X:	0.605	Y:	-1.228	Z:	0.392	yaw:	75.638	yaw rate:	31.732	Roll:	-30.000	Pitch:	-25.916	Yaw:	105.811	Thrust:	0.000
Time:	2.175	Roll Set Point:	0.434	Pitch Set Point:	2.119	Yaw Set Point:	-1.320	X_WP:	0.000	Y_WP:	0.000	Y_WP:	0.000	X:	0.605	Y:	-1.228	Z:	0.392	yaw:	75.640	yaw rate:	0.214	Roll:	-30.000	Pitch:	-25.813	Yaw:	106.136	Thrust:	0.000
Time:	2.177	Roll Set Point:	0.434	Pitch Set Point:	2.119	Yaw Set Point:	-1.320	X_WP:	0.000	Y_WP:	0.000	Y_WP:	0.000	X:	0.605	Y:	-1.228	Z:	0.392	yaw:	75.640	yaw rate:	0.214	Roll:	-30.000	Pitch:	-25.918	Yaw:	105.867	Thrust:	0.000
Time:	2.179	Roll Set Point:	0.434	Pitch Set Point:	2.119	Yaw Set Point:	-1.320	X_WP:	0.000	Y_WP:	0.000	Y_WP:	0.000	X:	0.605	Y:	-1.228	Z:	0.392	yaw:	75.640	yaw rate:	0.214	Roll:	-30.000	Pitch:	-25.915	Yaw:	105.810	Thrust:	0.000
Time:	2.181	Roll Set Point:	0.434	Pitch Set Point:	2.119	Yaw Set Point:	-1.320	X_WP:	0.000	Y_WP:	0.000	Y_WP:	0.000	X:	0.605	Y:	-1.228	Z:	0.392	yaw:	75.640	yaw rate:	0.214	Roll:	-30.000	Pitch:	-25.915	Yaw:	105.769	Thrust:	0.000
Time:	2.183	Roll Set Point:	0.434	Pitch Set Point:	2.119	Yaw Set Point:	-1.320	X_WP:	0.000	Y_WP:	0.000	Y_WP:	0.000	X:	0.605	Y:	-1.228	Z:	0.392	yaw:	75.640	yaw rate:	0.214	Roll:	-30.000	Pitch:	-25.915	Yaw:	105.813	Thrust:	0.000
Time:	2.186	Roll Set Point:	0.434	Pitch Set Point:	2.119	Yaw Set Point:	-1.320	X_WP:	0.000	Y_WP:	0.000	Y_WP:	0.000	X:	0.605	Y:	-1.228	Z:	0.392	yaw:	75.640	yaw rate:	0.214	Roll:	-30.000	Pitch:	-25.915	Yaw:	105.813	Thrust:	0.000
Time:	2.187	Roll Set Point:	0.434	Pitch Set Point:	2.119	Yaw Set Point:	-1.320	X_WP:	0.000	Y_WP:	0.000	Y_WP:	0.000	X:	0.605	Y:	-1.228	Z:	0.392	yaw:	75.648	yaw rate:	0.824	Roll:	-30.000	Pitch:	-24.300	Yaw:	106.922	Thrust:	0.000
Time:	2.190	Roll Set Point:	0.434	Pitch Set Point:	2.119	Yaw Set Point:	-1.320	X_WP:	0.000	Y_WP:	0.000	Y_WP:	0.000	X:	0.605	Y:	-1.228	Z:	0.392	yaw:	75.648	yaw rate:	0.824	Roll:	-30.000	Pitch:	-25.912	Yaw:	105.830	Thrust:	0.000
Time:	2.192	Roll Set Point:	0.434	Pitch Set Point:	2.119	Yaw Set Point:	-1.320	X_WP:	0.000	Y_WP:	0.000	Y_WP:	0.000	X:	0.605	Y:	-1.228	Z:	0.392	yaw:	75.648	yaw rate:	0.824	Roll:	-30.000	Pitch:	-25.927	Yaw:	105.919	Thrust:	0.000
Time:	2.194	Roll Set Point:	0.434	Pitch Set Point:	2.119	Yaw Set Point:	-1.320	X_WP:	0.000	Y_WP:	0.000	Y_WP:	0.000	X:	0.605	Y:	-1.228	Z:	0.392	yaw:	75.648	yaw rate:	0.824	Roll:	-30.000	Pitch:	-25.925	Yaw:	105.816	Thrust:	0.000
Time:	2.195	Roll Set Point:	0.434	Pitch Set Point:	2.119	Yaw Set Point:	-1.320	X_WP:	0.000	Y_WP:	0.000	Y_WP:	0.000	X:	0.605	Y:	-1.228	Z:	0.392	yaw:	75.648	yaw rate:	0.824	Roll:	-30.000	Pitch:	-25.891	Yaw:	105.775	Thrust:	0.000
Time:	2.197	Roll Set Point:	0.434	Pitch Set Point:	2.119	Yaw Set Point:	-1.320	X_WP:	0.000	Y_WP:	0.000	Y_WP:	0.000	X:	0.605	Y:	-1.228	Z:	0.392	yaw:	75.650	yaw rate:	0.212	Roll:	-30.000	Pitch:	-25.514	Yaw:	106.104	Thrust:	0.000
Time:	2.200	Roll Set Point:	0.434	Pitch Set Point:	2.119	Yaw Set Point:	-1.320	X_WP:	0.000	Y_WP:	0.000	Y_WP:	0.000	X:	0.605	Y:	-1.228	Z:	0.392	yaw:	75.650	yaw rate:	0.212	Roll:	-30.000	Pitch:	-25.931	Yaw:	105.878	Thrust:	0.000
Time:	2.201	Roll Set Point:	0.434	Pitch Set Point:	2.119	Yaw Set Point:	-1.320	X_WP:	0.000	Y_WP:	0.000	Y_WP:	0.000	X:	0.605	Y:	-1.228	Z:	0.392	yaw:	75.650	yaw rate:	0.212	Roll:	-30.000	Pitch:	-25.890	Yaw:	105.778	Thrust:	0.000
Time:	2.204	Roll Set Point:	0.434	Pitch Set Point:	2.119	Yaw Set Point:	-1.320	X_WP:	0.000	Y_WP:	0.000	Y_WP:	0.000	X:	0.605	Y:	-1.228	Z:	0.392	yaw:	75.650	yaw rate:	0.212	Roll:	-30.000	Pitch:	-25.926	Yaw:	105.878	Thrust:	0.000
Time:	2.205	Roll Set Point:	0.434	Pitch Set Point:	2.119	Yaw Set Point:	-1.320	X_WP:	0.000	Y_WP:	0.000	Y_WP:	0.000	X:	0.605	Y:	-1.228	Z:	0.392	yaw:	75.650	yaw rate:	0.212	Roll:	-30.000	Pitch:	-25.891	Yaw:	105.730	Thrust:	0.000
Time:	2.207	Roll Set Point:	0.435	Pitch Set Point:	2.118	Yaw Set Point:	-1.321	X_WP:	0.000	Y_WP:	0.000	Y_WP:	0.000	X:	0.605	Y:	-1.228	Z:	0.392	yaw:	75.688	yaw rate:	3.780	Roll:	-30.000	Pitch:	-20.530	Yaw:	110.620	Thrust:	0.000
Time:	2.208	Roll Set Point:	0.435	Pitch Set Point:	2.118	Yaw Set Point:	-1.321	X_WP:	0.000	Y_WP:	0.000	Y_WP:	0.000	X:	0.605	Y:	-1.228	Z:	0.392	yaw:	75.688	yaw rate:	3.780	Roll:	-30.000	Pitch:	-25.853	Yaw:	105.781	Thrust:	0.000
Time:	2.210	Roll Set Point:	0.435	Pitch Set Point:	2.118	Yaw Set Point:	-1.321	X_WP:	0.000	Y_WP:	0.000	Y_WP:	0.000	X:	0.605	Y:	-1.228	Z:	0.392	yaw:	75.688	yaw rate:	3.780	Roll:	-30.000	Pitch:	-25.892	Yaw:	105.888	Thrust:	0.000
Time:	2.212	Roll Set Point:	0.435	Pitch Set Point:	2.118	Yaw Set Point:	-1.321	X_WP:	0.000	Y_WP:	0.000	Y_WP:	0.000	X:	0.605	Y:	-1.228	Z:	0.392	yaw:	75.688	yaw rate:	3.780	Roll:	-30.000	Pitch:	-25.890	Yaw:	105.881	Thrust:	0.000
Time:	2.214	Roll Set Point:	0.435	Pitch Set Point:	2.118	Yaw Set Point:	-1.321	X_WP:	0.000	Y_WP:	0.000	Y_WP:	0.000	X:	0.605	Y:	-1.228	Z:	0.392	yaw:	75.688	yaw rate:	3.780	Roll:	-30.000	Pitch:	-25.887	Yaw:	105.873	Thrust:	0.000
Time:	2.215	Roll Set Point:	0.435	Pitch Set Point:	2.118	Yaw Set Point:	-1.321	X_WP:	0.000	Y_WP:	0.000	Y_WP:	0.000	X:	0.605	Y:	-1.228	Z:	0.392	yaw:	75.688	yaw rate:	3.780	Roll:	-30.000	Pitch:	-25.852	Yaw:	105.781	Thrust:	0.000
Time:	2.216	Roll Set Point:	0.435	Pitch Set Point:	2.118	Yaw Set Point:	-1.321	X_WP:	0.000	Y_WP:	0.000	Y_WP:	0.000	X:	0.605	Y:	-1.228	Z:	0.392	yaw:	75.688	yaw rate:	3.780	Roll:	-30.000	Pitch:	-25.852	Yaw:	105.780	Thrust:	0.000
Time:	2.217	Roll Set Point:	0.435	Pitch Set Point:	2.118	Yaw Set Point:	-1.321	X_WP:	0.000	Y_WP:	0.000	Y_WP:	0.000	X:	0.605	Y:	-1.228	Z:	0.392	yaw:	75.688	yaw rate:	3.780	Roll:	-30.000	Pitch:	-25.852	Yaw:	105.781	Thrust:	0.000
Time:	2.219	Roll Set Point:	0.428	Pitch Set Point:	2.126	Yaw Set Point:	-1.313	X_WP:	0.000	Y_WP:	0.000	Y_WP:	0.000	X:	0.605	Y:	-1.228	Z:	0.393	yaw:	75.255	yaw rate:	-43.281	Roll:	25.147	Pitch:	-30.000	Yaw:	51.119	Thrust:	0.000
Time:	2.221	Roll Set Point:	0.428	Pitch Set Point:	2.126	Yaw Set Point:	-1.313	X_WP:	0.000	Y_WP:	0.000	Y_WP:	0.000	X:	0.605	Y:	-1.228	Z:	0.393	yaw:	75.255	yaw rate:	-43.281	Roll:	-30.000	Pitch:	-26.111	Yaw:	105.275	Thrust:	0.000
Time:	2.223	Roll Set Point:	0.428	Pitch Set Point:	2.126	Yaw Set Point:	-1.313	X_WP:	0.000	Y_WP:	0.000	Y_WP:	0.000	X:	0.605	Y:	-1.228	Z:	0.393	yaw:	75.255	yaw rate:	-43.281	Roll:	-30.000	Pitch:	-26.109	Yaw:	105.269	Thrust:	0.000
Time:	2.226	Roll Set Point:	0.428	Pitch Set Point:	2.126	Yaw Set Point:	-1.313	X_WP:	0.000	Y_WP:	0.000	Y_WP:	0.000	X:	0.605	Y:	-1.228	Z:	0.393	yaw:	75.255	yaw rate:	-43.281	Roll:	-30.000	Pitch:	-26.131	Yaw:	105.328	Thrust:	0.000
Time:	2.227	Roll Set Point:	0.428	Pitch Set Point:	2.126	Yaw Set Point:	-1.313	X_WP:	0.000	Y_WP:	0.000	Y_WP:	0.000	X:	0.605	Y:	-1.228	Z:	0.393	yaw:	75.255	yaw rate:	-43.281	Roll:	-30.000	Pitch:	-26.095	Yaw:	105.231	Thrust:	0.000
Time:	2.229	Roll Set Point:	0.428	Pitch Set Point:	2.126	Yaw Set Point:	-1.313	X_WP:	0.000	Y_WP:	0.000	Y_WP:	0.000	X:	0.605	Y:	-1.228	Z:	0.393	yaw:	75.255	yaw rate:	-43.281	Roll:	-30.000	Pitch:	-26.092	Yaw:	105.271	Thrust:	0.000
Time:	2.230	Roll Set Point:	0.434	Pitch Set Point:	2.118	Yaw Set Point:	-1.320	X_WP:	0.000	Y_WP:	0.000	Y_WP:	0.000	X:	0.605	Y:	-1.228	Z:	0.392	yaw:	75.656	yaw rate:	40.140	Roll:	-30.000	Pitch:	30.000	Yaw:	175.639	Thrust:	0.000
Time:	2.231	Roll Set Point:	0.434	Pitch Set Point:	2.118	Yaw Set Point:	-1.320	X_WP:	0.000	Y_WP:	0.000	Y_WP:	0.000	X:	0.605	Y:	-1.228	Z:	0.392	yaw:	75.656	yaw rate:	40.140	Roll:	-30.000	Pitch:	-25.885	Yaw:	105.737	Thrust:	0.000
Time:	2.233	Roll Set Point:	0.434	Pitch Set Point:	2.118	Yaw Set Point:	-1.320	X_WP:	0.000	Y_WP:	0.000	Y_WP:	0.000	X:	0.605	Y:	-1.228	Z:	0.392	yaw:	75.656	yaw rate:	40.140	Roll:	-30.000	Pitch:	-25.887	Yaw:	105.787	Thrust:	0.000
Time:	2.235	Roll Set Point:	0.434	Pitch Set Point:	2.118	Yaw Set Point:	-1.320	X_WP:	0.000	Y_WP:	0.000	Y_WP:	0.000	X:	0.605	Y:	-1.228	Z:	0.392	yaw:	75.656	yaw rate:	40.140	Roll:	-30.000	Pitch:	-25.887	Yaw:	105.837	Thrust:	0.000
Time:	2.237	Roll Set Point:	0.434	Pitch Set Point:	2.118	Yaw Set Point:	-1.320	X_WP:	0.000	Y_WP:	0.000	Y_WP:	0.000	X:	0.605	Y:	-1.228	Z:	0.392	yaw:	75.656	yaw rate:	40.140	Roll:	-30.000	Pitch:	-25.927	Yaw:	105.887	Thrust:	0.000
Time:	2.239	Roll Set Point:	0.434	Pitch Set Point:	2.118	Yaw Set Point:	-1.320	X_WP:	0.000	Y_WP:	0.000	Y_WP:	0.000	X:	0.605	Y:	-1.228	Z:	0.392	yaw:	75.656	yaw rate:	40.140	Roll:	-30.000	Pitch:	-25.887	Yaw:	105.788	Thrust:	0.000
Time:	2.241	Roll Set Point:	0.434	Pitch Set Point:	2.119	Yaw Set Point:	-1.320	X_WP:	0.000	Y_WP:	0.000	Y_WP:	0.000	X:	0.605	Y:	-1.228	Z:	0.392	yaw:	75.643	yaw rate:	-1.380	Roll:	-28.524	Pitch:	-28.001	Yaw:	103.627	Thrust:	0.000
Time:	2.243	Roll Set Point:	0.434	Pitch Set Point:	2.119	Yaw Set Point:	-1.320	X_WP:	0.000	Y_WP:	0.000	Y_WP:	0.000	X:	0.605	Y:	-1.228	Z:	0.392	yaw:	75.643	yaw rate:	-1.380	Roll:	-30.000	Pitch:	-25.913	Yaw:	105.818	Thrust:	0.000
Time:	2.245	Roll Set Point:	0.434	Pitch Set Point:	2.119	Yaw Set Point:	-1.320	X_WP:	0.000	Y_WP:	0.000	Y_WP:	0.000	X:	0.605	Y:	-1.228	Z:	0.392	yaw:	75.643	yaw rate:	-1.380	Roll:	-30.000	Pitch:	-25.913	Yaw:	105.818	Thrust:	0.000
Time:	2.247	Roll Set Point:	0.434	Pitch Set Point:	2.119	Yaw Set Point:	-1.320	X_WP:	0.000	Y_WP:	0.000	Y_WP:	0.000	X:	0.605	Y:	-1.228	Z:	0.392	yaw:	75.643	yaw rate:	-1.380	Roll:	-30.000	Pitch:	-25.913	Yaw:	105.817	Thrust:	0.000
Time:	2.249	Roll Set Point:	0.434	Pitch Set Point:	2.119	Yaw Set Point:	-1.320	X_WP:	0.000	Y_WP:	0.000	Y_WP:	0.000	X:	0.605	Y:	-1.228	Z:	0.392	yaw:	75.643	yaw rate:	-1.380	Roll:	-30.000	Pitch:	-25.913	Yaw:	105.818	Thrust:	0.000
Time:	2.250	Roll Set Point:	0.434	Pitch Set Point:	2.119	Yaw Set Point:	-1.320	X_WP:	0.000	Y_WP:	0.000	Y_WP:	0.000	X:	0.605	Y:	-1.228	Z:	0.392	yaw:	75.643	yaw rate:	-1.380	Roll:	-30.000	Pitch:	-25.911	Yaw:	105.810	Thrust:	0.000
Time:	2.253	Roll Set Point:	0.434	Pitch Set Point:	2.119	Yaw Set Point:	-1.320	X_WP:	0.000	Y_WP:	0.000	Y_WP:	0.000	X:	0.605	Y:	-1.228	Z:	0.392	yaw:	75.649	yaw rate:	0.594	Roll:	-30.000	Pitch:	-25.109	Yaw:	106.579	Thrust:	0.000
Time:	2.255	Roll Set Point:	0.434	Pitch Set Point:	2.119	Yaw Set Point:	-1.320	X_WP:	0.000	Y_WP:	0.000	Y_WP:	0.000	X:	0.605	Y:	-1.228	Z:	0.392	yaw:	75.649	yaw rate:	0.594	Roll:	-30.000	Pitch:	-25.910	Yaw:	105.825	Thrust:	0.000
Time:	2.258	Roll Set Point:	0.434	Pitch Set Point:	2.119	Yaw Set Point:	-1.320	X_WP:	0.000	Y_WP:	0.000	Y_WP:	0.000	X:	0.605	Y:	-1.228	Z:	0.392	yaw:	75.649	yaw rate:	0.594	Roll:	-30.000	Pitch:	-25.967	Yaw:	105.977	Thrust:	0.000
Time:	2.260	Roll Set Point:	0.434	Pitch Set Point:	2.119	Yaw Set Point:	-1.320	X_WP:	0.000	Y_WP:	0.000	Y_WP:	0.000	X:	0.605	Y:	-1.228	Z:	0.392	yaw:	75.649	yaw rate:	0.594	Roll:	-30.000	Pitch:	-25.895	Yaw:	105.783	Thrust:	0.000
Time:	2.263	Roll Set Point:	0.435	Pitch Set Point:	2.118	Yaw Set Point:	-1.321	X_WP:	0.000	Y_WP:	0.000	Y_WP:	0.000	X:	0.605	Y:	-1.228	Z:	0.392	yaw:	75.706	yaw rate:	5.710	Roll:	-30.000	Pitch:	-18.912	Yaw:	110.973	Thrust:	0.000
Time:	2.264	Roll Set Point:	0.435	Pitch Set Point:	2.118	Yaw Set Point:	-1.321	X_WP:	0.000	Y_WP:	0.000	Y_WP:	0.000	X:	0.605	Y:	-1.228	Z:	0.392	yaw:	75.706	yaw rate:	5.710	Roll:	-30.000	Pitch:	-25.862	Yaw:	105.806	Thrust:	0.000
Time:	2.266	Roll Set Point:	0.435	Pitch Set Point:	2.118	Yaw Set Point:	-1.321	X_WP:	0.000	Y_WP:	0.000	Y_WP:	0.000	X:	0.605	Y:	-1.228	Z:	0.392	yaw:	75.706	yaw rate:	5.710	Roll:	-30.000	Pitch:	-25.862	Yaw:	105.855	Thrust:	0.000
Time:	2.267	Roll Set Point:	0.435	Pitch Set Point:	2.118	Yaw Set Point:	-1.321	X_WP:	0.000	Y_WP:	0.000	Y_WP:	0.000	X:	0.605	Y:	-1.228	Z:	0.392	yaw:	75.706	yaw rate:	5.710	Roll:	-30.000	Pitch:	-25.865	Yaw:	105.906	Thrust:	0.000
Time:	2.269	Roll Set Point:	0.435	Pitch Set Point:	2.118	Yaw Set Point:	-1.321	X_WP:	0.000	Y_WP:	0.000	Y_WP:	0.000	X:	0.605	Y:	-1.228	Z:	0.392	yaw:	75.706	yaw rate:	5.710	Roll:	-30.000	Pitch:	-25.859	Yaw:	105.855	Thrust:	0.000
Time:	2.270	Roll Set Point:	0.435	Pitch Set Point:	2.118	Yaw Set Point:	-1.321	X_WP:	0.000	Y_WP:	0.000	Y_WP:	0.000	X:	0.605	Y:	-1.228	Z:	0.392	yaw:	75.706	yaw rate:	5.710	Roll:	-30.000	Pitch:	-25.864	Yaw:	105.855	Thrust:	0.000
Time:	2.272	Roll Set Point:	0.435	Pitch Set Point:	2.118	Yaw Set Point:	-1.321	X_WP:	0.000	Y_WP:	0.000	Y_WP:	0.000	X:	0.605	Y:	-1.228	Z:	0.392	yaw:	75.706	yaw rate:	5.710	Roll:	-30.000	Pitch:	-25.879	Yaw:	105.906	Thrust:	0.000
Time:	2.274	Roll Set Point:	0.434	Pitch Set Point:	2.119	Yaw Set Point:	-1.320	X_WP:	0.000	Y_WP:	0.000	Y_WP:	0.000	X:	0.605	Y:	-1.228	Z:	0.392	yaw:	75.654	yaw rate:	-5.147	Roll:	-21.350	Pitch:	-30.000	Yaw:	96.817	Thrust:	0.000
Time:	2.275	Roll Set Point:	0.434	Pitch Set Point:	2.119	Yaw Set Point:	-1.320	X_WP:	0.000	Y_WP:	0.000	Y_WP:	0.000	X:	0.605	Y:	-1.228	Z:	0.392	yaw:	75.654	yaw rate:	-5.147	Roll:	-30.000	Pitch:	-25.888	Yaw:	105.784	Thrust:	0.000
Time:	2.277	Roll Set Point:	0.434	Pitch Set Point:	2.119	Yaw Set Point:	-1.320	X_WP:	0.000	Y_WP:	0.000	Y_WP:	0.000	X:	0.605	Y:	-1.228	Z:	0.392	yaw:	75.654	yaw rate:	-5.147	Roll:	-30.000	Pitch:	-25.908	Yaw:	105.834	Thrust:	0.000
Time:	2.279	Roll Set Point:	0.434	Pitch Set Point:	2.119	Yaw Set Point:	-1.320	X_WP:	0.000	Y_WP:	0.000	Y_WP:	0.000	X:	0.605	Y:	-1.228	Z:	0.392	yaw:	75.654	yaw rate:	-5.147	Roll:	-30.000	Pitch:	-25.889	Yaw:	105.784	Thrust:	0.000
Time:	2.280	Roll Set Point:	0.434	Pitch Set Point:	2.119	Yaw Set Point:	-1.320	X_WP:	0.000	Y_WP:	0.000	Y_WP:	0.000	X:	0.605	Y:	-1.228	Z:	0.392	yaw:	75.654	yaw rate:	-5.147	Roll:	-30.000	Pitch:	-25.912	Yaw:	105.804	Thrust:	0.000
Time:	2.282	Roll Set Point:	0.434	Pitch Set Point:	2.119	Yaw Set Point:	-1.320	X_WP:	0.000	Y_WP:	0.000	Y_WP:	0.000	X:	0.605	Y:	-1.228	Z:	0.392	yaw:	75.654	yaw rate:	-5.147	Roll:	-30.000	Pitch:	-25.906	Yaw:	105.829	Thrust:	0.000
Time:	2.284	Roll Set Point:	0.434	Pitch Set Point:	2.119	Yaw Set Point:	-1.320	X_WP:	0.000	Y_WP:	0.000	Y_WP:	0.000	X:	0.605	Y:	-1.228	Z:	0.392	yaw:	75.634	yaw rate:	-2.054	Roll:	-27.534	Pitch:	-28.795	Yaw:	103.187	Thrust:	0.000
Time:	2.286	Roll Set Point:	0.434	Pitch Set Point:	2.119	Yaw Set Point:	-1.320	X_WP:	0.000	Y_WP:	0.000	Y_WP:	0.000	X:	0.605	Y:	-1.228	Z:	0.392	yaw:	75.634	yaw rate:	-2.054	Roll:	-30.000	Pitch:	-25.916	Yaw:	105.802	Thrust:	0.000
Time:	2.288	Roll Set Point:	0.434	Pitch Set Point:	2.119	Yaw Set Point:	-1.320	X_WP:	0.000	Y_WP:	0.000	Y_WP:	0.000	X:	0.605	Y:	-1.228	Z:	0.392	yaw:	75.634	yaw rate:	-2.054	Roll:	-30.000	Pitch:	-25.916	Yaw:	105.802	Thrust:	0.000
Time:	2.291	Roll Set Point:	0.434	Pitch Set Point:	2.119	Yaw Set Point:	-1.320	X_WP:	0.000	Y_WP:	0.000	Y_WP:	0.000	X:	0.605	Y:	-1.228	Z:	0.392	yaw:	75.634	yaw rate:	-2.054	Roll:	-30.000	Pitch:	-25.917	Yaw:	105.906	Thrust:	0.000
Time:	2.293	Roll Set Point:	0.434	Pitch Set Point:	2.119	Yaw Set Point:	-1.320	X_WP:	0.000	Y_WP:	0.000	Y_WP:	0.000	X:	0.605	Y:	-1.228	Z:	0.392	yaw:	75.634	yaw rate:	-2.054	Roll:	-30.000	Pitch:	-25.938	Yaw:	105.805	Thrust:	0.000
Time:	2.295	Roll Set Point:	0.434	Pitch Set Point:	2.118	Yaw Set Point:	-1.321	X_WP:	0.000	Y_WP:	0.000	Y_WP:	0.000	X:	0.605	Y:	-1.228	Z:	0.392	yaw:	75.668	yaw rate:	3.452	Roll:	-30.000	Pitch:	-19.064	Yaw:	114.309	Thrust:	0.000
Time:	2.296	Roll Set Point:	0.434	Pitch Set Point:	2.118	Yaw Set Point:	-1.321	X_WP:	0.000	Y_WP:	0.000	Y_WP:	0.000	X:	0.605	Y:	-1.228	Z:	0.392	yaw:	75.668	yaw rate:	3.452	Roll:	-30.000	Pitch:	-25.879	Yaw:	105.798	Thrust:	0.000
Time:	2.298	Roll Set Point:	0.434	Pitch Set Point:	2.118	Yaw Set Point:	-1.321	X_WP:	0.000	Y_WP:	0.000	Y_WP:	0.000	X:	0.605	Y:	-1.228	Z:	0.392	yaw:	75.668	yaw rate:	3.452	Roll:	-30.000	Pitch:	-25.900	Yaw:	105.903	Thrust:	0.000
Time:	2.300	Roll Set Point:	0.434	Pitch Set Point:	2.118	Yaw Set Point:	-1.321	X_WP:	0.000	Y_WP:	0.000	Y_WP:	0.000	X:	0.605	Y:	-1.228	Z:	0.392	yaw:	75.668	yaw rate:	3.452	Roll:	-30.000	Pitch:	-25.884	Yaw:	105.803	Thrust:	0.000
Time:	2.302	Roll Set Point:	0.434	Pitch Set Point:	2.118	Yaw Set Point:	-1.321	X_WP:	0.000	Y_WP:	0.000	Y_WP:	0.000	X:	0.605	Y:	-1.228	Z:	0.392	yaw:	75.668	yaw rate:	3.452	Roll:	-30.000	Pitch:	-25.900	Yaw:	105.853	Thrust:	0.000
Time:	2.303	Roll Set Point:	0.434	Pitch Set Point:	2.118	Yaw Set Point:	-1.321	X_WP:	0.000	Y_WP:	0.000	Y_WP:	0.000	X:	0.605	Y:	-1.228	Z:	0.392	yaw:	75.668	yaw rate:	3.452	Roll:	-30.000	Pitch:	-25.878	Yaw:	105.753	Thrust:	0.000
Time:	2.305	Roll Set Point:	0.434	Pitch Set Point:	2.118	Yaw Set Point:	-1.321	X_WP:	0.000	Y_WP:	0.000	Y_WP:	0.000	X:	0.605	Y:	-1.228	Z:	0.392	yaw:	75.673	yaw rate:	0.449	Roll:	-30.000	Pitch:	-25.083	Yaw:	106.445	Thrust:	0.000
Time:	2.307	Roll Set Point:	0.434	Pitch Set Point:	2.118	Yaw Set Point:	-1.321	X_WP:	0.000	Y_WP:	0.000	Y_WP:	0.000	X:	0.605	Y:	-1.228	Z:	0.392	yaw:	75.673	yaw rate:	0.449	Roll:	-30.000	Pitch:	-25.923	Yaw:	105.886	Thrust:	0.000
Time:	2.309	Roll Set Point:	0.434	Pitch Set Point:	2.118	Yaw Set Point:	-1.321	X_WP:	0.000	Y_WP:	0.000	Y_WP:	0.000	X:	0.605	Y:	-1.228	Z:	0.392	yaw:	75.673	yaw rate:	0.449	Roll:	-30.000	Pitch:	-25.897	Yaw:	105.858	Thrust:	0.000
Time:	2.311	Roll Set Point:	0.434	Pitch Set Point:	2.118	Yaw Set Point:	-1.321	X_WP:	0.000	Y_WP:	0.000	Y_WP:	0.000	X:	0.605	Y:	-1.228	Z:	0.392	yaw:	75.673	yaw rate:	0.449	Roll:	-30.000	Pitch:	-25.898	Yaw:	105.860	Thrust:	0.000
Time:	2.313	Roll Set Point:	0.434	Pitch Set Point:	2.118	Yaw Set Point:	-1.321	X_WP:	0.000	Y_WP:	0.000	Y_WP:	0.000	X:	0.605	Y:	-1.228	Z:	0.392	yaw:	75.673	yaw rate:	0.449	Roll:	-30.000	Pitch:	-25.895	Yaw:	105.853	Thrust:	0.000
Time:	2.316	Roll Set Point:	0.434	Pitch Set Point:	2.118	Yaw Set Point:	-1.321	X_WP:	0.000	Y_WP:	0.000	Y_WP:	0.000	X:	0.605	Y:	-1.228	Z:	0.392	yaw:	75.682	yaw rate:	0.945	Roll:	-30.000	Pitch:	-25.048	Yaw:	106.785	Thrust:	0.000
Time:	2.318	Roll Set Point:	0.434	Pitch Set Point:	2.118	Yaw Set Point:	-1.321	X_WP:	0.000	Y_WP:	0.000	Y_WP:	0.000	X:	0.605	Y:	-1.228	Z:	0.392	yaw:	75.682	yaw rate:	0.945	Roll:	-30.000	Pitch:	-25.893	Yaw:	105.873	Thrust:	0.000
Time:	2.320	Roll Set Point:	0.434	Pitch Set Point:	2.118	Yaw Set Point:	-1.321	X_WP:	0.000	Y_WP:	0.000	Y_WP:	0.000	X:	0.605	Y:	-1.228	Z:	0.392	yaw:	75.682	yaw rate:	0.945	Roll:	-30.000	Pitch:	-25.893	Yaw:	105.873	Thrust:	0.000
Time:	2.323	Roll Set Point:	0.434	Pitch Set Point:	2.118	Yaw Set Point:	-1.321	X_WP:	0.000	Y_WP:	0.000	Y_WP:	0.000	X:	0.605	Y:	-1.228	Z:	0.392	yaw:	75.682	yaw rate:	0.945	Roll:	-30.000	Pitch:	-25.892	Yaw:	105.965	Thrust:	0.000
Time:	2.324	Roll Set Point:	0.434	Pitch Set Point:	2.118	Yaw Set Point:	-1.321	X_WP:	0.000	Y_WP:	0.000	Y_WP:	0.000	X:	0.605	Y:	-1.228	Z:	0.392	yaw:	75.682	yaw rate:	0.945	Roll:	-30.000	Pitch:	-25.890	Yaw:	105.772	Thrust:	0.000
Time:	2.326	Roll Set Point:	0.434	Pitch Set Point:	2.119	Yaw Set Point:	-1.320	X_WP:	0.000	Y_WP:	0.000	Y_WP:	0.000	X:	0.605	Y:	-1.228	Z:	0.392	yaw:	75.648	yaw rate:	-3.416	Roll:	-24.164	Pitch:	-30.000	Yaw:	99.843	Thrust:	0.000
Time:	2.328	Roll Set Point:	0.434	Pitch Set Point:	2.119	Yaw Set Point:	-1.320	X_WP:	0.000	Y_WP:	0.000	Y_WP:	0.000	X:	0.605	Y:	-1.228	Z:	0.392	yaw:	75.648	yaw rate:	-3.416	Roll:	-30.000	Pitch:	-25.894	Yaw:	105.825	Thrust:	0.000
Time:	2.329	Roll Set Point:	0.434	Pitch Set Point:	2.119	Yaw Set Point:	-1.320	X_WP:	0.000	Y_WP:	0.000	Y_WP:	0.000	X:	0.605	Y:	-1.228	Z:	0.392	yaw:	75.648	yaw rate:	-3.416	Roll:	-30.000	Pitch:	-25.890	Yaw:	105.728	Thrust:	0.000
Time:	2.331	Roll Set Point:	0.434	Pitch Set Point:	2.119	Yaw Set Point:	-1.320	X_WP:	0.000	Y_WP:	0.000	Y_WP:	0.000	X:	0.605	Y:	-1.228	Z:	0.392	yaw:	75.648	yaw rate:	-3.416	Roll:	-30.000	Pitch:	-25.893	Yaw:	105.822	Thrust:	0.000
Time:	2.333	Roll Set Point:	0.434	Pitch Set Point:	2.119	Yaw Set Point:	-1.320	X_WP:	0.000	Y_WP:	0.000	Y_WP:	0.000	X:	0.605	Y:	-1.228	Z:	0.392	yaw:	75.648	yaw rate:	-3.416	Roll:	-30.000	Pitch:	-25.911	Yaw:	105.834	Thrust:	0.000
Time:	2.334	Roll Set Point:	0.434	Pitch Set Point:	2.119	Yaw Set Point:	-1.320	X_WP:	0.000	Y_WP:	0.000	Y_WP:	0.000	X:	0.605	Y:	-1.228	Z:	0.392	yaw:	75.648	yaw rate:	-3.416	Roll:	-30.000	Pitch:	-25.895	Yaw:	105.775	Thrust:	0.000
Time:	2.336	Roll Set Point:	0.434	Pitch Set Point:	2.119	Yaw Set Point:	-1.320	X_WP:	0.000	Y_WP:	0.000	Y_WP:	0.000	X:	0.605	Y:	-1.228	Z:	0.392	yaw:	75.648	yaw rate:	-3.416	Roll:	-30.000	Pitch:	-25.890	Yaw:	105.775	Thrust:	0.000
Time:	2.337	Roll Set Point:	0.428	Pitch Set Point:	2.126	Yaw Set Point:	-1.313	X_WP:	0.000	Y_WP:	0.000	Y_WP:	0.000	X:	0.605	Y:	-1.228	Z:	0.393	yaw:	75.254	yaw rate:	-39.361	Roll:	30.000	Pitch:	-30.000	Yaw:	36.729	Thrust:	0.000
Time:	2.339	Roll Set Point:	0.428	Pitch Set Point:	2.126	Yaw Set Point:	-1.313	X_WP:	0.000	Y_WP:	0.000	Y_WP:	0.000	X:	0.605	Y:	-1.228	Z:	0.393	yaw:	75.254	yaw rate:	-39.361	Roll:	-30.000	Pitch:	-26.093	Yaw:	105.225	Thrust:	0.000
Time:	2.340	Roll Set Point:	0.428	Pitch Set Point:	2.126	Yaw Set Point:	-1.313	X_WP:	0.000	Y_WP:	0.000	Y_WP:	0.000	X:	0.605	Y:	-1.228	Z:	0.393	yaw:	75.254	yaw rate:	-39.361	Roll:	-30.000	Pitch:	-26.116	Yaw:	105.242	Thrust:	0.000
Time:	2.342	Roll Set Point:	0.428	Pitch Set Point:	2.126	Yaw Set Point:	-1.313	X_WP:	0.000	Y_WP:	0.000	Y_WP:	0.000	X:	0.605	Y:	-1.228	Z:	0.393	yaw:	75.254	yaw rate:	-39.361	Roll:	-30.000	Pitch:	-26.112	Yaw:	105.276	Thrust:	0.000
Time:	2.344	Roll Set Point:	0.428	Pitch Set Point:	2.126	Yaw Set Point:	-1.313	X_WP:	0.000	Y_WP:	0.000	Y_WP:	0.000	X:	0.605	Y:	-1.228	Z:	0.393	yaw:	75.254	yaw rate:	-39.361	Roll:	-30.000	Pitch:	-26.112	Yaw:	105.276	Thrust:	0.000
Time:	2.346	Roll Set Point:	0.428	Pitch Set Point:	2.126	Yaw Set Point:	-1.313	X_WP:	0.000	Y_WP:	0.000	Y_WP:	0.000	X:	0.605	Y:	-1.228	Z:	0.393	yaw:	75.254	yaw rate:	-39.361	Roll:	-30.000	Pitch:	-26.111	Yaw:	105.271	Thrust:	0.000
Time:	2.348	Roll Set Point:	0.434	Pitch Set Point:	2.118	Yaw Set Point:	-1.321	X_WP:	0.000	Y_WP:	0.000	Y_WP:	0.000	X:	0.605	Y:	-1.228	Z:	0.392	yaw:	75.678	yaw rate:	42.354	Roll:	-30.000	Pitch:	30.000	Yaw:	159.608	Thrust:	0.000
Time:	2.350	Roll Set Point:	0.434	Pitch Set Point:	2.118	Yaw Set Point:	-1.321	X_WP:	0.000	Y_WP:	0.000	Y_WP:	0.000	X:	0.605	Y:	-1.228	Z:	0.392	yaw:	75.678	yaw rate:	42.354	Roll:	-30.000	Pitch:	-25.895	Yaw:	105.867	Thrust:	0.000
Time:	2.352	Roll Set Point:	0.434	Pitch Set Point:	2.118	Yaw Set Point:	-1.321	X_WP:	0.000	Y_WP:	0.000	Y_WP:	0.000	X:	0.605	Y:	-1.228	Z:	0.392	yaw:	75.678	yaw rate:	42.354	Roll:	-30.000	Pitch:	-25.892	Yaw:	105.858	Thrust:	0.000
Time:	2.353	Roll Set Point:	0.434	Pitch Set Point:	2.118	Yaw Set Point:	-1.321	X_WP:	0.000	Y_WP:	0.000	Y_WP:	0.000	X:	0.605	Y:	-1.228	Z:	0.392	yaw:	75.678	yaw rate:	42.354	Roll:	-30.000	Pitch:	-25.857	Yaw:	105.767	Thrust:	0.000
Time:	2.355	Roll Set Point:	0.434	Pitch Set Point:	2.118	Yaw Set Point:	-1.321	X_WP:	0.000	Y_WP:	0.000	Y_WP:	0.000	X:	0.605	Y:	-1.228	Z:	0.392	yaw:	75.678	yaw rate:	42.354	Roll:	-30.000	Pitch:	-25.898	Yaw:	105.874	Thrust:	0.000
Time:	2.357	Roll Set Point:	0.434	Pitch Set Point:	2.118	Yaw Set Point:	-1.321	X_WP:	0.000	Y_WP:	0.000	Y_WP:	0.000	X:	0.605	Y:	-1.228	Z:	0.392	yaw:	75.672	yaw rate:	-0.635	Roll:	-29.256	Pitch:	-26.848	Yaw:	105.004	Thrust:	0.000
Time:	2.359	Roll Set Point:	0.434	Pitch Set Point:	2.118	Yaw Set Point:	-1.321	X_WP:	0.000	Y_WP:	0.000	Y_WP:	0.000	X:	0.605	Y:	-1.228	Z:	0.392	yaw:	75.672	yaw rate:	-0.635	Roll:	-30.000	Pitch:	-25.900	Yaw:	105.863	Thrust:	0.000
Time:	2.362	Roll Set Point:	0.434	Pitch Set Point:	2.118	Yaw Set Point:	-1.321	X_WP:	0.000	Y_WP:	0.000	Y_WP:	0.000	X:	0.605	Y:	-1.228	Z:	0.392	yaw:	75.672	yaw rate:	-0.635	Roll:	-30.000	Pitch:	-25.899	Yaw:	105.860	Thrust:	0.000
Time:	2.364	Roll Set Point:	0.434	Pitch Set Point:	2.118	Yaw Set Point:	-1.321	X_WP:	0.000	Y_WP:	0.000	Y_WP:	0.000	X:	0.605	Y:	-1.228	Z:	0.392	yaw:	75.672	yaw rate:	-0.635	Roll:	-30.000	Pitch:	-25.895	Yaw:	105.900	Thrust:	0.000
Time:	2.366	Roll Set Point:	0.434	Pitch Set Point:	2.118	Yaw Set Point:	-1.321	X_WP:	0.000	Y_WP:	0.000	Y_WP:	0.000	X:	0.605	Y:	-1.228	Z:	0.392	yaw:	75.672	yaw rate:	-0.635	Roll:	-30.000	Pitch:	-25.902	Yaw:	105.819	Thrust:	0.000
Time:	2.368	Roll Set Point:	0.434	Pitch Set Point:	2.118	Yaw Set Point:	-1.321	X_WP:	0.000	Y_WP:	0.000	Y_WP:	0.000	X:	0.605	Y:	-1.228	Z:	0.392	yaw:	75.672	yaw rate:	-0.635	Roll:	-30.000	Pitch:	-25.882	Yaw:	105.858	Thrust:	0.000
Time:	2.370	Roll Set Point:	0.428	Pitch Set Point:	2.125	Yaw Set Point:	-1.314	X_WP:	0.000	Y_WP:	0.000	Y_WP:	0.000	X:	0.605	Y:	-1.228	Z:	0.393	yaw:	75.281	yaw rate:	-39.065	Roll:	23.842	Pitch:	-30.000	Yaw:	37.325	Thrust:	0.000
Time:	2.371	Roll Set Point:	0.428	Pitch Set Point:	2.125	Yaw Set Point:	-1.314	X_WP:	0.000	Y_WP:	0.000	Y_WP:	0.000	X:	0.605	Y:	-1.228	Z:	0.393	yaw:	75.281	yaw rate:	-39.065	Roll:	-30.000	Pitch:	-26.080	Yaw:	105.312	Thrust:	0.000
Time:	2.373	Roll Set Point:	0.428	Pitch Set Point:	2.125	Yaw Set Point:	-1.314	X_WP:	0.000	Y_WP:	0.000	Y_WP:	0.000	X:	0.605	Y:	-1.228	Z:	0.393	yaw:	75.281	yaw rate:	-39.065	Roll:	-30.000	Pitch:	-26.083	Yaw:	105.262	Thrust:	0.000
Time:	2.375	Roll Set Point:	0.428	Pitch Set Point:	2.125	Yaw Set Point:	-1.314	X_WP:	0.000	Y_WP:	0.000	Y_WP:	0.000	X:	0.605	Y:	-1.228	Z:	0.393	yaw:	75.281	yaw rate:	-39.065	Roll:	-30.000	Pitch:	-26.099	Yaw:	105.313	Thrust:	0.000
Time:	2.377	Roll Set Point:	0.428	Pitch Set Point:	2.125	Yaw Set Point:	-1.314	X_WP:	0.000	Y_WP:	0.000	Y_WP:	0.000	X:	0.605	Y:	-1.228	Z:	0.393	yaw:	75.281	yaw rate:	-39.065	Roll:	-30.000	Pitch:	-26.099	Yaw:	105.313	Thrust:	0.000
Time:	2.378	Roll Set Point:	0.428	Pitch Set Point:	2.125	Yaw Set Point:	-1.314	X_WP:	0.000	Y_WP:	0.000	Y_WP:	0.000	X:	0.605	Y:	-1.228	Z:	0.393	yaw:	75.281	yaw rate:	-39.065	Roll:	-30.000	Pitch:	-26.080	Yaw:	105.262	Thrust:	0.000
Time:	2.380	Roll Set Point:	0.434	Pitch Set Point:	2.119	Yaw Set Point:	-1.320	X_WP:	0.000	Y_WP:	0.000	Y_WP:	0.000	X:	0.605	Y:	-1.228	Z:	0.392	yaw:	75.648	yaw rate:	36.667	Roll:	-30.000	Pitch:	15.196	Yaw:	148.478	Thrust:	0.000
Time:	2.382	Roll Set Point:	0.434	Pitch Set Point:	2.119	Yaw Set Point:	-1.320	X_WP:	0.000	Y_WP:	0.000	Y_WP:	0.000	X:	0.605	Y:	-1.228	Z:	0.392	yaw:	75.648	yaw rate:	36.667	Roll:	-30.000	Pitch:	-25.908	Yaw:	105.817	Thrust:	0.000
Time:	2.383	Roll Set Point:	0.434	Pitch Set Point:	2.119	Yaw Set Point:	-1.320	X_WP:	0.000	Y_WP:	0.000	Y_WP:	0.000	X:	0.605	Y:	-1.228	Z:	0.392	yaw:	75.648	yaw rate:	36.667	Roll:	-30.000	Pitch:	-25.874	Yaw:	105.724	Thrust:	0.000
Time:	2.384	Roll Set Point:	0.434	Pitch Set Point:	2.119	Yaw Set Point:	-1.320	X_WP:	0.000	Y_WP:	0.000	Y_WP:	0.000	X:	0.605	Y:	-1.228	Z:	0.392	yaw:	75.648	yaw rate:	36.667	Roll:	-30.000	Pitch:	-25.874	Yaw:	105.724	Thrust:	0.000
Time:	2.385	Roll Set Point:	0.434	Pitch Set Point:	2.119	Yaw Set Point:	-1.320	X_WP:	0.000	Y_WP:	0.000	Y_WP:	0.000	X:	0.605	Y:	-1.228	Z:	0.392	yaw:	75.648	yaw rate:	36.667	Roll:	-30.000	Pitch:	-25.874	Yaw:	105.724	Thrust:	0.000
Time:	2.386	Roll Set Point:	0.434	Pitch Set Point:	2.119	Yaw Set Point:	-1.320	X_WP:	0.000	Y_WP:	0.000	Y_WP:	0.000	X:	0.605	Y:	-1.228	Z:	0.392	yaw:	75.648	yaw rate:	36.667	Roll:	-30.000	Pitch:	-25.874	Yaw:	105.724	Thrust:	0.000
Time:	2.387	Roll Set Point:	0.434	Pitch Set Point:	2.119	Yaw Set Point:	-1.320	X_WP:	0.000	Y_WP:	0.000	Y_WP:	0.000	X:	0.605	Y:	-1.228	Z:	0.392	yaw:	75.648	yaw rate:	36.667	Roll:	-30.000	Pitch:	-25.874	Yaw:	105.724	Thrust:	0.000
Time:	2.388	Roll Set Point:	0.434	Pitch Set Point:	2.119	Yaw Set Point:	-1.320	X_WP:	0.000	Y_WP:	0.000	Y_WP:	0.000	X:	0.605	Y:	-1.228	Z:	0.392	yaw:	75.648	yaw rate:	36.667	Roll:	-30.000	Pitch:	-25.874	Yaw:	105.724	Thrust:	0.000
Time:	2.390	Roll Set Point:	0.434	Pitch Set Point:	2.119	Yaw Set Point:	-1.320	X_WP:	0.000	Y_WP:	0.000	Y_WP:	0.000	X:	0.605	Y:	-1.228	Z:	0.392	yaw:	75.636	yaw rate:	-1.176	Roll:	-28.603	Pitch:	-27.432	Yaw:	104.273	Thrust:	0.000
Time:	2.391	Roll Set Point:	0.434	Pitch Set Point:	2.119	Yaw Set Point:	-1.320	X_WP:	0.000	Y_WP:	0.000	Y_WP:	0.000	X:	0.605	Y:	-1.228	Z:	0.392	yaw:	75.636	yaw rate:	-1.176	Roll:	-30.000	Pitch:	-25.879	Yaw:	105.708	Thrust:	0.000
Time:	2.392	Roll Set Point:	0.434	Pitch Set Point:	2.119	Yaw Set Point:	-1.320	X_WP:	0.000	Y_WP:	0.000	Y_WP:	0.000	X:	0.605	Y:	-1.228	Z:	0.392	yaw:	75.636	yaw rate:	-1.176	Roll:	-30.000	Pitch:	-25.879	Yaw:	105.708	Thrust:	0.000
Time:	2.393	Roll Set Point:	0.434	Pitch Set Point:	2.119	Yaw Set Point:	-1.320	X_WP:	0.000	Y_WP:	0.000	Y_WP:	0.000	X:	0.605	Y:	-1.228	Z:	0.392	yaw:	75.636	yaw rate:	-1.176	Roll:	-30.000	Pitch:	-25.879	Yaw:	105.708	Thrust:	0.000
Time:	2.394	Roll Set Point:	0.434	Pitch Set Point:	2.119	Yaw Set Point:	-1.320	X_WP:	0.000	Y_WP:	0.000	Y_WP:	0.000	X:	0.605	Y:	-1.228	Z:	0.392	yaw:	75.636	yaw rate:	-1.176	Roll:	-30.000	Pitch:	-25.879	Yaw:	105.708	Thrust:	0.000
Time:	2.395	Roll Set Point:	0.434	Pitch Set Point:	2.119	Yaw Set Point:	-1.320	X_WP:	0.000	Y_WP:	0.000	Y_WP:	0.000	X:	0.605	Y:	-1.228	Z:	0.392	yaw:	75.636	yaw rate:	-1.176	Roll:	-30.000	Pitch:	-25.879	Yaw:	105.708	Thrust:	0.000
Time:	2.396	Roll Set Point:	0.434	Pitch Set Point:	2.119	Yaw Set Point:	-1.320	X_WP:	0.000	Y_WP:	0.000	Y_WP:	0.000	X:	0.605	Y:	-1.228	Z:	0.392	yaw:	75.636	yaw rate:	-1.176	Roll:	-30.000	Pitch:	-25.879	Yaw:	105.708	Thrust:	0.000
Time:	2.397	Roll Set Point:	0.434	Pitch Set Point:	2.119	Yaw Set Point:	-1.320	X_WP:	0.000	Y_WP:	0.000	Y_WP:	0.000	X:	0.605	Y:	-1.228	Z:	0.392	yaw:	75.636	yaw rate:	-1.176	Roll:	-30.000	Pitch:	-25.879	Yaw:	105.708	Thrust:	0.000
Time:	2.398	Roll Set Point:	0.434	Pitch Set Point:	2.119	Yaw Set Point:	-1.320	X_WP:	0.000	Y_WP:	0.000	Y_WP:	0.000	X:	0.605	Y:	-1.228	Z:	0.392	yaw:	75.636	yaw rate:	-1.176	Roll:	-30.000	Pitch:	-25.879	Yaw:	105.708	Thrust:	0.000
Time:	2.399	Roll Set Point:	0.434	Pitch Set Point:	2.119	Yaw Set Point:	-1.320	X_WP:	0.000	Y_WP:	0.000	Y_WP:	0.000	X:	0.605	Y:	-1.228	Z:	0.392	yaw:	75.636	yaw rate:	-1.176	Roll:	-30.000	Pitch:	-25.879	Yaw:	105.708	Thrust:	0.000
Time:	2.400	Roll Set Point:	0.434	Pitch Set Point:	2.119	Yaw Set Point:	-1.320	X_WP:	0.000	Y_WP:	0.000	Y_WP:	0.000	X:	0.605	Y:	-1.228	Z:	0.392	yaw:	75.636	yaw rate:	-1.176	Roll:	-30.000	Pitch:	-25.880	Yaw:	105.711	Thrust:	0.000
Time:	2.402	Roll Set Point:	0.434	Pitch Set Point:	2.119	Yaw Set Point:	-1.320	X_WP:	0.000	Y_WP:	0.000	Y_WP:	0.000	X:	0.605	Y:	-1.228	Z:	0.392	yaw:	75.652	yaw rate:	1.616	Roll:	-30.000	Pitch:	-23.598	Yaw:	107.898	Thrust:	0.000
Time:	2.405	Roll Set Point:	0.434	Pitch Set Point:	2.119	Yaw Set Point:	-1.320	X_WP:	0.000	Y_WP:	0.000	Y_WP:	0.000	X:	0.605	Y:	-1.228	Z:	0.392	yaw:	75.652	yaw rate:	1.616	Roll:	-30.000	Pitch:	-25.908	Yaw:	105.831	Thrust:	0.000
Time:	2.412	Roll Set Point:	0.434	Pitch Set Point:	2.119	Yaw Set Point:	-1.320	X_WP:	0.000	Y_WP:	0.000	Y_WP:	0.000	X:	0.605	Y:	-1.228	Z:	0.392	yaw:	75.652	yaw rate:	1.616	Roll:	-30.000	Pitch:	-26.093	Yaw:	106.324	Thrust:	0.000
Time:	2.413	Roll Set Point:	0.434	Pitch Set Point:	2.118	Yaw Set Point:	-1.321	X_WP:	0.000	Y_WP:	0.000	Y_WP:	0.000	X:	0.605	Y:	-1.228	Z:	0.392	yaw:	75.664	yaw rate:	1.197	Roll:	-30.000	Pitch:	-23.945	Yaw:	107.409	Thrust:	0.000
Time:	2.414	Roll Set Point:	0.434	Pitch Set Point:	2.118	Yaw Set Point:	-1.321	X_WP:	0.000	Y_WP:	0.000	Y_WP:	0.000	X:	0.605	Y:	-1.228	Z:	0.392	yaw:	75.664	yaw rate:	1.197	Roll:	-30.000	Pitch:	-25.864	Yaw:	105.747	Thrust:	0.000
Time:	2.415	Roll Set Point:	0.434	Pitch Set Point:	2.118	Yaw Set Point:	-1.321	X_WP:	0.000	Y_WP:	0.000	Y_WP:	0.000	X:	0.605	Y:	-1.228	Z:	0.392	yaw:	75.664	yaw rate:	1.197	Roll:	-30.000	Pitch:	-25.864	Yaw:	105.747	Thrust:	0.000
Time:	2.417	Roll Set Point:	0.434	Pitch Set Point:	2.118	Yaw Set Point:	-1.321	X_WP:	0.000	Y_WP:	0.000	Y_WP:	0.000	X:	0.605	Y:	-1.228	Z:	0.392	yaw:	75.664	yaw rate:	1.197	Roll:	-30.000	Pitch:	-25.902	Yaw:	105.848	Thrust:	0.000
Time:	2.419	Roll Set Point:	0.434	Pitch Set Point:	2.118	Yaw Set Point:	-1.321	X_WP:	0.000	Y_WP:	0.000	Y_WP:	0.000	X:	0.605	Y:	-1.228	Z:	0.392	yaw:	75.664	yaw rate:	1.197	Roll:	-30.000	Pitch:	-25.902	Yaw:	105.847	Thrust:	0.000
Time:	2.421	Roll Set Point:	0.434	Pitch Set Point:	2.118	Yaw Set Point:	-1.321	X_WP:	0.000	Y_WP:	0.000	Y_WP:	0.000	X:	0.605	Y:	-1.228	Z:	0.392	yaw:	75.664	yaw rate:	1.197	Roll:	-30.000	Pitch:	-25.902	Yaw:	105.847	Thrust:	0.000
Time:	2.424	Roll Set Point:	0.434	Pitch Set Point:	2.118	Yaw Set Point:	-1.321	X_WP:	0.000	Y_WP:	0.000	Y_WP:	0.000	X:	0.605	Y:	-1.228	Z:	0.392	yaw:	75.664	yaw rate:	1.197	Roll:	-30.000	Pitch:	-25.902	Yaw:	105.848	Thrust:	0.000
Time:	2.425	Roll Set Point:	0.434	Pitch Set Point:	2.119	Yaw Set Point:	-1.320	X_WP:	0.000	Y_WP:	0.000	Y_WP:	0.000	X:	0.605	Y:	-1.228	Z:	0.392	yaw:	75.625	yaw rate:	-3.903	Roll:	-25.062	Pitch:	-30.000	Yaw:	100.690	Thrust:	0.000
Time:	2.427	Roll Set Point:	0.434	Pitch Set Point:	2.119	Yaw Set Point:	-1.320	X_WP:	0.000	Y_WP:	0.000	Y_WP:	0.000	X:	0.605	Y:	-1.228	Z:	0.392	yaw:	75.625	yaw rate:	-3.903	Roll:	-30.000	Pitch:	-25.923	Yaw:	105.793	Thrust:	0.000
Time:	2.428	Roll Set Point:	0.434	Pitch Set Point:	2.119	Yaw Set Point:	-1.320	X_WP:	0.000	Y_WP:	0.000	Y_WP:	0.000	X:	0.605	Y:	-1.228	Z:	0.392	yaw:	75.625	yaw rate:	-3.903	Roll:	-30.000	Pitch:	-25.885	Yaw:	105.693	Thrust:	0.000
Time:	2.429	Roll Set Point:	0.434	Pitch Set Point:	2.119	Yaw Set Point:	-1.320	X_WP:	0.000	Y_WP:	0.000	Y_WP:	0.000	X:	0.605	Y:	-1.228	Z:	0.392	yaw:	75.625	yaw rate:	-3.903	Roll:	-30.000	Pitch:	-25.885	Yaw:	105.693	Thrust:	0.000
Time:	2.431	Roll Set Point:	0.434	Pitch Set Point:	2.119	Yaw Set Point:	-1.320	X_WP:	0.000	Y_WP:	0.000	Y_WP:	0.000	X:	0.605	Y:	-1.228	Z:	0.392	yaw:	75.625	yaw rate:	-3.903	Roll:	-30.000	Pitch:	-25.923	Yaw:	105.793	Thrust:	0.000
Time:	2.433	Roll Set Point:	0.434	Pitch Set Point:	2.119	Yaw Set Point:	-1.320	X_WP:	0.000	Y_WP:	0.000	Y_WP:	0.000	X:	0.605	Y:	-1.228	Z:	0.392	yaw:	75.625	yaw rate:	-3.903	Roll:	-30.000	Pitch:	-25.923	Yaw:	105.793	Thrust:	0.000
Time:	2.435	Roll Set Point:	0.434	Pitch Set Point:	2.118	Yaw Set Point:	-1.321	X_WP:	0.000	Y_WP:	0.000	Y_WP:	0.000	X:	0.605	Y:	-1.228	Z:	0.392	yaw:	75.662	yaw rate:	3.746	Roll:	-30.000	Pitch:	-20.232	Yaw:	110.736	Thrust:	0.000
Time:	2.437	Roll Set Point:	0.434	Pitch Set Point:	2.118	Yaw Set Point:	-1.321	X_WP:	0.000	Y_WP:	0.000	Y_WP:	0.000	X:	0.605	Y:	-1.228	Z:	0.392	yaw:	75.662	yaw rate:	3.746	Roll:	-30.000	Pitch:	-25.905	Yaw:	105.849	Thrust:	0.000
Time:	2.439	Roll Set Point:	0.434	Pitch Set Point:	2.118	Yaw Set Point:	-1.321	X_WP:	0.000	Y_WP:	0.000	Y_WP:	0.000	X:	0.605	Y:	-1.228	Z:	0.392	yaw:	75.662	yaw rate:	3.746	Roll:	-30.000	Pitch:	-25.902	Yaw:	105.842	Thrust:	0.000
Time:	2.440	Roll Set Point:	0.434	Pitch Set Point:	2.118	Yaw Set Point:	-1.321	X_WP:	0.000	Y_WP:	0.000	Y_WP:	0.000	X:	0.605	Y:	-1.228	Z:	0.392	yaw:	75.662	yaw rate:	3.746	Roll:	-30.000	Pitch:	-25.866	Yaw:	105.745	Thrust:	0.000
Time:	2.441	Roll Set Point:	0.434	Pitch Set Point:	2.118	Yaw Set Point:	-1.321	X_WP:	0.000	Y_WP:	0.000	Y_WP:	0.000	X:	0.605	Y:	-1.228	Z:	0.392	yaw:	75.662	yaw rate:	3.746	Roll:	-30.000	Pitch:	-25.866	Yaw:	105.745	Thrust:	0.000
Time:	2.443	Roll Set Point:	0.434	Pitch Set Point:	2.118	Yaw Set Point:	-1.321	X_WP:	0.000	Y_WP:	0.000	Y_WP:	0.000	X:	0.605	Y:	-1.228	Z:	0.392	yaw:	75.662	yaw rate:	3.746	Roll:	-30.000	Pitch:	-25.869	Yaw:	105.753	Thrust:	0.000
Time:	2.444	Roll Set Point:	0.434	Pitch Set Point:	2.118	Yaw Set Point:	-1.321	X_WP:	0.000	Y_WP:	0.000	Y_WP:	0.000	X:	0.605	Y:	-1.228	Z:	0.392	yaw:	75.662	yaw rate:	3.746	Roll:	-30.000	Pitch:	-25.901	Yaw:	105.840	Thrust:	0.000
Time:	2.447	Roll Set Point:	0.434	Pitch Set Point:	2.118	Yaw Set Point:	-1.321	X_WP:	0.000	Y_WP:	0.000	Y_WP:	0.000	X:	0.605	Y:	-1.228	Z:	0.392	yaw:	75.665	yaw rate:	0.228	Roll:	-30.000	Pitch:	-25.451	Yaw:	106.142	Thrust:	0.000
Time:	2.449	Roll Set Point:	0.434	Pitch Set Point:	2.118	Yaw Set Point:	-1.321	X_WP:	0.000	Y_WP:	0.000	Y_WP:	0.000	X:	0.605	Y:	-1.228	Z:	0.392	yaw:	75.665	yaw rate:	0.228	Roll:	-30.000	Pitch:	-25.901	Yaw:	105.847	Thrust:	0.000
Time:	2.451	Roll Set Point:	0.434	Pitch Set Point:	2.118	Yaw Set Point:	-1.321	X_WP:	0.000	Y_WP:	0.000	Y_WP:	0.000	X:	0.605	Y:	-1.228	Z:	0.392	yaw:	75.665	yaw rate:	0.228	Roll:	-30.000	Pitch:	-25.902	Yaw:	105.849	Thrust:	0.000
Time:	2.452	Roll Set Point:	0.434	Pitch Set Point:	2.118	Yaw Set Point:	-1.321	X_WP:	0.000	Y_WP:	0.000	Y_WP:	0.000	X:	0.605	Y:	-1.228	Z:	0.392	yaw:	75.665	yaw rate:	0.228	Roll:	-30.000	Pitch:	-25.899	Yaw:	105.842	Thrust:	0.000
Time:	2.455	Roll Set Point:	0.434	Pitch Set Point:	2.118	Yaw Set Point:	-1.321	X_WP:	0.000	Y_WP:	0.000	Y_WP:	0.000	X:	0.605	Y:	-1.228	Z:	0.392	yaw:	75.665	yaw rate:	0.228	Roll:	-30.000	Pitch:	-25.904	Yaw:	105.855	Thrust:	0.000
Time:	2.457	Roll Set Point:	0.434	Pitch Set Point:	2.118	Yaw Set Point:	-1.321	X_WP:	0.000	Y_WP:	0.000	Y_WP:	0.000	X:	0.605	Y:	-1.228	Z:	0.392	yaw:	75.665	yaw rate:	0.228	Roll:	-30.000	Pitch:	-25.902	Yaw:	105.849	Thrust:	0.000
Time:	2.459	Roll Set Point:	0.434	Pitch Set Point:	2.119	Yaw Set Point:	-1.320	X_WP:	0.000	Y_WP:	0.000	Y_WP:	0.000	X:	0.605	Y:	-1.228	Z:	0.392	yaw:	75.648	yaw rate:	-1.651	Roll:	-28.014	Pitch:	-28.481	Yaw:	103.664	Thrust:	0.000
Time:	2.461	Roll Set Point:	0.434	Pitch Set Point:	2.119	Yaw Set Point:	-1.320	X_WP:	0.000	Y_WP:	0.000	Y_WP:	0.000	X:	0.605	Y:	-1.228	Z:	0.392	yaw:	75.648	yaw rate:	-1.651	Roll:	-30.000	Pitch:	-25.910	Yaw:	105.825	Thrust:	0.000
Time:	2.463	Roll Set Point:	0.434	Pitch Set Point:	2.119	Yaw Set Point:	-1.320	X_WP:	0.000	Y_WP:	0.000	Y_WP:	0.000	X:	0.605	Y:	-1.228	Z:	0.392	yaw:	75.648	yaw rate:	-1.651	Roll:	-30.000	Pitch:	-25.910	Yaw:	105.825	Thrust:	0.000
Time:	2.464	Roll Set Point:	0.434	Pitch Set Point:	2.119	Yaw Set Point:	-1.320	X_WP:	0.000	Y_WP:	0.000	Y_WP:	0.000	X:	0.605	Y:	-1.228	Z:	0.392	yaw:	75.648	yaw rate:	-1.651	Roll:	-30.000	Pitch:	-25.890	Yaw:	105.771	Thrust:	0.000
Time:	2.466	Roll Set Point:	0.434	Pitch Set Point:	2.119	Yaw Set Point:	-1.320	X_WP:	0.000	Y_WP:	0.000	Y_WP:	0.000	X:	0.605	Y:	-1.228	Z:	0.392	yaw:	75.648	yaw rate:	-1.651	Roll:	-30.000	Pitch:	-25.892	Yaw:	105.826	Thrust:	0.000
Time:	2.468	Roll Set Point:	0.434	Pitch Set Point:	2.119	Yaw Set Point:	-1.320	X_WP:	0.000	Y_WP:	0.000	Y_WP:	0.000	X:	0.605	Y:	-1.228	Z:	0.392	yaw:	75.648	yaw rate:	-1.651	Roll:	-30.000	Pitch:	-25.895	Yaw:	105.735	Thrust:	0.000
Time:	2.469	Roll Set Point:	0.434	Pitch Set Point:	2.118	Yaw Set Point:	-1.321	X_WP:	0.000	Y_WP:	0.000	Y_WP:	0.000	X:	0.605	Y:	-1.228	Z:	0.392	yaw:	75.662	yaw rate:	1.391	Roll:	-30.000	Pitch:	-23.034	Yaw:	108.162	Thrust:	0.000
Time:	2.470	Roll Set Point:	0.434	Pitch Set Point:	2.118	Yaw Set Point:	-1.321	X_WP:	0.000	Y_WP:	0.000	Y_WP:	0.000	X:	0.605	Y:	-1.228	Z:	0.392	yaw:	75.662	yaw rate:	1.391	Roll:	-30.000	Pitch:	-25.888	Yaw:	105.805	Thrust:	0.000
Time:	2.472	Roll Set Point:	0.434	Pitch Set Point:	2.118	Yaw Set Point:	-1.321	X_WP:	0.000	Y_WP:	0.000	Y_WP:	0.000	X:	0.605	Y:	-1.228	Z:	0.392	yaw:	75.662	yaw rate:	1.391	Roll:	-30.000	Pitch:	-25.884	Yaw:	105.794	Thrust:	0.000
Time:	2.473	Roll Set Point:	0.434	Pitch Set Point:	2.118	Yaw Set Point:	-1.321	X_WP:	0.000	Y_WP:	0.000	Y_WP:	0.000	X:	0.605	Y:	-1.228	Z:	0.392	yaw:	75.662	yaw rate:	1.391	Roll:	-30.000	Pitch:	-25.883	Yaw:	105.791	Thrust:	0.000
Time:	2.475	Roll Set Point:	0.434	Pitch Set Point:	2.118	Yaw Set Point:	-1.321	X_WP:	0.000	Y_WP:	0.000	Y_WP:	0.000	X:	0.605	Y:	-1.228	Z:	0.392	yaw:	75.662	yaw rate:	1.391	Roll:	-30.000	Pitch:	-25.886	Yaw:	105.800	Thrust:	0.000
Time:	2.476	Roll Set Point:	0.434	Pitch Set Point:	2.118	Yaw Set Point:	-1.321	X_WP:	0.000	Y_WP:	0.000	Y_WP:	0.000	X:	0.605	Y:	-1.228	Z:	0.392	yaw:	75.662	yaw rate:	1.391	Roll:	-30.000	Pitch:	-25.880	Yaw:	105.784	Thrust:	0.000
Time:	2.478	Roll Set Point:	0.435	Pitch Set Point:	2.118	Yaw Set Point:	-1.321	X_WP:	0.000	Y_WP:	0.000	Y_WP:	0.000	X:	0.605	Y:	-1.228	Z:	0.392	yaw:	75.694	yaw rate:	3.158	Roll:	-30.000	Pitch:	-21.619	Yaw:	109.572	Thrust:	0.000
Time:	2.480	Roll Set Point:	0.435	Pitch Set Point:	2.118	Yaw Set Point:	-1.321	X_WP:	0.000	Y_WP:	0.000	Y_WP:	0.000	X:	0.605	Y:	-1.228	Z:	0.392	yaw:	75.694	yaw rate:	3.158	Roll:	-30.000	Pitch:	-25.877	Yaw:	105.864	Thrust:	0.000
Time:	2.482	Roll Set Point:	0.435	Pitch Set Point:	2.118	Yaw Set Point:	-1.321	X_WP:	0.000	Y_WP:	0.000	Y_WP:	0.000	X:	0.605	Y:	-1.228	Z:	0.392	yaw:	75.694	yaw rate:	3.158	Roll:	-30.000	Pitch:	-25.886	Yaw:	105.889	Thrust:	0.000
Time:	2.484	Roll Set Point:	0.435	Pitch Set Point:	2.118	Yaw Set Point:	-1.321	X_WP:	0.000	Y_WP:	0.000	Y_WP:	0.000	X:	0.605	Y:	-1.228	Z:	0.392	yaw:	75.694	yaw rate:	3.158	Roll:	-30.000	Pitch:	-25.886	Yaw:	105.889	Thrust:	0.000
Time:	2.486	Roll Set Point:	0.435	Pitch Set Point:	2.118	Yaw Set Point:	-1.321	X_WP:	0.000	Y_WP:	0.000	Y_WP:	0.000	X:	0.605	Y:	-1.228	Z:	0.392	yaw:	75.694	yaw rate:	3.158	Roll:	-30.000	Pitch:	-25.886	Yaw:	105.889	Thrust:	0.000
Time:	2.488	Roll Set Point:	0.435	Pitch Set Point:	2.118	Yaw Set Point:	-1.321	X_WP:	0.000	Y_WP:	0.000	Y_WP:	0.000	X:	0.605	Y:	-1.228	Z:	0.392	yaw:	75.694	yaw rate:	3.158	Roll:	-30.000	Pitch:	-25.886	Yaw:	105.889	Thrust:	0.000
Time:	2.490	Roll Set Point:	0.435	Pitch Set Point:	2.118	Yaw Set Point:	-1.321	X_WP:	0.000	Y_WP:	0.000	Y_WP:	0.000	X:	0.605	Y:	-1.228	Z:	0.392	yaw:	75.684	yaw rate:	-0.977	Roll:	-28.981	Pitch:	-27.446	Yaw:	104.600	Thrust:	0.000
Time:	2.492	Roll Set Point:	0.435	Pitch Set Point:	2.118	Yaw Set Point:	-1.321	X_WP:	0.000	Y_WP:	0.000	Y_WP:	0.000	X:	0.605	Y:	-1.228	Z:	0.392	yaw:	75.684	yaw rate:	-0.977	Roll:	-30.000	Pitch:	-25.892	Yaw:	105.875	Thrust:	0.000
Time:	2.494	Roll Set Point:	0.435	Pitch Set Point:	2.118	Yaw Set Point:	-1.321	X_WP:	0.000	Y_WP:	0.000	Y_WP:	0.000	X:	0.605	Y:	-1.228	Z:	0.392	yaw:	75.684	yaw rate:	-0.977	Roll:	-30.000	Pitch:	-25.892	Yaw:	105.875	Thrust:	0.000
Time:	2.496	Roll Set Point:	0.435	Pitch Set Point:	2.118	Yaw Set Point:	-1.321	X_WP:	0.000	Y_WP:	0.000	Y_WP:	0.000	X:	0.605	Y:	-1.228	Z:	0.392	yaw:	75.684	yaw rate:	-0.977	Roll:	-30.000	Pitch:	-25.892	Yaw:	105.875	Thrust:	0.000
Time:	2.498	Roll Set Point:	0.435	Pitch Set Point:	2.118	Yaw Set Point:	-1.321	X_WP:	0.000	Y_WP:	0.000	Y_WP:	0.000	X:	0.605	Y:	-1.228	Z:	0.392	yaw:	75.684	yaw rate:	-0.977	Roll:	-30.000	Pitch:	-25.888	Yaw:	105.866	Thrust:	0.000
Time:	2.499	Roll Set Point:	0.435	Pitch Set Point:	2.118	Yaw Set Point:	-1.321	X_WP:	0.000	Y_WP:	0.000	Y_WP:	0.000	X:	0.605	Y:	-1.228	Z:	0.392	yaw:	75.684	yaw rate:	-0.977	Roll:	-30.000	Pitch:	-25.854	Yaw:	105.775	Thrust:	0.000
Time:	2.500	Roll Set Point:	0.435	Pitch Set Point:	2.118	Yaw Set Point:	-1.321	X_WP:	0.000	Y_WP:	0.000	Y_WP:	0.000	X:	0.605	Y:	-1.228	Z:	0.392	yaw:	75.684	yaw rate:	-0.977	Roll:	-30.000	Pitch:	-25.858	Yaw:	105.784	Thrust:	0.000
Time:	2.502	Roll Set Point:	0.428	Pitch Set Point:	2.125	Yaw Set Point:	-1.314	X_WP:	0.000	Y_WP:	0.000	Y_WP:	0.000	X:	0.605	Y:	-1.228	Z:	0.393	yaw:	75.273	yaw rate:	-41.123	Roll:	24.789	Pitch:	-30.000	Yaw:	51.608	Thrust:	0.000
Time:	2.504	Roll Set Point:	0.428	Pitch Set Point:	2.125	Yaw Set Point:	-1.314	X_WP:	0.000	Y_WP:	0.000	Y_WP:	0.000	X:	0.605	Y:	-1.228	Z:	0.393	yaw:	75.273	yaw rate:	-41.123	Roll:	-30.000	Pitch:	-26.103	Yaw:	105.301	Thrust:	0.000
Time:	2.508	Roll Set Point:	0.428	Pitch Set Point:	2.125	Yaw Set Point:	-1.314	X_WP:	0.000	Y_WP:	0.000	Y_WP:	0.000	X:	0.605	Y:	-1.228	Z:	0.393	yaw:	75.273	yaw rate:	-41.123	Roll:	-30.000	Pitch:	-26.141	Yaw:	105.492	Thrust:	0.000
Time:	2.509	Roll Set Point:	0.428	Pitch Set Point:	2.125	Yaw Set Point:	-1.314	X_WP:	0.000	Y_WP:	0.000	Y_WP:	0.000	X:	0.605	Y:	-1.228	Z:	0.393	yaw:	75.273	yaw rate:	-41.123	Roll:	-30.000	Pitch:	-26.100	Yaw:	105.201	Thrust:	0.000
Time:	2.512	Roll Set Point:	0.435	Pitch Set Point:	2.118	Yaw Set Point:	-1.321	X_WP:	0.000	Y_WP:	0.000	Y_WP:	0.000	X:	0.605	Y:	-1.228	Z:	0.392	yaw:	75.689	yaw rate:	41.658	Roll:	-30.000	Pitch:	30.000	Yaw:	157.932	Thrust:	0.000
Time:	2.513	Roll Set Point:	0.435	Pitch Set Point:	2.118	Yaw Set Point:	-1.321	X_WP:	0.000	Y_WP:	0.000	Y_WP:	0.000	X:	0.605	Y:	-1.228	Z:	0.392	yaw:	75.689	yaw rate:	41.658	Roll:	-30.000	Pitch:	-25.885	Yaw:	105.873	Thrust:	0.000
Time:	2.516	Roll Set Point:	0.435	Pitch Set Point:	2.118	Yaw Set Point:	-1.321	X_WP:	0.000	Y_WP:	0.000	Y_WP:	0.000	X:	0.605	Y:	-1.228	Z:	0.392	yaw:	75.689	yaw rate:	41.658	Roll:	-30.000	Pitch:	-25.892	Yaw:	105.986	Thrust:	0.000
Time:	2.518	Roll Set Point:	0.435	Pitch Set Point:	2.118	Yaw Set Point:	-1.321	X_WP:	0.000	Y_WP:	0.000	Y_WP:	0.000	X:	0.605	Y:	-1.228	Z:	0.392	yaw:	75.689	yaw rate:	41.658	Roll:	-30.000	Pitch:	-25.888	Yaw:	105.788	Thrust:	0.000
Time:	2.520	Roll Set Point:	0.435	Pitch Set Point:	2.118	Yaw Set Point:	-1.321	X_WP:	0.000	Y_WP:	0.000	Y_WP:	0.000	X:	0.605	Y:	-1.228	Z:	0.392	yaw:	75.689	yaw rate:	41.658	Roll:	-30.000	Pitch:	-25.923	Yaw:	105.974	Thrust:	0.000
Time:	2.523	Roll Set Point:	0.435	Pitch Set Point:	2.118	Yaw Set Point:	-1.321	X_WP:	0.000	Y_WP:	0.000	Y_WP:	0.000	X:	0.605	Y:	-1.228	Z:	0.392	yaw:	75.689	yaw rate:	41.658	Roll:	-30.000	Pitch:	-25.890	Yaw:	105.886	Thrust:	0.000
Time:	2.525	Roll Set Point:	0.434	Pitch Set Point:	2.118	Yaw Set Point:	-1.321	X_WP:	0.000	Y_WP:	0.000	Y_WP:	0.000	X:	0.605	Y:	-1.228	Z:	0.392	yaw:	75.673	yaw rate:	-1.607	Roll:	-28.088	Pitch:	-28.367	Yaw:	103.758	Thrust:	0.000
Time:	2.527	Roll Set Point:	0.434	Pitch Set Point:	2.118	Yaw Set Point:	-1.321	X_WP:	0.000	Y_WP:	0.000	Y_WP:	0.000	X:	0.605	Y:	-1.228	Z:	0.392	yaw:	75.673	yaw rate:	-1.607	Roll:	-30.000	Pitch:	-25.899	Yaw:	105.866	Thrust:	0.000
Time:	2.528	Roll Set Point:	0.434	Pitch Set Point:	2.118	Yaw Set Point:	-1.321	X_WP:	0.000	Y_WP:	0.000	Y_WP:	0.000	X:	0.605	Y:	-1.228	Z:	0.392	yaw:	75.673	yaw rate:	-1.607	Roll:	-30.000	Pitch:	-25.897	Yaw:	105.860	Thrust:	0.000
Time:	2.531	Roll Set Point:	0.434	Pitch Set Point:	2.118	Yaw Set Point:	-1.321	X_WP:	0.000	Y_WP:	0.000	Y_WP:	0.000	X:	0.605	Y:	-1.228	Z:	0.392	yaw:	75.673	yaw rate:	-1.607	Roll:	-30.000	Pitch:	-25.897	Yaw:	105.951	Thrust:	0.000
Time:	2.532	Roll Set Point:	0.434	Pitch Set Point:	2.118	Yaw Set Point:	-1.321	X_WP:	0.000	Y_WP:	0.000	Y_WP:	0.000	X:	0.605	Y:	-1.228	Z:	0.392	yaw:	75.673	yaw rate:	-1.607	Roll:	-30.000	Pitch:	-25.893	Yaw:	105.760	Thrust:	0.000
