Time:	0.032	Roll Set Point:	-0.003	Pitch Set Point:	-0.014	Yaw Set Point:	1.573	X_WP:	0.000	Y_WP:	0.000	Y_WP:	0.000	X:	0.009	Y:	0.005	Z:	0.059	yaw:	-90.108	yaw rate:	-0.330	Roll:	-0.153	Pitch:	0.252	Yaw:	-125.815	Thrust:	0.000
Time:	0.044	Roll Set Point:	-0.003	Pitch Set Point:	-0.014	Yaw Set Point:	1.573	X_WP:	0.000	Y_WP:	0.000	Y_WP:	0.000	X:	0.009	Y:	0.005	Z:	0.059	yaw:	-90.106	yaw rate:	0.233	Roll:	-0.139	Pitch:	0.261	Yaw:	-126.174	Thrust:	0.000
Time:	0.057	Roll Set Point:	-0.003	Pitch Set Point:	-0.014	Yaw Set Point:	1.573	X_WP:	0.000	Y_WP:	0.000	Y_WP:	0.000	X:	0.009	Y:	0.005	Z:	0.059	yaw:	-90.112	yaw rate:	-0.591	Roll:	-0.151	Pitch:	0.235	Yaw:	-126.708	Thrust:	0.000
Time:	0.072	Roll Set Point:	-0.003	Pitch Set Point:	-0.014	Yaw Set Point:	1.573	X_WP:	0.000	Y_WP:	0.000	Y_WP:	0.000	X:	0.009	Y:	0.005	Z:	0.059	yaw:	-90.106	yaw rate:	0.555	Roll:	-0.171	Pitch:	0.272	Yaw:	-127.029	Thrust:	0.000
Time:	0.085	Roll Set Point:	-0.003	Pitch Set Point:	-0.014	Yaw Set Point:	1.573	X_WP:	0.000	Y_WP:	0.000	Y_WP:	0.000	X:	0.009	Y:	0.005	Z:	0.059	yaw:	-90.105	yaw rate:	0.190	Roll:	-0.150	Pitch:	0.260	Yaw:	-127.670	Thrust:	0.000
Time:	0.097	Roll Set Point:	-0.003	Pitch Set Point:	-0.014	Yaw Set Point:	1.573	X_WP:	0.000	Y_WP:	0.000	Y_WP:	0.000	X:	0.009	Y:	0.005	Z:	0.059	yaw:	-90.104	yaw rate:	0.084	Roll:	-0.149	Pitch:	0.239	Yaw:	-127.683	Thrust:	0.000
Time:	0.109	Roll Set Point:	-0.003	Pitch Set Point:	-0.014	Yaw Set Point:	1.573	X_WP:	0.000	Y_WP:	0.000	Y_WP:	0.000	X:	0.009	Y:	0.005	Z:	0.059	yaw:	-90.114	yaw rate:	-1.043	Roll:	-0.153	Pitch:	0.253	Yaw:	-128.325	Thrust:	0.000
Time:	0.120	Roll Set Point:	-0.003	Pitch Set Point:	-0.014	Yaw Set Point:	1.573	X_WP:	0.000	Y_WP:	0.000	Y_WP:	0.000	X:	0.009	Y:	0.005	Z:	0.059	yaw:	-90.105	yaw rate:	0.914	Roll:	-0.151	Pitch:	0.251	Yaw:	-127.584	Thrust:	0.000
Time:	0.131	Roll Set Point:	-0.003	Pitch Set Point:	-0.014	Yaw Set Point:	1.573	X_WP:	0.000	Y_WP:	0.000	Y_WP:	0.000	X:	0.009	Y:	0.005	Z:	0.059	yaw:	-90.110	yaw rate:	-0.499	Roll:	-0.169	Pitch:	0.277	Yaw:	-128.321	Thrust:	0.000
Time:	0.142	Roll Set Point:	-0.003	Pitch Set Point:	-0.014	Yaw Set Point:	1.573	X_WP:	0.000	Y_WP:	0.000	Y_WP:	0.000	X:	0.009	Y:	0.005	Z:	0.059	yaw:	-90.115	yaw rate:	-0.471	Roll:	-0.145	Pitch:	0.253	Yaw:	-127.951	Thrust:	0.000
Time:	0.153	Roll Set Point:	-0.003	Pitch Set Point:	-0.014	Yaw Set Point:	1.573	X_WP:	0.000	Y_WP:	0.000	Y_WP:	0.000	X:	0.009	Y:	0.005	Z:	0.059	yaw:	-90.103	yaw rate:	1.190	Roll:	-0.139	Pitch:	0.245	Yaw:	-127.745	Thrust:	0.000
Time:	0.164	Roll Set Point:	-0.003	Pitch Set Point:	-0.014	Yaw Set Point:	1.573	X_WP:	0.000	Y_WP:	0.000	Y_WP:	0.000	X:	0.009	Y:	0.005	Z:	0.059	yaw:	-90.104	yaw rate:	-0.161	Roll:	-0.169	Pitch:	0.267	Yaw:	-128.238	Thrust:	0.000
Time:	0.176	Roll Set Point:	-0.003	Pitch Set Point:	-0.014	Yaw Set Point:	1.573	X_WP:	0.000	Y_WP:	0.000	Y_WP:	0.000	X:	0.009	Y:	0.005	Z:	0.059	yaw:	-90.106	yaw rate:	-0.114	Roll:	-0.165	Pitch:	0.253	Yaw:	-128.244	Thrust:	0.000
Time:	0.187	Roll Set Point:	-0.003	Pitch Set Point:	-0.014	Yaw Set Point:	1.573	X_WP:	0.000	Y_WP:	0.000	Y_WP:	0.000	X:	0.009	Y:	0.005	Z:	0.059	yaw:	-90.108	yaw rate:	-0.255	Roll:	-0.138	Pitch:	0.238	Yaw:	-128.081	Thrust:	0.000
Time:	0.198	Roll Set Point:	-0.003	Pitch Set Point:	-0.014	Yaw Set Point:	1.573	X_WP:	0.000	Y_WP:	0.000	Y_WP:	0.000	X:	0.009	Y:	0.005	Z:	0.059	yaw:	-90.106	yaw rate:	0.235	Roll:	-0.168	Pitch:	0.264	Yaw:	-127.962	Thrust:	0.000
Time:	0.209	Roll Set Point:	-0.003	Pitch Set Point:	-0.014	Yaw Set Point:	1.573	X_WP:	0.000	Y_WP:	0.000	Y_WP:	0.000	X:	0.009	Y:	0.005	Z:	0.059	yaw:	-90.106	yaw rate:	-0.064	Roll:	-0.151	Pitch:	0.265	Yaw:	-128.032	Thrust:	0.000
Time:	0.222	Roll Set Point:	-0.003	Pitch Set Point:	-0.014	Yaw Set Point:	1.573	X_WP:	0.000	Y_WP:	0.000	Y_WP:	0.000	X:	0.009	Y:	0.005	Z:	0.059	yaw:	-90.106	yaw rate:	0.027	Roll:	-0.160	Pitch:	0.259	Yaw:	-128.219	Thrust:	0.000
Time:	0.234	Roll Set Point:	-0.003	Pitch Set Point:	-0.014	Yaw Set Point:	1.573	X_WP:	0.000	Y_WP:	0.000	Y_WP:	0.000	X:	0.009	Y:	0.005	Z:	0.059	yaw:	-90.111	yaw rate:	-0.426	Roll:	-0.151	Pitch:	0.235	Yaw:	-128.317	Thrust:	0.000
Time:	0.246	Roll Set Point:	-0.003	Pitch Set Point:	-0.014	Yaw Set Point:	1.573	X_WP:	0.000	Y_WP:	0.000	Y_WP:	0.000	X:	0.009	Y:	0.005	Z:	0.059	yaw:	-90.105	yaw rate:	0.559	Roll:	-0.152	Pitch:	0.260	Yaw:	-127.885	Thrust:	0.000
Time:	0.257	Roll Set Point:	-0.003	Pitch Set Point:	-0.014	Yaw Set Point:	1.573	X_WP:	0.000	Y_WP:	0.000	Y_WP:	0.000	X:	0.009	Y:	0.005	Z:	0.059	yaw:	-90.101	yaw rate:	0.368	Roll:	-0.166	Pitch:	0.282	Yaw:	-128.131	Thrust:	0.000
Time:	0.269	Roll Set Point:	-0.003	Pitch Set Point:	-0.014	Yaw Set Point:	1.573	X_WP:	0.000	Y_WP:	0.000	Y_WP:	0.000	X:	0.009	Y:	0.005	Z:	0.059	yaw:	-90.110	yaw rate:	-0.832	Roll:	-0.154	Pitch:	0.247	Yaw:	-128.404	Thrust:	0.000
Time:	0.280	Roll Set Point:	-0.003	Pitch Set Point:	-0.014	Yaw Set Point:	1.573	X_WP:	0.000	Y_WP:	0.000	Y_WP:	0.000	X:	0.009	Y:	0.005	Z:	0.059	yaw:	-90.110	yaw rate:	0.018	Roll:	-0.154	Pitch:	0.247	Yaw:	-128.017	Thrust:	0.000
Time:	0.292	Roll Set Point:	-0.003	Pitch Set Point:	-0.014	Yaw Set Point:	1.573	X_WP:	0.000	Y_WP:	0.000	Y_WP:	0.000	X:	0.009	Y:	0.005	Z:	0.059	yaw:	-90.102	yaw rate:	0.749	Roll:	-0.144	Pitch:	0.282	Yaw:	-127.847	Thrust:	0.000
Time:	0.303	Roll Set Point:	-0.003	Pitch Set Point:	-0.014	Yaw Set Point:	1.573	X_WP:	0.000	Y_WP:	0.000	Y_WP:	0.000	X:	0.009	Y:	0.005	Z:	0.059	yaw:	-90.106	yaw rate:	-0.425	Roll:	-0.163	Pitch:	0.241	Yaw:	-128.109	Thrust:	0.000
Time:	0.314	Roll Set Point:	-0.003	Pitch Set Point:	-0.014	Yaw Set Point:	1.573	X_WP:	0.000	Y_WP:	0.000	Y_WP:	0.000	X:	0.009	Y:	0.005	Z:	0.059	yaw:	-90.099	yaw rate:	0.693	Roll:	-0.159	Pitch:	0.258	Yaw:	-127.844	Thrust:	0.000
Time:	0.326	Roll Set Point:	-0.003	Pitch Set Point:	-0.014	Yaw Set Point:	1.573	X_WP:	0.000	Y_WP:	0.000	Y_WP:	0.000	X:	0.009	Y:	0.005	Z:	0.059	yaw:	-90.114	yaw rate:	-1.451	Roll:	-0.161	Pitch:	0.262	Yaw:	-128.551	Thrust:	0.000
Time:	0.337	Roll Set Point:	-0.003	Pitch Set Point:	-0.014	Yaw Set Point:	1.573	X_WP:	0.000	Y_WP:	0.000	Y_WP:	0.000	X:	0.009	Y:	0.005	Z:	0.059	yaw:	-90.106	yaw rate:	0.743	Roll:	-0.159	Pitch:	0.253	Yaw:	-127.847	Thrust:	0.000
Time:	0.348	Roll Set Point:	-0.003	Pitch Set Point:	-0.014	Yaw Set Point:	1.573	X_WP:	0.000	Y_WP:	0.000	Y_WP:	0.000	X:	0.009	Y:	0.005	Z:	0.059	yaw:	-90.113	yaw rate:	-0.677	Roll:	-0.144	Pitch:	0.258	Yaw:	-128.371	Thrust:	0.000
Time:	0.360	Roll Set Point:	-0.003	Pitch Set Point:	-0.014	Yaw Set Point:	1.573	X_WP:	0.000	Y_WP:	0.000	Y_WP:	0.000	X:	0.009	Y:	0.005	Z:	0.059	yaw:	-90.111	yaw rate:	0.216	Roll:	-0.167	Pitch:	0.273	Yaw:	-127.966	Thrust:	0.000
Time:	0.371	Roll Set Point:	-0.003	Pitch Set Point:	-0.014	Yaw Set Point:	1.573	X_WP:	0.000	Y_WP:	0.000	Y_WP:	0.000	X:	0.009	Y:	0.005	Z:	0.059	yaw:	-90.103	yaw rate:	0.774	Roll:	-0.158	Pitch:	0.258	Yaw:	-127.843	Thrust:	0.000
Time:	0.382	Roll Set Point:	-0.003	Pitch Set Point:	-0.014	Yaw Set Point:	1.573	X_WP:	0.000	Y_WP:	0.000	Y_WP:	0.000	X:	0.009	Y:	0.005	Z:	0.059	yaw:	-90.109	yaw rate:	-0.545	Roll:	-0.161	Pitch:	0.236	Yaw:	-128.152	Thrust:	0.000
Time:	0.394	Roll Set Point:	-0.003	Pitch Set Point:	-0.014	Yaw Set Point:	1.573	X_WP:	0.000	Y_WP:	0.000	Y_WP:	0.000	X:	0.009	Y:	0.005	Z:	0.059	yaw:	-90.113	yaw rate:	-0.473	Roll:	-0.146	Pitch:	0.275	Yaw:	-128.332	Thrust:	0.000
Time:	0.405	Roll Set Point:	-0.003	Pitch Set Point:	-0.014	Yaw Set Point:	1.573	X_WP:	0.000	Y_WP:	0.000	Y_WP:	0.000	X:	0.009	Y:	0.005	Z:	0.059	yaw:	-90.104	yaw rate:	0.995	Roll:	-0.159	Pitch:	0.265	Yaw:	-127.984	Thrust:	0.000
Time:	0.416	Roll Set Point:	-0.003	Pitch Set Point:	-0.014	Yaw Set Point:	1.573	X_WP:	0.000	Y_WP:	0.000	Y_WP:	0.000	X:	0.009	Y:	0.005	Z:	0.059	yaw:	-90.113	yaw rate:	-0.980	Roll:	-0.162	Pitch:	0.252	Yaw:	-128.089	Thrust:	0.000
Time:	0.427	Roll Set Point:	-0.003	Pitch Set Point:	-0.014	Yaw Set Point:	1.573	X_WP:	0.000	Y_WP:	0.000	Y_WP:	0.000	X:	0.009	Y:	0.005	Z:	0.059	yaw:	-90.101	yaw rate:	1.239	Roll:	-0.152	Pitch:	0.264	Yaw:	-127.723	Thrust:	0.000
Time:	0.438	Roll Set Point:	-0.003	Pitch Set Point:	-0.014	Yaw Set Point:	1.573	X_WP:	0.000	Y_WP:	0.000	Y_WP:	0.000	X:	0.009	Y:	0.005	Z:	0.059	yaw:	-90.117	yaw rate:	-1.639	Roll:	-0.167	Pitch:	0.247	Yaw:	-128.580	Thrust:	0.000
Time:	0.450	Roll Set Point:	-0.003	Pitch Set Point:	-0.014	Yaw Set Point:	1.573	X_WP:	0.000	Y_WP:	0.000	Y_WP:	0.000	X:	0.009	Y:	0.005	Z:	0.059	yaw:	-90.109	yaw rate:	0.786	Roll:	-0.151	Pitch:	0.280	Yaw:	-127.836	Thrust:	0.000
Time:	0.461	Roll Set Point:	-0.003	Pitch Set Point:	-0.014	Yaw Set Point:	1.573	X_WP:	0.000	Y_WP:	0.000	Y_WP:	0.000	X:	0.009	Y:	0.005	Z:	0.059	yaw:	-90.110	yaw rate:	-0.086	Roll:	-0.153	Pitch:	0.271	Yaw:	-128.056	Thrust:	0.000
Time:	0.472	Roll Set Point:	-0.003	Pitch Set Point:	-0.014	Yaw Set Point:	1.573	X_WP:	0.000	Y_WP:	0.000	Y_WP:	0.000	X:	0.009	Y:	0.005	Z:	0.059	yaw:	-90.105	yaw rate:	0.555	Roll:	-0.172	Pitch:	0.261	Yaw:	-128.092	Thrust:	0.000
Time:	0.484	Roll Set Point:	-0.003	Pitch Set Point:	-0.014	Yaw Set Point:	1.573	X_WP:	0.000	Y_WP:	0.000	Y_WP:	0.000	X:	0.009	Y:	0.005	Z:	0.059	yaw:	-90.099	yaw rate:	0.597	Roll:	-0.155	Pitch:	0.248	Yaw:	-128.071	Thrust:	0.000
Time:	0.494	Roll Set Point:	-0.003	Pitch Set Point:	-0.014	Yaw Set Point:	1.573	X_WP:	0.000	Y_WP:	0.000	Y_WP:	0.000	X:	0.009	Y:	0.005	Z:	0.059	yaw:	-90.106	yaw rate:	-0.691	Roll:	-0.151	Pitch:	0.267	Yaw:	-128.003	Thrust:	0.000
Time:	0.506	Roll Set Point:	-0.003	Pitch Set Point:	-0.014	Yaw Set Point:	1.573	X_WP:	0.000	Y_WP:	0.000	Y_WP:	0.000	X:	0.009	Y:	0.005	Z:	0.059	yaw:	-90.106	yaw rate:	0.013	Roll:	-0.162	Pitch:	0.260	Yaw:	-128.014	Thrust:	0.000
Time:	0.516	Roll Set Point:	-0.003	Pitch Set Point:	-0.014	Yaw Set Point:	1.573	X_WP:	0.000	Y_WP:	0.000	Y_WP:	0.000	X:	0.009	Y:	0.005	Z:	0.059	yaw:	-90.120	yaw rate:	-1.464	Roll:	-0.161	Pitch:	0.252	Yaw:	-128.378	Thrust:	0.000
Time:	0.527	Roll Set Point:	-0.003	Pitch Set Point:	-0.014	Yaw Set Point:	1.573	X_WP:	0.000	Y_WP:	0.000	Y_WP:	0.000	X:	0.009	Y:	0.005	Z:	0.059	yaw:	-90.115	yaw rate:	0.539	Roll:	-0.142	Pitch:	0.265	Yaw:	-127.902	Thrust:	0.000
Time:	0.538	Roll Set Point:	-0.003	Pitch Set Point:	-0.014	Yaw Set Point:	1.573	X_WP:	0.000	Y_WP:	0.000	Y_WP:	0.000	X:	0.009	Y:	0.005	Z:	0.059	yaw:	-90.112	yaw rate:	0.297	Roll:	-0.175	Pitch:	0.268	Yaw:	-127.761	Thrust:	0.000
Time:	0.548	Roll Set Point:	-0.003	Pitch Set Point:	-0.014	Yaw Set Point:	1.573	X_WP:	0.000	Y_WP:	0.000	Y_WP:	0.000	X:	0.009	Y:	0.005	Z:	0.059	yaw:	-90.110	yaw rate:	0.206	Roll:	-0.157	Pitch:	0.272	Yaw:	-127.961	Thrust:	0.000
Time:	0.560	Roll Set Point:	-0.003	Pitch Set Point:	-0.014	Yaw Set Point:	1.573	X_WP:	0.000	Y_WP:	0.000	Y_WP:	0.000	X:	0.009	Y:	0.005	Z:	0.059	yaw:	-90.108	yaw rate:	0.217	Roll:	-0.162	Pitch:	0.247	Yaw:	-128.173	Thrust:	0.000
Time:	0.571	Roll Set Point:	-0.003	Pitch Set Point:	-0.014	Yaw Set Point:	1.573	X_WP:	0.000	Y_WP:	0.000	Y_WP:	0.000	X:	0.009	Y:	0.005	Z:	0.059	yaw:	-90.110	yaw rate:	-0.195	Roll:	-0.154	Pitch:	0.270	Yaw:	-127.885	Thrust:	0.000
Time:	0.582	Roll Set Point:	-0.003	Pitch Set Point:	-0.014	Yaw Set Point:	1.573	X_WP:	0.000	Y_WP:	0.000	Y_WP:	0.000	X:	0.009	Y:	0.005	Z:	0.059	yaw:	-90.109	yaw rate:	0.066	Roll:	-0.183	Pitch:	0.270	Yaw:	-128.006	Thrust:	0.000
Time:	0.594	Roll Set Point:	-0.003	Pitch Set Point:	-0.014	Yaw Set Point:	1.573	X_WP:	0.000	Y_WP:	0.000	Y_WP:	0.000	X:	0.009	Y:	0.005	Z:	0.059	yaw:	-90.113	yaw rate:	-0.399	Roll:	-0.139	Pitch:	0.261	Yaw:	-128.302	Thrust:	0.000
Time:	0.604	Roll Set Point:	-0.003	Pitch Set Point:	-0.014	Yaw Set Point:	1.573	X_WP:	0.000	Y_WP:	0.000	Y_WP:	0.000	X:	0.009	Y:	0.005	Z:	0.059	yaw:	-90.111	yaw rate:	0.175	Roll:	-0.156	Pitch:	0.267	Yaw:	-127.788	Thrust:	0.000
Time:	0.615	Roll Set Point:	-0.003	Pitch Set Point:	-0.014	Yaw Set Point:	1.573	X_WP:	0.000	Y_WP:	0.000	Y_WP:	0.000	X:	0.009	Y:	0.005	Z:	0.059	yaw:	-90.114	yaw rate:	-0.249	Roll:	-0.165	Pitch:	0.279	Yaw:	-128.091	Thrust:	0.000
Time:	0.627	Roll Set Point:	-0.003	Pitch Set Point:	-0.014	Yaw Set Point:	1.573	X_WP:	0.000	Y_WP:	0.000	Y_WP:	0.000	X:	0.009	Y:	0.005	Z:	0.059	yaw:	-90.104	yaw rate:	0.919	Roll:	-0.157	Pitch:	0.247	Yaw:	-128.003	Thrust:	0.000
Time:	0.637	Roll Set Point:	-0.003	Pitch Set Point:	-0.014	Yaw Set Point:	1.573	X_WP:	0.000	Y_WP:	0.000	Y_WP:	0.000	X:	0.009	Y:	0.005	Z:	0.059	yaw:	-90.109	yaw rate:	-0.487	Roll:	-0.163	Pitch:	0.265	Yaw:	-127.956	Thrust:	0.000
Time:	0.648	Roll Set Point:	-0.003	Pitch Set Point:	-0.014	Yaw Set Point:	1.573	X_WP:	0.000	Y_WP:	0.000	Y_WP:	0.000	X:	0.009	Y:	0.005	Z:	0.059	yaw:	-90.110	yaw rate:	-0.035	Roll:	-0.158	Pitch:	0.280	Yaw:	-128.023	Thrust:	0.000
Time:	0.660	Roll Set Point:	-0.003	Pitch Set Point:	-0.014	Yaw Set Point:	1.573	X_WP:	0.000	Y_WP:	0.000	Y_WP:	0.000	X:	0.009	Y:	0.005	Z:	0.059	yaw:	-90.104	yaw rate:	0.562	Roll:	-0.177	Pitch:	0.248	Yaw:	-128.093	Thrust:	0.000
Time:	0.670	Roll Set Point:	-0.003	Pitch Set Point:	-0.014	Yaw Set Point:	1.573	X_WP:	0.000	Y_WP:	0.000	Y_WP:	0.000	X:	0.009	Y:	0.005	Z:	0.059	yaw:	-90.111	yaw rate:	-0.734	Roll:	-0.149	Pitch:	0.273	Yaw:	-128.028	Thrust:	0.000
Time:	0.681	Roll Set Point:	-0.003	Pitch Set Point:	-0.014	Yaw Set Point:	1.573	X_WP:	0.000	Y_WP:	0.000	Y_WP:	0.000	X:	0.009	Y:	0.005	Z:	0.059	yaw:	-90.109	yaw rate:	0.233	Roll:	-0.154	Pitch:	0.254	Yaw:	-127.967	Thrust:	0.000
Time:	0.692	Roll Set Point:	-0.003	Pitch Set Point:	-0.014	Yaw Set Point:	1.573	X_WP:	0.000	Y_WP:	0.000	Y_WP:	0.000	X:	0.009	Y:	0.005	Z:	0.059	yaw:	-90.113	yaw rate:	-0.373	Roll:	-0.174	Pitch:	0.279	Yaw:	-128.116	Thrust:	0.000
Time:	0.703	Roll Set Point:	-0.003	Pitch Set Point:	-0.014	Yaw Set Point:	1.573	X_WP:	0.000	Y_WP:	0.000	Y_WP:	0.000	X:	0.009	Y:	0.005	Z:	0.059	yaw:	-90.103	yaw rate:	0.935	Roll:	-0.155	Pitch:	0.251	Yaw:	-127.797	Thrust:	0.000
Time:	0.714	Roll Set Point:	-0.003	Pitch Set Point:	-0.014	Yaw Set Point:	1.573	X_WP:	0.000	Y_WP:	0.000	Y_WP:	0.000	X:	0.009	Y:	0.005	Z:	0.059	yaw:	-90.108	yaw rate:	-0.460	Roll:	-0.157	Pitch:	0.287	Yaw:	-128.125	Thrust:	0.000
Time:	0.726	Roll Set Point:	-0.003	Pitch Set Point:	-0.014	Yaw Set Point:	1.573	X_WP:	0.000	Y_WP:	0.000	Y_WP:	0.000	X:	0.009	Y:	0.005	Z:	0.059	yaw:	-90.110	yaw rate:	-0.167	Roll:	-0.166	Pitch:	0.255	Yaw:	-128.260	Thrust:	0.000
Time:	0.737	Roll Set Point:	-0.003	Pitch Set Point:	-0.014	Yaw Set Point:	1.573	X_WP:	0.000	Y_WP:	0.000	Y_WP:	0.000	X:	0.009	Y:	0.005	Z:	0.059	yaw:	-90.112	yaw rate:	-0.268	Roll:	-0.163	Pitch:	0.271	Yaw:	-128.090	Thrust:	0.000
Time:	0.749	Roll Set Point:	-0.003	Pitch Set Point:	-0.014	Yaw Set Point:	1.573	X_WP:	0.000	Y_WP:	0.000	Y_WP:	0.000	X:	0.009	Y:	0.005	Z:	0.059	yaw:	-90.103	yaw rate:	0.902	Roll:	-0.167	Pitch:	0.279	Yaw:	-127.801	Thrust:	0.000
Time:	0.759	Roll Set Point:	-0.003	Pitch Set Point:	-0.014	Yaw Set Point:	1.573	X_WP:	0.000	Y_WP:	0.000	Y_WP:	0.000	X:	0.009	Y:	0.005	Z:	0.059	yaw:	-90.105	yaw rate:	-0.135	Roll:	-0.169	Pitch:	0.241	Yaw:	-128.047	Thrust:	0.000
Time:	0.770	Roll Set Point:	-0.003	Pitch Set Point:	-0.014	Yaw Set Point:	1.573	X_WP:	0.000	Y_WP:	0.000	Y_WP:	0.000	X:	0.009	Y:	0.005	Z:	0.059	yaw:	-90.108	yaw rate:	-0.337	Roll:	-0.143	Pitch:	0.281	Yaw:	-128.101	Thrust:	0.000
Time:	0.781	Roll Set Point:	-0.003	Pitch Set Point:	-0.014	Yaw Set Point:	1.573	X_WP:	0.000	Y_WP:	0.000	Y_WP:	0.000	X:	0.009	Y:	0.005	Z:	0.059	yaw:	-90.104	yaw rate:	0.386	Roll:	-0.172	Pitch:	0.292	Yaw:	-127.924	Thrust:	0.000
Time:	0.793	Roll Set Point:	-0.003	Pitch Set Point:	-0.014	Yaw Set Point:	1.573	X_WP:	0.000	Y_WP:	0.000	Y_WP:	0.000	X:	0.009	Y:	0.005	Z:	0.059	yaw:	-90.107	yaw rate:	-0.313	Roll:	-0.172	Pitch:	0.264	Yaw:	-128.094	Thrust:	0.000
Time:	0.803	Roll Set Point:	-0.003	Pitch Set Point:	-0.014	Yaw Set Point:	1.573	X_WP:	0.000	Y_WP:	0.000	Y_WP:	0.000	X:	0.009	Y:	0.005	Z:	0.059	yaw:	-90.109	yaw rate:	-0.197	Roll:	-0.158	Pitch:	0.252	Yaw:	-128.069	Thrust:	0.000
Time:	0.814	Roll Set Point:	-0.003	Pitch Set Point:	-0.014	Yaw Set Point:	1.573	X_WP:	0.000	Y_WP:	0.000	Y_WP:	0.000	X:	0.009	Y:	0.005	Z:	0.059	yaw:	-90.116	yaw rate:	-0.642	Roll:	-0.157	Pitch:	0.295	Yaw:	-128.184	Thrust:	0.000
Time:	0.826	Roll Set Point:	-0.003	Pitch Set Point:	-0.014	Yaw Set Point:	1.573	X_WP:	0.000	Y_WP:	0.000	Y_WP:	0.000	X:	0.009	Y:	0.005	Z:	0.059	yaw:	-90.115	yaw rate:	0.121	Roll:	-0.154	Pitch:	0.236	Yaw:	-128.001	Thrust:	0.000
Time:	0.836	Roll Set Point:	-0.003	Pitch Set Point:	-0.014	Yaw Set Point:	1.573	X_WP:	0.000	Y_WP:	0.000	Y_WP:	0.000	X:	0.009	Y:	0.005	Z:	0.059	yaw:	-90.112	yaw rate:	0.290	Roll:	-0.175	Pitch:	0.266	Yaw:	-127.957	Thrust:	0.000
Time:	0.847	Roll Set Point:	-0.003	Pitch Set Point:	-0.014	Yaw Set Point:	1.573	X_WP:	0.000	Y_WP:	0.000	Y_WP:	0.000	X:	0.009	Y:	0.005	Z:	0.059	yaw:	-90.102	yaw rate:	0.943	Roll:	-0.161	Pitch:	0.302	Yaw:	-127.775	Thrust:	0.000
Time:	0.858	Roll Set Point:	-0.003	Pitch Set Point:	-0.014	Yaw Set Point:	1.573	X_WP:	0.000	Y_WP:	0.000	Y_WP:	0.000	X:	0.009	Y:	0.005	Z:	0.059	yaw:	-90.111	yaw rate:	-0.848	Roll:	-0.167	Pitch:	0.248	Yaw:	-128.225	Thrust:	0.000
Time:	0.868	Roll Set Point:	-0.003	Pitch Set Point:	-0.014	Yaw Set Point:	1.573	X_WP:	0.000	Y_WP:	0.000	Y_WP:	0.000	X:	0.009	Y:	0.005	Z:	0.059	yaw:	-90.118	yaw rate:	-0.685	Roll:	-0.173	Pitch:	0.269	Yaw:	-128.026	Thrust:	0.000
Time:	0.879	Roll Set Point:	-0.003	Pitch Set Point:	-0.014	Yaw Set Point:	1.573	X_WP:	0.000	Y_WP:	0.000	Y_WP:	0.000	X:	0.009	Y:	0.005	Z:	0.059	yaw:	-90.104	yaw rate:	1.396	Roll:	-0.151	Pitch:	0.275	Yaw:	-127.666	Thrust:	0.000
Time:	0.891	Roll Set Point:	-0.003	Pitch Set Point:	-0.014	Yaw Set Point:	1.573	X_WP:	0.000	Y_WP:	0.000	Y_WP:	0.000	X:	0.009	Y:	0.005	Z:	0.059	yaw:	-90.104	yaw rate:	-0.089	Roll:	-0.157	Pitch:	0.271	Yaw:	-128.037	Thrust:	0.000
Time:	0.901	Roll Set Point:	-0.003	Pitch Set Point:	-0.014	Yaw Set Point:	1.573	X_WP:	0.000	Y_WP:	0.000	Y_WP:	0.000	X:	0.009	Y:	0.005	Z:	0.059	yaw:	-90.108	yaw rate:	-0.394	Roll:	-0.176	Pitch:	0.265	Yaw:	-128.126	Thrust:	0.000
Time:	0.912	Roll Set Point:	-0.003	Pitch Set Point:	-0.014	Yaw Set Point:	1.573	X_WP:	0.000	Y_WP:	0.000	Y_WP:	0.000	X:	0.009	Y:	0.005	Z:	0.059	yaw:	-90.113	yaw rate:	-0.478	Roll:	-0.153	Pitch:	0.271	Yaw:	-128.143	Thrust:	0.000
Time:	0.924	Roll Set Point:	-0.003	Pitch Set Point:	-0.014	Yaw Set Point:	1.573	X_WP:	0.000	Y_WP:	0.000	Y_WP:	0.000	X:	0.009	Y:	0.005	Z:	0.059	yaw:	-90.112	yaw rate:	0.094	Roll:	-0.165	Pitch:	0.285	Yaw:	-128.004	Thrust:	0.000
Time:	0.934	Roll Set Point:	-0.003	Pitch Set Point:	-0.014	Yaw Set Point:	1.573	X_WP:	0.000	Y_WP:	0.000	Y_WP:	0.000	X:	0.009	Y:	0.005	Z:	0.059	yaw:	-90.100	yaw rate:	1.260	Roll:	-0.172	Pitch:	0.272	Yaw:	-127.707	Thrust:	0.000
Time:	0.946	Roll Set Point:	-0.003	Pitch Set Point:	-0.014	Yaw Set Point:	1.573	X_WP:	0.000	Y_WP:	0.000	Y_WP:	0.000	X:	0.009	Y:	0.005	Z:	0.059	yaw:	-90.106	yaw rate:	-0.647	Roll:	-0.166	Pitch:	0.261	Yaw:	-128.172	Thrust:	0.000
Time:	0.957	Roll Set Point:	-0.003	Pitch Set Point:	-0.014	Yaw Set Point:	1.573	X_WP:	0.000	Y_WP:	0.000	Y_WP:	0.000	X:	0.009	Y:	0.005	Z:	0.059	yaw:	-90.104	yaw rate:	0.174	Roll:	-0.155	Pitch:	0.261	Yaw:	-127.974	Thrust:	0.000
Time:	0.968	Roll Set Point:	-0.003	Pitch Set Point:	-0.014	Yaw Set Point:	1.573	X_WP:	0.000	Y_WP:	0.000	Y_WP:	0.000	X:	0.009	Y:	0.005	Z:	0.059	yaw:	-90.111	yaw rate:	-0.671	Roll:	-0.174	Pitch:	0.294	Yaw:	-128.184	Thrust:	0.000
Time:	0.979	Roll Set Point:	-0.003	Pitch Set Point:	-0.014	Yaw Set Point:	1.573	X_WP:	0.000	Y_WP:	0.000	Y_WP:	0.000	X:	0.009	Y:	0.005	Z:	0.059	yaw:	-90.109	yaw rate:	0.173	Roll:	-0.152	Pitch:	0.272	Yaw:	-127.981	Thrust:	0.000
Time:	0.991	Roll Set Point:	-0.003	Pitch Set Point:	-0.014	Yaw Set Point:	1.573	X_WP:	0.000	Y_WP:	0.000	Y_WP:	0.000	X:	0.009	Y:	0.005	Z:	0.059	yaw:	-90.106	yaw rate:	0.358	Roll:	-0.163	Pitch:	0.277	Yaw:	-127.932	Thrust:	0.000
Time:	1.002	Roll Set Point:	-0.003	Pitch Set Point:	-0.014	Yaw Set Point:	1.573	X_WP:	0.000	Y_WP:	0.000	Y_WP:	0.500	X:	0.009	Y:	0.005	Z:	0.059	yaw:	-90.103	yaw rate:	0.319	Roll:	-0.179	Pitch:	0.268	Yaw:	-127.937	Thrust:	100.000
Time:	1.013	Roll Set Point:	-0.003	Pitch Set Point:	-0.014	Yaw Set Point:	1.573	X_WP:	0.000	Y_WP:	0.000	Y_WP:	0.500	X:	0.009	Y:	0.005	Z:	0.059	yaw:	-90.107	yaw rate:	-0.442	Roll:	-0.171	Pitch:	0.276	Yaw:	-128.316	Thrust:	24.416
Time:	1.025	Roll Set Point:	-0.003	Pitch Set Point:	-0.014	Yaw Set Point:	1.573	X_WP:	0.000	Y_WP:	0.000	Y_WP:	0.500	X:	0.009	Y:	0.005	Z:	0.059	yaw:	-90.105	yaw rate:	0.234	Roll:	-0.155	Pitch:	0.264	Yaw:	-128.158	Thrust:	25.199
Time:	1.036	Roll Set Point:	-0.003	Pitch Set Point:	-0.014	Yaw Set Point:	1.573	X_WP:	0.000	Y_WP:	0.000	Y_WP:	0.500	X:	0.009	Y:	0.005	Z:	0.059	yaw:	-90.110	yaw rate:	-0.556	Roll:	-0.165	Pitch:	0.280	Yaw:	-128.155	Thrust:	25.593
Time:	1.046	Roll Set Point:	-0.003	Pitch Set Point:	-0.014	Yaw Set Point:	1.573	X_WP:	0.000	Y_WP:	0.000	Y_WP:	0.500	X:	0.009	Y:	0.005	Z:	0.059	yaw:	-90.112	yaw rate:	-0.200	Roll:	-0.181	Pitch:	0.287	Yaw:	-127.887	Thrust:	26.092
Time:	1.058	Roll Set Point:	-0.003	Pitch Set Point:	-0.014	Yaw Set Point:	1.573	X_WP:	0.000	Y_WP:	0.000	Y_WP:	0.500	X:	0.009	Y:	0.005	Z:	0.059	yaw:	-90.107	yaw rate:	0.510	Roll:	-0.149	Pitch:	0.248	Yaw:	-128.093	Thrust:	27.002
Time:	1.070	Roll Set Point:	-0.003	Pitch Set Point:	-0.014	Yaw Set Point:	1.573	X_WP:	0.000	Y_WP:	0.000	Y_WP:	0.500	X:	0.009	Y:	0.005	Z:	0.059	yaw:	-90.107	yaw rate:	0.040	Roll:	-0.183	Pitch:	0.311	Yaw:	-128.210	Thrust:	27.424
Time:	1.081	Roll Set Point:	-0.003	Pitch Set Point:	-0.014	Yaw Set Point:	1.573	X_WP:	0.000	Y_WP:	0.000	Y_WP:	0.500	X:	0.009	Y:	0.005	Z:	0.059	yaw:	-90.105	yaw rate:	0.136	Roll:	-0.167	Pitch:	0.225	Yaw:	-127.793	Thrust:	27.992
Time:	1.092	Roll Set Point:	-0.003	Pitch Set Point:	-0.014	Yaw Set Point:	1.573	X_WP:	0.000	Y_WP:	0.000	Y_WP:	0.500	X:	0.009	Y:	0.005	Z:	0.059	yaw:	-90.111	yaw rate:	-0.571	Roll:	-0.161	Pitch:	0.294	Yaw:	-128.338	Thrust:	28.490
Time:	1.103	Roll Set Point:	-0.003	Pitch Set Point:	-0.014	Yaw Set Point:	1.573	X_WP:	0.000	Y_WP:	0.000	Y_WP:	0.500	X:	0.009	Y:	0.005	Z:	0.059	yaw:	-90.106	yaw rate:	0.513	Roll:	-0.161	Pitch:	0.297	Yaw:	-127.684	Thrust:	29.118
Time:	1.114	Roll Set Point:	-0.003	Pitch Set Point:	-0.014	Yaw Set Point:	1.573	X_WP:	0.000	Y_WP:	0.000	Y_WP:	0.500	X:	0.009	Y:	0.005	Z:	0.059	yaw:	-90.102	yaw rate:	0.437	Roll:	-0.167	Pitch:	0.261	Yaw:	-127.920	Thrust:	29.810
Time:	1.125	Roll Set Point:	-0.003	Pitch Set Point:	-0.014	Yaw Set Point:	1.573	X_WP:	0.000	Y_WP:	0.000	Y_WP:	0.500	X:	0.009	Y:	0.005	Z:	0.059	yaw:	-90.110	yaw rate:	-0.880	Roll:	-0.165	Pitch:	0.274	Yaw:	-128.405	Thrust:	30.867
Time:	1.137	Roll Set Point:	-0.003	Pitch Set Point:	-0.014	Yaw Set Point:	1.573	X_WP:	0.000	Y_WP:	0.000	Y_WP:	0.500	X:	0.009	Y:	0.005	Z:	0.059	yaw:	-90.109	yaw rate:	0.090	Roll:	-0.165	Pitch:	0.282	Yaw:	-128.204	Thrust:	30.821
Time:	1.149	Roll Set Point:	-0.003	Pitch Set Point:	-0.014	Yaw Set Point:	1.573	X_WP:	0.000	Y_WP:	0.000	Y_WP:	0.500	X:	0.009	Y:	0.005	Z:	0.059	yaw:	-90.110	yaw rate:	0.158	Roll:	-0.187	Pitch:	0.274	Yaw:	-128.232	Thrust:	32.872
Time:	1.161	Roll Set Point:	-0.003	Pitch Set Point:	-0.014	Yaw Set Point:	1.573	X_WP:	0.000	Y_WP:	0.000	Y_WP:	0.500	X:	0.009	Y:	0.005	Z:	0.059	yaw:	-90.100	yaw rate:	1.036	Roll:	-0.157	Pitch:	0.276	Yaw:	-127.764	Thrust:	31.902
Time:	1.172	Roll Set Point:	-0.003	Pitch Set Point:	-0.014	Yaw Set Point:	1.573	X_WP:	0.000	Y_WP:	0.000	Y_WP:	0.500	X:	0.009	Y:	0.005	Z:	0.059	yaw:	-90.098	yaw rate:	0.136	Roll:	-0.169	Pitch:	0.273	Yaw:	-127.983	Thrust:	32.845
Time:	1.183	Roll Set Point:	-0.003	Pitch Set Point:	-0.014	Yaw Set Point:	1.573	X_WP:	0.000	Y_WP:	0.000	Y_WP:	0.500	X:	0.009	Y:	0.005	Z:	0.059	yaw:	-90.110	yaw rate:	-1.159	Roll:	-0.155	Pitch:	0.279	Yaw:	-128.467	Thrust:	33.102
Time:	1.194	Roll Set Point:	-0.003	Pitch Set Point:	-0.014	Yaw Set Point:	1.573	X_WP:	0.000	Y_WP:	0.000	Y_WP:	0.500	X:	0.009	Y:	0.005	Z:	0.059	yaw:	-90.110	yaw rate:	-0.002	Roll:	-0.181	Pitch:	0.282	Yaw:	-127.823	Thrust:	33.852
Time:	1.205	Roll Set Point:	-0.003	Pitch Set Point:	-0.014	Yaw Set Point:	1.573	X_WP:	0.000	Y_WP:	0.000	Y_WP:	0.500	X:	0.009	Y:	0.005	Z:	0.059	yaw:	-90.110	yaw rate:	0.006	Roll:	-0.166	Pitch:	0.273	Yaw:	-128.221	Thrust:	34.381
Time:	1.216	Roll Set Point:	-0.003	Pitch Set Point:	-0.014	Yaw Set Point:	1.573	X_WP:	0.000	Y_WP:	0.000	Y_WP:	0.500	X:	0.009	Y:	0.005	Z:	0.059	yaw:	-90.103	yaw rate:	0.672	Roll:	-0.165	Pitch:	0.281	Yaw:	-127.854	Thrust:	34.954
Time:	1.227	Roll Set Point:	-0.003	Pitch Set Point:	-0.014	Yaw Set Point:	1.573	X_WP:	0.000	Y_WP:	0.000	Y_WP:	0.500	X:	0.009	Y:	0.005	Z:	0.059	yaw:	-90.111	yaw rate:	-0.747	Roll:	-0.162	Pitch:	0.281	Yaw:	-128.019	Thrust:	35.540
Time:	1.238	Roll Set Point:	-0.003	Pitch Set Point:	-0.014	Yaw Set Point:	1.573	X_WP:	0.000	Y_WP:	0.000	Y_WP:	0.500	X:	0.009	Y:	0.005	Z:	0.059	yaw:	-90.102	yaw rate:	0.841	Roll:	-0.169	Pitch:	0.283	Yaw:	-128.030	Thrust:	36.175
Time:	1.249	Roll Set Point:	-0.003	Pitch Set Point:	-0.014	Yaw Set Point:	1.573	X_WP:	0.000	Y_WP:	0.000	Y_WP:	0.500	X:	0.009	Y:	0.005	Z:	0.059	yaw:	-90.105	yaw rate:	-0.279	Roll:	-0.187	Pitch:	0.267	Yaw:	-128.082	Thrust:	36.832
Time:	1.260	Roll Set Point:	-0.003	Pitch Set Point:	-0.014	Yaw Set Point:	1.573	X_WP:	0.000	Y_WP:	0.000	Y_WP:	0.500	X:	0.009	Y:	0.005	Z:	0.059	yaw:	-90.120	yaw rate:	-1.465	Roll:	-0.149	Pitch:	0.296	Yaw:	-128.384	Thrust:	38.391
Time:	1.272	Roll Set Point:	-0.003	Pitch Set Point:	-0.014	Yaw Set Point:	1.573	X_WP:	0.000	Y_WP:	0.000	Y_WP:	0.500	X:	0.009	Y:	0.005	Z:	0.059	yaw:	-90.110	yaw rate:	0.931	Roll:	-0.175	Pitch:	0.274	Yaw:	-128.021	Thrust:	39.083
Time:	1.285	Roll Set Point:	-0.003	Pitch Set Point:	-0.014	Yaw Set Point:	1.573	X_WP:	0.000	Y_WP:	0.000	Y_WP:	0.500	X:	0.009	Y:	0.005	Z:	0.059	yaw:	-90.110	yaw rate:	0.068	Roll:	-0.180	Pitch:	0.270	Yaw:	-128.410	Thrust:	39.837
Time:	1.296	Roll Set Point:	-0.003	Pitch Set Point:	-0.014	Yaw Set Point:	1.573	X_WP:	0.000	Y_WP:	0.000	Y_WP:	0.500	X:	0.009	Y:	0.005	Z:	0.059	yaw:	-90.112	yaw rate:	-0.218	Roll:	-0.160	Pitch:	0.292	Yaw:	-127.882	Thrust:	39.101
Time:	1.308	Roll Set Point:	-0.003	Pitch Set Point:	-0.014	Yaw Set Point:	1.573	X_WP:	0.000	Y_WP:	0.000	Y_WP:	0.500	X:	0.009	Y:	0.005	Z:	0.059	yaw:	-90.101	yaw rate:	1.048	Roll:	-0.163	Pitch:	0.288	Yaw:	-127.983	Thrust:	41.043
Time:	1.321	Roll Set Point:	-0.003	Pitch Set Point:	-0.014	Yaw Set Point:	1.573	X_WP:	0.000	Y_WP:	0.000	Y_WP:	0.500	X:	0.009	Y:	0.005	Z:	0.059	yaw:	-90.102	yaw rate:	-0.042	Roll:	-0.180	Pitch:	0.286	Yaw:	-128.426	Thrust:	43.225
Time:	1.332	Roll Set Point:	-0.003	Pitch Set Point:	-0.014	Yaw Set Point:	1.573	X_WP:	0.000	Y_WP:	0.000	Y_WP:	0.500	X:	0.009	Y:	0.005	Z:	0.059	yaw:	-90.105	yaw rate:	-0.363	Roll:	-0.182	Pitch:	0.286	Yaw:	-128.292	Thrust:	40.886
Time:	1.344	Roll Set Point:	-0.003	Pitch Set Point:	-0.014	Yaw Set Point:	1.573	X_WP:	0.000	Y_WP:	0.000	Y_WP:	0.500	X:	0.009	Y:	0.005	Z:	0.059	yaw:	-90.106	yaw rate:	-0.070	Roll:	-0.147	Pitch:	0.265	Yaw:	-127.846	Thrust:	41.279
Time:	1.355	Roll Set Point:	-0.003	Pitch Set Point:	-0.014	Yaw Set Point:	1.572	X_WP:	0.000	Y_WP:	0.000	Y_WP:	0.500	X:	0.009	Y:	0.005	Z:	0.059	yaw:	-90.095	yaw rate:	1.063	Roll:	-0.175	Pitch:	0.296	Yaw:	-127.752	Thrust:	42.005
Time:	1.366	Roll Set Point:	-0.003	Pitch Set Point:	-0.014	Yaw Set Point:	1.573	X_WP:	0.000	Y_WP:	0.000	Y_WP:	0.500	X:	0.009	Y:	0.005	Z:	0.059	yaw:	-90.112	yaw rate:	-1.701	Roll:	-0.178	Pitch:	0.255	Yaw:	-128.429	Thrust:	42.628
Time:	1.377	Roll Set Point:	-0.003	Pitch Set Point:	-0.014	Yaw Set Point:	1.573	X_WP:	0.000	Y_WP:	0.000	Y_WP:	0.500	X:	0.009	Y:	0.005	Z:	0.059	yaw:	-90.105	yaw rate:	0.769	Roll:	-0.171	Pitch:	0.311	Yaw:	-128.036	Thrust:	43.200
Time:	1.388	Roll Set Point:	-0.003	Pitch Set Point:	-0.014	Yaw Set Point:	1.573	X_WP:	0.000	Y_WP:	0.000	Y_WP:	0.500	X:	0.009	Y:	0.005	Z:	0.059	yaw:	-90.108	yaw rate:	-0.288	Roll:	-0.165	Pitch:	0.257	Yaw:	-128.089	Thrust:	43.697
Time:	1.399	Roll Set Point:	-0.003	Pitch Set Point:	-0.014	Yaw Set Point:	1.573	X_WP:	0.000	Y_WP:	0.000	Y_WP:	0.500	X:	0.009	Y:	0.005	Z:	0.059	yaw:	-90.107	yaw rate:	0.050	Roll:	-0.171	Pitch:	0.283	Yaw:	-128.007	Thrust:	44.186
Time:	1.410	Roll Set Point:	-0.003	Pitch Set Point:	-0.014	Yaw Set Point:	1.573	X_WP:	0.000	Y_WP:	0.000	Y_WP:	0.500	X:	0.009	Y:	0.005	Z:	0.059	yaw:	-90.102	yaw rate:	0.462	Roll:	-0.169	Pitch:	0.299	Yaw:	-127.704	Thrust:	45.003
Time:	1.421	Roll Set Point:	-0.003	Pitch Set Point:	-0.014	Yaw Set Point:	1.573	X_WP:	0.000	Y_WP:	0.000	Y_WP:	0.500	X:	0.009	Y:	0.005	Z:	0.059	yaw:	-90.103	yaw rate:	-0.082	Roll:	-0.169	Pitch:	0.285	Yaw:	-128.033	Thrust:	45.513
Time:	1.432	Roll Set Point:	-0.003	Pitch Set Point:	-0.014	Yaw Set Point:	1.573	X_WP:	0.000	Y_WP:	0.000	Y_WP:	0.500	X:	0.009	Y:	0.005	Z:	0.059	yaw:	-90.108	yaw rate:	-0.467	Roll:	-0.186	Pitch:	0.257	Yaw:	-128.317	Thrust:	46.137
Time:	1.443	Roll Set Point:	-0.003	Pitch Set Point:	-0.014	Yaw Set Point:	1.573	X_WP:	0.000	Y_WP:	0.000	Y_WP:	0.500	X:	0.009	Y:	0.005	Z:	0.059	yaw:	-90.107	yaw rate:	0.044	Roll:	-0.159	Pitch:	0.293	Yaw:	-127.813	Thrust:	46.597
Time:	1.454	Roll Set Point:	-0.003	Pitch Set Point:	-0.014	Yaw Set Point:	1.573	X_WP:	0.000	Y_WP:	0.000	Y_WP:	0.500	X:	0.009	Y:	0.005	Z:	0.059	yaw:	-90.108	yaw rate:	-0.038	Roll:	-0.161	Pitch:	0.292	Yaw:	-128.017	Thrust:	47.157
Time:	1.465	Roll Set Point:	-0.003	Pitch Set Point:	-0.014	Yaw Set Point:	1.573	X_WP:	0.000	Y_WP:	0.000	Y_WP:	0.500	X:	0.009	Y:	0.005	Z:	0.059	yaw:	-90.110	yaw rate:	-0.248	Roll:	-0.186	Pitch:	0.266	Yaw:	-128.279	Thrust:	47.918
Time:	1.477	Roll Set Point:	-0.003	Pitch Set Point:	-0.014	Yaw Set Point:	1.573	X_WP:	0.000	Y_WP:	0.000	Y_WP:	0.500	X:	0.009	Y:	0.005	Z:	0.059	yaw:	-90.107	yaw rate:	0.347	Roll:	-0.167	Pitch:	0.286	Yaw:	-127.936	Thrust:	50.463
Time:	1.488	Roll Set Point:	-0.003	Pitch Set Point:	-0.014	Yaw Set Point:	1.573	X_WP:	0.000	Y_WP:	0.000	Y_WP:	0.500	X:	0.009	Y:	0.005	Z:	0.059	yaw:	-90.107	yaw rate:	-0.030	Roll:	-0.184	Pitch:	0.287	Yaw:	-128.226	Thrust:	49.049
Time:	1.499	Roll Set Point:	-0.003	Pitch Set Point:	-0.014	Yaw Set Point:	1.573	X_WP:	0.000	Y_WP:	0.000	Y_WP:	0.500	X:	0.009	Y:	0.005	Z:	0.059	yaw:	-90.106	yaw rate:	0.167	Roll:	-0.173	Pitch:	0.291	Yaw:	-127.772	Thrust:	49.597
Time:	1.510	Roll Set Point:	-0.003	Pitch Set Point:	-0.014	Yaw Set Point:	1.573	X_WP:	0.000	Y_WP:	0.000	Y_WP:	0.500	X:	0.009	Y:	0.005	Z:	0.059	yaw:	-90.103	yaw rate:	0.296	Roll:	-0.156	Pitch:	0.284	Yaw:	-128.148	Thrust:	50.171
Time:	1.522	Roll Set Point:	-0.003	Pitch Set Point:	-0.014	Yaw Set Point:	1.573	X_WP:	0.000	Y_WP:	0.000	Y_WP:	0.500	X:	0.009	Y:	0.005	Z:	0.059	yaw:	-90.098	yaw rate:	0.444	Roll:	-0.163	Pitch:	0.278	Yaw:	-128.118	Thrust:	53.062
Time:	1.534	Roll Set Point:	-0.003	Pitch Set Point:	-0.014	Yaw Set Point:	1.573	X_WP:	0.000	Y_WP:	0.000	Y_WP:	0.500	X:	0.009	Y:	0.005	Z:	0.059	yaw:	-90.103	yaw rate:	-0.458	Roll:	-0.196	Pitch:	0.297	Yaw:	-128.122	Thrust:	53.991
Time:	1.546	Roll Set Point:	-0.003	Pitch Set Point:	-0.014	Yaw Set Point:	1.573	X_WP:	0.000	Y_WP:	0.000	Y_WP:	0.500	X:	0.009	Y:	0.005	Z:	0.059	yaw:	-90.107	yaw rate:	-0.442	Roll:	-0.177	Pitch:	0.271	Yaw:	-128.502	Thrust:	56.852
Time:	1.558	Roll Set Point:	-0.003	Pitch Set Point:	-0.014	Yaw Set Point:	1.573	X_WP:	0.000	Y_WP:	0.000	Y_WP:	0.500	X:	0.009	Y:	0.005	Z:	0.059	yaw:	-90.101	yaw rate:	1.141	Roll:	-0.170	Pitch:	0.304	Yaw:	-128.084	Thrust:	54.983
Time:	1.570	Roll Set Point:	-0.003	Pitch Set Point:	-0.014	Yaw Set Point:	1.572	X_WP:	0.000	Y_WP:	0.000	Y_WP:	0.500	X:	0.009	Y:	0.005	Z:	0.059	yaw:	-90.097	yaw rate:	0.438	Roll:	-0.169	Pitch:	0.286	Yaw:	-127.901	Thrust:	53.103
Time:	1.582	Roll Set Point:	-0.003	Pitch Set Point:	-0.014	Yaw Set Point:	1.573	X_WP:	0.000	Y_WP:	0.000	Y_WP:	0.500	X:	0.009	Y:	0.005	Z:	0.059	yaw:	-90.111	yaw rate:	-1.425	Roll:	-0.173	Pitch:	0.297	Yaw:	-128.535	Thrust:	56.400
Time:	1.593	Roll Set Point:	-0.003	Pitch Set Point:	-0.014	Yaw Set Point:	1.573	X_WP:	0.000	Y_WP:	0.000	Y_WP:	0.500	X:	0.009	Y:	0.005	Z:	0.059	yaw:	-90.110	yaw rate:	0.085	Roll:	-0.179	Pitch:	0.264	Yaw:	-128.206	Thrust:	54.247
Time:	1.604	Roll Set Point:	-0.003	Pitch Set Point:	-0.014	Yaw Set Point:	1.573	X_WP:	0.000	Y_WP:	0.000	Y_WP:	0.500	X:	0.009	Y:	0.005	Z:	0.059	yaw:	-90.111	yaw rate:	-0.052	Roll:	-0.166	Pitch:	0.293	Yaw:	-128.037	Thrust:	57.621
Time:	1.616	Roll Set Point:	-0.003	Pitch Set Point:	-0.014	Yaw Set Point:	1.573	X_WP:	0.000	Y_WP:	0.000	Y_WP:	0.500	X:	0.009	Y:	0.005	Z:	0.059	yaw:	-90.103	yaw rate:	0.748	Roll:	-0.168	Pitch:	0.310	Yaw:	-128.053	Thrust:	55.319
Time:	1.627	Roll Set Point:	-0.003	Pitch Set Point:	-0.014	Yaw Set Point:	1.573	X_WP:	0.000	Y_WP:	0.000	Y_WP:	0.500	X:	0.009	Y:	0.005	Z:	0.059	yaw:	-90.106	yaw rate:	-0.226	Roll:	-0.179	Pitch:	0.284	Yaw:	-128.071	Thrust:	58.819
Time:	1.639	Roll Set Point:	-0.003	Pitch Set Point:	-0.014	Yaw Set Point:	1.573	X_WP:	0.000	Y_WP:	0.000	Y_WP:	0.500	X:	0.009	Y:	0.005	Z:	0.059	yaw:	-90.107	yaw rate:	-0.160	Roll:	-0.191	Pitch:	0.281	Yaw:	-128.063	Thrust:	56.829
Time:	1.652	Roll Set Point:	-0.003	Pitch Set Point:	-0.014	Yaw Set Point:	1.573	X_WP:	0.000	Y_WP:	0.000	Y_WP:	0.500	X:	0.009	Y:	0.005	Z:	0.059	yaw:	-90.108	yaw rate:	-0.041	Roll:	-0.168	Pitch:	0.290	Yaw:	-128.423	Thrust:	63.067
Time:	1.663	Roll Set Point:	-0.003	Pitch Set Point:	-0.014	Yaw Set Point:	1.573	X_WP:	0.000	Y_WP:	0.000	Y_WP:	0.500	X:	0.009	Y:	0.005	Z:	0.059	yaw:	-90.108	yaw rate:	-0.084	Roll:	-0.164	Pitch:	0.287	Yaw:	-128.041	Thrust:	57.767
Time:	1.675	Roll Set Point:	-0.003	Pitch Set Point:	-0.014	Yaw Set Point:	1.573	X_WP:	0.000	Y_WP:	0.000	Y_WP:	0.500	X:	0.009	Y:	0.005	Z:	0.059	yaw:	-90.105	yaw rate:	0.360	Roll:	-0.192	Pitch:	0.286	Yaw:	-128.140	Thrust:	61.502
Time:	1.687	Roll Set Point:	-0.003	Pitch Set Point:	-0.014	Yaw Set Point:	1.573	X_WP:	0.000	Y_WP:	0.000	Y_WP:	0.500	X:	0.009	Y:	0.005	Z:	0.059	yaw:	-90.101	yaw rate:	0.373	Roll:	-0.168	Pitch:	0.302	Yaw:	-128.136	Thrust:	62.096
Time:	1.698	Roll Set Point:	-0.003	Pitch Set Point:	-0.014	Yaw Set Point:	1.573	X_WP:	0.000	Y_WP:	0.000	Y_WP:	0.500	X:	0.009	Y:	0.005	Z:	0.059	yaw:	-90.098	yaw rate:	0.337	Roll:	-0.174	Pitch:	0.292	Yaw:	-128.125	Thrust:	62.464
Time:	1.708	Roll Set Point:	-0.003	Pitch Set Point:	-0.014	Yaw Set Point:	1.573	X_WP:	0.000	Y_WP:	0.000	Y_WP:	0.500	X:	0.009	Y:	0.005	Z:	0.059	yaw:	-90.103	yaw rate:	-0.507	Roll:	-0.196	Pitch:	0.266	Yaw:	-127.945	Thrust:	56.960
Time:	1.718	Roll Set Point:	-0.003	Pitch Set Point:	-0.014	Yaw Set Point:	1.573	X_WP:	0.000	Y_WP:	0.000	Y_WP:	0.500	X:	0.009	Y:	0.005	Z:	0.059	yaw:	-90.107	yaw rate:	-0.419	Roll:	-0.169	Pitch:	0.292	Yaw:	-127.928	Thrust:	57.514
Time:	1.729	Roll Set Point:	-0.003	Pitch Set Point:	-0.014	Yaw Set Point:	1.573	X_WP:	0.000	Y_WP:	0.000	Y_WP:	0.500	X:	0.009	Y:	0.005	Z:	0.059	yaw:	-90.115	yaw rate:	-0.784	Roll:	-0.151	Pitch:	0.280	Yaw:	-128.034	Thrust:	57.734
Time:	1.739	Roll Set Point:	-0.003	Pitch Set Point:	-0.014	Yaw Set Point:	1.573	X_WP:	0.000	Y_WP:	0.000	Y_WP:	0.500	X:	0.009	Y:	0.005	Z:	0.059	yaw:	-90.104	yaw rate:	1.132	Roll:	-0.186	Pitch:	0.317	Yaw:	-127.520	Thrust:	58.456
Time:	1.749	Roll Set Point:	-0.003	Pitch Set Point:	-0.014	Yaw Set Point:	1.573	X_WP:	0.000	Y_WP:	0.000	Y_WP:	0.500	X:	0.009	Y:	0.005	Z:	0.059	yaw:	-90.101	yaw rate:	0.279	Roll:	-0.163	Pitch:	0.267	Yaw:	-127.737	Thrust:	58.965
Time:	1.759	Roll Set Point:	-0.003	Pitch Set Point:	-0.014	Yaw Set Point:	1.573	X_WP:	0.000	Y_WP:	0.000	Y_WP:	0.500	X:	0.009	Y:	0.005	Z:	0.059	yaw:	-90.113	yaw rate:	-1.229	Roll:	-0.169	Pitch:	0.274	Yaw:	-128.147	Thrust:	59.420
Time:	1.771	Roll Set Point:	-0.003	Pitch Set Point:	-0.014	Yaw Set Point:	1.573	X_WP:	0.000	Y_WP:	0.000	Y_WP:	0.500	X:	0.009	Y:	0.005	Z:	0.059	yaw:	-90.118	yaw rate:	-0.489	Roll:	-0.195	Pitch:	0.307	Yaw:	-128.355	Thrust:	67.551
Time:	1.781	Roll Set Point:	-0.003	Pitch Set Point:	-0.014	Yaw Set Point:	1.573	X_WP:	0.000	Y_WP:	0.000	Y_WP:	0.500	X:	0.009	Y:	0.005	Z:	0.059	yaw:	-90.102	yaw rate:	1.594	Roll:	-0.162	Pitch:	0.265	Yaw:	-127.400	Thrust:	60.636
Time:	1.792	Roll Set Point:	-0.003	Pitch Set Point:	-0.014	Yaw Set Point:	1.573	X_WP:	0.000	Y_WP:	0.000	Y_WP:	0.500	X:	0.009	Y:	0.005	Z:	0.059	yaw:	-90.108	yaw rate:	-0.615	Roll:	-0.168	Pitch:	0.292	Yaw:	-128.152	Thrust:	64.345
Time:	1.802	Roll Set Point:	-0.003	Pitch Set Point:	-0.014	Yaw Set Point:	1.573	X_WP:	0.000	Y_WP:	0.000	Y_WP:	0.500	X:	0.009	Y:	0.005	Z:	0.059	yaw:	-90.103	yaw rate:	0.467	Roll:	-0.180	Pitch:	0.307	Yaw:	-127.689	Thrust:	61.566
Time:	1.812	Roll Set Point:	-0.003	Pitch Set Point:	-0.014	Yaw Set Point:	1.573	X_WP:	0.000	Y_WP:	0.000	Y_WP:	0.500	X:	0.009	Y:	0.005	Z:	0.059	yaw:	-90.103	yaw rate:	0.037	Roll:	-0.174	Pitch:	0.295	Yaw:	-127.821	Thrust:	62.493
Time:	1.824	Roll Set Point:	-0.003	Pitch Set Point:	-0.014	Yaw Set Point:	1.573	X_WP:	0.000	Y_WP:	0.000	Y_WP:	0.500	X:	0.009	Y:	0.005	Z:	0.059	yaw:	-90.108	yaw rate:	-0.483	Roll:	-0.174	Pitch:	0.269	Yaw:	-128.308	Thrust:	70.040
Time:	1.834	Roll Set Point:	-0.003	Pitch Set Point:	-0.014	Yaw Set Point:	1.573	X_WP:	0.000	Y_WP:	0.000	Y_WP:	0.500	X:	0.009	Y:	0.005	Z:	0.059	yaw:	-90.121	yaw rate:	-1.317	Roll:	-0.182	Pitch:	0.273	Yaw:	-128.182	Thrust:	63.290
Time:	1.844	Roll Set Point:	-0.003	Pitch Set Point:	-0.014	Yaw Set Point:	1.573	X_WP:	0.000	Y_WP:	0.000	Y_WP:	0.500	X:	0.009	Y:	0.005	Z:	0.059	yaw:	-90.115	yaw rate:	0.560	Roll:	-0.181	Pitch:	0.310	Yaw:	-127.684	Thrust:	63.675
Time:	1.854	Roll Set Point:	-0.003	Pitch Set Point:	-0.014	Yaw Set Point:	1.573	X_WP:	0.000	Y_WP:	0.000	Y_WP:	0.500	X:	0.009	Y:	0.005	Z:	0.059	yaw:	-90.101	yaw rate:	1.485	Roll:	-0.158	Pitch:	0.295	Yaw:	-127.421	Thrust:	64.241
Time:	1.864	Roll Set Point:	-0.003	Pitch Set Point:	-0.014	Yaw Set Point:	1.573	X_WP:	0.000	Y_WP:	0.000	Y_WP:	0.500	X:	0.009	Y:	0.005	Z:	0.059	yaw:	-90.108	yaw rate:	-0.688	Roll:	-0.175	Pitch:	0.289	Yaw:	-127.999	Thrust:	64.731
Time:	1.874	Roll Set Point:	-0.003	Pitch Set Point:	-0.014	Yaw Set Point:	1.573	X_WP:	0.000	Y_WP:	0.000	Y_WP:	0.500	X:	0.009	Y:	0.005	Z:	0.059	yaw:	-90.108	yaw rate:	-0.046	Roll:	-0.186	Pitch:	0.284	Yaw:	-127.832	Thrust:	65.323
Time:	1.884	Roll Set Point:	-0.003	Pitch Set Point:	-0.014	Yaw Set Point:	1.573	X_WP:	0.000	Y_WP:	0.000	Y_WP:	0.500	X:	0.009	Y:	0.005	Z:	0.059	yaw:	-90.108	yaw rate:	-0.046	Roll:	-0.175	Pitch:	0.289	Yaw:	-127.834	Thrust:	66.145
Time:	1.894	Roll Set Point:	-0.003	Pitch Set Point:	-0.014	Yaw Set Point:	1.573	X_WP:	0.000	Y_WP:	0.000	Y_WP:	0.500	X:	0.009	Y:	0.005	Z:	0.059	yaw:	-90.115	yaw rate:	-0.708	Roll:	-0.172	Pitch:	0.260	Yaw:	-128.014	Thrust:	66.452
Time:	1.904	Roll Set Point:	-0.003	Pitch Set Point:	-0.014	Yaw Set Point:	1.573	X_WP:	0.000	Y_WP:	0.000	Y_WP:	0.500	X:	0.009	Y:	0.005	Z:	0.059	yaw:	-90.111	yaw rate:	0.362	Roll:	-0.165	Pitch:	0.305	Yaw:	-127.737	Thrust:	67.111
Time:	1.915	Roll Set Point:	-0.003	Pitch Set Point:	-0.014	Yaw Set Point:	1.573	X_WP:	0.000	Y_WP:	0.000	Y_WP:	0.500	X:	0.009	Y:	0.005	Z:	0.059	yaw:	-90.110	yaw rate:	0.133	Roll:	-0.185	Pitch:	0.307	Yaw:	-127.989	Thrust:	71.630
Time:	1.926	Roll Set Point:	-0.003	Pitch Set Point:	-0.014	Yaw Set Point:	1.573	X_WP:	0.000	Y_WP:	0.000	Y_WP:	0.500	X:	0.009	Y:	0.005	Z:	0.059	yaw:	-90.100	yaw rate:	0.980	Roll:	-0.184	Pitch:	0.295	Yaw:	-127.777	Thrust:	72.425
Time:	1.937	Roll Set Point:	-0.003	Pitch Set Point:	-0.014	Yaw Set Point:	1.573	X_WP:	0.000	Y_WP:	0.000	Y_WP:	0.500	X:	0.009	Y:	0.005	Z:	0.059	yaw:	-90.105	yaw rate:	-0.467	Roll:	-0.150	Pitch:	0.279	Yaw:	-128.110	Thrust:	72.493
Time:	1.947	Roll Set Point:	-0.003	Pitch Set Point:	-0.014	Yaw Set Point:	1.573	X_WP:	0.000	Y_WP:	0.000	Y_WP:	0.500	X:	0.009	Y:	0.005	Z:	0.059	yaw:	-90.112	yaw rate:	-0.746	Roll:	-0.197	Pitch:	0.298	Yaw:	-128.040	Thrust:	69.583
Time:	1.958	Roll Set Point:	-0.003	Pitch Set Point:	-0.014	Yaw Set Point:	1.573	X_WP:	0.000	Y_WP:	0.000	Y_WP:	0.500	X:	0.009	Y:	0.005	Z:	0.059	yaw:	-90.107	yaw rate:	0.574	Roll:	-0.176	Pitch:	0.264	Yaw:	-127.859	Thrust:	73.651
Time:	1.968	Roll Set Point:	-0.003	Pitch Set Point:	-0.014	Yaw Set Point:	1.572	X_WP:	0.000	Y_WP:	0.000	Y_WP:	0.500	X:	0.009	Y:	0.005	Z:	0.059	yaw:	-90.096	yaw rate:	1.052	Roll:	-0.175	Pitch:	0.338	Yaw:	-127.549	Thrust:	70.357
Time:	1.979	Roll Set Point:	-0.003	Pitch Set Point:	-0.014	Yaw Set Point:	1.573	X_WP:	0.000	Y_WP:	0.000	Y_WP:	0.500	X:	0.009	Y:	0.005	Z:	0.059	yaw:	-90.107	yaw rate:	-1.085	Roll:	-0.175	Pitch:	0.287	Yaw:	-128.277	Thrust:	75.259
Time:	1.990	Roll Set Point:	-0.003	Pitch Set Point:	-0.014	Yaw Set Point:	1.573	X_WP:	0.000	Y_WP:	0.000	Y_WP:	0.500	X:	0.009	Y:	0.005	Z:	0.059	yaw:	-90.105	yaw rate:	0.252	Roll:	-0.174	Pitch:	0.279	Yaw:	-127.938	Thrust:	75.531
Time:	2.000	Roll Set Point:	-0.003	Pitch Set Point:	-0.014	Yaw Set Point:	1.573	X_WP:	0.000	Y_WP:	0.000	Y_WP:	0.000	X:	0.009	Y:	0.005	Z:	0.059	yaw:	-90.106	yaw rate:	-0.195	Roll:	-0.178	Pitch:	0.317	Yaw:	-127.886	Thrust:	0.000
Time:	2.011	Roll Set Point:	-0.003	Pitch Set Point:	-0.014	Yaw Set Point:	1.573	X_WP:	0.000	Y_WP:	0.000	Y_WP:	0.000	X:	0.009	Y:	0.005	Z:	0.059	yaw:	-90.109	yaw rate:	-0.280	Roll:	-0.182	Pitch:	0.282	Yaw:	-128.090	Thrust:	48.839
Time:	2.021	Roll Set Point:	-0.003	Pitch Set Point:	-0.014	Yaw Set Point:	1.573	X_WP:	0.000	Y_WP:	0.000	Y_WP:	0.000	X:	0.009	Y:	0.005	Z:	0.059	yaw:	-90.107	yaw rate:	0.269	Roll:	-0.182	Pitch:	0.259	Yaw:	-127.749	Thrust:	44.120
Time:	2.032	Roll Set Point:	-0.003	Pitch Set Point:	-0.014	Yaw Set Point:	1.572	X_WP:	0.000	Y_WP:	0.000	Y_WP:	0.000	X:	0.009	Y:	0.005	Z:	0.059	yaw:	-90.093	yaw rate:	1.311	Roll:	-0.181	Pitch:	0.327	Yaw:	-127.685	Thrust:	48.666
Time:	2.043	Roll Set Point:	-0.003	Pitch Set Point:	-0.014	Yaw Set Point:	1.573	X_WP:	0.000	Y_WP:	0.000	Y_WP:	0.000	X:	0.009	Y:	0.005	Z:	0.059	yaw:	-90.106	yaw rate:	-1.251	Roll:	-0.154	Pitch:	0.305	Yaw:	-128.314	Thrust:	48.488
Time:	2.054	Roll Set Point:	-0.003	Pitch Set Point:	-0.014	Yaw Set Point:	1.573	X_WP:	0.000	Y_WP:	0.000	Y_WP:	0.000	X:	0.009	Y:	0.005	Z:	0.059	yaw:	-90.103	yaw rate:	0.288	Roll:	-0.190	Pitch:	0.291	Yaw:	-127.945	Thrust:	48.578
Time:	2.066	Roll Set Point:	-0.003	Pitch Set Point:	-0.014	Yaw Set Point:	1.573	X_WP:	0.000	Y_WP:	0.000	Y_WP:	0.000	X:	0.009	Y:	0.005	Z:	0.059	yaw:	-90.111	yaw rate:	-0.793	Roll:	-0.180	Pitch:	0.277	Yaw:	-128.214	Thrust:	48.559
Time:	2.077	Roll Set Point:	-0.003	Pitch Set Point:	-0.014	Yaw Set Point:	1.573	X_WP:	0.000	Y_WP:	0.000	Y_WP:	0.000	X:	0.009	Y:	0.005	Z:	0.059	yaw:	-90.106	yaw rate:	0.468	Roll:	-0.168	Pitch:	0.318	Yaw:	-127.906	Thrust:	48.393
Time:	2.088	Roll Set Point:	-0.003	Pitch Set Point:	-0.014	Yaw Set Point:	1.573	X_WP:	0.000	Y_WP:	0.000	Y_WP:	0.000	X:	0.009	Y:	0.005	Z:	0.059	yaw:	-90.105	yaw rate:	0.123	Roll:	-0.213	Pitch:	0.284	Yaw:	-127.987	Thrust:	48.368
Time:	2.099	Roll Set Point:	-0.003	Pitch Set Point:	-0.014	Yaw Set Point:	1.573	X_WP:	0.000	Y_WP:	0.000	Y_WP:	0.000	X:	0.009	Y:	0.005	Z:	0.059	yaw:	-90.106	yaw rate:	-0.124	Roll:	-0.156	Pitch:	0.285	Yaw:	-128.030	Thrust:	47.736
Time:	2.109	Roll Set Point:	-0.003	Pitch Set Point:	-0.014	Yaw Set Point:	1.573	X_WP:	0.000	Y_WP:	0.000	Y_WP:	0.000	X:	0.009	Y:	0.005	Z:	0.059	yaw:	-90.117	yaw rate:	-1.018	Roll:	-0.179	Pitch:	0.307	Yaw:	-128.098	Thrust:	43.446
Time:	2.119	Roll Set Point:	-0.003	Pitch Set Point:	-0.014	Yaw Set Point:	1.573	X_WP:	0.000	Y_WP:	0.000	Y_WP:	0.000	X:	0.009	Y:	0.005	Z:	0.059	yaw:	-90.104	yaw rate:	1.296	Roll:	-0.174	Pitch:	0.311	Yaw:	-127.475	Thrust:	43.401
Time:	2.130	Roll Set Point:	-0.003	Pitch Set Point:	-0.014	Yaw Set Point:	1.573	X_WP:	0.000	Y_WP:	0.000	Y_WP:	0.000	X:	0.009	Y:	0.005	Z:	0.059	yaw:	-90.105	yaw rate:	-0.164	Roll:	-0.198	Pitch:	0.277	Yaw:	-128.074	Thrust:	48.545
Time:	2.141	Roll Set Point:	-0.003	Pitch Set Point:	-0.014	Yaw Set Point:	1.573	X_WP:	0.000	Y_WP:	0.000	Y_WP:	0.000	X:	0.009	Y:	0.005	Z:	0.059	yaw:	-90.109	yaw rate:	-0.363	Roll:	-0.177	Pitch:	0.291	Yaw:	-128.090	Thrust:	47.504
Time:	2.151	Roll Set Point:	-0.003	Pitch Set Point:	-0.014	Yaw Set Point:	1.573	X_WP:	0.000	Y_WP:	0.000	Y_WP:	0.000	X:	0.009	Y:	0.005	Z:	0.059	yaw:	-90.106	yaw rate:	0.325	Roll:	-0.159	Pitch:	0.313	Yaw:	-127.751	Thrust:	43.553
Time:	2.161	Roll Set Point:	-0.003	Pitch Set Point:	-0.014	Yaw Set Point:	1.573	X_WP:	0.000	Y_WP:	0.000	Y_WP:	0.000	X:	0.009	Y:	0.005	Z:	0.059	yaw:	-90.115	yaw rate:	-0.978	Roll:	-0.185	Pitch:	0.276	Yaw:	-128.085	Thrust:	43.176
Time:	2.171	Roll Set Point:	-0.003	Pitch Set Point:	-0.014	Yaw Set Point:	1.573	X_WP:	0.000	Y_WP:	0.000	Y_WP:	0.000	X:	0.009	Y:	0.005	Z:	0.059	yaw:	-90.101	yaw rate:	1.403	Roll:	-0.182	Pitch:	0.301	Yaw:	-127.444	Thrust:	43.101
Time:	2.182	Roll Set Point:	-0.003	Pitch Set Point:	-0.014	Yaw Set Point:	1.573	X_WP:	0.000	Y_WP:	0.000	Y_WP:	0.000	X:	0.009	Y:	0.005	Z:	0.059	yaw:	-90.116	yaw rate:	-1.428	Roll:	-0.174	Pitch:	0.314	Yaw:	-128.373	Thrust:	47.563
Time:	2.192	Roll Set Point:	-0.003	Pitch Set Point:	-0.014	Yaw Set Point:	1.573	X_WP:	0.000	Y_WP:	0.000	Y_WP:	0.000	X:	0.009	Y:	0.005	Z:	0.059	yaw:	-90.109	yaw rate:	0.623	Roll:	-0.185	Pitch:	0.273	Yaw:	-127.655	Thrust:	42.928
Time:	2.202	Roll Set Point:	-0.003	Pitch Set Point:	-0.014	Yaw Set Point:	1.573	X_WP:	0.000	Y_WP:	0.000	Y_WP:	0.000	X:	0.009	Y:	0.005	Z:	0.059	yaw:	-90.104	yaw rate:	0.533	Roll:	-0.174	Pitch:	0.304	Yaw:	-127.675	Thrust:	42.802
Time:	2.212	Roll Set Point:	-0.003	Pitch Set Point:	-0.014	Yaw Set Point:	1.573	X_WP:	0.000	Y_WP:	0.000	Y_WP:	0.000	X:	0.009	Y:	0.005	Z:	0.059	yaw:	-90.110	yaw rate:	-0.612	Roll:	-0.173	Pitch:	0.291	Yaw:	-127.983	Thrust:	42.832
Time:	2.222	Roll Set Point:	-0.003	Pitch Set Point:	-0.014	Yaw Set Point:	1.573	X_WP:	0.000	Y_WP:	0.000	Y_WP:	0.000	X:	0.009	Y:	0.005	Z:	0.059	yaw:	-90.110	yaw rate:	-0.612	Roll:	-0.179	Pitch:	0.295	Yaw:	-127.824	Thrust:	42.734
Time:	2.232	Roll Set Point:	-0.003	Pitch Set Point:	-0.014	Yaw Set Point:	1.573	X_WP:	0.000	Y_WP:	0.000	Y_WP:	0.000	X:	0.009	Y:	0.005	Z:	0.059	yaw:	-90.106	yaw rate:	0.446	Roll:	-0.202	Pitch:	0.298	Yaw:	-127.699	Thrust:	42.716
Time:	2.242	Roll Set Point:	-0.003	Pitch Set Point:	-0.014	Yaw Set Point:	1.573	X_WP:	0.000	Y_WP:	0.000	Y_WP:	0.000	X:	0.009	Y:	0.005	Z:	0.059	yaw:	-90.100	yaw rate:	0.610	Roll:	-0.166	Pitch:	0.307	Yaw:	-127.650	Thrust:	42.453
Time:	2.253	Roll Set Point:	-0.003	Pitch Set Point:	-0.014	Yaw Set Point:	1.573	X_WP:	0.000	Y_WP:	0.000	Y_WP:	0.000	X:	0.009	Y:	0.005	Z:	0.059	yaw:	-90.108	yaw rate:	-0.844	Roll:	-0.176	Pitch:	0.306	Yaw:	-128.220	Thrust:	47.059
Time:	2.264	Roll Set Point:	-0.003	Pitch Set Point:	-0.014	Yaw Set Point:	1.573	X_WP:	0.000	Y_WP:	0.000	Y_WP:	0.000	X:	0.009	Y:	0.005	Z:	0.059	yaw:	-90.098	yaw rate:	0.966	Roll:	-0.189	Pitch:	0.306	Yaw:	-127.779	Thrust:	47.078
Time:	2.275	Roll Set Point:	-0.003	Pitch Set Point:	-0.014	Yaw Set Point:	1.573	X_WP:	0.000	Y_WP:	0.000	Y_WP:	0.000	X:	0.009	Y:	0.005	Z:	0.059	yaw:	-90.101	yaw rate:	-0.212	Roll:	-0.185	Pitch:	0.287	Yaw:	-128.059	Thrust:	46.843
Time:	2.286	Roll Set Point:	-0.003	Pitch Set Point:	-0.014	Yaw Set Point:	1.573	X_WP:	0.000	Y_WP:	0.000	Y_WP:	0.000	X:	0.009	Y:	0.005	Z:	0.059	yaw:	-90.099	yaw rate:	0.113	Roll:	-0.172	Pitch:	0.296	Yaw:	-127.963	Thrust:	46.456
Time:	2.296	Roll Set Point:	-0.003	Pitch Set Point:	-0.014	Yaw Set Point:	1.573	X_WP:	0.000	Y_WP:	0.000	Y_WP:	0.000	X:	0.009	Y:	0.005	Z:	0.059	yaw:	-90.100	yaw rate:	-0.073	Roll:	-0.184	Pitch:	0.295	Yaw:	-127.834	Thrust:	42.423
Time:	2.308	Roll Set Point:	-0.003	Pitch Set Point:	-0.014	Yaw Set Point:	1.573	X_WP:	0.000	Y_WP:	0.000	Y_WP:	0.000	X:	0.009	Y:	0.005	Z:	0.059	yaw:	-90.107	yaw rate:	-0.694	Roll:	-0.194	Pitch:	0.311	Yaw:	-128.178	Thrust:	46.501
Time:	2.318	Roll Set Point:	-0.003	Pitch Set Point:	-0.014	Yaw Set Point:	1.573	X_WP:	0.000	Y_WP:	0.000	Y_WP:	0.000	X:	0.009	Y:	0.005	Z:	0.059	yaw:	-90.110	yaw rate:	-0.302	Roll:	-0.167	Pitch:	0.297	Yaw:	-128.095	Thrust:	46.621
Time:	2.328	Roll Set Point:	-0.003	Pitch Set Point:	-0.014	Yaw Set Point:	1.573	X_WP:	0.000	Y_WP:	0.000	Y_WP:	0.000	X:	0.009	Y:	0.005	Z:	0.059	yaw:	-90.107	yaw rate:	0.345	Roll:	-0.186	Pitch:	0.305	Yaw:	-127.733	Thrust:	42.087
Time:	2.339	Roll Set Point:	-0.003	Pitch Set Point:	-0.014	Yaw Set Point:	1.573	X_WP:	0.000	Y_WP:	0.000	Y_WP:	0.000	X:	0.009	Y:	0.005	Z:	0.059	yaw:	-90.113	yaw rate:	-0.601	Roll:	-0.185	Pitch:	0.281	Yaw:	-128.164	Thrust:	46.367
Time:	2.349	Roll Set Point:	-0.003	Pitch Set Point:	-0.014	Yaw Set Point:	1.573	X_WP:	0.000	Y_WP:	0.000	Y_WP:	0.000	X:	0.009	Y:	0.005	Z:	0.059	yaw:	-90.098	yaw rate:	1.466	Roll:	-0.191	Pitch:	0.304	Yaw:	-127.423	Thrust:	41.876
Time:	2.359	Roll Set Point:	-0.003	Pitch Set Point:	-0.014	Yaw Set Point:	1.573	X_WP:	0.000	Y_WP:	0.000	Y_WP:	0.000	X:	0.009	Y:	0.005	Z:	0.059	yaw:	-90.108	yaw rate:	-0.985	Roll:	-0.169	Pitch:	0.315	Yaw:	-128.092	Thrust:	42.105
Time:	2.370	Roll Set Point:	-0.003	Pitch Set Point:	-0.014	Yaw Set Point:	1.573	X_WP:	0.000	Y_WP:	0.000	Y_WP:	0.000	X:	0.009	Y:	0.005	Z:	0.059	yaw:	-90.111	yaw rate:	-0.327	Roll:	-0.174	Pitch:	0.283	Yaw:	-128.085	Thrust:	45.853
Time:	2.380	Roll Set Point:	-0.003	Pitch Set Point:	-0.014	Yaw Set Point:	1.573	X_WP:	0.000	Y_WP:	0.000	Y_WP:	0.000	X:	0.009	Y:	0.005	Z:	0.059	yaw:	-90.106	yaw rate:	0.502	Roll:	-0.188	Pitch:	0.319	Yaw:	-127.705	Thrust:	42.062
Time:	2.391	Roll Set Point:	-0.003	Pitch Set Point:	-0.014	Yaw Set Point:	1.573	X_WP:	0.000	Y_WP:	0.000	Y_WP:	0.000	X:	0.009	Y:	0.005	Z:	0.059	yaw:	-90.102	yaw rate:	0.393	Roll:	-0.183	Pitch:	0.313	Yaw:	-127.906	Thrust:	45.763
Time:	2.402	Roll Set Point:	-0.003	Pitch Set Point:	-0.014	Yaw Set Point:	1.573	X_WP:	0.000	Y_WP:	0.000	Y_WP:	0.000	X:	0.009	Y:	0.005	Z:	0.059	yaw:	-90.105	yaw rate:	-0.255	Roll:	-0.182	Pitch:	0.284	Yaw:	-128.071	Thrust:	45.887
Time:	2.412	Roll Set Point:	-0.003	Pitch Set Point:	-0.014	Yaw Set Point:	1.573	X_WP:	0.000	Y_WP:	0.000	Y_WP:	0.000	X:	0.009	Y:	0.005	Z:	0.059	yaw:	-90.116	yaw rate:	-1.111	Roll:	-0.188	Pitch:	0.293	Yaw:	-128.136	Thrust:	41.810
Time:	2.423	Roll Set Point:	-0.003	Pitch Set Point:	-0.014	Yaw Set Point:	1.573	X_WP:	0.000	Y_WP:	0.000	Y_WP:	0.000	X:	0.009	Y:	0.005	Z:	0.059	yaw:	-90.103	yaw rate:	1.288	Roll:	-0.177	Pitch:	0.316	Yaw:	-127.700	Thrust:	45.648
Time:	2.434	Roll Set Point:	-0.003	Pitch Set Point:	-0.014	Yaw Set Point:	1.573	X_WP:	0.000	Y_WP:	0.000	Y_WP:	0.000	X:	0.009	Y:	0.005	Z:	0.059	yaw:	-90.105	yaw rate:	-0.219	Roll:	-0.189	Pitch:	0.314	Yaw:	-128.075	Thrust:	45.899
Time:	2.445	Roll Set Point:	-0.003	Pitch Set Point:	-0.014	Yaw Set Point:	1.573	X_WP:	0.000	Y_WP:	0.000	Y_WP:	0.000	X:	0.009	Y:	0.005	Z:	0.059	yaw:	-90.105	yaw rate:	0.011	Roll:	-0.182	Pitch:	0.300	Yaw:	-127.814	Thrust:	41.322
Time:	2.455	Roll Set Point:	-0.003	Pitch Set Point:	-0.014	Yaw Set Point:	1.573	X_WP:	0.000	Y_WP:	0.000	Y_WP:	0.000	X:	0.009	Y:	0.005	Z:	0.059	yaw:	-90.101	yaw rate:	0.404	Roll:	-0.178	Pitch:	0.309	Yaw:	-127.703	Thrust:	41.135
Time:	2.465	Roll Set Point:	-0.003	Pitch Set Point:	-0.014	Yaw Set Point:	1.573	X_WP:	0.000	Y_WP:	0.000	Y_WP:	0.000	X:	0.009	Y:	0.005	Z:	0.059	yaw:	-90.100	yaw rate:	0.070	Roll:	-0.198	Pitch:	0.283	Yaw:	-127.791	Thrust:	41.073
Time:	2.476	Roll Set Point:	-0.003	Pitch Set Point:	-0.014	Yaw Set Point:	1.573	X_WP:	0.000	Y_WP:	0.000	Y_WP:	0.000	X:	0.009	Y:	0.005	Z:	0.059	yaw:	-90.100	yaw rate:	0.055	Roll:	-0.194	Pitch:	0.295	Yaw:	-127.996	Thrust:	45.465
Time:	2.487	Roll Set Point:	-0.003	Pitch Set Point:	-0.014	Yaw Set Point:	1.573	X_WP:	0.000	Y_WP:	0.000	Y_WP:	0.000	X:	0.009	Y:	0.005	Z:	0.059	yaw:	-90.108	yaw rate:	-0.782	Roll:	-0.156	Pitch:	0.321	Yaw:	-128.205	Thrust:	45.284
Time:	2.497	Roll Set Point:	-0.003	Pitch Set Point:	-0.014	Yaw Set Point:	1.573	X_WP:	0.000	Y_WP:	0.000	Y_WP:	0.000	X:	0.009	Y:	0.005	Z:	0.059	yaw:	-90.110	yaw rate:	-0.220	Roll:	-0.185	Pitch:	0.302	Yaw:	-127.887	Thrust:	40.947
Time:	2.508	Roll Set Point:	-0.003	Pitch Set Point:	-0.014	Yaw Set Point:	1.573	X_WP:	0.000	Y_WP:	0.000	Y_WP:	0.000	X:	0.009	Y:	0.005	Z:	0.059	yaw:	-90.104	yaw rate:	0.585	Roll:	-0.197	Pitch:	0.305	Yaw:	-127.849	Thrust:	44.805
Time:	2.518	Roll Set Point:	-0.003	Pitch Set Point:	-0.014	Yaw Set Point:	1.572	X_WP:	0.000	Y_WP:	0.000	Y_WP:	0.000	X:	0.009	Y:	0.005	Z:	0.059	yaw:	-90.094	yaw rate:	0.940	Roll:	-0.180	Pitch:	0.302	Yaw:	-127.562	Thrust:	40.898
Time:	2.528	Roll Set Point:	-0.003	Pitch Set Point:	-0.014	Yaw Set Point:	1.572	X_WP:	0.000	Y_WP:	0.000	Y_WP:	0.000	X:	0.009	Y:	0.005	Z:	0.059	yaw:	-90.094	yaw rate:	0.940	Roll:	-0.183	Pitch:	0.302	Yaw:	-127.796	Thrust:	40.546
Time:	2.538	Roll Set Point:	-0.003	Pitch Set Point:	-0.014	Yaw Set Point:	1.573	X_WP:	0.000	Y_WP:	0.000	Y_WP:	0.000	X:	0.009	Y:	0.005	Z:	0.059	yaw:	-90.106	yaw rate:	-1.158	Roll:	-0.174	Pitch:	0.290	Yaw:	-128.134	Thrust:	40.921
Time:	2.549	Roll Set Point:	-0.003	Pitch Set Point:	-0.014	Yaw Set Point:	1.573	X_WP:	0.000	Y_WP:	0.000	Y_WP:	0.000	X:	0.009	Y:	0.005	Z:	0.059	yaw:	-90.102	yaw rate:	0.394	Roll:	-0.199	Pitch:	0.302	Yaw:	-127.900	Thrust:	44.485
Time:	2.560	Roll Set Point:	-0.003	Pitch Set Point:	-0.014	Yaw Set Point:	1.573	X_WP:	0.000	Y_WP:	0.000	Y_WP:	0.000	X:	0.009	Y:	0.005	Z:	0.059	yaw:	-90.114	yaw rate:	-1.143	Roll:	-0.175	Pitch:	0.313	Yaw:	-128.315	Thrust:	45.111
Time:	2.571	Roll Set Point:	-0.003	Pitch Set Point:	-0.014	Yaw Set Point:	1.573	X_WP:	0.000	Y_WP:	0.000	Y_WP:	0.000	X:	0.009	Y:	0.005	Z:	0.059	yaw:	-90.103	yaw rate:	1.006	Roll:	-0.180	Pitch:	0.305	Yaw:	-127.776	Thrust:	44.807
Time:	2.582	Roll Set Point:	-0.003	Pitch Set Point:	-0.014	Yaw Set Point:	1.572	X_WP:	0.000	Y_WP:	0.000	Y_WP:	0.000	X:	0.009	Y:	0.005	Z:	0.059	yaw:	-90.096	yaw rate:	0.725	Roll:	-0.203	Pitch:	0.326	Yaw:	-127.832	Thrust:	44.656
Time:	2.594	Roll Set Point:	-0.003	Pitch Set Point:	-0.014	Yaw Set Point:	1.573	X_WP:	0.000	Y_WP:	0.000	Y_WP:	0.000	X:	0.009	Y:	0.005	Z:	0.059	yaw:	-90.111	yaw rate:	-1.427	Roll:	-0.184	Pitch:	0.298	Yaw:	-128.520	Thrust:	44.509
Time:	2.606	Roll Set Point:	-0.003	Pitch Set Point:	-0.014	Yaw Set Point:	1.573	X_WP:	0.000	Y_WP:	0.000	Y_WP:	0.000	X:	0.009	Y:	0.005	Z:	0.059	yaw:	-90.099	yaw rate:	1.179	Roll:	-0.179	Pitch:	0.318	Yaw:	-127.728	Thrust:	48.548
Time:	2.616	Roll Set Point:	-0.003	Pitch Set Point:	-0.014	Yaw Set Point:	1.572	X_WP:	0.000	Y_WP:	0.000	Y_WP:	0.000	X:	0.009	Y:	0.005	Z:	0.059	yaw:	-90.096	yaw rate:	0.285	Roll:	-0.195	Pitch:	0.315	Yaw:	-127.936	Thrust:	44.410
Time:	2.632	Roll Set Point:	-0.003	Pitch Set Point:	-0.014	Yaw Set Point:	1.573	X_WP:	0.000	Y_WP:	0.000	Y_WP:	0.000	X:	0.009	Y:	0.005	Z:	0.059	yaw:	-90.101	yaw rate:	-0.485	Roll:	-0.204	Pitch:	0.289	Yaw:	-129.100	Thrust:	44.376
Time:	2.644	Roll Set Point:	-0.003	Pitch Set Point:	-0.014	Yaw Set Point:	1.573	X_WP:	0.000	Y_WP:	0.000	Y_WP:	0.000	X:	0.009	Y:	0.005	Z:	0.059	yaw:	-90.104	yaw rate:	0.374	Roll:	-0.197	Pitch:	0.342	Yaw:	-128.097	Thrust:	66.159
Time:	2.655	Roll Set Point:	-0.003	Pitch Set Point:	-0.014	Yaw Set Point:	1.573	X_WP:	0.000	Y_WP:	0.000	Y_WP:	0.000	X:	0.009	Y:	0.005	Z:	0.059	yaw:	-90.109	yaw rate:	-0.511	Roll:	-0.176	Pitch:	0.304	Yaw:	-128.143	Thrust:	44.240
Time:	2.667	Roll Set Point:	-0.003	Pitch Set Point:	-0.014	Yaw Set Point:	1.573	X_WP:	0.000	Y_WP:	0.000	Y_WP:	0.000	X:	0.009	Y:	0.005	Z:	0.059	yaw:	-90.103	yaw rate:	0.564	Roll:	-0.176	Pitch:	0.313	Yaw:	-128.289	Thrust:	48.067
Time:	2.678	Roll Set Point:	-0.003	Pitch Set Point:	-0.014	Yaw Set Point:	1.573	X_WP:	0.000	Y_WP:	0.000	Y_WP:	0.000	X:	0.009	Y:	0.005	Z:	0.059	yaw:	-90.108	yaw rate:	-0.433	Roll:	-0.217	Pitch:	0.329	Yaw:	-128.131	Thrust:	48.513
Time:	2.691	Roll Set Point:	-0.003	Pitch Set Point:	-0.014	Yaw Set Point:	1.573	X_WP:	0.000	Y_WP:	0.000	Y_WP:	0.000	X:	0.009	Y:	0.005	Z:	0.059	yaw:	-90.101	yaw rate:	0.662	Roll:	-0.190	Pitch:	0.300	Yaw:	-128.269	Thrust:	48.079
Time:	2.702	Roll Set Point:	-0.003	Pitch Set Point:	-0.014	Yaw Set Point:	1.573	X_WP:	0.000	Y_WP:	0.000	Y_WP:	0.000	X:	0.009	Y:	0.005	Z:	0.059	yaw:	-90.108	yaw rate:	-0.671	Roll:	-0.179	Pitch:	0.315	Yaw:	-128.180	Thrust:	43.839
Time:	2.712	Roll Set Point:	-0.003	Pitch Set Point:	-0.014	Yaw Set Point:	1.572	X_WP:	0.000	Y_WP:	0.000	Y_WP:	0.000	X:	0.009	Y:	0.005	Z:	0.059	yaw:	-90.098	yaw rate:	1.030	Roll:	-0.178	Pitch:	0.322	Yaw:	-127.536	Thrust:	43.896
Time:	2.722	Roll Set Point:	-0.003	Pitch Set Point:	-0.014	Yaw Set Point:	1.573	X_WP:	0.000	Y_WP:	0.000	Y_WP:	0.000	X:	0.009	Y:	0.005	Z:	0.059	yaw:	-90.098	yaw rate:	-0.026	Roll:	-0.213	Pitch:	0.290	Yaw:	-127.812	Thrust:	39.509
Time:	2.732	Roll Set Point:	-0.003	Pitch Set Point:	-0.014	Yaw Set Point:	1.573	X_WP:	0.000	Y_WP:	0.000	Y_WP:	0.000	X:	0.009	Y:	0.005	Z:	0.059	yaw:	-90.099	yaw rate:	-0.081	Roll:	-0.171	Pitch:	0.330	Yaw:	-127.843	Thrust:	39.595
Time:	2.743	Roll Set Point:	-0.003	Pitch Set Point:	-0.014	Yaw Set Point:	1.573	X_WP:	0.000	Y_WP:	0.000	Y_WP:	0.000	X:	0.009	Y:	0.005	Z:	0.059	yaw:	-90.108	yaw rate:	-0.900	Roll:	-0.184	Pitch:	0.288	Yaw:	-128.234	Thrust:	43.550
Time:	2.754	Roll Set Point:	-0.003	Pitch Set Point:	-0.014	Yaw Set Point:	1.573	X_WP:	0.000	Y_WP:	0.000	Y_WP:	0.000	X:	0.009	Y:	0.005	Z:	0.059	yaw:	-90.112	yaw rate:	-0.459	Roll:	-0.190	Pitch:	0.336	Yaw:	-128.121	Thrust:	43.162
Time:	2.765	Roll Set Point:	-0.003	Pitch Set Point:	-0.014	Yaw Set Point:	1.573	X_WP:	0.000	Y_WP:	0.000	Y_WP:	0.000	X:	0.009	Y:	0.005	Z:	0.059	yaw:	-90.112	yaw rate:	-0.459	Roll:	-0.185	Pitch:	0.307	Yaw:	-128.026	Thrust:	43.403
Time:	2.777	Roll Set Point:	-0.003	Pitch Set Point:	-0.014	Yaw Set Point:	1.573	X_WP:	0.000	Y_WP:	0.000	Y_WP:	0.000	X:	0.009	Y:	0.005	Z:	0.059	yaw:	-90.109	yaw rate:	-0.192	Roll:	-0.180	Pitch:	0.304	Yaw:	-127.953	Thrust:	43.749
Time:	2.787	Roll Set Point:	-0.003	Pitch Set Point:	-0.014	Yaw Set Point:	1.573	X_WP:	0.000	Y_WP:	0.000	Y_WP:	0.000	X:	0.009	Y:	0.005	Z:	0.059	yaw:	-90.107	yaw rate:	0.122	Roll:	-0.207	Pitch:	0.319	Yaw:	-127.991	Thrust:	43.294
Time:	2.799	Roll Set Point:	-0.003	Pitch Set Point:	-0.014	Yaw Set Point:	1.573	X_WP:	0.000	Y_WP:	0.000	Y_WP:	0.000	X:	0.009	Y:	0.005	Z:	0.059	yaw:	-90.107	yaw rate:	0.122	Roll:	-0.189	Pitch:	0.312	Yaw:	-128.206	Thrust:	47.097
Time:	2.810	Roll Set Point:	-0.003	Pitch Set Point:	-0.014	Yaw Set Point:	1.573	X_WP:	0.000	Y_WP:	0.000	Y_WP:	0.000	X:	0.009	Y:	0.005	Z:	0.059	yaw:	-90.108	yaw rate:	-0.029	Roll:	-0.185	Pitch:	0.318	Yaw:	-128.022	Thrust:	38.658
Time:	2.821	Roll Set Point:	-0.003	Pitch Set Point:	-0.014	Yaw Set Point:	1.573	X_WP:	0.000	Y_WP:	0.000	Y_WP:	0.000	X:	0.009	Y:	0.005	Z:	0.059	yaw:	-90.108	yaw rate:	-0.029	Roll:	-0.190	Pitch:	0.314	Yaw:	-128.020	Thrust:	47.244
Time:	2.833	Roll Set Point:	-0.003	Pitch Set Point:	-0.014	Yaw Set Point:	1.573	X_WP:	0.000	Y_WP:	0.000	Y_WP:	0.000	X:	0.009	Y:	0.005	Z:	0.059	yaw:	-90.112	yaw rate:	-0.797	Roll:	-0.180	Pitch:	0.297	Yaw:	-128.126	Thrust:	43.297
Time:	2.844	Roll Set Point:	-0.003	Pitch Set Point:	-0.014	Yaw Set Point:	1.573	X_WP:	0.000	Y_WP:	0.000	Y_WP:	0.000	X:	0.009	Y:	0.005	Z:	0.059	yaw:	-90.098	yaw rate:	1.329	Roll:	-0.205	Pitch:	0.337	Yaw:	-127.910	Thrust:	42.945
Time:	2.856	Roll Set Point:	-0.003	Pitch Set Point:	-0.014	Yaw Set Point:	1.573	X_WP:	0.000	Y_WP:	0.000	Y_WP:	0.000	X:	0.009	Y:	0.005	Z:	0.059	yaw:	-90.108	yaw rate:	-0.972	Roll:	-0.186	Pitch:	0.302	Yaw:	-128.259	Thrust:	42.835
Time:	2.868	Roll Set Point:	-0.003	Pitch Set Point:	-0.014	Yaw Set Point:	1.573	X_WP:	0.000	Y_WP:	0.000	Y_WP:	0.000	X:	0.009	Y:	0.005	Z:	0.059	yaw:	-90.115	yaw rate:	-0.722	Roll:	-0.198	Pitch:	0.303	Yaw:	-128.385	Thrust:	46.941
Time:	2.879	Roll Set Point:	-0.003	Pitch Set Point:	-0.014	Yaw Set Point:	1.573	X_WP:	0.000	Y_WP:	0.000	Y_WP:	0.000	X:	0.009	Y:	0.005	Z:	0.059	yaw:	-90.112	yaw rate:	0.311	Roll:	-0.179	Pitch:	0.329	Yaw:	-127.947	Thrust:	42.464
Time:	2.890	Roll Set Point:	-0.003	Pitch Set Point:	-0.014	Yaw Set Point:	1.573	X_WP:	0.000	Y_WP:	0.000	Y_WP:	0.000	X:	0.009	Y:	0.005	Z:	0.059	yaw:	-90.110	yaw rate:	0.213	Roll:	-0.198	Pitch:	0.331	Yaw:	-127.972	Thrust:	42.238
Time:	2.901	Roll Set Point:	-0.003	Pitch Set Point:	-0.014	Yaw Set Point:	1.573	X_WP:	0.000	Y_WP:	0.000	Y_WP:	0.000	X:	0.009	Y:	0.005	Z:	0.059	yaw:	-90.107	yaw rate:	0.333	Roll:	-0.196	Pitch:	0.305	Yaw:	-127.742	Thrust:	42.793
Time:	2.912	Roll Set Point:	-0.003	Pitch Set Point:	-0.014	Yaw Set Point:	1.573	X_WP:	0.000	Y_WP:	0.000	Y_WP:	0.000	X:	0.009	Y:	0.005	Z:	0.059	yaw:	-90.105	yaw rate:	0.200	Roll:	-0.180	Pitch:	0.301	Yaw:	-128.162	Thrust:	42.540
Time:	2.923	Roll Set Point:	-0.003	Pitch Set Point:	-0.014	Yaw Set Point:	1.573	X_WP:	0.000	Y_WP:	0.000	Y_WP:	0.000	X:	0.009	Y:	0.005	Z:	0.059	yaw:	-90.108	yaw rate:	-0.380	Roll:	-0.200	Pitch:	0.313	Yaw:	-127.919	Thrust:	42.041
Time:	2.934	Roll Set Point:	-0.003	Pitch Set Point:	-0.014	Yaw Set Point:	1.573	X_WP:	0.000	Y_WP:	0.000	Y_WP:	0.000	X:	0.009	Y:	0.005	Z:	0.059	yaw:	-90.111	yaw rate:	-0.282	Roll:	-0.183	Pitch:	0.315	Yaw:	-128.099	Thrust:	42.336
Time:	2.946	Roll Set Point:	-0.003	Pitch Set Point:	-0.014	Yaw Set Point:	1.573	X_WP:	0.000	Y_WP:	0.000	Y_WP:	0.000	X:	0.009	Y:	0.005	Z:	0.059	yaw:	-90.106	yaw rate:	0.484	Roll:	-0.188	Pitch:	0.339	Yaw:	-128.106	Thrust:	46.074
