Time:	0.033	Roll Set Point:	0.085	Pitch Set Point:	-0.234	Yaw Set Point:	-0.102	X_WP:	0.000	Y_WP:	0.000	Y_WP:	0.000	X:	-0.048	Y:	0.115	Z:	0.059	yaw:	5.855	yaw rate:	-0.055	Roll:	-1.053	Pitch:	3.458	Yaw:	8.176	Thrust:	0.000
Time:	0.044	Roll Set Point:	0.085	Pitch Set Point:	-0.234	Yaw Set Point:	-0.102	X_WP:	0.000	Y_WP:	0.000	Y_WP:	0.000	X:	-0.048	Y:	0.115	Z:	0.059	yaw:	5.857	yaw rate:	0.153	Roll:	-1.056	Pitch:	3.467	Yaw:	8.236	Thrust:	0.000
Time:	0.055	Roll Set Point:	0.085	Pitch Set Point:	-0.234	Yaw Set Point:	-0.102	X_WP:	0.000	Y_WP:	0.000	Y_WP:	0.000	X:	-0.048	Y:	0.115	Z:	0.059	yaw:	5.854	yaw rate:	-0.271	Roll:	-1.044	Pitch:	3.448	Yaw:	8.155	Thrust:	0.000
Time:	0.067	Roll Set Point:	0.085	Pitch Set Point:	-0.234	Yaw Set Point:	-0.102	X_WP:	0.000	Y_WP:	0.000	Y_WP:	0.000	X:	-0.048	Y:	0.115	Z:	0.059	yaw:	5.846	yaw rate:	-0.861	Roll:	-1.077	Pitch:	3.457	Yaw:	8.028	Thrust:	0.000
Time:	0.078	Roll Set Point:	0.085	Pitch Set Point:	-0.234	Yaw Set Point:	-0.102	X_WP:	0.000	Y_WP:	0.000	Y_WP:	0.000	X:	-0.048	Y:	0.115	Z:	0.059	yaw:	5.856	yaw rate:	0.998	Roll:	-1.038	Pitch:	3.502	Yaw:	8.491	Thrust:	0.000
Time:	0.090	Roll Set Point:	0.085	Pitch Set Point:	-0.234	Yaw Set Point:	-0.102	X_WP:	0.000	Y_WP:	0.000	Y_WP:	0.000	X:	-0.048	Y:	0.115	Z:	0.059	yaw:	5.852	yaw rate:	-0.351	Roll:	-1.057	Pitch:	3.468	Yaw:	8.200	Thrust:	0.000
Time:	0.101	Roll Set Point:	0.085	Pitch Set Point:	-0.234	Yaw Set Point:	-0.102	X_WP:	0.000	Y_WP:	0.000	Y_WP:	0.000	X:	-0.048	Y:	0.115	Z:	0.059	yaw:	5.856	yaw rate:	0.423	Roll:	-1.065	Pitch:	3.467	Yaw:	8.413	Thrust:	0.000
Time:	0.111	Roll Set Point:	0.085	Pitch Set Point:	-0.234	Yaw Set Point:	-0.102	X_WP:	0.000	Y_WP:	0.000	Y_WP:	0.000	X:	-0.048	Y:	0.115	Z:	0.059	yaw:	5.852	yaw rate:	-0.455	Roll:	-1.062	Pitch:	3.481	Yaw:	8.220	Thrust:	0.000
Time:	0.121	Roll Set Point:	0.085	Pitch Set Point:	-0.234	Yaw Set Point:	-0.102	X_WP:	0.000	Y_WP:	0.000	Y_WP:	0.000	X:	-0.048	Y:	0.115	Z:	0.059	yaw:	5.852	yaw rate:	0.027	Roll:	-1.059	Pitch:	3.485	Yaw:	8.342	Thrust:	0.000
Time:	0.131	Roll Set Point:	0.085	Pitch Set Point:	-0.234	Yaw Set Point:	-0.102	X_WP:	0.000	Y_WP:	0.000	Y_WP:	0.000	X:	-0.048	Y:	0.115	Z:	0.059	yaw:	5.854	yaw rate:	0.217	Roll:	-1.075	Pitch:	3.491	Yaw:	8.415	Thrust:	0.000
Time:	0.142	Roll Set Point:	0.085	Pitch Set Point:	-0.234	Yaw Set Point:	-0.102	X_WP:	0.000	Y_WP:	0.000	Y_WP:	0.000	X:	-0.048	Y:	0.115	Z:	0.059	yaw:	5.858	yaw rate:	0.395	Roll:	-1.024	Pitch:	3.505	Yaw:	8.487	Thrust:	0.000
Time:	0.152	Roll Set Point:	0.085	Pitch Set Point:	-0.234	Yaw Set Point:	-0.102	X_WP:	0.000	Y_WP:	0.000	Y_WP:	0.000	X:	-0.048	Y:	0.115	Z:	0.059	yaw:	5.854	yaw rate:	-0.416	Roll:	-1.086	Pitch:	3.480	Yaw:	8.323	Thrust:	0.000
Time:	0.162	Roll Set Point:	0.085	Pitch Set Point:	-0.234	Yaw Set Point:	-0.102	X_WP:	0.000	Y_WP:	0.000	Y_WP:	0.000	X:	-0.048	Y:	0.115	Z:	0.059	yaw:	5.855	yaw rate:	0.112	Roll:	-1.066	Pitch:	3.485	Yaw:	8.451	Thrust:	0.000
Time:	0.172	Roll Set Point:	0.085	Pitch Set Point:	-0.234	Yaw Set Point:	-0.102	X_WP:	0.000	Y_WP:	0.000	Y_WP:	0.000	X:	-0.048	Y:	0.115	Z:	0.059	yaw:	5.855	yaw rate:	0.027	Roll:	-1.060	Pitch:	3.513	Yaw:	8.450	Thrust:	0.000
Time:	0.184	Roll Set Point:	0.085	Pitch Set Point:	-0.234	Yaw Set Point:	-0.102	X_WP:	0.000	Y_WP:	0.000	Y_WP:	0.000	X:	-0.048	Y:	0.115	Z:	0.059	yaw:	5.857	yaw rate:	0.119	Roll:	-1.067	Pitch:	3.497	Yaw:	8.521	Thrust:	0.000
Time:	0.194	Roll Set Point:	0.085	Pitch Set Point:	-0.234	Yaw Set Point:	-0.102	X_WP:	0.000	Y_WP:	0.000	Y_WP:	0.000	X:	-0.048	Y:	0.115	Z:	0.059	yaw:	5.853	yaw rate:	-0.403	Roll:	-1.074	Pitch:	3.487	Yaw:	8.373	Thrust:	0.000
Time:	0.204	Roll Set Point:	0.085	Pitch Set Point:	-0.234	Yaw Set Point:	-0.102	X_WP:	0.000	Y_WP:	0.000	Y_WP:	0.000	X:	-0.048	Y:	0.115	Z:	0.059	yaw:	5.857	yaw rate:	0.439	Roll:	-1.056	Pitch:	3.531	Yaw:	8.621	Thrust:	0.000
Time:	0.217	Roll Set Point:	0.085	Pitch Set Point:	-0.234	Yaw Set Point:	-0.102	X_WP:	0.000	Y_WP:	0.000	Y_WP:	0.000	X:	-0.048	Y:	0.115	Z:	0.059	yaw:	5.853	yaw rate:	-0.394	Roll:	-1.081	Pitch:	3.519	Yaw:	8.506	Thrust:	0.000
Time:	0.227	Roll Set Point:	0.085	Pitch Set Point:	-0.234	Yaw Set Point:	-0.102	X_WP:	0.000	Y_WP:	0.000	Y_WP:	0.000	X:	-0.048	Y:	0.115	Z:	0.059	yaw:	5.854	yaw rate:	0.098	Roll:	-1.054	Pitch:	3.510	Yaw:	8.600	Thrust:	0.000
Time:	0.237	Roll Set Point:	0.085	Pitch Set Point:	-0.234	Yaw Set Point:	-0.102	X_WP:	0.000	Y_WP:	0.000	Y_WP:	0.000	X:	-0.048	Y:	0.115	Z:	0.059	yaw:	5.848	yaw rate:	-0.614	Roll:	-1.081	Pitch:	3.513	Yaw:	8.397	Thrust:	0.000
Time:	0.247	Roll Set Point:	0.085	Pitch Set Point:	-0.234	Yaw Set Point:	-0.102	X_WP:	0.000	Y_WP:	0.000	Y_WP:	0.000	X:	-0.048	Y:	0.115	Z:	0.059	yaw:	5.854	yaw rate:	0.624	Roll:	-1.070	Pitch:	3.538	Yaw:	8.747	Thrust:	0.000
Time:	0.259	Roll Set Point:	0.085	Pitch Set Point:	-0.234	Yaw Set Point:	-0.102	X_WP:	0.000	Y_WP:	0.000	Y_WP:	0.000	X:	-0.048	Y:	0.115	Z:	0.059	yaw:	5.851	yaw rate:	-0.300	Roll:	-1.096	Pitch:	3.512	Yaw:	8.572	Thrust:	0.000
Time:	0.269	Roll Set Point:	0.085	Pitch Set Point:	-0.234	Yaw Set Point:	-0.102	X_WP:	0.000	Y_WP:	0.000	Y_WP:	0.000	X:	-0.048	Y:	0.115	Z:	0.059	yaw:	5.851	yaw rate:	0.001	Roll:	-1.064	Pitch:	3.519	Yaw:	8.664	Thrust:	0.000
Time:	0.279	Roll Set Point:	0.085	Pitch Set Point:	-0.234	Yaw Set Point:	-0.102	X_WP:	0.000	Y_WP:	0.000	Y_WP:	0.000	X:	-0.048	Y:	0.115	Z:	0.059	yaw:	5.854	yaw rate:	0.255	Roll:	-1.051	Pitch:	3.538	Yaw:	8.713	Thrust:	0.000
Time:	0.290	Roll Set Point:	0.085	Pitch Set Point:	-0.234	Yaw Set Point:	-0.102	X_WP:	0.000	Y_WP:	0.000	Y_WP:	0.000	X:	-0.048	Y:	0.115	Z:	0.059	yaw:	5.850	yaw rate:	-0.395	Roll:	-1.105	Pitch:	3.534	Yaw:	8.613	Thrust:	0.000
Time:	0.300	Roll Set Point:	0.085	Pitch Set Point:	-0.234	Yaw Set Point:	-0.102	X_WP:	0.000	Y_WP:	0.000	Y_WP:	0.000	X:	-0.048	Y:	0.115	Z:	0.059	yaw:	5.850	yaw rate:	-0.395	Roll:	-1.076	Pitch:	3.533	Yaw:	8.680	Thrust:	0.000
Time:	0.311	Roll Set Point:	0.085	Pitch Set Point:	-0.234	Yaw Set Point:	-0.102	X_WP:	0.000	Y_WP:	0.000	Y_WP:	0.000	X:	-0.048	Y:	0.115	Z:	0.059	yaw:	5.856	yaw rate:	0.627	Roll:	-1.060	Pitch:	3.553	Yaw:	8.911	Thrust:	0.000
Time:	0.321	Roll Set Point:	0.085	Pitch Set Point:	-0.234	Yaw Set Point:	-0.102	X_WP:	0.000	Y_WP:	0.000	Y_WP:	0.000	X:	-0.048	Y:	0.115	Z:	0.059	yaw:	5.857	yaw rate:	0.125	Roll:	-1.098	Pitch:	3.529	Yaw:	8.766	Thrust:	0.000
Time:	0.332	Roll Set Point:	0.085	Pitch Set Point:	-0.234	Yaw Set Point:	-0.102	X_WP:	0.000	Y_WP:	0.000	Y_WP:	0.000	X:	-0.048	Y:	0.115	Z:	0.059	yaw:	5.854	yaw rate:	-0.370	Roll:	-1.074	Pitch:	3.559	Yaw:	8.716	Thrust:	0.000
Time:	0.343	Roll Set Point:	0.085	Pitch Set Point:	-0.234	Yaw Set Point:	-0.102	X_WP:	0.000	Y_WP:	0.000	Y_WP:	0.000	X:	-0.048	Y:	0.115	Z:	0.059	yaw:	5.853	yaw rate:	-0.075	Roll:	-1.065	Pitch:	3.548	Yaw:	8.805	Thrust:	0.000
Time:	0.353	Roll Set Point:	0.085	Pitch Set Point:	-0.234	Yaw Set Point:	-0.102	X_WP:	0.000	Y_WP:	0.000	Y_WP:	0.000	X:	-0.048	Y:	0.115	Z:	0.059	yaw:	5.852	yaw rate:	-0.050	Roll:	-1.082	Pitch:	3.547	Yaw:	8.773	Thrust:	0.000
Time:	0.363	Roll Set Point:	0.085	Pitch Set Point:	-0.234	Yaw Set Point:	-0.102	X_WP:	0.000	Y_WP:	0.000	Y_WP:	0.000	X:	-0.048	Y:	0.115	Z:	0.059	yaw:	5.853	yaw rate:	0.046	Roll:	-1.103	Pitch:	3.550	Yaw:	8.820	Thrust:	0.000
Time:	0.374	Roll Set Point:	0.085	Pitch Set Point:	-0.234	Yaw Set Point:	-0.102	X_WP:	0.000	Y_WP:	0.000	Y_WP:	0.000	X:	-0.048	Y:	0.115	Z:	0.059	yaw:	5.855	yaw rate:	0.263	Roll:	-1.083	Pitch:	3.554	Yaw:	8.961	Thrust:	0.000
Time:	0.385	Roll Set Point:	0.085	Pitch Set Point:	-0.234	Yaw Set Point:	-0.102	X_WP:	0.000	Y_WP:	0.000	Y_WP:	0.000	X:	-0.048	Y:	0.115	Z:	0.059	yaw:	5.855	yaw rate:	-0.074	Roll:	-1.077	Pitch:	3.590	Yaw:	8.897	Thrust:	0.000
Time:	0.395	Roll Set Point:	0.085	Pitch Set Point:	-0.234	Yaw Set Point:	-0.102	X_WP:	0.000	Y_WP:	0.000	Y_WP:	0.000	X:	-0.048	Y:	0.115	Z:	0.059	yaw:	5.855	yaw rate:	0.028	Roll:	-1.080	Pitch:	3.552	Yaw:	8.879	Thrust:	0.000
Time:	0.405	Roll Set Point:	0.085	Pitch Set Point:	-0.234	Yaw Set Point:	-0.102	X_WP:	0.000	Y_WP:	0.000	Y_WP:	0.000	X:	-0.048	Y:	0.115	Z:	0.059	yaw:	5.847	yaw rate:	-0.830	Roll:	-1.084	Pitch:	3.549	Yaw:	8.666	Thrust:	0.000
Time:	0.416	Roll Set Point:	0.085	Pitch Set Point:	-0.234	Yaw Set Point:	-0.102	X_WP:	0.000	Y_WP:	0.000	Y_WP:	0.000	X:	-0.048	Y:	0.115	Z:	0.059	yaw:	5.852	yaw rate:	0.563	Roll:	-1.091	Pitch:	3.593	Yaw:	9.119	Thrust:	0.000
Time:	0.427	Roll Set Point:	0.085	Pitch Set Point:	-0.234	Yaw Set Point:	-0.102	X_WP:	0.000	Y_WP:	0.000	Y_WP:	0.000	X:	-0.048	Y:	0.115	Z:	0.059	yaw:	5.846	yaw rate:	-0.595	Roll:	-1.106	Pitch:	3.579	Yaw:	8.853	Thrust:	0.000
Time:	0.437	Roll Set Point:	0.085	Pitch Set Point:	-0.234	Yaw Set Point:	-0.102	X_WP:	0.000	Y_WP:	0.000	Y_WP:	0.000	X:	-0.048	Y:	0.115	Z:	0.059	yaw:	5.851	yaw rate:	0.512	Roll:	-1.085	Pitch:	3.566	Yaw:	9.084	Thrust:	0.000
Time:	0.447	Roll Set Point:	0.085	Pitch Set Point:	-0.234	Yaw Set Point:	-0.102	X_WP:	0.000	Y_WP:	0.000	Y_WP:	0.000	X:	-0.048	Y:	0.115	Z:	0.059	yaw:	5.851	yaw rate:	-0.036	Roll:	-1.089	Pitch:	3.571	Yaw:	8.959	Thrust:	0.000
Time:	0.457	Roll Set Point:	0.085	Pitch Set Point:	-0.234	Yaw Set Point:	-0.102	X_WP:	0.000	Y_WP:	0.000	Y_WP:	0.000	X:	-0.048	Y:	0.115	Z:	0.059	yaw:	5.857	yaw rate:	0.615	Roll:	-1.067	Pitch:	3.581	Yaw:	9.158	Thrust:	0.000
Time:	0.467	Roll Set Point:	0.085	Pitch Set Point:	-0.234	Yaw Set Point:	-0.102	X_WP:	0.000	Y_WP:	0.000	Y_WP:	0.000	X:	-0.048	Y:	0.115	Z:	0.059	yaw:	5.851	yaw rate:	-0.571	Roll:	-1.086	Pitch:	3.566	Yaw:	8.861	Thrust:	0.000
Time:	0.477	Roll Set Point:	0.085	Pitch Set Point:	-0.234	Yaw Set Point:	-0.102	X_WP:	0.000	Y_WP:	0.000	Y_WP:	0.000	X:	-0.048	Y:	0.115	Z:	0.059	yaw:	5.851	yaw rate:	-0.571	Roll:	-1.091	Pitch:	3.584	Yaw:	9.031	Thrust:	0.000
Time:	0.488	Roll Set Point:	0.085	Pitch Set Point:	-0.234	Yaw Set Point:	-0.102	X_WP:	0.000	Y_WP:	0.000	Y_WP:	0.000	X:	-0.048	Y:	0.115	Z:	0.059	yaw:	5.860	yaw rate:	0.825	Roll:	-1.075	Pitch:	3.622	Yaw:	9.342	Thrust:	0.000
Time:	0.498	Roll Set Point:	0.085	Pitch Set Point:	-0.234	Yaw Set Point:	-0.102	X_WP:	0.000	Y_WP:	0.000	Y_WP:	0.000	X:	-0.048	Y:	0.115	Z:	0.059	yaw:	5.859	yaw rate:	-0.101	Roll:	-1.131	Pitch:	3.586	Yaw:	9.058	Thrust:	0.000
Time:	0.508	Roll Set Point:	0.085	Pitch Set Point:	-0.234	Yaw Set Point:	-0.102	X_WP:	0.000	Y_WP:	0.000	Y_WP:	0.000	X:	-0.048	Y:	0.115	Z:	0.059	yaw:	5.848	yaw rate:	-1.073	Roll:	-1.107	Pitch:	3.587	Yaw:	8.804	Thrust:	0.000
Time:	0.518	Roll Set Point:	0.085	Pitch Set Point:	-0.234	Yaw Set Point:	-0.102	X_WP:	0.000	Y_WP:	0.000	Y_WP:	0.000	X:	-0.048	Y:	0.115	Z:	0.059	yaw:	5.852	yaw rate:	0.450	Roll:	-1.080	Pitch:	3.594	Yaw:	9.231	Thrust:	0.000
Time:	0.528	Roll Set Point:	0.085	Pitch Set Point:	-0.234	Yaw Set Point:	-0.102	X_WP:	0.000	Y_WP:	0.000	Y_WP:	0.000	X:	-0.048	Y:	0.115	Z:	0.059	yaw:	5.852	yaw rate:	-0.041	Roll:	-1.112	Pitch:	3.587	Yaw:	9.130	Thrust:	0.000
Time:	0.539	Roll Set Point:	0.085	Pitch Set Point:	-0.234	Yaw Set Point:	-0.102	X_WP:	0.000	Y_WP:	0.000	Y_WP:	0.000	X:	-0.048	Y:	0.115	Z:	0.059	yaw:	5.848	yaw rate:	-0.442	Roll:	-1.081	Pitch:	3.636	Yaw:	9.141	Thrust:	0.000
Time:	0.550	Roll Set Point:	0.085	Pitch Set Point:	-0.234	Yaw Set Point:	-0.102	X_WP:	0.000	Y_WP:	0.000	Y_WP:	0.000	X:	-0.048	Y:	0.115	Z:	0.059	yaw:	5.854	yaw rate:	0.628	Roll:	-1.080	Pitch:	3.600	Yaw:	9.340	Thrust:	0.000
Time:	0.561	Roll Set Point:	0.085	Pitch Set Point:	-0.234	Yaw Set Point:	-0.102	X_WP:	0.000	Y_WP:	0.000	Y_WP:	0.000	X:	-0.048	Y:	0.115	Z:	0.059	yaw:	5.853	yaw rate:	-0.093	Roll:	-1.119	Pitch:	3.625	Yaw:	9.253	Thrust:	0.000
Time:	0.572	Roll Set Point:	0.085	Pitch Set Point:	-0.234	Yaw Set Point:	-0.102	X_WP:	0.000	Y_WP:	0.000	Y_WP:	0.000	X:	-0.048	Y:	0.115	Z:	0.059	yaw:	5.850	yaw rate:	-0.311	Roll:	-1.127	Pitch:	3.613	Yaw:	9.197	Thrust:	0.000
Time:	0.583	Roll Set Point:	0.085	Pitch Set Point:	-0.234	Yaw Set Point:	-0.102	X_WP:	0.000	Y_WP:	0.000	Y_WP:	0.000	X:	-0.048	Y:	0.115	Z:	0.059	yaw:	5.854	yaw rate:	0.456	Roll:	-1.098	Pitch:	3.633	Yaw:	9.386	Thrust:	0.000
Time:	0.594	Roll Set Point:	0.085	Pitch Set Point:	-0.234	Yaw Set Point:	-0.102	X_WP:	0.000	Y_WP:	0.000	Y_WP:	0.000	X:	-0.048	Y:	0.115	Z:	0.059	yaw:	5.851	yaw rate:	-0.391	Roll:	-1.089	Pitch:	3.644	Yaw:	9.171	Thrust:	0.000
Time:	0.604	Roll Set Point:	0.085	Pitch Set Point:	-0.234	Yaw Set Point:	-0.102	X_WP:	0.000	Y_WP:	0.000	Y_WP:	0.000	X:	-0.048	Y:	0.115	Z:	0.059	yaw:	5.854	yaw rate:	0.391	Roll:	-1.096	Pitch:	3.606	Yaw:	9.286	Thrust:	0.000
Time:	0.616	Roll Set Point:	0.085	Pitch Set Point:	-0.234	Yaw Set Point:	-0.102	X_WP:	0.000	Y_WP:	0.000	Y_WP:	0.000	X:	-0.048	Y:	0.115	Z:	0.059	yaw:	5.854	yaw rate:	-0.028	Roll:	-1.113	Pitch:	3.656	Yaw:	9.364	Thrust:	0.000
Time:	0.627	Roll Set Point:	0.085	Pitch Set Point:	-0.234	Yaw Set Point:	-0.102	X_WP:	0.000	Y_WP:	0.000	Y_WP:	0.000	X:	-0.048	Y:	0.115	Z:	0.059	yaw:	5.847	yaw rate:	-0.716	Roll:	-1.133	Pitch:	3.647	Yaw:	9.097	Thrust:	0.000
Time:	0.637	Roll Set Point:	0.085	Pitch Set Point:	-0.234	Yaw Set Point:	-0.102	X_WP:	0.000	Y_WP:	0.000	Y_WP:	0.000	X:	-0.048	Y:	0.115	Z:	0.059	yaw:	5.846	yaw rate:	-0.056	Roll:	-1.100	Pitch:	3.624	Yaw:	9.151	Thrust:	0.000
Time:	0.647	Roll Set Point:	0.085	Pitch Set Point:	-0.234	Yaw Set Point:	-0.102	X_WP:	0.000	Y_WP:	0.000	Y_WP:	0.000	X:	-0.048	Y:	0.115	Z:	0.059	yaw:	5.858	yaw rate:	1.149	Roll:	-1.086	Pitch:	3.640	Yaw:	9.482	Thrust:	0.000
Time:	0.657	Roll Set Point:	0.085	Pitch Set Point:	-0.234	Yaw Set Point:	-0.102	X_WP:	0.000	Y_WP:	0.000	Y_WP:	0.000	X:	-0.048	Y:	0.115	Z:	0.059	yaw:	5.849	yaw rate:	-0.938	Roll:	-1.139	Pitch:	3.624	Yaw:	8.924	Thrust:	0.000
Time:	0.668	Roll Set Point:	0.085	Pitch Set Point:	-0.234	Yaw Set Point:	-0.102	X_WP:	0.000	Y_WP:	0.000	Y_WP:	0.000	X:	-0.048	Y:	0.115	Z:	0.059	yaw:	5.852	yaw rate:	0.362	Roll:	-1.067	Pitch:	3.661	Yaw:	9.275	Thrust:	0.000
Time:	0.678	Roll Set Point:	0.085	Pitch Set Point:	-0.234	Yaw Set Point:	-0.102	X_WP:	0.000	Y_WP:	0.000	Y_WP:	0.000	X:	-0.048	Y:	0.115	Z:	0.059	yaw:	5.854	yaw rate:	0.204	Roll:	-1.114	Pitch:	3.639	Yaw:	9.318	Thrust:	0.000
Time:	0.688	Roll Set Point:	0.085	Pitch Set Point:	-0.234	Yaw Set Point:	-0.102	X_WP:	0.000	Y_WP:	0.000	Y_WP:	0.000	X:	-0.048	Y:	0.115	Z:	0.059	yaw:	5.855	yaw rate:	0.077	Roll:	-1.097	Pitch:	3.661	Yaw:	9.198	Thrust:	0.000
Time:	0.698	Roll Set Point:	0.085	Pitch Set Point:	-0.234	Yaw Set Point:	-0.102	X_WP:	0.000	Y_WP:	0.000	Y_WP:	0.000	X:	-0.048	Y:	0.115	Z:	0.059	yaw:	5.853	yaw rate:	-0.198	Roll:	-1.155	Pitch:	3.635	Yaw:	9.124	Thrust:	0.000
Time:	0.709	Roll Set Point:	0.085	Pitch Set Point:	-0.234	Yaw Set Point:	-0.102	X_WP:	0.000	Y_WP:	0.000	Y_WP:	0.000	X:	-0.048	Y:	0.115	Z:	0.059	yaw:	5.853	yaw rate:	-0.017	Roll:	-1.104	Pitch:	3.667	Yaw:	9.271	Thrust:	0.000
Time:	0.720	Roll Set Point:	0.085	Pitch Set Point:	-0.234	Yaw Set Point:	-0.102	X_WP:	0.000	Y_WP:	0.000	Y_WP:	0.000	X:	-0.048	Y:	0.115	Z:	0.059	yaw:	5.854	yaw rate:	0.151	Roll:	-1.105	Pitch:	3.670	Yaw:	9.313	Thrust:	0.000
Time:	0.731	Roll Set Point:	0.085	Pitch Set Point:	-0.234	Yaw Set Point:	-0.102	X_WP:	0.000	Y_WP:	0.000	Y_WP:	0.000	X:	-0.048	Y:	0.115	Z:	0.059	yaw:	5.848	yaw rate:	-0.644	Roll:	-1.135	Pitch:	3.671	Yaw:	9.116	Thrust:	0.000
Time:	0.741	Roll Set Point:	0.085	Pitch Set Point:	-0.234	Yaw Set Point:	-0.102	X_WP:	0.000	Y_WP:	0.000	Y_WP:	0.000	X:	-0.048	Y:	0.115	Z:	0.059	yaw:	5.855	yaw rate:	0.701	Roll:	-1.081	Pitch:	3.671	Yaw:	9.366	Thrust:	0.000
Time:	0.753	Roll Set Point:	0.085	Pitch Set Point:	-0.234	Yaw Set Point:	-0.102	X_WP:	0.000	Y_WP:	0.000	Y_WP:	0.000	X:	-0.048	Y:	0.115	Z:	0.059	yaw:	5.849	yaw rate:	-0.613	Roll:	-1.160	Pitch:	3.666	Yaw:	9.121	Thrust:	0.000
Time:	0.763	Roll Set Point:	0.085	Pitch Set Point:	-0.234	Yaw Set Point:	-0.102	X_WP:	0.000	Y_WP:	0.000	Y_WP:	0.000	X:	-0.048	Y:	0.115	Z:	0.059	yaw:	5.850	yaw rate:	0.111	Roll:	-1.109	Pitch:	3.691	Yaw:	9.297	Thrust:	0.000
Time:	0.775	Roll Set Point:	0.085	Pitch Set Point:	-0.234	Yaw Set Point:	-0.102	X_WP:	0.000	Y_WP:	0.000	Y_WP:	0.000	X:	-0.048	Y:	0.115	Z:	0.059	yaw:	5.850	yaw rate:	0.039	Roll:	-1.133	Pitch:	3.709	Yaw:	9.375	Thrust:	0.000
Time:	0.785	Roll Set Point:	0.085	Pitch Set Point:	-0.234	Yaw Set Point:	-0.102	X_WP:	0.000	Y_WP:	0.000	Y_WP:	0.000	X:	-0.048	Y:	0.115	Z:	0.059	yaw:	5.856	yaw rate:	0.597	Roll:	-1.101	Pitch:	3.676	Yaw:	9.335	Thrust:	0.000
Time:	0.795	Roll Set Point:	0.085	Pitch Set Point:	-0.234	Yaw Set Point:	-0.102	X_WP:	0.000	Y_WP:	0.000	Y_WP:	0.000	X:	-0.048	Y:	0.115	Z:	0.059	yaw:	5.856	yaw rate:	0.597	Roll:	-1.118	Pitch:	3.673	Yaw:	9.180	Thrust:	0.000
Time:	0.805	Roll Set Point:	0.085	Pitch Set Point:	-0.234	Yaw Set Point:	-0.102	X_WP:	0.000	Y_WP:	0.000	Y_WP:	0.000	X:	-0.048	Y:	0.115	Z:	0.059	yaw:	5.853	yaw rate:	-0.326	Roll:	-1.111	Pitch:	3.684	Yaw:	9.093	Thrust:	0.000
Time:	0.815	Roll Set Point:	0.085	Pitch Set Point:	-0.234	Yaw Set Point:	-0.102	X_WP:	0.000	Y_WP:	0.000	Y_WP:	0.000	X:	-0.048	Y:	0.115	Z:	0.059	yaw:	5.853	yaw rate:	-0.025	Roll:	-1.142	Pitch:	3.661	Yaw:	9.166	Thrust:	0.000
Time:	0.825	Roll Set Point:	0.085	Pitch Set Point:	-0.234	Yaw Set Point:	-0.102	X_WP:	0.000	Y_WP:	0.000	Y_WP:	0.000	X:	-0.048	Y:	0.115	Z:	0.059	yaw:	5.852	yaw rate:	-0.121	Roll:	-1.125	Pitch:	3.686	Yaw:	9.141	Thrust:	0.000
Time:	0.836	Roll Set Point:	0.085	Pitch Set Point:	-0.234	Yaw Set Point:	-0.102	X_WP:	0.000	Y_WP:	0.000	Y_WP:	0.000	X:	-0.048	Y:	0.115	Z:	0.059	yaw:	5.854	yaw rate:	0.282	Roll:	-1.127	Pitch:	3.716	Yaw:	9.347	Thrust:	0.000
Time:	0.847	Roll Set Point:	0.085	Pitch Set Point:	-0.234	Yaw Set Point:	-0.102	X_WP:	0.000	Y_WP:	0.000	Y_WP:	0.000	X:	-0.048	Y:	0.115	Z:	0.059	yaw:	5.849	yaw rate:	-0.503	Roll:	-1.143	Pitch:	3.715	Yaw:	9.147	Thrust:	0.000
Time:	0.857	Roll Set Point:	0.085	Pitch Set Point:	-0.234	Yaw Set Point:	-0.102	X_WP:	0.000	Y_WP:	0.000	Y_WP:	0.000	X:	-0.048	Y:	0.115	Z:	0.059	yaw:	5.851	yaw rate:	0.153	Roll:	-1.127	Pitch:	3.684	Yaw:	9.212	Thrust:	0.000
Time:	0.867	Roll Set Point:	0.085	Pitch Set Point:	-0.234	Yaw Set Point:	-0.102	X_WP:	0.000	Y_WP:	0.000	Y_WP:	0.000	X:	-0.048	Y:	0.115	Z:	0.059	yaw:	5.853	yaw rate:	0.188	Roll:	-1.090	Pitch:	3.688	Yaw:	9.230	Thrust:	0.000
Time:	0.878	Roll Set Point:	0.085	Pitch Set Point:	-0.234	Yaw Set Point:	-0.102	X_WP:	0.000	Y_WP:	0.000	Y_WP:	0.000	X:	-0.048	Y:	0.115	Z:	0.059	yaw:	5.852	yaw rate:	-0.053	Roll:	-1.127	Pitch:	3.733	Yaw:	9.262	Thrust:	0.000
Time:	0.889	Roll Set Point:	0.085	Pitch Set Point:	-0.234	Yaw Set Point:	-0.102	X_WP:	0.000	Y_WP:	0.000	Y_WP:	0.000	X:	-0.048	Y:	0.115	Z:	0.059	yaw:	5.849	yaw rate:	-0.294	Roll:	-1.166	Pitch:	3.723	Yaw:	9.193	Thrust:	0.000
Time:	0.899	Roll Set Point:	0.085	Pitch Set Point:	-0.234	Yaw Set Point:	-0.102	X_WP:	0.000	Y_WP:	0.000	Y_WP:	0.000	X:	-0.048	Y:	0.115	Z:	0.059	yaw:	5.855	yaw rate:	0.535	Roll:	-1.112	Pitch:	3.698	Yaw:	9.323	Thrust:	0.000
Time:	0.910	Roll Set Point:	0.085	Pitch Set Point:	-0.234	Yaw Set Point:	-0.102	X_WP:	0.000	Y_WP:	0.000	Y_WP:	0.000	X:	-0.048	Y:	0.115	Z:	0.059	yaw:	5.854	yaw rate:	-0.111	Roll:	-1.132	Pitch:	3.732	Yaw:	9.243	Thrust:	0.000
Time:	0.920	Roll Set Point:	0.085	Pitch Set Point:	-0.234	Yaw Set Point:	-0.102	X_WP:	0.000	Y_WP:	0.000	Y_WP:	0.000	X:	-0.048	Y:	0.115	Z:	0.059	yaw:	5.850	yaw rate:	-0.399	Roll:	-1.132	Pitch:	3.716	Yaw:	9.069	Thrust:	0.000
Time:	0.930	Roll Set Point:	0.085	Pitch Set Point:	-0.234	Yaw Set Point:	-0.102	X_WP:	0.000	Y_WP:	0.000	Y_WP:	0.000	X:	-0.048	Y:	0.115	Z:	0.059	yaw:	5.852	yaw rate:	0.278	Roll:	-1.110	Pitch:	3.709	Yaw:	9.244	Thrust:	0.000
Time:	0.940	Roll Set Point:	0.085	Pitch Set Point:	-0.234	Yaw Set Point:	-0.102	X_WP:	0.000	Y_WP:	0.000	Y_WP:	0.000	X:	-0.048	Y:	0.115	Z:	0.059	yaw:	5.849	yaw rate:	-0.356	Roll:	-1.162	Pitch:	3.707	Yaw:	9.076	Thrust:	0.000
Time:	0.951	Roll Set Point:	0.085	Pitch Set Point:	-0.234	Yaw Set Point:	-0.102	X_WP:	0.000	Y_WP:	0.000	Y_WP:	0.000	X:	-0.048	Y:	0.115	Z:	0.059	yaw:	5.853	yaw rate:	0.432	Roll:	-1.133	Pitch:	3.729	Yaw:	9.288	Thrust:	0.000
Time:	0.961	Roll Set Point:	0.085	Pitch Set Point:	-0.234	Yaw Set Point:	-0.102	X_WP:	0.000	Y_WP:	0.000	Y_WP:	0.000	X:	-0.048	Y:	0.115	Z:	0.059	yaw:	5.853	yaw rate:	0.002	Roll:	-1.118	Pitch:	3.719	Yaw:	9.177	Thrust:	0.000
Time:	0.971	Roll Set Point:	0.085	Pitch Set Point:	-0.234	Yaw Set Point:	-0.102	X_WP:	0.000	Y_WP:	0.000	Y_WP:	0.000	X:	-0.048	Y:	0.115	Z:	0.059	yaw:	5.854	yaw rate:	0.076	Roll:	-1.127	Pitch:	3.719	Yaw:	9.195	Thrust:	0.000
Time:	0.981	Roll Set Point:	0.085	Pitch Set Point:	-0.234	Yaw Set Point:	-0.102	X_WP:	0.000	Y_WP:	0.000	Y_WP:	0.000	X:	-0.048	Y:	0.115	Z:	0.059	yaw:	5.854	yaw rate:	0.076	Roll:	-1.135	Pitch:	3.727	Yaw:	9.176	Thrust:	0.000
Time:	0.991	Roll Set Point:	0.085	Pitch Set Point:	-0.234	Yaw Set Point:	-0.102	X_WP:	0.000	Y_WP:	0.000	Y_WP:	0.000	X:	-0.048	Y:	0.115	Z:	0.059	yaw:	5.859	yaw rate:	0.507	Roll:	-1.137	Pitch:	3.740	Yaw:	9.316	Thrust:	0.000
Time:	1.001	Roll Set Point:	0.085	Pitch Set Point:	-0.234	Yaw Set Point:	-0.102	X_WP:	0.000	Y_WP:	0.000	Y_WP:	0.000	X:	-0.048	Y:	0.115	Z:	0.059	yaw:	5.856	yaw rate:	-0.308	Roll:	-1.128	Pitch:	3.718	Yaw:	9.106	Thrust:	0.000
Time:	1.012	Roll Set Point:	0.085	Pitch Set Point:	-0.234	Yaw Set Point:	-0.102	X_WP:	0.000	Y_WP:	0.000	Y_WP:	0.000	X:	-0.048	Y:	0.115	Z:	0.059	yaw:	5.849	yaw rate:	-0.663	Roll:	-1.157	Pitch:	3.768	Yaw:	9.105	Thrust:	0.000
Time:	1.022	Roll Set Point:	0.085	Pitch Set Point:	-0.234	Yaw Set Point:	-0.102	X_WP:	0.000	Y_WP:	0.000	Y_WP:	0.000	X:	-0.048	Y:	0.115	Z:	0.059	yaw:	5.846	yaw rate:	-0.318	Roll:	-1.184	Pitch:	3.738	Yaw:	9.082	Thrust:	0.000
Time:	1.032	Roll Set Point:	0.085	Pitch Set Point:	-0.234	Yaw Set Point:	-0.102	X_WP:	0.000	Y_WP:	0.000	Y_WP:	0.000	X:	-0.048	Y:	0.115	Z:	0.059	yaw:	5.853	yaw rate:	0.742	Roll:	-1.089	Pitch:	3.743	Yaw:	9.369	Thrust:	0.000
Time:	1.042	Roll Set Point:	0.085	Pitch Set Point:	-0.234	Yaw Set Point:	-0.102	X_WP:	0.000	Y_WP:	0.000	Y_WP:	0.000	X:	-0.048	Y:	0.115	Z:	0.059	yaw:	5.853	yaw rate:	-0.067	Roll:	-1.139	Pitch:	3.741	Yaw:	9.158	Thrust:	0.000
Time:	1.052	Roll Set Point:	0.085	Pitch Set Point:	-0.234	Yaw Set Point:	-0.102	X_WP:	0.000	Y_WP:	0.000	Y_WP:	0.000	X:	-0.048	Y:	0.115	Z:	0.059	yaw:	5.850	yaw rate:	-0.280	Roll:	-1.157	Pitch:	3.762	Yaw:	9.104	Thrust:	0.000
Time:	1.062	Roll Set Point:	0.085	Pitch Set Point:	-0.234	Yaw Set Point:	-0.102	X_WP:	0.000	Y_WP:	0.000	Y_WP:	0.000	X:	-0.048	Y:	0.115	Z:	0.059	yaw:	5.854	yaw rate:	0.450	Roll:	-1.118	Pitch:	3.754	Yaw:	9.294	Thrust:	0.000
Time:	1.073	Roll Set Point:	0.085	Pitch Set Point:	-0.234	Yaw Set Point:	-0.102	X_WP:	0.000	Y_WP:	0.000	Y_WP:	0.000	X:	-0.048	Y:	0.115	Z:	0.059	yaw:	5.851	yaw rate:	-0.370	Roll:	-1.179	Pitch:	3.763	Yaw:	9.184	Thrust:	0.000
Time:	1.084	Roll Set Point:	0.085	Pitch Set Point:	-0.234	Yaw Set Point:	-0.102	X_WP:	0.000	Y_WP:	0.000	Y_WP:	0.000	X:	-0.048	Y:	0.115	Z:	0.059	yaw:	5.855	yaw rate:	0.382	Roll:	-1.143	Pitch:	3.807	Yaw:	9.362	Thrust:	0.000
Time:	1.094	Roll Set Point:	0.085	Pitch Set Point:	-0.234	Yaw Set Point:	-0.102	X_WP:	0.000	Y_WP:	0.000	Y_WP:	0.000	X:	-0.048	Y:	0.115	Z:	0.059	yaw:	5.855	yaw rate:	0.007	Roll:	-1.135	Pitch:	3.767	Yaw:	9.179	Thrust:	0.000
Time:	1.104	Roll Set Point:	0.085	Pitch Set Point:	-0.234	Yaw Set Point:	-0.102	X_WP:	0.000	Y_WP:	0.000	Y_WP:	0.000	X:	-0.048	Y:	0.115	Z:	0.059	yaw:	5.856	yaw rate:	0.169	Roll:	-1.146	Pitch:	3.748	Yaw:	9.225	Thrust:	0.000
Time:	1.114	Roll Set Point:	0.085	Pitch Set Point:	-0.234	Yaw Set Point:	-0.102	X_WP:	0.000	Y_WP:	0.000	Y_WP:	0.000	X:	-0.048	Y:	0.115	Z:	0.059	yaw:	5.854	yaw rate:	-0.246	Roll:	-1.144	Pitch:	3.768	Yaw:	9.112	Thrust:	0.000
Time:	1.124	Roll Set Point:	0.085	Pitch Set Point:	-0.234	Yaw Set Point:	-0.102	X_WP:	0.000	Y_WP:	0.000	Y_WP:	0.000	X:	-0.048	Y:	0.115	Z:	0.059	yaw:	5.854	yaw rate:	-0.246	Roll:	-1.148	Pitch:	3.772	Yaw:	9.184	Thrust:	0.000
Time:	1.135	Roll Set Point:	0.085	Pitch Set Point:	-0.234	Yaw Set Point:	-0.102	X_WP:	0.000	Y_WP:	0.000	Y_WP:	0.000	X:	-0.048	Y:	0.115	Z:	0.059	yaw:	5.848	yaw rate:	-0.572	Roll:	-1.179	Pitch:	3.794	Yaw:	9.123	Thrust:	0.000
Time:	1.145	Roll Set Point:	0.085	Pitch Set Point:	-0.234	Yaw Set Point:	-0.102	X_WP:	0.000	Y_WP:	0.000	Y_WP:	0.000	X:	-0.048	Y:	0.115	Z:	0.059	yaw:	5.854	yaw rate:	0.616	Roll:	-1.146	Pitch:	3.781	Yaw:	9.343	Thrust:	0.000
Time:	1.156	Roll Set Point:	0.085	Pitch Set Point:	-0.234	Yaw Set Point:	-0.102	X_WP:	0.000	Y_WP:	0.000	Y_WP:	0.000	X:	-0.048	Y:	0.115	Z:	0.059	yaw:	5.855	yaw rate:	0.033	Roll:	-1.148	Pitch:	3.813	Yaw:	9.280	Thrust:	0.000
Time:	1.166	Roll Set Point:	0.085	Pitch Set Point:	-0.234	Yaw Set Point:	-0.102	X_WP:	0.000	Y_WP:	0.000	Y_WP:	0.000	X:	-0.048	Y:	0.115	Z:	0.059	yaw:	5.851	yaw rate:	-0.384	Roll:	-1.164	Pitch:	3.784	Yaw:	9.071	Thrust:	0.000
Time:	1.176	Roll Set Point:	0.085	Pitch Set Point:	-0.234	Yaw Set Point:	-0.102	X_WP:	0.000	Y_WP:	0.000	Y_WP:	0.000	X:	-0.048	Y:	0.115	Z:	0.059	yaw:	5.851	yaw rate:	0.028	Roll:	-1.160	Pitch:	3.781	Yaw:	9.186	Thrust:	0.000
Time:	1.187	Roll Set Point:	0.085	Pitch Set Point:	-0.234	Yaw Set Point:	-0.102	X_WP:	0.000	Y_WP:	0.000	Y_WP:	0.000	X:	-0.048	Y:	0.115	Z:	0.059	yaw:	5.856	yaw rate:	0.509	Roll:	-1.145	Pitch:	3.823	Yaw:	9.395	Thrust:	0.000
Time:	1.197	Roll Set Point:	0.085	Pitch Set Point:	-0.234	Yaw Set Point:	-0.102	X_WP:	0.000	Y_WP:	0.000	Y_WP:	0.000	X:	-0.048	Y:	0.115	Z:	0.059	yaw:	5.855	yaw rate:	-0.083	Roll:	-1.142	Pitch:	3.783	Yaw:	9.157	Thrust:	0.000
Time:	1.207	Roll Set Point:	0.085	Pitch Set Point:	-0.234	Yaw Set Point:	-0.102	X_WP:	0.000	Y_WP:	0.000	Y_WP:	0.000	X:	-0.048	Y:	0.115	Z:	0.059	yaw:	5.851	yaw rate:	-0.422	Roll:	-1.177	Pitch:	3.792	Yaw:	9.065	Thrust:	0.000
Time:	1.218	Roll Set Point:	0.085	Pitch Set Point:	-0.234	Yaw Set Point:	-0.102	X_WP:	0.000	Y_WP:	0.000	Y_WP:	0.000	X:	-0.048	Y:	0.115	Z:	0.059	yaw:	5.847	yaw rate:	-0.423	Roll:	-1.171	Pitch:	3.827	Yaw:	9.163	Thrust:	0.000
Time:	1.228	Roll Set Point:	0.085	Pitch Set Point:	-0.234	Yaw Set Point:	-0.102	X_WP:	0.000	Y_WP:	0.000	Y_WP:	0.000	X:	-0.048	Y:	0.115	Z:	0.059	yaw:	5.851	yaw rate:	0.366	Roll:	-1.180	Pitch:	3.797	Yaw:	9.275	Thrust:	0.000
Time:	1.238	Roll Set Point:	0.085	Pitch Set Point:	-0.234	Yaw Set Point:	-0.102	X_WP:	0.000	Y_WP:	0.000	Y_WP:	0.000	X:	-0.048	Y:	0.115	Z:	0.059	yaw:	5.849	yaw rate:	-0.156	Roll:	-1.142	Pitch:	3.812	Yaw:	9.128	Thrust:	0.000
Time:	1.248	Roll Set Point:	0.085	Pitch Set Point:	-0.234	Yaw Set Point:	-0.102	X_WP:	0.000	Y_WP:	0.000	Y_WP:	0.000	X:	-0.048	Y:	0.115	Z:	0.059	yaw:	5.853	yaw rate:	0.351	Roll:	-1.149	Pitch:	3.807	Yaw:	9.264	Thrust:	0.000
Time:	1.259	Roll Set Point:	0.085	Pitch Set Point:	-0.234	Yaw Set Point:	-0.102	X_WP:	0.000	Y_WP:	0.000	Y_WP:	0.000	X:	-0.048	Y:	0.115	Z:	0.059	yaw:	5.856	yaw rate:	0.372	Roll:	-1.141	Pitch:	3.855	Yaw:	9.371	Thrust:	0.000
Time:	1.270	Roll Set Point:	0.085	Pitch Set Point:	-0.234	Yaw Set Point:	-0.102	X_WP:	0.000	Y_WP:	0.000	Y_WP:	0.000	X:	-0.048	Y:	0.115	Z:	0.059	yaw:	5.856	yaw rate:	-0.071	Roll:	-1.198	Pitch:	3.825	Yaw:	9.252	Thrust:	0.000
Time:	1.281	Roll Set Point:	0.085	Pitch Set Point:	-0.234	Yaw Set Point:	-0.102	X_WP:	0.000	Y_WP:	0.000	Y_WP:	0.000	X:	-0.048	Y:	0.115	Z:	0.059	yaw:	5.857	yaw rate:	0.158	Roll:	-1.152	Pitch:	3.814	Yaw:	9.222	Thrust:	0.000
Time:	1.292	Roll Set Point:	0.085	Pitch Set Point:	-0.234	Yaw Set Point:	-0.102	X_WP:	0.000	Y_WP:	0.000	Y_WP:	0.000	X:	-0.048	Y:	0.115	Z:	0.059	yaw:	5.858	yaw rate:	0.127	Roll:	-1.144	Pitch:	3.873	Yaw:	9.313	Thrust:	0.000
Time:	1.303	Roll Set Point:	0.085	Pitch Set Point:	-0.234	Yaw Set Point:	-0.102	X_WP:	0.000	Y_WP:	0.000	Y_WP:	0.000	X:	-0.048	Y:	0.115	Z:	0.059	yaw:	5.858	yaw rate:	-0.049	Roll:	-1.206	Pitch:	3.841	Yaw:	9.271	Thrust:	0.000
Time:	1.313	Roll Set Point:	0.085	Pitch Set Point:	-0.234	Yaw Set Point:	-0.102	X_WP:	0.000	Y_WP:	0.000	Y_WP:	0.000	X:	-0.048	Y:	0.115	Z:	0.059	yaw:	5.857	yaw rate:	-0.112	Roll:	-1.167	Pitch:	3.856	Yaw:	9.254	Thrust:	0.000
Time:	1.326	Roll Set Point:	0.085	Pitch Set Point:	-0.234	Yaw Set Point:	-0.102	X_WP:	0.000	Y_WP:	0.000	Y_WP:	0.000	X:	-0.048	Y:	0.115	Z:	0.059	yaw:	5.848	yaw rate:	-0.876	Roll:	-1.179	Pitch:	3.862	Yaw:	9.184	Thrust:	0.000
Time:	1.337	Roll Set Point:	0.085	Pitch Set Point:	-0.234	Yaw Set Point:	-0.102	X_WP:	0.000	Y_WP:	0.000	Y_WP:	0.000	X:	-0.048	Y:	0.115	Z:	0.059	yaw:	5.853	yaw rate:	0.519	Roll:	-1.199	Pitch:	3.907	Yaw:	9.394	Thrust:	0.000
Time:	1.347	Roll Set Point:	0.085	Pitch Set Point:	-0.234	Yaw Set Point:	-0.102	X_WP:	0.000	Y_WP:	0.000	Y_WP:	0.000	X:	-0.048	Y:	0.115	Z:	0.059	yaw:	5.853	yaw rate:	-0.030	Roll:	-1.162	Pitch:	3.834	Yaw:	9.167	Thrust:	0.000
Time:	1.357	Roll Set Point:	0.085	Pitch Set Point:	-0.234	Yaw Set Point:	-0.102	X_WP:	0.000	Y_WP:	0.000	Y_WP:	0.000	X:	-0.048	Y:	0.115	Z:	0.059	yaw:	5.853	yaw rate:	0.033	Roll:	-1.170	Pitch:	3.835	Yaw:	9.189	Thrust:	0.000
Time:	1.367	Roll Set Point:	0.085	Pitch Set Point:	-0.234	Yaw Set Point:	-0.102	X_WP:	0.000	Y_WP:	0.000	Y_WP:	0.000	X:	-0.048	Y:	0.115	Z:	0.059	yaw:	5.850	yaw rate:	-0.314	Roll:	-1.156	Pitch:	3.828	Yaw:	9.089	Thrust:	0.000
Time:	1.377	Roll Set Point:	0.085	Pitch Set Point:	-0.234	Yaw Set Point:	-0.102	X_WP:	0.000	Y_WP:	0.000	Y_WP:	0.000	X:	-0.048	Y:	0.115	Z:	0.059	yaw:	5.850	yaw rate:	-0.314	Roll:	-1.169	Pitch:	3.834	Yaw:	9.171	Thrust:	0.000
Time:	1.387	Roll Set Point:	0.085	Pitch Set Point:	-0.234	Yaw Set Point:	-0.102	X_WP:	0.000	Y_WP:	0.000	Y_WP:	0.000	X:	-0.048	Y:	0.115	Z:	0.059	yaw:	5.846	yaw rate:	-0.405	Roll:	-1.195	Pitch:	3.817	Yaw:	9.059	Thrust:	0.000
Time:	1.398	Roll Set Point:	0.085	Pitch Set Point:	-0.234	Yaw Set Point:	-0.102	X_WP:	0.000	Y_WP:	0.000	Y_WP:	0.000	X:	-0.048	Y:	0.115	Z:	0.059	yaw:	5.860	yaw rate:	1.437	Roll:	-1.137	Pitch:	3.902	Yaw:	9.623	Thrust:	0.000
Time:	1.409	Roll Set Point:	0.085	Pitch Set Point:	-0.234	Yaw Set Point:	-0.102	X_WP:	0.000	Y_WP:	0.000	Y_WP:	0.000	X:	-0.048	Y:	0.115	Z:	0.059	yaw:	5.852	yaw rate:	-0.809	Roll:	-1.232	Pitch:	3.866	Yaw:	9.082	Thrust:	0.000
Time:	1.419	Roll Set Point:	0.085	Pitch Set Point:	-0.234	Yaw Set Point:	-0.102	X_WP:	0.000	Y_WP:	0.000	Y_WP:	0.000	X:	-0.048	Y:	0.115	Z:	0.059	yaw:	5.850	yaw rate:	-0.190	Roll:	-1.166	Pitch:	3.815	Yaw:	9.122	Thrust:	0.000
Time:	1.429	Roll Set Point:	0.085	Pitch Set Point:	-0.234	Yaw Set Point:	-0.102	X_WP:	0.000	Y_WP:	0.000	Y_WP:	0.000	X:	-0.048	Y:	0.115	Z:	0.059	yaw:	5.858	yaw rate:	0.765	Roll:	-1.136	Pitch:	3.855	Yaw:	9.382	Thrust:	0.000
Time:	1.440	Roll Set Point:	0.085	Pitch Set Point:	-0.234	Yaw Set Point:	-0.102	X_WP:	0.000	Y_WP:	0.000	Y_WP:	0.000	X:	-0.048	Y:	0.115	Z:	0.059	yaw:	5.859	yaw rate:	0.088	Roll:	-1.190	Pitch:	3.878	Yaw:	9.310	Thrust:	0.000
Time:	1.451	Roll Set Point:	0.085	Pitch Set Point:	-0.234	Yaw Set Point:	-0.102	X_WP:	0.000	Y_WP:	0.000	Y_WP:	0.000	X:	-0.048	Y:	0.115	Z:	0.059	yaw:	5.856	yaw rate:	-0.329	Roll:	-1.187	Pitch:	3.858	Yaw:	9.195	Thrust:	0.000
Time:	1.461	Roll Set Point:	0.085	Pitch Set Point:	-0.234	Yaw Set Point:	-0.102	X_WP:	0.000	Y_WP:	0.000	Y_WP:	0.000	X:	-0.048	Y:	0.115	Z:	0.059	yaw:	5.852	yaw rate:	-0.365	Roll:	-1.197	Pitch:	3.831	Yaw:	9.078	Thrust:	0.000
Time:	1.471	Roll Set Point:	0.085	Pitch Set Point:	-0.234	Yaw Set Point:	-0.102	X_WP:	0.000	Y_WP:	0.000	Y_WP:	0.000	X:	-0.048	Y:	0.115	Z:	0.059	yaw:	5.850	yaw rate:	-0.235	Roll:	-1.198	Pitch:	3.844	Yaw:	9.113	Thrust:	0.000
Time:	1.481	Roll Set Point:	0.085	Pitch Set Point:	-0.234	Yaw Set Point:	-0.102	X_WP:	0.000	Y_WP:	0.000	Y_WP:	0.000	X:	-0.048	Y:	0.115	Z:	0.059	yaw:	5.858	yaw rate:	0.804	Roll:	-1.144	Pitch:	3.838	Yaw:	9.393	Thrust:	0.000
Time:	1.492	Roll Set Point:	0.085	Pitch Set Point:	-0.234	Yaw Set Point:	-0.102	X_WP:	0.000	Y_WP:	0.000	Y_WP:	0.000	X:	-0.048	Y:	0.115	Z:	0.059	yaw:	5.852	yaw rate:	-0.541	Roll:	-1.198	Pitch:	3.857	Yaw:	9.140	Thrust:	0.000
Time:	1.503	Roll Set Point:	0.085	Pitch Set Point:	-0.234	Yaw Set Point:	-0.102	X_WP:	0.000	Y_WP:	0.000	Y_WP:	0.000	X:	-0.048	Y:	0.115	Z:	0.059	yaw:	5.853	yaw rate:	0.081	Roll:	-1.197	Pitch:	3.876	Yaw:	9.295	Thrust:	0.000
Time:	1.514	Roll Set Point:	0.085	Pitch Set Point:	-0.234	Yaw Set Point:	-0.102	X_WP:	0.000	Y_WP:	0.000	Y_WP:	0.000	X:	-0.048	Y:	0.115	Z:	0.059	yaw:	5.858	yaw rate:	0.448	Roll:	-1.157	Pitch:	3.851	Yaw:	9.305	Thrust:	0.000
Time:	1.525	Roll Set Point:	0.085	Pitch Set Point:	-0.234	Yaw Set Point:	-0.102	X_WP:	0.000	Y_WP:	0.000	Y_WP:	0.000	X:	-0.048	Y:	0.115	Z:	0.059	yaw:	5.851	yaw rate:	-0.695	Roll:	-1.219	Pitch:	3.848	Yaw:	9.212	Thrust:	0.000
Time:	1.536	Roll Set Point:	0.085	Pitch Set Point:	-0.234	Yaw Set Point:	-0.102	X_WP:	0.000	Y_WP:	0.000	Y_WP:	0.000	X:	-0.048	Y:	0.115	Z:	0.059	yaw:	5.854	yaw rate:	0.325	Roll:	-1.202	Pitch:	3.880	Yaw:	9.261	Thrust:	0.000
Time:	1.546	Roll Set Point:	0.085	Pitch Set Point:	-0.234	Yaw Set Point:	-0.102	X_WP:	0.000	Y_WP:	0.000	Y_WP:	0.000	X:	-0.048	Y:	0.115	Z:	0.059	yaw:	5.857	yaw rate:	0.288	Roll:	-1.186	Pitch:	3.884	Yaw:	9.353	Thrust:	0.000
Time:	1.556	Roll Set Point:	0.085	Pitch Set Point:	-0.234	Yaw Set Point:	-0.102	X_WP:	0.000	Y_WP:	0.000	Y_WP:	0.000	X:	-0.048	Y:	0.115	Z:	0.059	yaw:	5.855	yaw rate:	-0.128	Roll:	-1.186	Pitch:	3.823	Yaw:	9.145	Thrust:	0.000
Time:	1.567	Roll Set Point:	0.085	Pitch Set Point:	-0.234	Yaw Set Point:	-0.102	X_WP:	0.000	Y_WP:	0.000	Y_WP:	0.000	X:	-0.048	Y:	0.115	Z:	0.059	yaw:	5.852	yaw rate:	-0.349	Roll:	-1.208	Pitch:	3.875	Yaw:	9.186	Thrust:	0.000
Time:	1.577	Roll Set Point:	0.085	Pitch Set Point:	-0.234	Yaw Set Point:	-0.102	X_WP:	0.000	Y_WP:	0.000	Y_WP:	0.000	X:	-0.048	Y:	0.115	Z:	0.059	yaw:	5.855	yaw rate:	0.269	Roll:	-1.177	Pitch:	3.837	Yaw:	9.252	Thrust:	0.000
Time:	1.588	Roll Set Point:	0.085	Pitch Set Point:	-0.234	Yaw Set Point:	-0.102	X_WP:	0.000	Y_WP:	0.000	Y_WP:	0.000	X:	-0.048	Y:	0.115	Z:	0.059	yaw:	5.851	yaw rate:	-0.366	Roll:	-1.220	Pitch:	3.859	Yaw:	9.180	Thrust:	0.000
Time:	1.598	Roll Set Point:	0.085	Pitch Set Point:	-0.234	Yaw Set Point:	-0.102	X_WP:	0.000	Y_WP:	0.000	Y_WP:	0.000	X:	-0.048	Y:	0.115	Z:	0.059	yaw:	5.851	yaw rate:	-0.366	Roll:	-1.189	Pitch:	3.834	Yaw:	9.173	Thrust:	0.000
Time:	1.609	Roll Set Point:	0.085	Pitch Set Point:	-0.234	Yaw Set Point:	-0.102	X_WP:	0.000	Y_WP:	0.000	Y_WP:	0.000	X:	-0.048	Y:	0.115	Z:	0.059	yaw:	5.855	yaw rate:	0.361	Roll:	-1.172	Pitch:	3.871	Yaw:	9.363	Thrust:	0.000
Time:	1.620	Roll Set Point:	0.085	Pitch Set Point:	-0.234	Yaw Set Point:	-0.102	X_WP:	0.000	Y_WP:	0.000	Y_WP:	0.000	X:	-0.048	Y:	0.115	Z:	0.059	yaw:	5.853	yaw rate:	-0.132	Roll:	-1.222	Pitch:	3.881	Yaw:	9.244	Thrust:	0.000
Time:	1.631	Roll Set Point:	0.085	Pitch Set Point:	-0.234	Yaw Set Point:	-0.102	X_WP:	0.000	Y_WP:	0.000	Y_WP:	0.000	X:	-0.048	Y:	0.115	Z:	0.059	yaw:	5.860	yaw rate:	0.659	Roll:	-1.170	Pitch:	3.871	Yaw:	9.441	Thrust:	0.000
Time:	1.642	Roll Set Point:	0.085	Pitch Set Point:	-0.234	Yaw Set Point:	-0.102	X_WP:	0.000	Y_WP:	0.000	Y_WP:	0.000	X:	-0.048	Y:	0.115	Z:	0.059	yaw:	5.856	yaw rate:	-0.368	Roll:	-1.217	Pitch:	3.873	Yaw:	9.193	Thrust:	0.000
Time:	1.652	Roll Set Point:	0.085	Pitch Set Point:	-0.234	Yaw Set Point:	-0.102	X_WP:	0.000	Y_WP:	0.000	Y_WP:	0.000	X:	-0.048	Y:	0.115	Z:	0.059	yaw:	5.851	yaw rate:	-0.513	Roll:	-1.229	Pitch:	3.833	Yaw:	9.038	Thrust:	0.000
Time:	1.662	Roll Set Point:	0.085	Pitch Set Point:	-0.234	Yaw Set Point:	-0.102	X_WP:	0.000	Y_WP:	0.000	Y_WP:	0.000	X:	-0.048	Y:	0.115	Z:	0.059	yaw:	5.857	yaw rate:	0.627	Roll:	-1.171	Pitch:	3.843	Yaw:	9.350	Thrust:	0.000
Time:	1.673	Roll Set Point:	0.085	Pitch Set Point:	-0.234	Yaw Set Point:	-0.102	X_WP:	0.000	Y_WP:	0.000	Y_WP:	0.000	X:	-0.048	Y:	0.115	Z:	0.059	yaw:	5.852	yaw rate:	-0.583	Roll:	-1.197	Pitch:	3.825	Yaw:	9.020	Thrust:	0.000
Time:	1.683	Roll Set Point:	0.085	Pitch Set Point:	-0.234	Yaw Set Point:	-0.102	X_WP:	0.000	Y_WP:	0.000	Y_WP:	0.000	X:	-0.048	Y:	0.115	Z:	0.059	yaw:	5.852	yaw rate:	0.059	Roll:	-1.209	Pitch:	3.872	Yaw:	9.284	Thrust:	0.000
Time:	1.693	Roll Set Point:	0.085	Pitch Set Point:	-0.234	Yaw Set Point:	-0.102	X_WP:	0.000	Y_WP:	0.000	Y_WP:	0.000	X:	-0.048	Y:	0.115	Z:	0.059	yaw:	5.855	yaw rate:	0.336	Roll:	-1.185	Pitch:	3.826	Yaw:	9.264	Thrust:	0.000
Time:	1.704	Roll Set Point:	0.085	Pitch Set Point:	-0.234	Yaw Set Point:	-0.102	X_WP:	0.000	Y_WP:	0.000	Y_WP:	0.000	X:	-0.048	Y:	0.115	Z:	0.059	yaw:	5.854	yaw rate:	-0.133	Roll:	-1.226	Pitch:	3.835	Yaw:	9.142	Thrust:	0.000
Time:	1.714	Roll Set Point:	0.085	Pitch Set Point:	-0.234	Yaw Set Point:	-0.102	X_WP:	0.000	Y_WP:	0.000	Y_WP:	0.000	X:	-0.048	Y:	0.115	Z:	0.059	yaw:	5.860	yaw rate:	0.571	Roll:	-1.176	Pitch:	3.847	Yaw:	9.333	Thrust:	0.000
Time:	1.724	Roll Set Point:	0.085	Pitch Set Point:	-0.234	Yaw Set Point:	-0.102	X_WP:	0.000	Y_WP:	0.000	Y_WP:	0.000	X:	-0.048	Y:	0.115	Z:	0.059	yaw:	5.857	yaw rate:	-0.335	Roll:	-1.213	Pitch:	3.830	Yaw:	9.093	Thrust:	0.000
Time:	1.734	Roll Set Point:	0.085	Pitch Set Point:	-0.234	Yaw Set Point:	-0.102	X_WP:	0.000	Y_WP:	0.000	Y_WP:	0.000	X:	-0.048	Y:	0.115	Z:	0.059	yaw:	5.848	yaw rate:	-0.880	Roll:	-1.226	Pitch:	3.836	Yaw:	8.944	Thrust:	0.000
Time:	1.745	Roll Set Point:	0.085	Pitch Set Point:	-0.234	Yaw Set Point:	-0.102	X_WP:	0.000	Y_WP:	0.000	Y_WP:	0.000	X:	-0.048	Y:	0.115	Z:	0.059	yaw:	5.849	yaw rate:	0.158	Roll:	-1.199	Pitch:	3.863	Yaw:	9.302	Thrust:	0.000
Time:	1.755	Roll Set Point:	0.085	Pitch Set Point:	-0.234	Yaw Set Point:	-0.102	X_WP:	0.000	Y_WP:	0.000	Y_WP:	0.000	X:	-0.048	Y:	0.115	Z:	0.059	yaw:	5.850	yaw rate:	0.088	Roll:	-1.192	Pitch:	3.836	Yaw:	9.194	Thrust:	0.000
Time:	1.765	Roll Set Point:	0.085	Pitch Set Point:	-0.234	Yaw Set Point:	-0.102	X_WP:	0.000	Y_WP:	0.000	Y_WP:	0.000	X:	-0.048	Y:	0.115	Z:	0.059	yaw:	5.860	yaw rate:	1.018	Roll:	-1.193	Pitch:	3.833	Yaw:	9.451	Thrust:	0.000
Time:	1.775	Roll Set Point:	0.085	Pitch Set Point:	-0.234	Yaw Set Point:	-0.102	X_WP:	0.000	Y_WP:	0.000	Y_WP:	0.000	X:	-0.048	Y:	0.115	Z:	0.059	yaw:	5.860	yaw rate:	1.018	Roll:	-1.204	Pitch:	3.834	Yaw:	9.185	Thrust:	0.000
Time:	1.785	Roll Set Point:	0.085	Pitch Set Point:	-0.234	Yaw Set Point:	-0.102	X_WP:	0.000	Y_WP:	0.000	Y_WP:	0.000	X:	-0.048	Y:	0.115	Z:	0.059	yaw:	5.856	yaw rate:	-0.397	Roll:	-1.219	Pitch:	3.835	Yaw:	9.078	Thrust:	0.000
Time:	1.795	Roll Set Point:	0.085	Pitch Set Point:	-0.234	Yaw Set Point:	-0.102	X_WP:	0.000	Y_WP:	0.000	Y_WP:	0.000	X:	-0.048	Y:	0.115	Z:	0.059	yaw:	5.853	yaw rate:	-0.289	Roll:	-1.237	Pitch:	3.836	Yaw:	9.098	Thrust:	0.000
Time:	1.805	Roll Set Point:	0.085	Pitch Set Point:	-0.234	Yaw Set Point:	-0.102	X_WP:	0.000	Y_WP:	0.000	Y_WP:	0.000	X:	-0.048	Y:	0.115	Z:	0.059	yaw:	5.851	yaw rate:	-0.214	Roll:	-1.181	Pitch:	3.832	Yaw:	9.120	Thrust:	0.000
Time:	1.815	Roll Set Point:	0.085	Pitch Set Point:	-0.234	Yaw Set Point:	-0.102	X_WP:	0.000	Y_WP:	0.000	Y_WP:	0.000	X:	-0.048	Y:	0.115	Z:	0.059	yaw:	5.858	yaw rate:	0.692	Roll:	-1.168	Pitch:	3.851	Yaw:	9.362	Thrust:	0.000
Time:	1.825	Roll Set Point:	0.085	Pitch Set Point:	-0.234	Yaw Set Point:	-0.102	X_WP:	0.000	Y_WP:	0.000	Y_WP:	0.000	X:	-0.048	Y:	0.115	Z:	0.059	yaw:	5.849	yaw rate:	-0.904	Roll:	-1.263	Pitch:	3.807	Yaw:	8.932	Thrust:	0.000
Time:	1.835	Roll Set Point:	0.085	Pitch Set Point:	-0.234	Yaw Set Point:	-0.102	X_WP:	0.000	Y_WP:	0.000	Y_WP:	0.000	X:	-0.048	Y:	0.115	Z:	0.059	yaw:	5.856	yaw rate:	0.633	Roll:	-1.196	Pitch:	3.839	Yaw:	9.349	Thrust:	0.000
Time:	1.846	Roll Set Point:	0.085	Pitch Set Point:	-0.234	Yaw Set Point:	-0.102	X_WP:	0.000	Y_WP:	0.000	Y_WP:	0.000	X:	-0.048	Y:	0.115	Z:	0.059	yaw:	5.850	yaw rate:	-0.572	Roll:	-1.231	Pitch:	3.878	Yaw:	9.136	Thrust:	0.000
Time:	1.857	Roll Set Point:	0.085	Pitch Set Point:	-0.234	Yaw Set Point:	-0.102	X_WP:	0.000	Y_WP:	0.000	Y_WP:	0.000	X:	-0.048	Y:	0.115	Z:	0.059	yaw:	5.854	yaw rate:	0.435	Roll:	-1.238	Pitch:	3.884	Yaw:	9.380	Thrust:	0.000
Time:	1.867	Roll Set Point:	0.085	Pitch Set Point:	-0.234	Yaw Set Point:	-0.102	X_WP:	0.000	Y_WP:	0.000	Y_WP:	0.000	X:	-0.048	Y:	0.115	Z:	0.059	yaw:	5.860	yaw rate:	0.601	Roll:	-1.154	Pitch:	3.832	Yaw:	9.342	Thrust:	0.000
Time:	1.877	Roll Set Point:	0.085	Pitch Set Point:	-0.234	Yaw Set Point:	-0.102	X_WP:	0.000	Y_WP:	0.000	Y_WP:	0.000	X:	-0.048	Y:	0.115	Z:	0.059	yaw:	5.857	yaw rate:	-0.309	Roll:	-1.228	Pitch:	3.823	Yaw:	9.100	Thrust:	0.000
Time:	1.888	Roll Set Point:	0.085	Pitch Set Point:	-0.234	Yaw Set Point:	-0.102	X_WP:	0.000	Y_WP:	0.000	Y_WP:	0.000	X:	-0.048	Y:	0.115	Z:	0.059	yaw:	5.851	yaw rate:	-0.597	Roll:	-1.239	Pitch:	3.869	Yaw:	9.123	Thrust:	0.000
Time:	1.898	Roll Set Point:	0.085	Pitch Set Point:	-0.234	Yaw Set Point:	-0.102	X_WP:	0.000	Y_WP:	0.000	Y_WP:	0.000	X:	-0.048	Y:	0.115	Z:	0.059	yaw:	5.850	yaw rate:	-0.146	Roll:	-1.251	Pitch:	3.822	Yaw:	9.133	Thrust:	0.000
Time:	1.908	Roll Set Point:	0.085	Pitch Set Point:	-0.234	Yaw Set Point:	-0.102	X_WP:	0.000	Y_WP:	0.000	Y_WP:	0.000	X:	-0.048	Y:	0.115	Z:	0.059	yaw:	5.842	yaw rate:	-0.758	Roll:	-1.236	Pitch:	3.849	Yaw:	8.961	Thrust:	0.000
Time:	1.918	Roll Set Point:	0.085	Pitch Set Point:	-0.234	Yaw Set Point:	-0.102	X_WP:	0.000	Y_WP:	0.000	Y_WP:	0.000	X:	-0.048	Y:	0.115	Z:	0.059	yaw:	5.842	yaw rate:	-0.758	Roll:	-1.218	Pitch:	3.834	Yaw:	9.160	Thrust:	0.000
Time:	1.928	Roll Set Point:	0.085	Pitch Set Point:	-0.234	Yaw Set Point:	-0.102	X_WP:	0.000	Y_WP:	0.000	Y_WP:	0.000	X:	-0.048	Y:	0.115	Z:	0.059	yaw:	5.854	yaw rate:	1.169	Roll:	-1.194	Pitch:	3.853	Yaw:	9.486	Thrust:	0.000
Time:	1.939	Roll Set Point:	0.085	Pitch Set Point:	-0.234	Yaw Set Point:	-0.102	X_WP:	0.000	Y_WP:	0.000	Y_WP:	0.000	X:	-0.048	Y:	0.115	Z:	0.059	yaw:	5.858	yaw rate:	0.370	Roll:	-1.205	Pitch:	3.857	Yaw:	9.368	Thrust:	0.000
Time:	1.950	Roll Set Point:	0.085	Pitch Set Point:	-0.234	Yaw Set Point:	-0.102	X_WP:	0.000	Y_WP:	0.000	Y_WP:	0.000	X:	-0.048	Y:	0.115	Z:	0.059	yaw:	5.851	yaw rate:	-0.608	Roll:	-1.232	Pitch:	3.857	Yaw:	9.122	Thrust:	0.000
Time:	1.960	Roll Set Point:	0.085	Pitch Set Point:	-0.234	Yaw Set Point:	-0.102	X_WP:	0.000	Y_WP:	0.000	Y_WP:	0.000	X:	-0.048	Y:	0.115	Z:	0.059	yaw:	5.857	yaw rate:	0.598	Roll:	-1.230	Pitch:	3.847	Yaw:	9.337	Thrust:	0.000
Time:	1.970	Roll Set Point:	0.085	Pitch Set Point:	-0.234	Yaw Set Point:	-0.102	X_WP:	0.000	Y_WP:	0.000	Y_WP:	0.000	X:	-0.048	Y:	0.115	Z:	0.059	yaw:	5.859	yaw rate:	0.151	Roll:	-1.224	Pitch:	3.851	Yaw:	9.223	Thrust:	0.000
Time:	1.980	Roll Set Point:	0.085	Pitch Set Point:	-0.234	Yaw Set Point:	-0.102	X_WP:	0.000	Y_WP:	0.000	Y_WP:	0.000	X:	-0.048	Y:	0.115	Z:	0.059	yaw:	5.855	yaw rate:	-0.435	Roll:	-1.243	Pitch:	3.820	Yaw:	9.064	Thrust:	0.000
Time:	1.990	Roll Set Point:	0.085	Pitch Set Point:	-0.234	Yaw Set Point:	-0.102	X_WP:	0.000	Y_WP:	0.000	Y_WP:	0.000	X:	-0.048	Y:	0.115	Z:	0.059	yaw:	5.856	yaw rate:	0.108	Roll:	-1.219	Pitch:	3.827	Yaw:	9.207	Thrust:	0.000
Time:	2.000	Roll Set Point:	0.085	Pitch Set Point:	-0.234	Yaw Set Point:	-0.102	X_WP:	0.000	Y_WP:	0.000	Y_WP:	0.000	X:	-0.048	Y:	0.115	Z:	0.059	yaw:	5.855	yaw rate:	-0.057	Roll:	-1.206	Pitch:	3.834	Yaw:	9.163	Thrust:	0.000
Time:	2.010	Roll Set Point:	0.085	Pitch Set Point:	-0.234	Yaw Set Point:	-0.102	X_WP:	0.000	Y_WP:	0.000	Y_WP:	0.000	X:	-0.048	Y:	0.115	Z:	0.059	yaw:	5.855	yaw rate:	-0.050	Roll:	-1.229	Pitch:	3.833	Yaw:	9.165	Thrust:	0.000
Time:	2.021	Roll Set Point:	0.085	Pitch Set Point:	-0.234	Yaw Set Point:	-0.102	X_WP:	0.000	Y_WP:	0.000	Y_WP:	0.000	X:	-0.048	Y:	0.115	Z:	0.059	yaw:	5.856	yaw rate:	0.141	Roll:	-1.230	Pitch:	3.881	Yaw:	9.320	Thrust:	0.000
Time:	2.032	Roll Set Point:	0.085	Pitch Set Point:	-0.234	Yaw Set Point:	-0.102	X_WP:	0.000	Y_WP:	0.000	Y_WP:	0.000	X:	-0.048	Y:	0.115	Z:	0.059	yaw:	5.852	yaw rate:	-0.367	Roll:	-1.278	Pitch:	3.867	Yaw:	9.186	Thrust:	0.000
Time:	2.043	Roll Set Point:	0.085	Pitch Set Point:	-0.234	Yaw Set Point:	-0.102	X_WP:	0.000	Y_WP:	0.000	Y_WP:	0.000	X:	-0.048	Y:	0.115	Z:	0.059	yaw:	5.849	yaw rate:	-0.342	Roll:	-1.268	Pitch:	3.869	Yaw:	9.182	Thrust:	0.000
Time:	2.054	Roll Set Point:	0.085	Pitch Set Point:	-0.234	Yaw Set Point:	-0.102	X_WP:	0.000	Y_WP:	0.000	Y_WP:	0.000	X:	-0.048	Y:	0.115	Z:	0.059	yaw:	5.856	yaw rate:	0.718	Roll:	-1.183	Pitch:	3.843	Yaw:	9.371	Thrust:	0.000
Time:	2.064	Roll Set Point:	0.085	Pitch Set Point:	-0.234	Yaw Set Point:	-0.102	X_WP:	0.000	Y_WP:	0.000	Y_WP:	0.000	X:	-0.048	Y:	0.115	Z:	0.059	yaw:	5.854	yaw rate:	-0.243	Roll:	-1.250	Pitch:	3.870	Yaw:	9.212	Thrust:	0.000
Time:	2.075	Roll Set Point:	0.085	Pitch Set Point:	-0.234	Yaw Set Point:	-0.102	X_WP:	0.000	Y_WP:	0.000	Y_WP:	0.000	X:	-0.048	Y:	0.115	Z:	0.059	yaw:	5.859	yaw rate:	0.505	Roll:	-1.217	Pitch:	3.831	Yaw:	9.317	Thrust:	0.000
Time:	2.086	Roll Set Point:	0.085	Pitch Set Point:	-0.234	Yaw Set Point:	-0.102	X_WP:	0.000	Y_WP:	0.000	Y_WP:	0.000	X:	-0.048	Y:	0.115	Z:	0.059	yaw:	5.852	yaw rate:	-0.642	Roll:	-1.261	Pitch:	3.866	Yaw:	9.118	Thrust:	0.000
Time:	2.096	Roll Set Point:	0.085	Pitch Set Point:	-0.234	Yaw Set Point:	-0.102	X_WP:	0.000	Y_WP:	0.000	Y_WP:	0.000	X:	-0.048	Y:	0.115	Z:	0.059	yaw:	5.854	yaw rate:	0.183	Roll:	-1.214	Pitch:	3.846	Yaw:	9.224	Thrust:	0.000
Time:	2.106	Roll Set Point:	0.085	Pitch Set Point:	-0.234	Yaw Set Point:	-0.102	X_WP:	0.000	Y_WP:	0.000	Y_WP:	0.000	X:	-0.048	Y:	0.115	Z:	0.059	yaw:	5.852	yaw rate:	-0.193	Roll:	-1.270	Pitch:	3.828	Yaw:	9.124	Thrust:	0.000
Time:	2.116	Roll Set Point:	0.085	Pitch Set Point:	-0.234	Yaw Set Point:	-0.102	X_WP:	0.000	Y_WP:	0.000	Y_WP:	0.000	X:	-0.048	Y:	0.115	Z:	0.059	yaw:	5.857	yaw rate:	0.472	Roll:	-1.189	Pitch:	3.833	Yaw:	9.304	Thrust:	0.000
Time:	2.126	Roll Set Point:	0.085	Pitch Set Point:	-0.234	Yaw Set Point:	-0.102	X_WP:	0.000	Y_WP:	0.000	Y_WP:	0.000	X:	-0.048	Y:	0.115	Z:	0.059	yaw:	5.851	yaw rate:	-0.571	Roll:	-1.268	Pitch:	3.841	Yaw:	9.023	Thrust:	0.000
Time:	2.136	Roll Set Point:	0.085	Pitch Set Point:	-0.234	Yaw Set Point:	-0.102	X_WP:	0.000	Y_WP:	0.000	Y_WP:	0.000	X:	-0.048	Y:	0.115	Z:	0.059	yaw:	5.851	yaw rate:	-0.571	Roll:	-1.236	Pitch:	3.835	Yaw:	9.173	Thrust:	0.000
Time:	2.146	Roll Set Point:	0.085	Pitch Set Point:	-0.234	Yaw Set Point:	-0.102	X_WP:	0.000	Y_WP:	0.000	Y_WP:	0.000	X:	-0.048	Y:	0.115	Z:	0.059	yaw:	5.848	yaw rate:	-0.342	Roll:	-1.249	Pitch:	3.822	Yaw:	9.078	Thrust:	0.000
Time:	2.156	Roll Set Point:	0.085	Pitch Set Point:	-0.234	Yaw Set Point:	-0.102	X_WP:	0.000	Y_WP:	0.000	Y_WP:	0.000	X:	-0.048	Y:	0.115	Z:	0.059	yaw:	5.853	yaw rate:	0.522	Roll:	-1.211	Pitch:	3.833	Yaw:	9.311	Thrust:	0.000
Time:	2.166	Roll Set Point:	0.085	Pitch Set Point:	-0.234	Yaw Set Point:	-0.102	X_WP:	0.000	Y_WP:	0.000	Y_WP:	0.000	X:	-0.048	Y:	0.115	Z:	0.059	yaw:	5.857	yaw rate:	0.356	Roll:	-1.252	Pitch:	3.845	Yaw:	9.273	Thrust:	0.000
Time:	2.176	Roll Set Point:	0.085	Pitch Set Point:	-0.234	Yaw Set Point:	-0.102	X_WP:	0.000	Y_WP:	0.000	Y_WP:	0.000	X:	-0.048	Y:	0.115	Z:	0.059	yaw:	5.851	yaw rate:	-0.564	Roll:	-1.244	Pitch:	3.834	Yaw:	9.024	Thrust:	0.000
Time:	2.186	Roll Set Point:	0.085	Pitch Set Point:	-0.234	Yaw Set Point:	-0.102	X_WP:	0.000	Y_WP:	0.000	Y_WP:	0.000	X:	-0.048	Y:	0.115	Z:	0.059	yaw:	5.853	yaw rate:	0.186	Roll:	-1.236	Pitch:	3.827	Yaw:	9.223	Thrust:	0.000
Time:	2.196	Roll Set Point:	0.085	Pitch Set Point:	-0.234	Yaw Set Point:	-0.102	X_WP:	0.000	Y_WP:	0.000	Y_WP:	0.000	X:	-0.048	Y:	0.115	Z:	0.059	yaw:	5.855	yaw rate:	0.271	Roll:	-1.219	Pitch:	3.841	Yaw:	9.249	Thrust:	0.000
Time:	2.206	Roll Set Point:	0.085	Pitch Set Point:	-0.234	Yaw Set Point:	-0.102	X_WP:	0.000	Y_WP:	0.000	Y_WP:	0.000	X:	-0.048	Y:	0.115	Z:	0.059	yaw:	5.855	yaw rate:	-0.075	Roll:	-1.234	Pitch:	3.842	Yaw:	9.160	Thrust:	0.000
Time:	2.216	Roll Set Point:	0.085	Pitch Set Point:	-0.234	Yaw Set Point:	-0.102	X_WP:	0.000	Y_WP:	0.000	Y_WP:	0.000	X:	-0.048	Y:	0.115	Z:	0.059	yaw:	5.858	yaw rate:	0.291	Roll:	-1.238	Pitch:	3.830	Yaw:	9.261	Thrust:	0.000
Time:	2.227	Roll Set Point:	0.085	Pitch Set Point:	-0.234	Yaw Set Point:	-0.102	X_WP:	0.000	Y_WP:	0.000	Y_WP:	0.000	X:	-0.048	Y:	0.115	Z:	0.059	yaw:	5.852	yaw rate:	-0.536	Roll:	-1.296	Pitch:	3.875	Yaw:	9.147	Thrust:	0.000
Time:	2.238	Roll Set Point:	0.085	Pitch Set Point:	-0.234	Yaw Set Point:	-0.102	X_WP:	0.000	Y_WP:	0.000	Y_WP:	0.000	X:	-0.048	Y:	0.115	Z:	0.059	yaw:	5.858	yaw rate:	0.529	Roll:	-1.262	Pitch:	3.876	Yaw:	9.402	Thrust:	0.000
Time:	2.248	Roll Set Point:	0.085	Pitch Set Point:	-0.234	Yaw Set Point:	-0.102	X_WP:	0.000	Y_WP:	0.000	Y_WP:	0.000	X:	-0.048	Y:	0.115	Z:	0.059	yaw:	5.856	yaw rate:	-0.122	Roll:	-1.231	Pitch:	3.824	Yaw:	9.148	Thrust:	0.000
Time:	2.258	Roll Set Point:	0.085	Pitch Set Point:	-0.234	Yaw Set Point:	-0.102	X_WP:	0.000	Y_WP:	0.000	Y_WP:	0.000	X:	-0.048	Y:	0.115	Z:	0.059	yaw:	5.853	yaw rate:	-0.345	Roll:	-1.226	Pitch:	3.844	Yaw:	9.085	Thrust:	0.000
Time:	2.268	Roll Set Point:	0.085	Pitch Set Point:	-0.234	Yaw Set Point:	-0.102	X_WP:	0.000	Y_WP:	0.000	Y_WP:	0.000	X:	-0.048	Y:	0.115	Z:	0.059	yaw:	5.856	yaw rate:	0.326	Roll:	-1.271	Pitch:	3.836	Yaw:	9.265	Thrust:	0.000
Time:	2.278	Roll Set Point:	0.085	Pitch Set Point:	-0.234	Yaw Set Point:	-0.102	X_WP:	0.000	Y_WP:	0.000	Y_WP:	0.000	X:	-0.048	Y:	0.115	Z:	0.059	yaw:	5.856	yaw rate:	0.326	Roll:	-1.249	Pitch:	3.834	Yaw:	9.179	Thrust:	0.000
Time:	2.288	Roll Set Point:	0.085	Pitch Set Point:	-0.234	Yaw Set Point:	-0.102	X_WP:	0.000	Y_WP:	0.000	Y_WP:	0.000	X:	-0.048	Y:	0.115	Z:	0.059	yaw:	5.856	yaw rate:	0.007	Roll:	-1.246	Pitch:	3.828	Yaw:	9.182	Thrust:	0.000
Time:	2.298	Roll Set Point:	0.085	Pitch Set Point:	-0.234	Yaw Set Point:	-0.102	X_WP:	0.000	Y_WP:	0.000	Y_WP:	0.000	X:	-0.048	Y:	0.115	Z:	0.059	yaw:	5.852	yaw rate:	-0.458	Roll:	-1.258	Pitch:	3.821	Yaw:	9.054	Thrust:	0.000
Time:	2.308	Roll Set Point:	0.085	Pitch Set Point:	-0.234	Yaw Set Point:	-0.102	X_WP:	0.000	Y_WP:	0.000	Y_WP:	0.000	X:	-0.048	Y:	0.115	Z:	0.059	yaw:	5.853	yaw rate:	0.156	Roll:	-1.253	Pitch:	3.850	Yaw:	9.215	Thrust:	0.000
Time:	2.319	Roll Set Point:	0.085	Pitch Set Point:	-0.234	Yaw Set Point:	-0.102	X_WP:	0.000	Y_WP:	0.000	Y_WP:	0.000	X:	-0.048	Y:	0.115	Z:	0.059	yaw:	5.854	yaw rate:	0.105	Roll:	-1.282	Pitch:	3.875	Yaw:	9.307	Thrust:	0.000
Time:	2.330	Roll Set Point:	0.085	Pitch Set Point:	-0.234	Yaw Set Point:	-0.102	X_WP:	0.000	Y_WP:	0.000	Y_WP:	0.000	X:	-0.048	Y:	0.115	Z:	0.059	yaw:	5.859	yaw rate:	0.434	Roll:	-1.252	Pitch:	3.856	Yaw:	9.381	Thrust:	0.000
Time:	2.340	Roll Set Point:	0.085	Pitch Set Point:	-0.234	Yaw Set Point:	-0.102	X_WP:	0.000	Y_WP:	0.000	Y_WP:	0.000	X:	-0.048	Y:	0.115	Z:	0.059	yaw:	5.852	yaw rate:	-0.674	Roll:	-1.258	Pitch:	3.836	Yaw:	9.004	Thrust:	0.000
Time:	2.351	Roll Set Point:	0.085	Pitch Set Point:	-0.234	Yaw Set Point:	-0.102	X_WP:	0.000	Y_WP:	0.000	Y_WP:	0.000	X:	-0.048	Y:	0.115	Z:	0.059	yaw:	5.859	yaw rate:	0.758	Roll:	-1.259	Pitch:	3.878	Yaw:	9.461	Thrust:	0.000
Time:	2.361	Roll Set Point:	0.085	Pitch Set Point:	-0.234	Yaw Set Point:	-0.102	X_WP:	0.000	Y_WP:	0.000	Y_WP:	0.000	X:	-0.048	Y:	0.115	Z:	0.059	yaw:	5.854	yaw rate:	-0.523	Roll:	-1.272	Pitch:	3.831	Yaw:	9.045	Thrust:	0.000
Time:	2.372	Roll Set Point:	0.085	Pitch Set Point:	-0.234	Yaw Set Point:	-0.102	X_WP:	0.000	Y_WP:	0.000	Y_WP:	0.000	X:	-0.048	Y:	0.115	Z:	0.059	yaw:	5.856	yaw rate:	0.201	Roll:	-1.294	Pitch:	3.871	Yaw:	9.328	Thrust:	0.000
Time:	2.383	Roll Set Point:	0.085	Pitch Set Point:	-0.234	Yaw Set Point:	-0.102	X_WP:	0.000	Y_WP:	0.000	Y_WP:	0.000	X:	-0.048	Y:	0.115	Z:	0.059	yaw:	5.856	yaw rate:	-0.052	Roll:	-1.264	Pitch:	3.882	Yaw:	9.261	Thrust:	0.000
Time:	2.393	Roll Set Point:	0.085	Pitch Set Point:	-0.234	Yaw Set Point:	-0.102	X_WP:	0.000	Y_WP:	0.000	Y_WP:	0.000	X:	-0.048	Y:	0.115	Z:	0.059	yaw:	5.854	yaw rate:	-0.209	Roll:	-1.259	Pitch:	3.815	Yaw:	9.125	Thrust:	0.000
Time:	2.404	Roll Set Point:	0.085	Pitch Set Point:	-0.234	Yaw Set Point:	-0.102	X_WP:	0.000	Y_WP:	0.000	Y_WP:	0.000	X:	-0.048	Y:	0.115	Z:	0.059	yaw:	5.854	yaw rate:	0.058	Roll:	-1.270	Pitch:	3.878	Yaw:	9.287	Thrust:	0.000
Time:	2.414	Roll Set Point:	0.085	Pitch Set Point:	-0.234	Yaw Set Point:	-0.102	X_WP:	0.000	Y_WP:	0.000	Y_WP:	0.000	X:	-0.048	Y:	0.115	Z:	0.059	yaw:	5.854	yaw rate:	0.027	Roll:	-1.272	Pitch:	3.832	Yaw:	9.187	Thrust:	0.000
Time:	2.425	Roll Set Point:	0.085	Pitch Set Point:	-0.234	Yaw Set Point:	-0.102	X_WP:	0.000	Y_WP:	0.000	Y_WP:	0.000	X:	-0.048	Y:	0.115	Z:	0.059	yaw:	5.853	yaw rate:	-0.181	Roll:	-1.303	Pitch:	3.864	Yaw:	9.229	Thrust:	0.000
Time:	2.435	Roll Set Point:	0.085	Pitch Set Point:	-0.234	Yaw Set Point:	-0.102	X_WP:	0.000	Y_WP:	0.000	Y_WP:	0.000	X:	-0.048	Y:	0.115	Z:	0.059	yaw:	5.854	yaw rate:	0.085	Roll:	-1.244	Pitch:	3.857	Yaw:	9.200	Thrust:	0.000
Time:	2.445	Roll Set Point:	0.085	Pitch Set Point:	-0.234	Yaw Set Point:	-0.102	X_WP:	0.000	Y_WP:	0.000	Y_WP:	0.000	X:	-0.048	Y:	0.115	Z:	0.059	yaw:	5.852	yaw rate:	-0.107	Roll:	-1.271	Pitch:	3.825	Yaw:	9.144	Thrust:	0.000
Time:	2.456	Roll Set Point:	0.085	Pitch Set Point:	-0.234	Yaw Set Point:	-0.102	X_WP:	0.000	Y_WP:	0.000	Y_WP:	0.000	X:	-0.048	Y:	0.115	Z:	0.059	yaw:	5.847	yaw rate:	-0.538	Roll:	-1.278	Pitch:	3.809	Yaw:	9.026	Thrust:	0.000
Time:	2.466	Roll Set Point:	0.085	Pitch Set Point:	-0.234	Yaw Set Point:	-0.102	X_WP:	0.000	Y_WP:	0.000	Y_WP:	0.000	X:	-0.048	Y:	0.115	Z:	0.059	yaw:	5.859	yaw rate:	1.194	Roll:	-1.230	Pitch:	3.864	Yaw:	9.500	Thrust:	0.000
Time:	2.476	Roll Set Point:	0.085	Pitch Set Point:	-0.234	Yaw Set Point:	-0.102	X_WP:	0.000	Y_WP:	0.000	Y_WP:	0.000	X:	-0.048	Y:	0.115	Z:	0.059	yaw:	5.859	yaw rate:	1.194	Roll:	-1.265	Pitch:	3.834	Yaw:	9.182	Thrust:	0.000
Time:	2.490	Roll Set Point:	0.085	Pitch Set Point:	-0.234	Yaw Set Point:	-0.102	X_WP:	0.000	Y_WP:	0.000	Y_WP:	0.000	X:	-0.048	Y:	0.115	Z:	0.059	yaw:	5.858	yaw rate:	-0.061	Roll:	-1.285	Pitch:	3.877	Yaw:	9.571	Thrust:	0.000
Time:	2.501	Roll Set Point:	0.085	Pitch Set Point:	-0.234	Yaw Set Point:	-0.102	X_WP:	0.000	Y_WP:	0.000	Y_WP:	0.000	X:	-0.048	Y:	0.115	Z:	0.059	yaw:	5.859	yaw rate:	0.673	Roll:	-1.358	Pitch:	3.985	Yaw:	9.296	Thrust:	0.000
Time:	2.512	Roll Set Point:	0.085	Pitch Set Point:	-0.234	Yaw Set Point:	-0.102	X_WP:	0.000	Y_WP:	0.000	Y_WP:	0.000	X:	-0.048	Y:	0.115	Z:	0.059	yaw:	5.859	yaw rate:	0.673	Roll:	-1.290	Pitch:	3.872	Yaw:	9.284	Thrust:	0.000
Time:	2.523	Roll Set Point:	0.085	Pitch Set Point:	-0.234	Yaw Set Point:	-0.102	X_WP:	0.000	Y_WP:	0.000	Y_WP:	0.000	X:	-0.048	Y:	0.115	Z:	0.059	yaw:	5.854	yaw rate:	-0.527	Roll:	-1.290	Pitch:	3.868	Yaw:	9.151	Thrust:	0.000
Time:	2.534	Roll Set Point:	0.085	Pitch Set Point:	-0.234	Yaw Set Point:	-0.102	X_WP:	0.000	Y_WP:	0.000	Y_WP:	0.000	X:	-0.048	Y:	0.115	Z:	0.059	yaw:	5.852	yaw rate:	-0.221	Roll:	-1.308	Pitch:	3.852	Yaw:	9.221	Thrust:	0.000
Time:	2.544	Roll Set Point:	0.085	Pitch Set Point:	-0.234	Yaw Set Point:	-0.102	X_WP:	0.000	Y_WP:	0.000	Y_WP:	0.000	X:	-0.048	Y:	0.115	Z:	0.059	yaw:	5.852	yaw rate:	-0.221	Roll:	-1.272	Pitch:	3.835	Yaw:	9.175	Thrust:	0.000
Time:	2.554	Roll Set Point:	0.085	Pitch Set Point:	-0.234	Yaw Set Point:	-0.102	X_WP:	0.000	Y_WP:	0.000	Y_WP:	0.000	X:	-0.048	Y:	0.115	Z:	0.059	yaw:	5.853	yaw rate:	0.097	Roll:	-1.290	Pitch:	3.850	Yaw:	9.204	Thrust:	0.000
Time:	2.564	Roll Set Point:	0.085	Pitch Set Point:	-0.234	Yaw Set Point:	-0.102	X_WP:	0.000	Y_WP:	0.000	Y_WP:	0.000	X:	-0.048	Y:	0.115	Z:	0.059	yaw:	5.853	yaw rate:	0.031	Roll:	-1.251	Pitch:	3.834	Yaw:	9.183	Thrust:	0.000
Time:	2.574	Roll Set Point:	0.085	Pitch Set Point:	-0.234	Yaw Set Point:	-0.102	X_WP:	0.000	Y_WP:	0.000	Y_WP:	0.000	X:	-0.048	Y:	0.115	Z:	0.059	yaw:	5.849	yaw rate:	-0.379	Roll:	-1.287	Pitch:	3.823	Yaw:	9.071	Thrust:	0.000
Time:	2.585	Roll Set Point:	0.085	Pitch Set Point:	-0.234	Yaw Set Point:	-0.102	X_WP:	0.000	Y_WP:	0.000	Y_WP:	0.000	X:	-0.048	Y:	0.115	Z:	0.059	yaw:	5.858	yaw rate:	0.868	Roll:	-1.263	Pitch:	3.879	Yaw:	9.483	Thrust:	0.000
Time:	2.595	Roll Set Point:	0.085	Pitch Set Point:	-0.234	Yaw Set Point:	-0.102	X_WP:	0.000	Y_WP:	0.000	Y_WP:	0.000	X:	-0.048	Y:	0.115	Z:	0.059	yaw:	5.851	yaw rate:	-0.694	Roll:	-1.289	Pitch:	3.842	Yaw:	8.991	Thrust:	0.000
Time:	2.605	Roll Set Point:	0.085	Pitch Set Point:	-0.234	Yaw Set Point:	-0.102	X_WP:	0.000	Y_WP:	0.000	Y_WP:	0.000	X:	-0.048	Y:	0.115	Z:	0.059	yaw:	5.860	yaw rate:	0.949	Roll:	-1.281	Pitch:	3.827	Yaw:	9.436	Thrust:	0.000
Time:	2.615	Roll Set Point:	0.085	Pitch Set Point:	-0.234	Yaw Set Point:	-0.102	X_WP:	0.000	Y_WP:	0.000	Y_WP:	0.000	X:	-0.048	Y:	0.115	Z:	0.059	yaw:	5.844	yaw rate:	-1.587	Roll:	-1.322	Pitch:	3.819	Yaw:	8.747	Thrust:	0.000
Time:	2.625	Roll Set Point:	0.085	Pitch Set Point:	-0.234	Yaw Set Point:	-0.102	X_WP:	0.000	Y_WP:	0.000	Y_WP:	0.000	X:	-0.048	Y:	0.115	Z:	0.059	yaw:	5.856	yaw rate:	1.170	Roll:	-1.219	Pitch:	3.851	Yaw:	9.483	Thrust:	0.000
Time:	2.635	Roll Set Point:	0.085	Pitch Set Point:	-0.234	Yaw Set Point:	-0.102	X_WP:	0.000	Y_WP:	0.000	Y_WP:	0.000	X:	-0.048	Y:	0.115	Z:	0.059	yaw:	5.852	yaw rate:	-0.417	Roll:	-1.311	Pitch:	3.829	Yaw:	9.065	Thrust:	0.000
Time:	2.646	Roll Set Point:	0.085	Pitch Set Point:	-0.234	Yaw Set Point:	-0.102	X_WP:	0.000	Y_WP:	0.000	Y_WP:	0.000	X:	-0.048	Y:	0.115	Z:	0.059	yaw:	5.848	yaw rate:	-0.367	Roll:	-1.285	Pitch:	3.829	Yaw:	9.073	Thrust:	0.000
Time:	2.656	Roll Set Point:	0.085	Pitch Set Point:	-0.234	Yaw Set Point:	-0.102	X_WP:	0.000	Y_WP:	0.000	Y_WP:	0.000	X:	-0.048	Y:	0.115	Z:	0.059	yaw:	5.860	yaw rate:	1.124	Roll:	-1.273	Pitch:	3.889	Yaw:	9.552	Thrust:	0.000
Time:	2.668	Roll Set Point:	0.085	Pitch Set Point:	-0.234	Yaw Set Point:	-0.102	X_WP:	0.000	Y_WP:	0.000	Y_WP:	0.000	X:	-0.048	Y:	0.115	Z:	0.059	yaw:	5.852	yaw rate:	-0.738	Roll:	-1.346	Pitch:	3.852	Yaw:	9.216	Thrust:	0.000
Time:	2.679	Roll Set Point:	0.085	Pitch Set Point:	-0.234	Yaw Set Point:	-0.102	X_WP:	0.000	Y_WP:	0.000	Y_WP:	0.000	X:	-0.048	Y:	0.115	Z:	0.059	yaw:	5.858	yaw rate:	0.547	Roll:	-1.265	Pitch:	3.888	Yaw:	9.409	Thrust:	0.000
Time:	2.690	Roll Set Point:	0.085	Pitch Set Point:	-0.234	Yaw Set Point:	-0.102	X_WP:	0.000	Y_WP:	0.000	Y_WP:	0.000	X:	-0.048	Y:	0.115	Z:	0.059	yaw:	5.854	yaw rate:	-0.372	Roll:	-1.313	Pitch:	3.877	Yaw:	9.085	Thrust:	0.000
Time:	2.701	Roll Set Point:	0.085	Pitch Set Point:	-0.234	Yaw Set Point:	-0.102	X_WP:	0.000	Y_WP:	0.000	Y_WP:	0.000	X:	-0.048	Y:	0.115	Z:	0.059	yaw:	5.854	yaw rate:	-0.039	Roll:	-1.328	Pitch:	3.851	Yaw:	9.364	Thrust:	0.000
Time:	2.712	Roll Set Point:	0.085	Pitch Set Point:	-0.234	Yaw Set Point:	-0.102	X_WP:	0.000	Y_WP:	0.000	Y_WP:	0.000	X:	-0.048	Y:	0.115	Z:	0.059	yaw:	5.852	yaw rate:	-0.169	Roll:	-1.297	Pitch:	3.876	Yaw:	9.232	Thrust:	0.000
Time:	2.723	Roll Set Point:	0.085	Pitch Set Point:	-0.234	Yaw Set Point:	-0.102	X_WP:	0.000	Y_WP:	0.000	Y_WP:	0.000	X:	-0.048	Y:	0.115	Z:	0.059	yaw:	5.858	yaw rate:	0.663	Roll:	-1.311	Pitch:	3.881	Yaw:	9.441	Thrust:	0.000
Time:	2.733	Roll Set Point:	0.085	Pitch Set Point:	-0.234	Yaw Set Point:	-0.102	X_WP:	0.000	Y_WP:	0.000	Y_WP:	0.000	X:	-0.048	Y:	0.115	Z:	0.059	yaw:	5.852	yaw rate:	-0.632	Roll:	-1.324	Pitch:	3.874	Yaw:	9.015	Thrust:	0.000
Time:	2.745	Roll Set Point:	0.085	Pitch Set Point:	-0.234	Yaw Set Point:	-0.102	X_WP:	0.000	Y_WP:	0.000	Y_WP:	0.000	X:	-0.048	Y:	0.115	Z:	0.059	yaw:	5.850	yaw rate:	-0.219	Roll:	-1.311	Pitch:	3.858	Yaw:	9.219	Thrust:	0.000
Time:	2.755	Roll Set Point:	0.085	Pitch Set Point:	-0.234	Yaw Set Point:	-0.102	X_WP:	0.000	Y_WP:	0.000	Y_WP:	0.000	X:	-0.048	Y:	0.115	Z:	0.059	yaw:	5.855	yaw rate:	0.518	Roll:	-1.301	Pitch:	3.873	Yaw:	9.396	Thrust:	0.000
Time:	2.766	Roll Set Point:	0.085	Pitch Set Point:	-0.234	Yaw Set Point:	-0.102	X_WP:	0.000	Y_WP:	0.000	Y_WP:	0.000	X:	-0.048	Y:	0.115	Z:	0.059	yaw:	5.853	yaw rate:	-0.182	Roll:	-1.319	Pitch:	3.895	Yaw:	9.239	Thrust:	0.000
Time:	2.777	Roll Set Point:	0.085	Pitch Set Point:	-0.234	Yaw Set Point:	-0.102	X_WP:	0.000	Y_WP:	0.000	Y_WP:	0.000	X:	-0.048	Y:	0.115	Z:	0.059	yaw:	5.852	yaw rate:	-0.141	Roll:	-1.315	Pitch:	3.857	Yaw:	9.234	Thrust:	0.000
Time:	2.788	Roll Set Point:	0.085	Pitch Set Point:	-0.234	Yaw Set Point:	-0.102	X_WP:	0.000	Y_WP:	0.000	Y_WP:	0.000	X:	-0.048	Y:	0.115	Z:	0.059	yaw:	5.860	yaw rate:	0.769	Roll:	-1.293	Pitch:	3.884	Yaw:	9.467	Thrust:	0.000
Time:	2.800	Roll Set Point:	0.085	Pitch Set Point:	-0.234	Yaw Set Point:	-0.102	X_WP:	0.000	Y_WP:	0.000	Y_WP:	0.000	X:	-0.048	Y:	0.115	Z:	0.059	yaw:	5.857	yaw rate:	-0.250	Roll:	-1.321	Pitch:	3.868	Yaw:	9.225	Thrust:	0.000
Time:	2.810	Roll Set Point:	0.085	Pitch Set Point:	-0.234	Yaw Set Point:	-0.102	X_WP:	0.000	Y_WP:	0.000	Y_WP:	0.000	X:	-0.048	Y:	0.115	Z:	0.059	yaw:	5.855	yaw rate:	-0.211	Roll:	-1.327	Pitch:	3.859	Yaw:	9.225	Thrust:	0.000
Time:	2.822	Roll Set Point:	0.085	Pitch Set Point:	-0.234	Yaw Set Point:	-0.102	X_WP:	0.000	Y_WP:	0.000	Y_WP:	0.000	X:	-0.048	Y:	0.115	Z:	0.059	yaw:	5.853	yaw rate:	-0.204	Roll:	-1.342	Pitch:	3.916	Yaw:	9.331	Thrust:	0.000
Time:	2.834	Roll Set Point:	0.085	Pitch Set Point:	-0.234	Yaw Set Point:	-0.102	X_WP:	0.000	Y_WP:	0.000	Y_WP:	0.000	X:	-0.048	Y:	0.115	Z:	0.059	yaw:	5.860	yaw rate:	0.707	Roll:	-1.306	Pitch:	3.876	Yaw:	9.458	Thrust:	0.000
Time:	2.846	Roll Set Point:	0.085	Pitch Set Point:	-0.234	Yaw Set Point:	-0.102	X_WP:	0.000	Y_WP:	0.000	Y_WP:	0.000	X:	-0.048	Y:	0.115	Z:	0.059	yaw:	5.858	yaw rate:	-0.235	Roll:	-1.331	Pitch:	3.873	Yaw:	9.226	Thrust:	0.000
