Time:	0.031	Roll Set Point:	-0.166	Pitch Set Point:	-0.260	Yaw Set Point:	0.044	X_WP:	0.000	Y_WP:	0.000	Y_WP:	0.000	X:	0.086	Y:	0.128	Z:	0.057	yaw:	-2.503	yaw rate:	-0.047	Roll:	2.321	Pitch:	3.823	Yaw:	-3.495	Thrust:	0.000
Time:	0.042	Roll Set Point:	-0.166	Pitch Set Point:	-0.260	Yaw Set Point:	0.044	X_WP:	0.000	Y_WP:	0.000	Y_WP:	0.000	X:	0.086	Y:	0.128	Z:	0.057	yaw:	-2.508	yaw rate:	-0.462	Roll:	2.337	Pitch:	3.847	Yaw:	-3.621	Thrust:	0.000
Time:	0.054	Roll Set Point:	-0.166	Pitch Set Point:	-0.260	Yaw Set Point:	0.044	X_WP:	0.000	Y_WP:	0.000	Y_WP:	0.000	X:	0.086	Y:	0.128	Z:	0.057	yaw:	-2.503	yaw rate:	0.517	Roll:	2.332	Pitch:	3.843	Yaw:	-3.403	Thrust:	0.000
Time:	0.065	Roll Set Point:	-0.166	Pitch Set Point:	-0.260	Yaw Set Point:	0.044	X_WP:	0.000	Y_WP:	0.000	Y_WP:	0.000	X:	0.086	Y:	0.128	Z:	0.057	yaw:	-2.505	yaw rate:	-0.248	Roll:	2.304	Pitch:	3.802	Yaw:	-3.589	Thrust:	0.000
Time:	0.075	Roll Set Point:	-0.166	Pitch Set Point:	-0.260	Yaw Set Point:	0.044	X_WP:	0.000	Y_WP:	0.000	Y_WP:	0.000	X:	0.086	Y:	0.128	Z:	0.057	yaw:	-2.495	yaw rate:	1.002	Roll:	2.376	Pitch:	3.824	Yaw:	-3.283	Thrust:	0.000
Time:	0.085	Roll Set Point:	-0.166	Pitch Set Point:	-0.260	Yaw Set Point:	0.044	X_WP:	0.000	Y_WP:	0.000	Y_WP:	0.000	X:	0.086	Y:	0.128	Z:	0.057	yaw:	-2.501	yaw rate:	-0.634	Roll:	2.302	Pitch:	3.860	Yaw:	-3.702	Thrust:	0.000
Time:	0.095	Roll Set Point:	-0.166	Pitch Set Point:	-0.260	Yaw Set Point:	0.044	X_WP:	0.000	Y_WP:	0.000	Y_WP:	0.000	X:	0.086	Y:	0.128	Z:	0.057	yaw:	-2.501	yaw rate:	-0.634	Roll:	2.333	Pitch:	3.843	Yaw:	-3.546	Thrust:	0.000
Time:	0.106	Roll Set Point:	-0.166	Pitch Set Point:	-0.260	Yaw Set Point:	0.044	X_WP:	0.000	Y_WP:	0.000	Y_WP:	0.000	X:	0.086	Y:	0.128	Z:	0.057	yaw:	-2.508	yaw rate:	-0.653	Roll:	2.303	Pitch:	3.856	Yaw:	-3.725	Thrust:	0.000
Time:	0.117	Roll Set Point:	-0.166	Pitch Set Point:	-0.260	Yaw Set Point:	0.044	X_WP:	0.000	Y_WP:	0.000	Y_WP:	0.000	X:	0.086	Y:	0.128	Z:	0.057	yaw:	-2.502	yaw rate:	0.667	Roll:	2.383	Pitch:	3.858	Yaw:	-3.425	Thrust:	0.000
Time:	0.127	Roll Set Point:	-0.166	Pitch Set Point:	-0.260	Yaw Set Point:	0.044	X_WP:	0.000	Y_WP:	0.000	Y_WP:	0.000	X:	0.086	Y:	0.128	Z:	0.057	yaw:	-2.502	yaw rate:	0.667	Roll:	2.339	Pitch:	3.853	Yaw:	-3.572	Thrust:	0.000
Time:	0.137	Roll Set Point:	-0.166	Pitch Set Point:	-0.260	Yaw Set Point:	0.044	X_WP:	0.000	Y_WP:	0.000	Y_WP:	0.000	X:	0.086	Y:	0.128	Z:	0.057	yaw:	-2.510	yaw rate:	-0.829	Roll:	2.288	Pitch:	3.866	Yaw:	-3.809	Thrust:	0.000
Time:	0.147	Roll Set Point:	-0.166	Pitch Set Point:	-0.260	Yaw Set Point:	0.044	X_WP:	0.000	Y_WP:	0.000	Y_WP:	0.000	X:	0.086	Y:	0.128	Z:	0.057	yaw:	-2.502	yaw rate:	0.854	Roll:	2.389	Pitch:	3.833	Yaw:	-3.367	Thrust:	0.000
Time:	0.157	Roll Set Point:	-0.166	Pitch Set Point:	-0.260	Yaw Set Point:	0.044	X_WP:	0.000	Y_WP:	0.000	Y_WP:	0.000	X:	0.086	Y:	0.128	Z:	0.057	yaw:	-2.502	yaw rate:	-0.063	Roll:	2.318	Pitch:	3.850	Yaw:	-3.616	Thrust:	0.000
Time:	0.168	Roll Set Point:	-0.166	Pitch Set Point:	-0.260	Yaw Set Point:	0.044	X_WP:	0.000	Y_WP:	0.000	Y_WP:	0.000	X:	0.086	Y:	0.128	Z:	0.057	yaw:	-2.500	yaw rate:	0.219	Roll:	2.369	Pitch:	3.861	Yaw:	-3.548	Thrust:	0.000
Time:	0.178	Roll Set Point:	-0.166	Pitch Set Point:	-0.260	Yaw Set Point:	0.044	X_WP:	0.000	Y_WP:	0.000	Y_WP:	0.000	X:	0.086	Y:	0.128	Z:	0.057	yaw:	-2.501	yaw rate:	-0.075	Roll:	2.369	Pitch:	3.904	Yaw:	-3.634	Thrust:	0.000
Time:	0.188	Roll Set Point:	-0.166	Pitch Set Point:	-0.260	Yaw Set Point:	0.044	X_WP:	0.000	Y_WP:	0.000	Y_WP:	0.000	X:	0.086	Y:	0.128	Z:	0.057	yaw:	-2.506	yaw rate:	-0.474	Roll:	2.313	Pitch:	3.876	Yaw:	-3.754	Thrust:	0.000
Time:	0.198	Roll Set Point:	-0.166	Pitch Set Point:	-0.260	Yaw Set Point:	0.044	X_WP:	0.000	Y_WP:	0.000	Y_WP:	0.000	X:	0.086	Y:	0.128	Z:	0.057	yaw:	-2.506	yaw rate:	-0.090	Roll:	2.349	Pitch:	3.866	Yaw:	-3.663	Thrust:	0.000
Time:	0.209	Roll Set Point:	-0.166	Pitch Set Point:	-0.260	Yaw Set Point:	0.044	X_WP:	0.000	Y_WP:	0.000	Y_WP:	0.000	X:	0.086	Y:	0.128	Z:	0.057	yaw:	-2.496	yaw rate:	1.016	Roll:	2.394	Pitch:	3.862	Yaw:	-3.406	Thrust:	0.000
Time:	0.219	Roll Set Point:	-0.166	Pitch Set Point:	-0.260	Yaw Set Point:	0.044	X_WP:	0.000	Y_WP:	0.000	Y_WP:	0.000	X:	0.086	Y:	0.128	Z:	0.057	yaw:	-2.496	yaw rate:	0.054	Roll:	2.352	Pitch:	3.875	Yaw:	-3.628	Thrust:	0.000
Time:	0.229	Roll Set Point:	-0.166	Pitch Set Point:	-0.260	Yaw Set Point:	0.044	X_WP:	0.000	Y_WP:	0.000	Y_WP:	0.000	X:	0.086	Y:	0.128	Z:	0.057	yaw:	-2.507	yaw rate:	-1.165	Roll:	2.322	Pitch:	3.912	Yaw:	-3.972	Thrust:	0.000
Time:	0.239	Roll Set Point:	-0.166	Pitch Set Point:	-0.260	Yaw Set Point:	0.044	X_WP:	0.000	Y_WP:	0.000	Y_WP:	0.000	X:	0.086	Y:	0.128	Z:	0.057	yaw:	-2.504	yaw rate:	0.380	Roll:	2.380	Pitch:	3.901	Yaw:	-3.572	Thrust:	0.000
Time:	0.249	Roll Set Point:	-0.166	Pitch Set Point:	-0.260	Yaw Set Point:	0.044	X_WP:	0.000	Y_WP:	0.000	Y_WP:	0.000	X:	0.086	Y:	0.128	Z:	0.057	yaw:	-2.504	yaw rate:	0.380	Roll:	2.363	Pitch:	3.893	Yaw:	-3.680	Thrust:	0.000
Time:	0.259	Roll Set Point:	-0.166	Pitch Set Point:	-0.260	Yaw Set Point:	0.044	X_WP:	0.000	Y_WP:	0.000	Y_WP:	0.000	X:	0.086	Y:	0.128	Z:	0.057	yaw:	-2.503	yaw rate:	0.108	Roll:	2.380	Pitch:	3.888	Yaw:	-3.658	Thrust:	0.000
Time:	0.269	Roll Set Point:	-0.166	Pitch Set Point:	-0.260	Yaw Set Point:	0.044	X_WP:	0.000	Y_WP:	0.000	Y_WP:	0.000	X:	0.086	Y:	0.128	Z:	0.057	yaw:	-2.498	yaw rate:	0.496	Roll:	2.364	Pitch:	3.892	Yaw:	-3.561	Thrust:	0.000
Time:	0.280	Roll Set Point:	-0.166	Pitch Set Point:	-0.260	Yaw Set Point:	0.044	X_WP:	0.000	Y_WP:	0.000	Y_WP:	0.000	X:	0.086	Y:	0.128	Z:	0.057	yaw:	-2.498	yaw rate:	-0.037	Roll:	2.365	Pitch:	3.887	Yaw:	-3.727	Thrust:	0.000
Time:	0.290	Roll Set Point:	-0.166	Pitch Set Point:	-0.260	Yaw Set Point:	0.044	X_WP:	0.000	Y_WP:	0.000	Y_WP:	0.000	X:	0.086	Y:	0.128	Z:	0.057	yaw:	-2.502	yaw rate:	-0.444	Roll:	2.351	Pitch:	3.934	Yaw:	-3.829	Thrust:	0.000
Time:	0.300	Roll Set Point:	-0.166	Pitch Set Point:	-0.260	Yaw Set Point:	0.044	X_WP:	0.000	Y_WP:	0.000	Y_WP:	0.000	X:	0.086	Y:	0.128	Z:	0.057	yaw:	-2.506	yaw rate:	-0.329	Roll:	2.372	Pitch:	3.922	Yaw:	-3.812	Thrust:	0.000
Time:	0.311	Roll Set Point:	-0.166	Pitch Set Point:	-0.260	Yaw Set Point:	0.044	X_WP:	0.000	Y_WP:	0.000	Y_WP:	0.000	X:	0.086	Y:	0.128	Z:	0.057	yaw:	-2.506	yaw rate:	-0.077	Roll:	2.397	Pitch:	3.910	Yaw:	-3.779	Thrust:	0.000
Time:	0.321	Roll Set Point:	-0.166	Pitch Set Point:	-0.260	Yaw Set Point:	0.044	X_WP:	0.000	Y_WP:	0.000	Y_WP:	0.000	X:	0.086	Y:	0.128	Z:	0.057	yaw:	-2.502	yaw rate:	0.404	Roll:	2.399	Pitch:	3.915	Yaw:	-3.634	Thrust:	0.000
Time:	0.332	Roll Set Point:	-0.166	Pitch Set Point:	-0.260	Yaw Set Point:	0.044	X_WP:	0.000	Y_WP:	0.000	Y_WP:	0.000	X:	0.086	Y:	0.128	Z:	0.057	yaw:	-2.503	yaw rate:	-0.082	Roll:	2.366	Pitch:	3.939	Yaw:	-3.793	Thrust:	0.000
Time:	0.342	Roll Set Point:	-0.166	Pitch Set Point:	-0.260	Yaw Set Point:	0.044	X_WP:	0.000	Y_WP:	0.000	Y_WP:	0.000	X:	0.086	Y:	0.128	Z:	0.057	yaw:	-2.501	yaw rate:	0.229	Roll:	2.385	Pitch:	3.896	Yaw:	-3.695	Thrust:	0.000
Time:	0.352	Roll Set Point:	-0.166	Pitch Set Point:	-0.260	Yaw Set Point:	0.044	X_WP:	0.000	Y_WP:	0.000	Y_WP:	0.000	X:	0.086	Y:	0.128	Z:	0.057	yaw:	-2.500	yaw rate:	0.062	Roll:	2.369	Pitch:	3.921	Yaw:	-3.746	Thrust:	0.000
Time:	0.362	Roll Set Point:	-0.166	Pitch Set Point:	-0.260	Yaw Set Point:	0.044	X_WP:	0.000	Y_WP:	0.000	Y_WP:	0.000	X:	0.086	Y:	0.128	Z:	0.057	yaw:	-2.509	yaw rate:	-0.842	Roll:	2.354	Pitch:	3.966	Yaw:	-4.003	Thrust:	0.000
Time:	0.372	Roll Set Point:	-0.166	Pitch Set Point:	-0.260	Yaw Set Point:	0.044	X_WP:	0.000	Y_WP:	0.000	Y_WP:	0.000	X:	0.086	Y:	0.128	Z:	0.057	yaw:	-2.507	yaw rate:	0.143	Roll:	2.396	Pitch:	3.936	Yaw:	-3.755	Thrust:	0.000
Time:	0.383	Roll Set Point:	-0.166	Pitch Set Point:	-0.260	Yaw Set Point:	0.044	X_WP:	0.000	Y_WP:	0.000	Y_WP:	0.000	X:	0.086	Y:	0.128	Z:	0.057	yaw:	-2.503	yaw rate:	0.411	Roll:	2.440	Pitch:	3.923	Yaw:	-3.725	Thrust:	0.000
Time:	0.394	Roll Set Point:	-0.166	Pitch Set Point:	-0.260	Yaw Set Point:	0.044	X_WP:	0.000	Y_WP:	0.000	Y_WP:	0.000	X:	0.086	Y:	0.128	Z:	0.057	yaw:	-2.508	yaw rate:	-0.471	Roll:	2.357	Pitch:	3.964	Yaw:	-3.950	Thrust:	0.000
Time:	0.404	Roll Set Point:	-0.166	Pitch Set Point:	-0.260	Yaw Set Point:	0.044	X_WP:	0.000	Y_WP:	0.000	Y_WP:	0.000	X:	0.086	Y:	0.128	Z:	0.057	yaw:	-2.501	yaw rate:	0.720	Roll:	2.412	Pitch:	3.926	Yaw:	-3.622	Thrust:	0.000
Time:	0.414	Roll Set Point:	-0.166	Pitch Set Point:	-0.260	Yaw Set Point:	0.044	X_WP:	0.000	Y_WP:	0.000	Y_WP:	0.000	X:	0.086	Y:	0.128	Z:	0.057	yaw:	-2.508	yaw rate:	-0.732	Roll:	2.370	Pitch:	3.961	Yaw:	-4.017	Thrust:	0.000
Time:	0.427	Roll Set Point:	-0.166	Pitch Set Point:	-0.260	Yaw Set Point:	0.044	X_WP:	0.000	Y_WP:	0.000	Y_WP:	0.000	X:	0.086	Y:	0.128	Z:	0.057	yaw:	-2.503	yaw rate:	0.513	Roll:	2.441	Pitch:	3.978	Yaw:	-3.822	Thrust:	0.000
Time:	0.437	Roll Set Point:	-0.166	Pitch Set Point:	-0.260	Yaw Set Point:	0.044	X_WP:	0.000	Y_WP:	0.000	Y_WP:	0.000	X:	0.086	Y:	0.128	Z:	0.057	yaw:	-2.503	yaw rate:	-0.058	Roll:	2.413	Pitch:	3.957	Yaw:	-3.852	Thrust:	0.000
Time:	0.447	Roll Set Point:	-0.166	Pitch Set Point:	-0.260	Yaw Set Point:	0.044	X_WP:	0.000	Y_WP:	0.000	Y_WP:	0.000	X:	0.086	Y:	0.128	Z:	0.057	yaw:	-2.500	yaw rate:	0.328	Roll:	2.414	Pitch:	3.940	Yaw:	-3.756	Thrust:	0.000
Time:	0.458	Roll Set Point:	-0.166	Pitch Set Point:	-0.260	Yaw Set Point:	0.044	X_WP:	0.000	Y_WP:	0.000	Y_WP:	0.000	X:	0.086	Y:	0.128	Z:	0.057	yaw:	-2.493	yaw rate:	0.717	Roll:	2.413	Pitch:	3.938	Yaw:	-3.706	Thrust:	0.000
Time:	0.468	Roll Set Point:	-0.166	Pitch Set Point:	-0.260	Yaw Set Point:	0.044	X_WP:	0.000	Y_WP:	0.000	Y_WP:	0.000	X:	0.086	Y:	0.128	Z:	0.057	yaw:	-2.508	yaw rate:	-1.470	Roll:	2.347	Pitch:	4.030	Yaw:	-4.253	Thrust:	0.000
Time:	0.478	Roll Set Point:	-0.166	Pitch Set Point:	-0.260	Yaw Set Point:	0.044	X_WP:	0.000	Y_WP:	0.000	Y_WP:	0.000	X:	0.086	Y:	0.128	Z:	0.057	yaw:	-2.503	yaw rate:	0.482	Roll:	2.436	Pitch:	3.941	Yaw:	-3.745	Thrust:	0.000
Time:	0.489	Roll Set Point:	-0.166	Pitch Set Point:	-0.260	Yaw Set Point:	0.044	X_WP:	0.000	Y_WP:	0.000	Y_WP:	0.000	X:	0.086	Y:	0.128	Z:	0.057	yaw:	-2.503	yaw rate:	0.482	Roll:	2.409	Pitch:	3.968	Yaw:	-3.880	Thrust:	0.000
Time:	0.499	Roll Set Point:	-0.166	Pitch Set Point:	-0.260	Yaw Set Point:	0.044	X_WP:	0.000	Y_WP:	0.000	Y_WP:	0.000	X:	0.086	Y:	0.128	Z:	0.057	yaw:	-2.502	yaw rate:	0.219	Roll:	2.439	Pitch:	3.990	Yaw:	-3.902	Thrust:	0.000
Time:	0.509	Roll Set Point:	-0.166	Pitch Set Point:	-0.260	Yaw Set Point:	0.044	X_WP:	0.000	Y_WP:	0.000	Y_WP:	0.000	X:	0.086	Y:	0.128	Z:	0.057	yaw:	-2.502	yaw rate:	0.219	Roll:	2.413	Pitch:	3.975	Yaw:	-3.896	Thrust:	0.000
Time:	0.520	Roll Set Point:	-0.166	Pitch Set Point:	-0.260	Yaw Set Point:	0.044	X_WP:	0.000	Y_WP:	0.000	Y_WP:	0.000	X:	0.086	Y:	0.128	Z:	0.057	yaw:	-2.501	yaw rate:	0.087	Roll:	2.430	Pitch:	3.973	Yaw:	-3.924	Thrust:	0.000
Time:	0.530	Roll Set Point:	-0.166	Pitch Set Point:	-0.260	Yaw Set Point:	0.044	X_WP:	0.000	Y_WP:	0.000	Y_WP:	0.000	X:	0.086	Y:	0.128	Z:	0.057	yaw:	-2.501	yaw rate:	0.015	Roll:	2.399	Pitch:	3.989	Yaw:	-3.908	Thrust:	0.000
Time:	0.540	Roll Set Point:	-0.166	Pitch Set Point:	-0.260	Yaw Set Point:	0.044	X_WP:	0.000	Y_WP:	0.000	Y_WP:	0.000	X:	0.086	Y:	0.128	Z:	0.057	yaw:	-2.501	yaw rate:	-0.031	Roll:	2.412	Pitch:	3.998	Yaw:	-3.930	Thrust:	0.000
Time:	0.551	Roll Set Point:	-0.166	Pitch Set Point:	-0.260	Yaw Set Point:	0.044	X_WP:	0.000	Y_WP:	0.000	Y_WP:	0.000	X:	0.086	Y:	0.128	Z:	0.057	yaw:	-2.504	yaw rate:	-0.324	Roll:	2.420	Pitch:	3.997	Yaw:	-4.055	Thrust:	0.000
Time:	0.562	Roll Set Point:	-0.166	Pitch Set Point:	-0.260	Yaw Set Point:	0.045	X_WP:	0.000	Y_WP:	0.000	Y_WP:	0.000	X:	0.086	Y:	0.128	Z:	0.057	yaw:	-2.574	yaw rate:	-6.984	Roll:	2.140	Pitch:	4.210	Yaw:	-5.743	Thrust:	0.000
Time:	0.573	Roll Set Point:	-0.166	Pitch Set Point:	-0.260	Yaw Set Point:	0.044	X_WP:	0.000	Y_WP:	0.000	Y_WP:	0.000	X:	0.086	Y:	0.128	Z:	0.057	yaw:	-2.501	yaw rate:	7.334	Roll:	2.785	Pitch:	3.781	Yaw:	-2.033	Thrust:	0.000
Time:	0.583	Roll Set Point:	-0.166	Pitch Set Point:	-0.260	Yaw Set Point:	0.044	X_WP:	0.000	Y_WP:	0.000	Y_WP:	0.000	X:	0.086	Y:	0.128	Z:	0.057	yaw:	-2.500	yaw rate:	0.053	Roll:	2.421	Pitch:	4.000	Yaw:	-3.942	Thrust:	0.000
Time:	0.593	Roll Set Point:	-0.166	Pitch Set Point:	-0.260	Yaw Set Point:	0.044	X_WP:	0.000	Y_WP:	0.000	Y_WP:	0.000	X:	0.086	Y:	0.128	Z:	0.057	yaw:	-2.502	yaw rate:	-0.183	Roll:	2.412	Pitch:	3.990	Yaw:	-4.015	Thrust:	0.000
Time:	0.603	Roll Set Point:	-0.166	Pitch Set Point:	-0.260	Yaw Set Point:	0.044	X_WP:	0.000	Y_WP:	0.000	Y_WP:	0.000	X:	0.086	Y:	0.128	Z:	0.057	yaw:	-2.505	yaw rate:	-0.283	Roll:	2.414	Pitch:	4.028	Yaw:	-4.054	Thrust:	0.000
Time:	0.613	Roll Set Point:	-0.166	Pitch Set Point:	-0.260	Yaw Set Point:	0.044	X_WP:	0.000	Y_WP:	0.000	Y_WP:	0.000	X:	0.086	Y:	0.128	Z:	0.057	yaw:	-2.502	yaw rate:	0.323	Roll:	2.455	Pitch:	3.992	Yaw:	-3.900	Thrust:	0.000
Time:	0.623	Roll Set Point:	-0.166	Pitch Set Point:	-0.260	Yaw Set Point:	0.044	X_WP:	0.000	Y_WP:	0.000	Y_WP:	0.000	X:	0.086	Y:	0.128	Z:	0.057	yaw:	-2.502	yaw rate:	-0.031	Roll:	2.461	Pitch:	3.994	Yaw:	-4.002	Thrust:	0.000
Time:	0.635	Roll Set Point:	-0.166	Pitch Set Point:	-0.260	Yaw Set Point:	0.044	X_WP:	0.000	Y_WP:	0.000	Y_WP:	0.000	X:	0.086	Y:	0.128	Z:	0.057	yaw:	-2.496	yaw rate:	0.565	Roll:	2.468	Pitch:	4.064	Yaw:	-3.972	Thrust:	0.000
Time:	0.645	Roll Set Point:	-0.166	Pitch Set Point:	-0.260	Yaw Set Point:	0.044	X_WP:	0.000	Y_WP:	0.000	Y_WP:	0.000	X:	0.086	Y:	0.128	Z:	0.057	yaw:	-2.501	yaw rate:	-0.486	Roll:	2.391	Pitch:	4.024	Yaw:	-4.137	Thrust:	0.000
Time:	0.655	Roll Set Point:	-0.166	Pitch Set Point:	-0.260	Yaw Set Point:	0.044	X_WP:	0.000	Y_WP:	0.000	Y_WP:	0.000	X:	0.086	Y:	0.128	Z:	0.057	yaw:	-2.501	yaw rate:	0.046	Roll:	2.454	Pitch:	4.011	Yaw:	-4.006	Thrust:	0.000
Time:	0.666	Roll Set Point:	-0.166	Pitch Set Point:	-0.260	Yaw Set Point:	0.044	X_WP:	0.000	Y_WP:	0.000	Y_WP:	0.000	X:	0.086	Y:	0.128	Z:	0.057	yaw:	-2.498	yaw rate:	0.264	Roll:	2.481	Pitch:	4.038	Yaw:	-4.014	Thrust:	0.000
Time:	0.677	Roll Set Point:	-0.166	Pitch Set Point:	-0.260	Yaw Set Point:	0.044	X_WP:	0.000	Y_WP:	0.000	Y_WP:	0.000	X:	0.086	Y:	0.128	Z:	0.057	yaw:	-2.498	yaw rate:	0.013	Roll:	2.441	Pitch:	4.059	Yaw:	-4.082	Thrust:	0.000
Time:	0.687	Roll Set Point:	-0.166	Pitch Set Point:	-0.260	Yaw Set Point:	0.044	X_WP:	0.000	Y_WP:	0.000	Y_WP:	0.000	X:	0.086	Y:	0.128	Z:	0.057	yaw:	-2.500	yaw rate:	-0.172	Roll:	2.445	Pitch:	4.037	Yaw:	-4.087	Thrust:	0.000
Time:	0.698	Roll Set Point:	-0.166	Pitch Set Point:	-0.260	Yaw Set Point:	0.044	X_WP:	0.000	Y_WP:	0.000	Y_WP:	0.000	X:	0.086	Y:	0.128	Z:	0.057	yaw:	-2.500	yaw rate:	-0.172	Roll:	2.462	Pitch:	4.056	Yaw:	-4.107	Thrust:	0.000
Time:	0.708	Roll Set Point:	-0.166	Pitch Set Point:	-0.260	Yaw Set Point:	0.044	X_WP:	0.000	Y_WP:	0.000	Y_WP:	0.000	X:	0.086	Y:	0.128	Z:	0.057	yaw:	-2.499	yaw rate:	0.042	Roll:	2.476	Pitch:	4.031	Yaw:	-4.048	Thrust:	0.000
Time:	0.718	Roll Set Point:	-0.166	Pitch Set Point:	-0.260	Yaw Set Point:	0.044	X_WP:	0.000	Y_WP:	0.000	Y_WP:	0.000	X:	0.086	Y:	0.128	Z:	0.057	yaw:	-2.503	yaw rate:	-0.325	Roll:	2.430	Pitch:	4.043	Yaw:	-4.157	Thrust:	0.000
Time:	0.729	Roll Set Point:	-0.166	Pitch Set Point:	-0.260	Yaw Set Point:	0.044	X_WP:	0.000	Y_WP:	0.000	Y_WP:	0.000	X:	0.086	Y:	0.128	Z:	0.057	yaw:	-2.498	yaw rate:	0.453	Roll:	2.479	Pitch:	4.052	Yaw:	-4.026	Thrust:	0.000
Time:	0.741	Roll Set Point:	-0.166	Pitch Set Point:	-0.260	Yaw Set Point:	0.044	X_WP:	0.000	Y_WP:	0.000	Y_WP:	0.000	X:	0.086	Y:	0.128	Z:	0.057	yaw:	-2.504	yaw rate:	-0.542	Roll:	2.452	Pitch:	4.078	Yaw:	-4.329	Thrust:	0.000
Time:	0.751	Roll Set Point:	-0.166	Pitch Set Point:	-0.260	Yaw Set Point:	0.044	X_WP:	0.000	Y_WP:	0.000	Y_WP:	0.000	X:	0.086	Y:	0.128	Z:	0.057	yaw:	-2.499	yaw rate:	0.487	Roll:	2.500	Pitch:	4.076	Yaw:	-3.966	Thrust:	0.000
Time:	0.761	Roll Set Point:	-0.166	Pitch Set Point:	-0.260	Yaw Set Point:	0.044	X_WP:	0.000	Y_WP:	0.000	Y_WP:	0.000	X:	0.086	Y:	0.128	Z:	0.057	yaw:	-2.501	yaw rate:	-0.255	Roll:	2.450	Pitch:	4.069	Yaw:	-4.172	Thrust:	0.000
Time:	0.771	Roll Set Point:	-0.166	Pitch Set Point:	-0.260	Yaw Set Point:	0.044	X_WP:	0.000	Y_WP:	0.000	Y_WP:	0.000	X:	0.086	Y:	0.128	Z:	0.057	yaw:	-2.503	yaw rate:	-0.162	Roll:	2.469	Pitch:	4.034	Yaw:	-4.159	Thrust:	0.000
Time:	0.781	Roll Set Point:	-0.166	Pitch Set Point:	-0.260	Yaw Set Point:	0.044	X_WP:	0.000	Y_WP:	0.000	Y_WP:	0.000	X:	0.086	Y:	0.128	Z:	0.057	yaw:	-2.496	yaw rate:	0.704	Roll:	2.463	Pitch:	4.064	Yaw:	-3.932	Thrust:	0.000
Time:	0.791	Roll Set Point:	-0.166	Pitch Set Point:	-0.260	Yaw Set Point:	0.044	X_WP:	0.000	Y_WP:	0.000	Y_WP:	0.000	X:	0.086	Y:	0.128	Z:	0.057	yaw:	-2.504	yaw rate:	-0.854	Roll:	2.438	Pitch:	4.078	Yaw:	-4.360	Thrust:	0.000
Time:	0.802	Roll Set Point:	-0.166	Pitch Set Point:	-0.260	Yaw Set Point:	0.044	X_WP:	0.000	Y_WP:	0.000	Y_WP:	0.000	X:	0.086	Y:	0.128	Z:	0.057	yaw:	-2.506	yaw rate:	-0.134	Roll:	2.485	Pitch:	4.081	Yaw:	-4.243	Thrust:	0.000
Time:	0.812	Roll Set Point:	-0.166	Pitch Set Point:	-0.260	Yaw Set Point:	0.044	X_WP:	0.000	Y_WP:	0.000	Y_WP:	0.000	X:	0.086	Y:	0.128	Z:	0.057	yaw:	-2.501	yaw rate:	0.502	Roll:	2.496	Pitch:	4.087	Yaw:	-4.018	Thrust:	0.000
Time:	0.822	Roll Set Point:	-0.166	Pitch Set Point:	-0.260	Yaw Set Point:	0.044	X_WP:	0.000	Y_WP:	0.000	Y_WP:	0.000	X:	0.086	Y:	0.128	Z:	0.057	yaw:	-2.502	yaw rate:	-0.117	Roll:	2.458	Pitch:	4.077	Yaw:	-4.189	Thrust:	0.000
Time:	0.832	Roll Set Point:	-0.166	Pitch Set Point:	-0.260	Yaw Set Point:	0.044	X_WP:	0.000	Y_WP:	0.000	Y_WP:	0.000	X:	0.086	Y:	0.128	Z:	0.057	yaw:	-2.503	yaw rate:	-0.155	Roll:	2.501	Pitch:	4.064	Yaw:	-4.212	Thrust:	0.000
Time:	0.843	Roll Set Point:	-0.166	Pitch Set Point:	-0.260	Yaw Set Point:	0.044	X_WP:	0.000	Y_WP:	0.000	Y_WP:	0.000	X:	0.086	Y:	0.128	Z:	0.057	yaw:	-2.498	yaw rate:	0.533	Roll:	2.488	Pitch:	4.099	Yaw:	-4.111	Thrust:	0.000
Time:	0.853	Roll Set Point:	-0.166	Pitch Set Point:	-0.260	Yaw Set Point:	0.044	X_WP:	0.000	Y_WP:	0.000	Y_WP:	0.000	X:	0.086	Y:	0.128	Z:	0.057	yaw:	-2.501	yaw rate:	-0.286	Roll:	2.445	Pitch:	4.092	Yaw:	-4.259	Thrust:	0.000
Time:	0.863	Roll Set Point:	-0.166	Pitch Set Point:	-0.260	Yaw Set Point:	0.044	X_WP:	0.000	Y_WP:	0.000	Y_WP:	0.000	X:	0.086	Y:	0.128	Z:	0.057	yaw:	-2.505	yaw rate:	-0.451	Roll:	2.482	Pitch:	4.093	Yaw:	-4.320	Thrust:	0.000
Time:	0.874	Roll Set Point:	-0.166	Pitch Set Point:	-0.260	Yaw Set Point:	0.044	X_WP:	0.000	Y_WP:	0.000	Y_WP:	0.000	X:	0.086	Y:	0.128	Z:	0.057	yaw:	-2.506	yaw rate:	-0.059	Roll:	2.504	Pitch:	4.132	Yaw:	-4.290	Thrust:	0.000
Time:	0.884	Roll Set Point:	-0.166	Pitch Set Point:	-0.260	Yaw Set Point:	0.044	X_WP:	0.000	Y_WP:	0.000	Y_WP:	0.000	X:	0.086	Y:	0.128	Z:	0.057	yaw:	-2.502	yaw rate:	0.365	Roll:	2.510	Pitch:	4.078	Yaw:	-4.122	Thrust:	0.000
Time:	0.895	Roll Set Point:	-0.166	Pitch Set Point:	-0.260	Yaw Set Point:	0.044	X_WP:	0.000	Y_WP:	0.000	Y_WP:	0.000	X:	0.086	Y:	0.128	Z:	0.057	yaw:	-2.504	yaw rate:	-0.184	Roll:	2.491	Pitch:	4.126	Yaw:	-4.336	Thrust:	0.000
Time:	0.905	Roll Set Point:	-0.166	Pitch Set Point:	-0.260	Yaw Set Point:	0.044	X_WP:	0.000	Y_WP:	0.000	Y_WP:	0.000	X:	0.086	Y:	0.128	Z:	0.057	yaw:	-2.504	yaw rate:	-0.184	Roll:	2.489	Pitch:	4.101	Yaw:	-4.232	Thrust:	0.000
Time:	0.915	Roll Set Point:	-0.166	Pitch Set Point:	-0.260	Yaw Set Point:	0.044	X_WP:	0.000	Y_WP:	0.000	Y_WP:	0.000	X:	0.086	Y:	0.128	Z:	0.057	yaw:	-2.504	yaw rate:	-0.011	Roll:	2.478	Pitch:	4.110	Yaw:	-4.244	Thrust:	0.000
Time:	0.925	Roll Set Point:	-0.166	Pitch Set Point:	-0.260	Yaw Set Point:	0.044	X_WP:	0.000	Y_WP:	0.000	Y_WP:	0.000	X:	0.086	Y:	0.128	Z:	0.057	yaw:	-2.501	yaw rate:	0.308	Roll:	2.507	Pitch:	4.091	Yaw:	-4.165	Thrust:	0.000
Time:	0.935	Roll Set Point:	-0.166	Pitch Set Point:	-0.260	Yaw Set Point:	0.044	X_WP:	0.000	Y_WP:	0.000	Y_WP:	0.000	X:	0.086	Y:	0.128	Z:	0.057	yaw:	-2.502	yaw rate:	-0.110	Roll:	2.477	Pitch:	4.115	Yaw:	-4.285	Thrust:	0.000
Time:	0.946	Roll Set Point:	-0.166	Pitch Set Point:	-0.260	Yaw Set Point:	0.044	X_WP:	0.000	Y_WP:	0.000	Y_WP:	0.000	X:	0.086	Y:	0.128	Z:	0.057	yaw:	-2.504	yaw rate:	-0.124	Roll:	2.535	Pitch:	4.119	Yaw:	-4.304	Thrust:	0.000
Time:	0.956	Roll Set Point:	-0.166	Pitch Set Point:	-0.260	Yaw Set Point:	0.044	X_WP:	0.000	Y_WP:	0.000	Y_WP:	0.000	X:	0.086	Y:	0.128	Z:	0.057	yaw:	-2.505	yaw rate:	-0.188	Roll:	2.481	Pitch:	4.124	Yaw:	-4.327	Thrust:	0.000
Time:	0.966	Roll Set Point:	-0.166	Pitch Set Point:	-0.260	Yaw Set Point:	0.044	X_WP:	0.000	Y_WP:	0.000	Y_WP:	0.000	X:	0.086	Y:	0.128	Z:	0.057	yaw:	-2.503	yaw rate:	0.214	Roll:	2.518	Pitch:	4.120	Yaw:	-4.228	Thrust:	0.000
Time:	0.977	Roll Set Point:	-0.166	Pitch Set Point:	-0.260	Yaw Set Point:	0.044	X_WP:	0.000	Y_WP:	0.000	Y_WP:	0.000	X:	0.086	Y:	0.128	Z:	0.057	yaw:	-2.501	yaw rate:	0.200	Roll:	2.497	Pitch:	4.140	Yaw:	-4.319	Thrust:	0.000
Time:	0.987	Roll Set Point:	-0.166	Pitch Set Point:	-0.260	Yaw Set Point:	0.044	X_WP:	0.000	Y_WP:	0.000	Y_WP:	0.000	X:	0.086	Y:	0.128	Z:	0.057	yaw:	-2.498	yaw rate:	0.356	Roll:	2.525	Pitch:	4.128	Yaw:	-4.204	Thrust:	0.000
Time:	0.998	Roll Set Point:	-0.166	Pitch Set Point:	-0.260	Yaw Set Point:	0.044	X_WP:	0.000	Y_WP:	0.000	Y_WP:	0.000	X:	0.086	Y:	0.128	Z:	0.057	yaw:	-2.503	yaw rate:	-0.519	Roll:	2.506	Pitch:	4.172	Yaw:	-4.509	Thrust:	0.000
Time:	1.008	Roll Set Point:	-0.166	Pitch Set Point:	-0.260	Yaw Set Point:	0.044	X_WP:	0.000	Y_WP:	0.000	Y_WP:	0.000	X:	0.086	Y:	0.128	Z:	0.057	yaw:	-2.500	yaw rate:	0.316	Roll:	2.544	Pitch:	4.101	Yaw:	-4.231	Thrust:	0.000
Time:	1.018	Roll Set Point:	-0.166	Pitch Set Point:	-0.260	Yaw Set Point:	0.044	X_WP:	0.000	Y_WP:	0.000	Y_WP:	0.000	X:	0.086	Y:	0.128	Z:	0.057	yaw:	-2.496	yaw rate:	0.383	Roll:	2.556	Pitch:	4.156	Yaw:	-4.217	Thrust:	0.000
Time:	1.028	Roll Set Point:	-0.166	Pitch Set Point:	-0.260	Yaw Set Point:	0.044	X_WP:	0.000	Y_WP:	0.000	Y_WP:	0.000	X:	0.086	Y:	0.128	Z:	0.057	yaw:	-2.503	yaw rate:	-0.669	Roll:	2.455	Pitch:	4.142	Yaw:	-4.510	Thrust:	0.000
Time:	1.038	Roll Set Point:	-0.166	Pitch Set Point:	-0.260	Yaw Set Point:	0.044	X_WP:	0.000	Y_WP:	0.000	Y_WP:	0.000	X:	0.086	Y:	0.128	Z:	0.057	yaw:	-2.503	yaw rate:	-0.047	Roll:	2.498	Pitch:	4.148	Yaw:	-4.357	Thrust:	0.000
Time:	1.048	Roll Set Point:	-0.166	Pitch Set Point:	-0.260	Yaw Set Point:	0.044	X_WP:	0.000	Y_WP:	0.000	Y_WP:	0.000	X:	0.086	Y:	0.128	Z:	0.057	yaw:	-2.503	yaw rate:	-0.047	Roll:	2.517	Pitch:	4.147	Yaw:	-4.354	Thrust:	0.000
Time:	1.058	Roll Set Point:	-0.166	Pitch Set Point:	-0.260	Yaw Set Point:	0.044	X_WP:	0.000	Y_WP:	0.000	Y_WP:	0.000	X:	0.086	Y:	0.128	Z:	0.057	yaw:	-2.507	yaw rate:	-0.346	Roll:	2.515	Pitch:	4.171	Yaw:	-4.457	Thrust:	0.000
Time:	1.068	Roll Set Point:	-0.166	Pitch Set Point:	-0.260	Yaw Set Point:	0.044	X_WP:	0.000	Y_WP:	0.000	Y_WP:	0.000	X:	0.086	Y:	0.128	Z:	0.057	yaw:	-2.507	yaw rate:	-0.045	Roll:	2.531	Pitch:	4.135	Yaw:	-4.388	Thrust:	0.000
Time:	1.078	Roll Set Point:	-0.166	Pitch Set Point:	-0.260	Yaw Set Point:	0.044	X_WP:	0.000	Y_WP:	0.000	Y_WP:	0.000	X:	0.086	Y:	0.128	Z:	0.057	yaw:	-2.503	yaw rate:	0.356	Roll:	2.544	Pitch:	4.158	Yaw:	-4.289	Thrust:	0.000
Time:	1.088	Roll Set Point:	-0.166	Pitch Set Point:	-0.260	Yaw Set Point:	0.044	X_WP:	0.000	Y_WP:	0.000	Y_WP:	0.000	X:	0.086	Y:	0.128	Z:	0.057	yaw:	-2.503	yaw rate:	0.064	Roll:	2.523	Pitch:	4.160	Yaw:	-4.375	Thrust:	0.000
Time:	1.099	Roll Set Point:	-0.166	Pitch Set Point:	-0.260	Yaw Set Point:	0.044	X_WP:	0.000	Y_WP:	0.000	Y_WP:	0.000	X:	0.086	Y:	0.128	Z:	0.057	yaw:	-2.505	yaw rate:	-0.256	Roll:	2.534	Pitch:	4.205	Yaw:	-4.546	Thrust:	0.000
Time:	1.109	Roll Set Point:	-0.166	Pitch Set Point:	-0.260	Yaw Set Point:	0.044	X_WP:	0.000	Y_WP:	0.000	Y_WP:	0.000	X:	0.086	Y:	0.128	Z:	0.057	yaw:	-2.506	yaw rate:	-0.056	Roll:	2.512	Pitch:	4.160	Yaw:	-4.425	Thrust:	0.000
Time:	1.119	Roll Set Point:	-0.166	Pitch Set Point:	-0.260	Yaw Set Point:	0.044	X_WP:	0.000	Y_WP:	0.000	Y_WP:	0.000	X:	0.086	Y:	0.128	Z:	0.057	yaw:	-2.501	yaw rate:	0.481	Roll:	2.553	Pitch:	4.160	Yaw:	-4.287	Thrust:	0.000
Time:	1.129	Roll Set Point:	-0.166	Pitch Set Point:	-0.260	Yaw Set Point:	0.044	X_WP:	0.000	Y_WP:	0.000	Y_WP:	0.000	X:	0.086	Y:	0.128	Z:	0.057	yaw:	-2.505	yaw rate:	-0.366	Roll:	2.521	Pitch:	4.186	Yaw:	-4.521	Thrust:	0.000
Time:	1.139	Roll Set Point:	-0.166	Pitch Set Point:	-0.260	Yaw Set Point:	0.044	X_WP:	0.000	Y_WP:	0.000	Y_WP:	0.000	X:	0.086	Y:	0.128	Z:	0.057	yaw:	-2.496	yaw rate:	0.862	Roll:	2.582	Pitch:	4.145	Yaw:	-4.197	Thrust:	0.000
Time:	1.149	Roll Set Point:	-0.166	Pitch Set Point:	-0.260	Yaw Set Point:	0.044	X_WP:	0.000	Y_WP:	0.000	Y_WP:	0.000	X:	0.086	Y:	0.128	Z:	0.057	yaw:	-2.500	yaw rate:	-0.395	Roll:	2.540	Pitch:	4.195	Yaw:	-4.540	Thrust:	0.000
Time:	1.159	Roll Set Point:	-0.166	Pitch Set Point:	-0.260	Yaw Set Point:	0.044	X_WP:	0.000	Y_WP:	0.000	Y_WP:	0.000	X:	0.086	Y:	0.128	Z:	0.057	yaw:	-2.500	yaw rate:	0.004	Roll:	2.534	Pitch:	4.191	Yaw:	-4.444	Thrust:	0.000
Time:	1.169	Roll Set Point:	-0.166	Pitch Set Point:	-0.260	Yaw Set Point:	0.044	X_WP:	0.000	Y_WP:	0.000	Y_WP:	0.000	X:	0.086	Y:	0.128	Z:	0.057	yaw:	-2.506	yaw rate:	-0.635	Roll:	2.481	Pitch:	4.194	Yaw:	-4.629	Thrust:	0.000
Time:	1.179	Roll Set Point:	-0.166	Pitch Set Point:	-0.260	Yaw Set Point:	0.044	X_WP:	0.000	Y_WP:	0.000	Y_WP:	0.000	X:	0.086	Y:	0.128	Z:	0.057	yaw:	-2.506	yaw rate:	-0.635	Roll:	2.543	Pitch:	4.190	Yaw:	-4.473	Thrust:	0.000
Time:	1.189	Roll Set Point:	-0.166	Pitch Set Point:	-0.260	Yaw Set Point:	0.044	X_WP:	0.000	Y_WP:	0.000	Y_WP:	0.000	X:	0.086	Y:	0.128	Z:	0.057	yaw:	-2.504	yaw rate:	0.241	Roll:	2.570	Pitch:	4.194	Yaw:	-4.413	Thrust:	0.000
Time:	1.199	Roll Set Point:	-0.166	Pitch Set Point:	-0.260	Yaw Set Point:	0.044	X_WP:	0.000	Y_WP:	0.000	Y_WP:	0.000	X:	0.086	Y:	0.128	Z:	0.057	yaw:	-2.499	yaw rate:	0.498	Roll:	2.583	Pitch:	4.185	Yaw:	-4.352	Thrust:	0.000
Time:	1.210	Roll Set Point:	-0.166	Pitch Set Point:	-0.260	Yaw Set Point:	0.044	X_WP:	0.000	Y_WP:	0.000	Y_WP:	0.000	X:	0.086	Y:	0.128	Z:	0.057	yaw:	-2.497	yaw rate:	0.192	Roll:	2.581	Pitch:	4.220	Yaw:	-4.536	Thrust:	0.000
Time:	1.220	Roll Set Point:	-0.166	Pitch Set Point:	-0.260	Yaw Set Point:	0.044	X_WP:	0.000	Y_WP:	0.000	Y_WP:	0.000	X:	0.086	Y:	0.128	Z:	0.057	yaw:	-2.503	yaw rate:	-0.622	Roll:	2.531	Pitch:	4.224	Yaw:	-4.670	Thrust:	0.000
Time:	1.231	Roll Set Point:	-0.166	Pitch Set Point:	-0.260	Yaw Set Point:	0.044	X_WP:	0.000	Y_WP:	0.000	Y_WP:	0.000	X:	0.086	Y:	0.128	Z:	0.057	yaw:	-2.500	yaw rate:	0.345	Roll:	2.570	Pitch:	4.229	Yaw:	-4.519	Thrust:	0.000
Time:	1.241	Roll Set Point:	-0.166	Pitch Set Point:	-0.260	Yaw Set Point:	0.044	X_WP:	0.000	Y_WP:	0.000	Y_WP:	0.000	X:	0.086	Y:	0.128	Z:	0.057	yaw:	-2.501	yaw rate:	-0.119	Roll:	2.530	Pitch:	4.200	Yaw:	-4.549	Thrust:	0.000
Time:	1.251	Roll Set Point:	-0.166	Pitch Set Point:	-0.260	Yaw Set Point:	0.044	X_WP:	0.000	Y_WP:	0.000	Y_WP:	0.000	X:	0.086	Y:	0.128	Z:	0.057	yaw:	-2.506	yaw rate:	-0.493	Roll:	2.553	Pitch:	4.206	Yaw:	-4.663	Thrust:	0.000
Time:	1.262	Roll Set Point:	-0.166	Pitch Set Point:	-0.260	Yaw Set Point:	0.044	X_WP:	0.000	Y_WP:	0.000	Y_WP:	0.000	X:	0.086	Y:	0.128	Z:	0.057	yaw:	-2.507	yaw rate:	-0.055	Roll:	2.579	Pitch:	4.231	Yaw:	-4.657	Thrust:	0.000
Time:	1.272	Roll Set Point:	-0.166	Pitch Set Point:	-0.260	Yaw Set Point:	0.044	X_WP:	0.000	Y_WP:	0.000	Y_WP:	0.000	X:	0.086	Y:	0.128	Z:	0.057	yaw:	-2.503	yaw rate:	0.361	Roll:	2.595	Pitch:	4.205	Yaw:	-4.452	Thrust:	0.000
Time:	1.282	Roll Set Point:	-0.166	Pitch Set Point:	-0.260	Yaw Set Point:	0.044	X_WP:	0.000	Y_WP:	0.000	Y_WP:	0.000	X:	0.086	Y:	0.128	Z:	0.057	yaw:	-2.501	yaw rate:	0.150	Roll:	2.557	Pitch:	4.187	Yaw:	-4.513	Thrust:	0.000
Time:	1.292	Roll Set Point:	-0.166	Pitch Set Point:	-0.260	Yaw Set Point:	0.044	X_WP:	0.000	Y_WP:	0.000	Y_WP:	0.000	X:	0.086	Y:	0.128	Z:	0.057	yaw:	-2.503	yaw rate:	-0.124	Roll:	2.558	Pitch:	4.199	Yaw:	-4.598	Thrust:	0.000
Time:	1.302	Roll Set Point:	-0.166	Pitch Set Point:	-0.260	Yaw Set Point:	0.044	X_WP:	0.000	Y_WP:	0.000	Y_WP:	0.000	X:	0.086	Y:	0.128	Z:	0.057	yaw:	-2.503	yaw rate:	0.007	Roll:	2.568	Pitch:	4.219	Yaw:	-4.571	Thrust:	0.000
Time:	1.313	Roll Set Point:	-0.166	Pitch Set Point:	-0.260	Yaw Set Point:	0.044	X_WP:	0.000	Y_WP:	0.000	Y_WP:	0.000	X:	0.086	Y:	0.128	Z:	0.057	yaw:	-2.502	yaw rate:	0.051	Roll:	2.559	Pitch:	4.179	Yaw:	-4.570	Thrust:	0.000
Time:	1.324	Roll Set Point:	-0.166	Pitch Set Point:	-0.260	Yaw Set Point:	0.044	X_WP:	0.000	Y_WP:	0.000	Y_WP:	0.000	X:	0.086	Y:	0.128	Z:	0.057	yaw:	-2.504	yaw rate:	-0.215	Roll:	2.619	Pitch:	4.243	Yaw:	-4.745	Thrust:	0.000
Time:	1.334	Roll Set Point:	-0.166	Pitch Set Point:	-0.260	Yaw Set Point:	0.044	X_WP:	0.000	Y_WP:	0.000	Y_WP:	0.000	X:	0.086	Y:	0.128	Z:	0.057	yaw:	-2.504	yaw rate:	-0.215	Roll:	2.574	Pitch:	4.199	Yaw:	-4.600	Thrust:	0.000
Time:	1.344	Roll Set Point:	-0.166	Pitch Set Point:	-0.260	Yaw Set Point:	0.044	X_WP:	0.000	Y_WP:	0.000	Y_WP:	0.000	X:	0.086	Y:	0.128	Z:	0.057	yaw:	-2.502	yaw rate:	0.255	Roll:	2.588	Pitch:	4.200	Yaw:	-4.542	Thrust:	0.000
Time:	1.354	Roll Set Point:	-0.166	Pitch Set Point:	-0.260	Yaw Set Point:	0.044	X_WP:	0.000	Y_WP:	0.000	Y_WP:	0.000	X:	0.086	Y:	0.128	Z:	0.057	yaw:	-2.504	yaw rate:	-0.285	Roll:	2.548	Pitch:	4.204	Yaw:	-4.690	Thrust:	0.000
Time:	1.364	Roll Set Point:	-0.166	Pitch Set Point:	-0.260	Yaw Set Point:	0.044	X_WP:	0.000	Y_WP:	0.000	Y_WP:	0.000	X:	0.086	Y:	0.128	Z:	0.057	yaw:	-2.498	yaw rate:	0.623	Roll:	2.608	Pitch:	4.180	Yaw:	-4.456	Thrust:	0.000
Time:	1.374	Roll Set Point:	-0.166	Pitch Set Point:	-0.260	Yaw Set Point:	0.044	X_WP:	0.000	Y_WP:	0.000	Y_WP:	0.000	X:	0.086	Y:	0.128	Z:	0.057	yaw:	-2.502	yaw rate:	-0.346	Roll:	2.553	Pitch:	4.217	Yaw:	-4.722	Thrust:	0.000
Time:	1.385	Roll Set Point:	-0.166	Pitch Set Point:	-0.260	Yaw Set Point:	0.044	X_WP:	0.000	Y_WP:	0.000	Y_WP:	0.000	X:	0.086	Y:	0.128	Z:	0.057	yaw:	-2.498	yaw rate:	0.327	Roll:	2.614	Pitch:	4.229	Yaw:	-4.676	Thrust:	0.000
Time:	1.395	Roll Set Point:	-0.166	Pitch Set Point:	-0.260	Yaw Set Point:	0.044	X_WP:	0.000	Y_WP:	0.000	Y_WP:	0.000	X:	0.086	Y:	0.128	Z:	0.057	yaw:	-2.496	yaw rate:	0.257	Roll:	2.638	Pitch:	4.182	Yaw:	-4.571	Thrust:	0.000
Time:	1.405	Roll Set Point:	-0.166	Pitch Set Point:	-0.260	Yaw Set Point:	0.044	X_WP:	0.000	Y_WP:	0.000	Y_WP:	0.000	X:	0.086	Y:	0.128	Z:	0.057	yaw:	-2.497	yaw rate:	-0.065	Roll:	2.557	Pitch:	4.198	Yaw:	-4.668	Thrust:	0.000
Time:	1.415	Roll Set Point:	-0.166	Pitch Set Point:	-0.260	Yaw Set Point:	0.044	X_WP:	0.000	Y_WP:	0.000	Y_WP:	0.000	X:	0.086	Y:	0.128	Z:	0.057	yaw:	-2.498	yaw rate:	-0.183	Roll:	2.587	Pitch:	4.217	Yaw:	-4.711	Thrust:	0.000
Time:	1.425	Roll Set Point:	-0.166	Pitch Set Point:	-0.260	Yaw Set Point:	0.044	X_WP:	0.000	Y_WP:	0.000	Y_WP:	0.000	X:	0.086	Y:	0.128	Z:	0.057	yaw:	-2.502	yaw rate:	-0.392	Roll:	2.580	Pitch:	4.199	Yaw:	-4.778	Thrust:	0.000
Time:	1.435	Roll Set Point:	-0.166	Pitch Set Point:	-0.260	Yaw Set Point:	0.044	X_WP:	0.000	Y_WP:	0.000	Y_WP:	0.000	X:	0.086	Y:	0.128	Z:	0.057	yaw:	-2.504	yaw rate:	-0.160	Roll:	2.567	Pitch:	4.217	Yaw:	-4.733	Thrust:	0.000
Time:	1.446	Roll Set Point:	-0.166	Pitch Set Point:	-0.260	Yaw Set Point:	0.044	X_WP:	0.000	Y_WP:	0.000	Y_WP:	0.000	X:	0.086	Y:	0.128	Z:	0.057	yaw:	-2.503	yaw rate:	0.129	Roll:	2.651	Pitch:	4.224	Yaw:	-4.788	Thrust:	0.000
Time:	1.456	Roll Set Point:	-0.166	Pitch Set Point:	-0.260	Yaw Set Point:	0.044	X_WP:	0.000	Y_WP:	0.000	Y_WP:	0.000	X:	0.086	Y:	0.128	Z:	0.057	yaw:	-2.504	yaw rate:	-0.129	Roll:	2.593	Pitch:	4.213	Yaw:	-4.738	Thrust:	0.000
Time:	1.467	Roll Set Point:	-0.166	Pitch Set Point:	-0.260	Yaw Set Point:	0.044	X_WP:	0.000	Y_WP:	0.000	Y_WP:	0.000	X:	0.086	Y:	0.128	Z:	0.057	yaw:	-2.505	yaw rate:	-0.099	Roll:	2.623	Pitch:	4.218	Yaw:	-4.853	Thrust:	0.000
Time:	1.477	Roll Set Point:	-0.166	Pitch Set Point:	-0.260	Yaw Set Point:	0.044	X_WP:	0.000	Y_WP:	0.000	Y_WP:	0.000	X:	0.086	Y:	0.128	Z:	0.057	yaw:	-2.510	yaw rate:	-0.537	Roll:	2.570	Pitch:	4.219	Yaw:	-4.879	Thrust:	0.000
Time:	1.487	Roll Set Point:	-0.166	Pitch Set Point:	-0.260	Yaw Set Point:	0.044	X_WP:	0.000	Y_WP:	0.000	Y_WP:	0.000	X:	0.086	Y:	0.128	Z:	0.057	yaw:	-2.510	yaw rate:	-0.537	Roll:	2.603	Pitch:	4.199	Yaw:	-4.740	Thrust:	0.000
Time:	1.497	Roll Set Point:	-0.166	Pitch Set Point:	-0.260	Yaw Set Point:	0.044	X_WP:	0.000	Y_WP:	0.000	Y_WP:	0.000	X:	0.086	Y:	0.128	Z:	0.057	yaw:	-2.501	yaw rate:	0.923	Roll:	2.657	Pitch:	4.197	Yaw:	-4.495	Thrust:	0.000
Time:	1.508	Roll Set Point:	-0.166	Pitch Set Point:	-0.260	Yaw Set Point:	0.044	X_WP:	0.000	Y_WP:	0.000	Y_WP:	0.000	X:	0.086	Y:	0.128	Z:	0.057	yaw:	-2.505	yaw rate:	-0.419	Roll:	2.624	Pitch:	4.226	Yaw:	-4.968	Thrust:	0.000
Time:	1.518	Roll Set Point:	-0.166	Pitch Set Point:	-0.260	Yaw Set Point:	0.044	X_WP:	0.000	Y_WP:	0.000	Y_WP:	0.000	X:	0.086	Y:	0.128	Z:	0.057	yaw:	-2.505	yaw rate:	-0.010	Roll:	2.600	Pitch:	4.212	Yaw:	-4.770	Thrust:	0.000
Time:	1.529	Roll Set Point:	-0.166	Pitch Set Point:	-0.260	Yaw Set Point:	0.044	X_WP:	0.000	Y_WP:	0.000	Y_WP:	0.000	X:	0.086	Y:	0.128	Z:	0.057	yaw:	-2.502	yaw rate:	0.297	Roll:	2.642	Pitch:	4.224	Yaw:	-4.812	Thrust:	0.000
Time:	1.539	Roll Set Point:	-0.166	Pitch Set Point:	-0.260	Yaw Set Point:	0.044	X_WP:	0.000	Y_WP:	0.000	Y_WP:	0.000	X:	0.086	Y:	0.128	Z:	0.057	yaw:	-2.504	yaw rate:	-0.143	Roll:	2.625	Pitch:	4.200	Yaw:	-4.812	Thrust:	0.000
Time:	1.549	Roll Set Point:	-0.166	Pitch Set Point:	-0.260	Yaw Set Point:	0.044	X_WP:	0.000	Y_WP:	0.000	Y_WP:	0.000	X:	0.086	Y:	0.128	Z:	0.057	yaw:	-2.506	yaw rate:	-0.241	Roll:	2.600	Pitch:	4.201	Yaw:	-4.850	Thrust:	0.000
Time:	1.559	Roll Set Point:	-0.166	Pitch Set Point:	-0.260	Yaw Set Point:	0.044	X_WP:	0.000	Y_WP:	0.000	Y_WP:	0.000	X:	0.086	Y:	0.128	Z:	0.057	yaw:	-2.498	yaw rate:	0.830	Roll:	2.642	Pitch:	4.186	Yaw:	-4.573	Thrust:	0.000
Time:	1.570	Roll Set Point:	-0.166	Pitch Set Point:	-0.260	Yaw Set Point:	0.044	X_WP:	0.000	Y_WP:	0.000	Y_WP:	0.000	X:	0.086	Y:	0.128	Z:	0.057	yaw:	-2.504	yaw rate:	-0.644	Roll:	2.639	Pitch:	4.246	Yaw:	-5.081	Thrust:	0.000
Time:	1.580	Roll Set Point:	-0.166	Pitch Set Point:	-0.260	Yaw Set Point:	0.044	X_WP:	0.000	Y_WP:	0.000	Y_WP:	0.000	X:	0.086	Y:	0.128	Z:	0.057	yaw:	-2.498	yaw rate:	0.666	Roll:	2.641	Pitch:	4.176	Yaw:	-4.628	Thrust:	0.000
Time:	1.590	Roll Set Point:	-0.166	Pitch Set Point:	-0.260	Yaw Set Point:	0.044	X_WP:	0.000	Y_WP:	0.000	Y_WP:	0.000	X:	0.086	Y:	0.128	Z:	0.057	yaw:	-2.500	yaw rate:	-0.238	Roll:	2.628	Pitch:	4.213	Yaw:	-4.876	Thrust:	0.000
Time:	1.601	Roll Set Point:	-0.166	Pitch Set Point:	-0.260	Yaw Set Point:	0.044	X_WP:	0.000	Y_WP:	0.000	Y_WP:	0.000	X:	0.086	Y:	0.128	Z:	0.057	yaw:	-2.502	yaw rate:	-0.168	Roll:	2.634	Pitch:	4.249	Yaw:	-5.009	Thrust:	0.000
Time:	1.612	Roll Set Point:	-0.166	Pitch Set Point:	-0.260	Yaw Set Point:	0.044	X_WP:	0.000	Y_WP:	0.000	Y_WP:	0.000	X:	0.086	Y:	0.128	Z:	0.057	yaw:	-2.505	yaw rate:	-0.350	Roll:	2.652	Pitch:	4.233	Yaw:	-5.044	Thrust:	0.000
Time:	1.622	Roll Set Point:	-0.166	Pitch Set Point:	-0.260	Yaw Set Point:	0.044	X_WP:	0.000	Y_WP:	0.000	Y_WP:	0.000	X:	0.086	Y:	0.128	Z:	0.057	yaw:	-2.503	yaw rate:	0.213	Roll:	2.627	Pitch:	4.204	Yaw:	-4.788	Thrust:	0.000
Time:	1.632	Roll Set Point:	-0.166	Pitch Set Point:	-0.260	Yaw Set Point:	0.044	X_WP:	0.000	Y_WP:	0.000	Y_WP:	0.000	X:	0.086	Y:	0.128	Z:	0.057	yaw:	-2.501	yaw rate:	0.225	Roll:	2.653	Pitch:	4.179	Yaw:	-4.791	Thrust:	0.000
Time:	1.642	Roll Set Point:	-0.166	Pitch Set Point:	-0.260	Yaw Set Point:	0.044	X_WP:	0.000	Y_WP:	0.000	Y_WP:	0.000	X:	0.086	Y:	0.128	Z:	0.057	yaw:	-2.503	yaw rate:	-0.209	Roll:	2.631	Pitch:	4.206	Yaw:	-4.920	Thrust:	0.000
Time:	1.653	Roll Set Point:	-0.166	Pitch Set Point:	-0.260	Yaw Set Point:	0.044	X_WP:	0.000	Y_WP:	0.000	Y_WP:	0.000	X:	0.086	Y:	0.128	Z:	0.057	yaw:	-2.500	yaw rate:	0.297	Roll:	2.684	Pitch:	4.253	Yaw:	-4.928	Thrust:	0.000
Time:	1.663	Roll Set Point:	-0.166	Pitch Set Point:	-0.260	Yaw Set Point:	0.044	X_WP:	0.000	Y_WP:	0.000	Y_WP:	0.000	X:	0.086	Y:	0.128	Z:	0.057	yaw:	-2.500	yaw rate:	0.297	Roll:	2.638	Pitch:	4.199	Yaw:	-4.874	Thrust:	0.000
Time:	1.673	Roll Set Point:	-0.166	Pitch Set Point:	-0.260	Yaw Set Point:	0.044	X_WP:	0.000	Y_WP:	0.000	Y_WP:	0.000	X:	0.086	Y:	0.128	Z:	0.057	yaw:	-2.501	yaw rate:	-0.096	Roll:	2.620	Pitch:	4.192	Yaw:	-4.913	Thrust:	0.000
Time:	1.684	Roll Set Point:	-0.166	Pitch Set Point:	-0.260	Yaw Set Point:	0.044	X_WP:	0.000	Y_WP:	0.000	Y_WP:	0.000	X:	0.086	Y:	0.128	Z:	0.057	yaw:	-2.503	yaw rate:	-0.201	Roll:	2.660	Pitch:	4.212	Yaw:	-5.081	Thrust:	0.000
Time:	1.695	Roll Set Point:	-0.166	Pitch Set Point:	-0.260	Yaw Set Point:	0.044	X_WP:	0.000	Y_WP:	0.000	Y_WP:	0.000	X:	0.086	Y:	0.128	Z:	0.057	yaw:	-2.501	yaw rate:	0.241	Roll:	2.658	Pitch:	4.218	Yaw:	-4.848	Thrust:	0.000
Time:	1.706	Roll Set Point:	-0.166	Pitch Set Point:	-0.260	Yaw Set Point:	0.044	X_WP:	0.000	Y_WP:	0.000	Y_WP:	0.000	X:	0.086	Y:	0.128	Z:	0.057	yaw:	-2.499	yaw rate:	0.187	Roll:	2.681	Pitch:	4.227	Yaw:	-5.005	Thrust:	0.000
Time:	1.717	Roll Set Point:	-0.166	Pitch Set Point:	-0.260	Yaw Set Point:	0.044	X_WP:	0.000	Y_WP:	0.000	Y_WP:	0.000	X:	0.086	Y:	0.128	Z:	0.057	yaw:	-2.502	yaw rate:	-0.365	Roll:	2.698	Pitch:	4.231	Yaw:	-5.151	Thrust:	0.000
Time:	1.728	Roll Set Point:	-0.166	Pitch Set Point:	-0.260	Yaw Set Point:	0.044	X_WP:	0.000	Y_WP:	0.000	Y_WP:	0.000	X:	0.086	Y:	0.128	Z:	0.057	yaw:	-2.506	yaw rate:	-0.400	Roll:	2.670	Pitch:	4.268	Yaw:	-5.166	Thrust:	0.000
Time:	1.738	Roll Set Point:	-0.166	Pitch Set Point:	-0.260	Yaw Set Point:	0.044	X_WP:	0.000	Y_WP:	0.000	Y_WP:	0.000	X:	0.086	Y:	0.128	Z:	0.057	yaw:	-2.502	yaw rate:	0.476	Roll:	2.640	Pitch:	4.194	Yaw:	-4.814	Thrust:	0.000
Time:	1.748	Roll Set Point:	-0.166	Pitch Set Point:	-0.260	Yaw Set Point:	0.044	X_WP:	0.000	Y_WP:	0.000	Y_WP:	0.000	X:	0.086	Y:	0.128	Z:	0.057	yaw:	-2.510	yaw rate:	-0.879	Roll:	2.634	Pitch:	4.203	Yaw:	-5.189	Thrust:	0.000
Time:	1.758	Roll Set Point:	-0.166	Pitch Set Point:	-0.260	Yaw Set Point:	0.044	X_WP:	0.000	Y_WP:	0.000	Y_WP:	0.000	X:	0.086	Y:	0.128	Z:	0.057	yaw:	-2.496	yaw rate:	1.447	Roll:	2.692	Pitch:	4.174	Yaw:	-4.576	Thrust:	0.000
Time:	1.769	Roll Set Point:	-0.166	Pitch Set Point:	-0.260	Yaw Set Point:	0.044	X_WP:	0.000	Y_WP:	0.000	Y_WP:	0.000	X:	0.086	Y:	0.128	Z:	0.057	yaw:	-2.500	yaw rate:	-0.444	Roll:	2.676	Pitch:	4.243	Yaw:	-5.220	Thrust:	0.000
Time:	1.780	Roll Set Point:	-0.166	Pitch Set Point:	-0.260	Yaw Set Point:	0.044	X_WP:	0.000	Y_WP:	0.000	Y_WP:	0.000	X:	0.086	Y:	0.128	Z:	0.057	yaw:	-2.501	yaw rate:	-0.084	Roll:	2.718	Pitch:	4.229	Yaw:	-5.130	Thrust:	0.000
Time:	1.790	Roll Set Point:	-0.166	Pitch Set Point:	-0.260	Yaw Set Point:	0.044	X_WP:	0.000	Y_WP:	0.000	Y_WP:	0.000	X:	0.086	Y:	0.128	Z:	0.057	yaw:	-2.504	yaw rate:	-0.288	Roll:	2.660	Pitch:	4.221	Yaw:	-5.064	Thrust:	0.000
Time:	1.800	Roll Set Point:	-0.166	Pitch Set Point:	-0.260	Yaw Set Point:	0.044	X_WP:	0.000	Y_WP:	0.000	Y_WP:	0.000	X:	0.086	Y:	0.128	Z:	0.057	yaw:	-2.504	yaw rate:	0.038	Roll:	2.628	Pitch:	4.198	Yaw:	-4.984	Thrust:	0.000
Time:	1.810	Roll Set Point:	-0.166	Pitch Set Point:	-0.260	Yaw Set Point:	0.044	X_WP:	0.000	Y_WP:	0.000	Y_WP:	0.000	X:	0.086	Y:	0.128	Z:	0.057	yaw:	-2.498	yaw rate:	0.555	Roll:	2.677	Pitch:	4.183	Yaw:	-4.846	Thrust:	0.000
Time:	1.820	Roll Set Point:	-0.166	Pitch Set Point:	-0.260	Yaw Set Point:	0.044	X_WP:	0.000	Y_WP:	0.000	Y_WP:	0.000	X:	0.086	Y:	0.128	Z:	0.057	yaw:	-2.506	yaw rate:	-0.758	Roll:	2.646	Pitch:	4.215	Yaw:	-5.215	Thrust:	0.000
Time:	1.830	Roll Set Point:	-0.166	Pitch Set Point:	-0.260	Yaw Set Point:	0.044	X_WP:	0.000	Y_WP:	0.000	Y_WP:	0.000	X:	0.086	Y:	0.128	Z:	0.057	yaw:	-2.500	yaw rate:	0.605	Roll:	2.714	Pitch:	4.190	Yaw:	-4.852	Thrust:	0.000
Time:	1.840	Roll Set Point:	-0.166	Pitch Set Point:	-0.260	Yaw Set Point:	0.044	X_WP:	0.000	Y_WP:	0.000	Y_WP:	0.000	X:	0.086	Y:	0.128	Z:	0.057	yaw:	-2.499	yaw rate:	0.060	Roll:	2.679	Pitch:	4.187	Yaw:	-5.007	Thrust:	0.000
Time:	1.850	Roll Set Point:	-0.166	Pitch Set Point:	-0.260	Yaw Set Point:	0.044	X_WP:	0.000	Y_WP:	0.000	Y_WP:	0.000	X:	0.086	Y:	0.128	Z:	0.057	yaw:	-2.501	yaw rate:	-0.244	Roll:	2.667	Pitch:	4.200	Yaw:	-5.098	Thrust:	0.000
Time:	1.860	Roll Set Point:	-0.166	Pitch Set Point:	-0.260	Yaw Set Point:	0.044	X_WP:	0.000	Y_WP:	0.000	Y_WP:	0.000	X:	0.086	Y:	0.128	Z:	0.057	yaw:	-2.510	yaw rate:	-0.837	Roll:	2.631	Pitch:	4.240	Yaw:	-5.273	Thrust:	0.000
Time:	1.870	Roll Set Point:	-0.166	Pitch Set Point:	-0.260	Yaw Set Point:	0.044	X_WP:	0.000	Y_WP:	0.000	Y_WP:	0.000	X:	0.086	Y:	0.128	Z:	0.057	yaw:	-2.510	yaw rate:	-0.837	Roll:	2.681	Pitch:	4.203	Yaw:	-5.078	Thrust:	0.000
Time:	1.881	Roll Set Point:	-0.166	Pitch Set Point:	-0.260	Yaw Set Point:	0.044	X_WP:	0.000	Y_WP:	0.000	Y_WP:	0.000	X:	0.086	Y:	0.128	Z:	0.057	yaw:	-2.502	yaw rate:	0.128	Roll:	2.744	Pitch:	4.204	Yaw:	-5.038	Thrust:	0.000
Time:	1.892	Roll Set Point:	-0.166	Pitch Set Point:	-0.260	Yaw Set Point:	0.044	X_WP:	0.000	Y_WP:	0.000	Y_WP:	0.000	X:	0.086	Y:	0.128	Z:	0.057	yaw:	-2.502	yaw rate:	0.128	Roll:	2.718	Pitch:	4.237	Yaw:	-5.228	Thrust:	0.000
Time:	1.903	Roll Set Point:	-0.166	Pitch Set Point:	-0.260	Yaw Set Point:	0.044	X_WP:	0.000	Y_WP:	0.000	Y_WP:	0.000	X:	0.086	Y:	0.128	Z:	0.057	yaw:	-2.501	yaw rate:	-0.546	Roll:	2.734	Pitch:	4.230	Yaw:	-5.207	Thrust:	0.000
Time:	1.914	Roll Set Point:	-0.166	Pitch Set Point:	-0.260	Yaw Set Point:	0.044	X_WP:	0.000	Y_WP:	0.000	Y_WP:	0.000	X:	0.086	Y:	0.128	Z:	0.057	yaw:	-2.503	yaw rate:	-0.205	Roll:	2.709	Pitch:	4.237	Yaw:	-5.288	Thrust:	0.000
Time:	1.924	Roll Set Point:	-0.166	Pitch Set Point:	-0.260	Yaw Set Point:	0.044	X_WP:	0.000	Y_WP:	0.000	Y_WP:	0.000	X:	0.086	Y:	0.128	Z:	0.057	yaw:	-2.503	yaw rate:	-0.205	Roll:	2.688	Pitch:	4.199	Yaw:	-5.098	Thrust:	0.000
Time:	1.934	Roll Set Point:	-0.166	Pitch Set Point:	-0.260	Yaw Set Point:	0.044	X_WP:	0.000	Y_WP:	0.000	Y_WP:	0.000	X:	0.086	Y:	0.128	Z:	0.057	yaw:	-2.499	yaw rate:	0.443	Roll:	2.694	Pitch:	4.207	Yaw:	-4.985	Thrust:	0.000
Time:	1.944	Roll Set Point:	-0.166	Pitch Set Point:	-0.260	Yaw Set Point:	0.044	X_WP:	0.000	Y_WP:	0.000	Y_WP:	0.000	X:	0.086	Y:	0.128	Z:	0.057	yaw:	-2.499	yaw rate:	0.008	Roll:	2.674	Pitch:	4.190	Yaw:	-5.107	Thrust:	0.000
Time:	1.954	Roll Set Point:	-0.166	Pitch Set Point:	-0.260	Yaw Set Point:	0.044	X_WP:	0.000	Y_WP:	0.000	Y_WP:	0.000	X:	0.086	Y:	0.128	Z:	0.057	yaw:	-2.504	yaw rate:	-0.564	Roll:	2.680	Pitch:	4.204	Yaw:	-5.283	Thrust:	0.000
Time:	1.965	Roll Set Point:	-0.166	Pitch Set Point:	-0.260	Yaw Set Point:	0.044	X_WP:	0.000	Y_WP:	0.000	Y_WP:	0.000	X:	0.086	Y:	0.128	Z:	0.057	yaw:	-2.501	yaw rate:	0.341	Roll:	2.765	Pitch:	4.244	Yaw:	-5.214	Thrust:	0.000
Time:	1.975	Roll Set Point:	-0.166	Pitch Set Point:	-0.260	Yaw Set Point:	0.044	X_WP:	0.000	Y_WP:	0.000	Y_WP:	0.000	X:	0.086	Y:	0.128	Z:	0.057	yaw:	-2.504	yaw rate:	-0.282	Roll:	2.701	Pitch:	4.200	Yaw:	-5.219	Thrust:	0.000
Time:	1.985	Roll Set Point:	-0.166	Pitch Set Point:	-0.260	Yaw Set Point:	0.044	X_WP:	0.000	Y_WP:	0.000	Y_WP:	0.000	X:	0.086	Y:	0.128	Z:	0.057	yaw:	-2.498	yaw rate:	0.588	Roll:	2.692	Pitch:	4.186	Yaw:	-4.986	Thrust:	0.000
Time:	1.995	Roll Set Point:	-0.166	Pitch Set Point:	-0.260	Yaw Set Point:	0.044	X_WP:	0.000	Y_WP:	0.000	Y_WP:	0.000	X:	0.086	Y:	0.128	Z:	0.057	yaw:	-2.505	yaw rate:	-0.665	Roll:	2.672	Pitch:	4.222	Yaw:	-5.336	Thrust:	0.000
Time:	2.006	Roll Set Point:	-0.166	Pitch Set Point:	-0.260	Yaw Set Point:	0.044	X_WP:	0.000	Y_WP:	0.000	Y_WP:	0.000	X:	0.086	Y:	0.128	Z:	0.057	yaw:	-2.503	yaw rate:	0.124	Roll:	2.735	Pitch:	4.235	Yaw:	-5.306	Thrust:	0.000
Time:	2.017	Roll Set Point:	-0.166	Pitch Set Point:	-0.260	Yaw Set Point:	0.044	X_WP:	0.000	Y_WP:	0.000	Y_WP:	0.000	X:	0.086	Y:	0.128	Z:	0.057	yaw:	-2.502	yaw rate:	0.137	Roll:	2.752	Pitch:	4.218	Yaw:	-5.299	Thrust:	0.000
Time:	2.027	Roll Set Point:	-0.166	Pitch Set Point:	-0.260	Yaw Set Point:	0.044	X_WP:	0.000	Y_WP:	0.000	Y_WP:	0.000	X:	0.086	Y:	0.128	Z:	0.057	yaw:	-2.501	yaw rate:	0.095	Roll:	2.720	Pitch:	4.201	Yaw:	-5.158	Thrust:	0.000
Time:	2.037	Roll Set Point:	-0.166	Pitch Set Point:	-0.260	Yaw Set Point:	0.044	X_WP:	0.000	Y_WP:	0.000	Y_WP:	0.000	X:	0.086	Y:	0.128	Z:	0.057	yaw:	-2.503	yaw rate:	-0.195	Roll:	2.664	Pitch:	4.196	Yaw:	-5.245	Thrust:	0.000
Time:	2.047	Roll Set Point:	-0.166	Pitch Set Point:	-0.260	Yaw Set Point:	0.044	X_WP:	0.000	Y_WP:	0.000	Y_WP:	0.000	X:	0.086	Y:	0.128	Z:	0.057	yaw:	-2.500	yaw rate:	0.315	Roll:	2.694	Pitch:	4.206	Yaw:	-5.118	Thrust:	0.000
Time:	2.057	Roll Set Point:	-0.166	Pitch Set Point:	-0.260	Yaw Set Point:	0.044	X_WP:	0.000	Y_WP:	0.000	Y_WP:	0.000	X:	0.086	Y:	0.128	Z:	0.057	yaw:	-2.504	yaw rate:	-0.399	Roll:	2.709	Pitch:	4.187	Yaw:	-5.317	Thrust:	0.000
Time:	2.067	Roll Set Point:	-0.166	Pitch Set Point:	-0.260	Yaw Set Point:	0.044	X_WP:	0.000	Y_WP:	0.000	Y_WP:	0.000	X:	0.086	Y:	0.128	Z:	0.057	yaw:	-2.504	yaw rate:	-0.033	Roll:	2.679	Pitch:	4.224	Yaw:	-5.228	Thrust:	0.000
Time:	2.078	Roll Set Point:	-0.166	Pitch Set Point:	-0.260	Yaw Set Point:	0.044	X_WP:	0.000	Y_WP:	0.000	Y_WP:	0.000	X:	0.086	Y:	0.128	Z:	0.057	yaw:	-2.504	yaw rate:	-0.033	Roll:	2.700	Pitch:	4.202	Yaw:	-5.245	Thrust:	0.000
Time:	2.089	Roll Set Point:	-0.166	Pitch Set Point:	-0.260	Yaw Set Point:	0.044	X_WP:	0.000	Y_WP:	0.000	Y_WP:	0.000	X:	0.086	Y:	0.128	Z:	0.057	yaw:	-2.503	yaw rate:	0.026	Roll:	2.776	Pitch:	4.215	Yaw:	-5.365	Thrust:	0.000
Time:	2.099	Roll Set Point:	-0.166	Pitch Set Point:	-0.260	Yaw Set Point:	0.044	X_WP:	0.000	Y_WP:	0.000	Y_WP:	0.000	X:	0.086	Y:	0.128	Z:	0.057	yaw:	-2.503	yaw rate:	0.026	Roll:	2.699	Pitch:	4.200	Yaw:	-5.252	Thrust:	0.000
Time:	2.110	Roll Set Point:	-0.166	Pitch Set Point:	-0.260	Yaw Set Point:	0.044	X_WP:	0.000	Y_WP:	0.000	Y_WP:	0.000	X:	0.086	Y:	0.128	Z:	0.057	yaw:	-2.500	yaw rate:	0.308	Roll:	2.712	Pitch:	4.243	Yaw:	-5.354	Thrust:	0.000
Time:	2.120	Roll Set Point:	-0.166	Pitch Set Point:	-0.260	Yaw Set Point:	0.044	X_WP:	0.000	Y_WP:	0.000	Y_WP:	0.000	X:	0.086	Y:	0.128	Z:	0.057	yaw:	-2.502	yaw rate:	-0.191	Roll:	2.659	Pitch:	4.186	Yaw:	-5.310	Thrust:	0.000
Time:	2.130	Roll Set Point:	-0.166	Pitch Set Point:	-0.260	Yaw Set Point:	0.044	X_WP:	0.000	Y_WP:	0.000	Y_WP:	0.000	X:	0.086	Y:	0.128	Z:	0.057	yaw:	-2.509	yaw rate:	-0.776	Roll:	2.709	Pitch:	4.212	Yaw:	-5.481	Thrust:	0.000
Time:	2.140	Roll Set Point:	-0.166	Pitch Set Point:	-0.260	Yaw Set Point:	0.044	X_WP:	0.000	Y_WP:	0.000	Y_WP:	0.000	X:	0.086	Y:	0.128	Z:	0.057	yaw:	-2.499	yaw rate:	1.014	Roll:	2.721	Pitch:	4.192	Yaw:	-5.012	Thrust:	0.000
Time:	2.150	Roll Set Point:	-0.166	Pitch Set Point:	-0.260	Yaw Set Point:	0.044	X_WP:	0.000	Y_WP:	0.000	Y_WP:	0.000	X:	0.086	Y:	0.128	Z:	0.057	yaw:	-2.500	yaw rate:	-0.034	Roll:	2.682	Pitch:	4.202	Yaw:	-5.294	Thrust:	0.000
Time:	2.160	Roll Set Point:	-0.166	Pitch Set Point:	-0.260	Yaw Set Point:	0.044	X_WP:	0.000	Y_WP:	0.000	Y_WP:	0.000	X:	0.086	Y:	0.128	Z:	0.057	yaw:	-2.503	yaw rate:	-0.299	Roll:	2.720	Pitch:	4.187	Yaw:	-5.376	Thrust:	0.000
Time:	2.170	Roll Set Point:	-0.166	Pitch Set Point:	-0.260	Yaw Set Point:	0.044	X_WP:	0.000	Y_WP:	0.000	Y_WP:	0.000	X:	0.086	Y:	0.128	Z:	0.057	yaw:	-2.500	yaw rate:	0.201	Roll:	2.713	Pitch:	4.202	Yaw:	-5.261	Thrust:	0.000
Time:	2.180	Roll Set Point:	-0.166	Pitch Set Point:	-0.260	Yaw Set Point:	0.044	X_WP:	0.000	Y_WP:	0.000	Y_WP:	0.000	X:	0.086	Y:	0.128	Z:	0.057	yaw:	-2.506	yaw rate:	-0.577	Roll:	2.636	Pitch:	4.206	Yaw:	-5.469	Thrust:	0.000
Time:	2.191	Roll Set Point:	-0.166	Pitch Set Point:	-0.260	Yaw Set Point:	0.044	X_WP:	0.000	Y_WP:	0.000	Y_WP:	0.000	X:	0.086	Y:	0.128	Z:	0.057	yaw:	-2.496	yaw rate:	1.029	Roll:	2.766	Pitch:	4.228	Yaw:	-5.251	Thrust:	0.000
Time:	2.201	Roll Set Point:	-0.166	Pitch Set Point:	-0.260	Yaw Set Point:	0.044	X_WP:	0.000	Y_WP:	0.000	Y_WP:	0.000	X:	0.086	Y:	0.128	Z:	0.057	yaw:	-2.501	yaw rate:	-0.463	Roll:	2.692	Pitch:	4.197	Yaw:	-5.450	Thrust:	0.000
Time:	2.211	Roll Set Point:	-0.166	Pitch Set Point:	-0.260	Yaw Set Point:	0.044	X_WP:	0.000	Y_WP:	0.000	Y_WP:	0.000	X:	0.086	Y:	0.128	Z:	0.057	yaw:	-2.508	yaw rate:	-0.727	Roll:	2.676	Pitch:	4.227	Yaw:	-5.550	Thrust:	0.000
Time:	2.221	Roll Set Point:	-0.166	Pitch Set Point:	-0.260	Yaw Set Point:	0.044	X_WP:	0.000	Y_WP:	0.000	Y_WP:	0.000	X:	0.086	Y:	0.128	Z:	0.057	yaw:	-2.503	yaw rate:	0.458	Roll:	2.722	Pitch:	4.195	Yaw:	-5.233	Thrust:	0.000
Time:	2.232	Roll Set Point:	-0.166	Pitch Set Point:	-0.260	Yaw Set Point:	0.044	X_WP:	0.000	Y_WP:	0.000	Y_WP:	0.000	X:	0.086	Y:	0.128	Z:	0.057	yaw:	-2.503	yaw rate:	0.458	Roll:	2.732	Pitch:	4.235	Yaw:	-5.537	Thrust:	0.000
Time:	2.242	Roll Set Point:	-0.166	Pitch Set Point:	-0.260	Yaw Set Point:	0.044	X_WP:	0.000	Y_WP:	0.000	Y_WP:	0.000	X:	0.086	Y:	0.128	Z:	0.057	yaw:	-2.502	yaw rate:	0.100	Roll:	2.717	Pitch:	4.174	Yaw:	-5.341	Thrust:	0.000
Time:	2.252	Roll Set Point:	-0.166	Pitch Set Point:	-0.260	Yaw Set Point:	0.044	X_WP:	0.000	Y_WP:	0.000	Y_WP:	0.000	X:	0.086	Y:	0.128	Z:	0.057	yaw:	-2.502	yaw rate:	0.051	Roll:	2.662	Pitch:	4.212	Yaw:	-5.363	Thrust:	0.000
Time:	2.262	Roll Set Point:	-0.166	Pitch Set Point:	-0.260	Yaw Set Point:	0.044	X_WP:	0.000	Y_WP:	0.000	Y_WP:	0.000	X:	0.086	Y:	0.128	Z:	0.057	yaw:	-2.500	yaw rate:	0.137	Roll:	2.702	Pitch:	4.200	Yaw:	-5.348	Thrust:	0.000
Time:	2.272	Roll Set Point:	-0.166	Pitch Set Point:	-0.260	Yaw Set Point:	0.044	X_WP:	0.000	Y_WP:	0.000	Y_WP:	0.000	X:	0.086	Y:	0.128	Z:	0.057	yaw:	-2.501	yaw rate:	-0.021	Roll:	2.703	Pitch:	4.195	Yaw:	-5.398	Thrust:	0.000
Time:	2.282	Roll Set Point:	-0.166	Pitch Set Point:	-0.260	Yaw Set Point:	0.044	X_WP:	0.000	Y_WP:	0.000	Y_WP:	0.000	X:	0.086	Y:	0.128	Z:	0.057	yaw:	-2.506	yaw rate:	-0.520	Roll:	2.692	Pitch:	4.207	Yaw:	-5.556	Thrust:	0.000
Time:	2.293	Roll Set Point:	-0.166	Pitch Set Point:	-0.260	Yaw Set Point:	0.044	X_WP:	0.000	Y_WP:	0.000	Y_WP:	0.000	X:	0.086	Y:	0.128	Z:	0.057	yaw:	-2.501	yaw rate:	0.497	Roll:	2.751	Pitch:	4.244	Yaw:	-5.470	Thrust:	0.000
Time:	2.303	Roll Set Point:	-0.166	Pitch Set Point:	-0.260	Yaw Set Point:	0.044	X_WP:	0.000	Y_WP:	0.000	Y_WP:	0.000	X:	0.086	Y:	0.128	Z:	0.057	yaw:	-2.504	yaw rate:	-0.341	Roll:	2.669	Pitch:	4.187	Yaw:	-5.525	Thrust:	0.000
Time:	2.313	Roll Set Point:	-0.166	Pitch Set Point:	-0.260	Yaw Set Point:	0.044	X_WP:	0.000	Y_WP:	0.000	Y_WP:	0.000	X:	0.086	Y:	0.128	Z:	0.057	yaw:	-2.508	yaw rate:	-0.328	Roll:	2.692	Pitch:	4.208	Yaw:	-5.522	Thrust:	0.000
Time:	2.324	Roll Set Point:	-0.166	Pitch Set Point:	-0.260	Yaw Set Point:	0.044	X_WP:	0.000	Y_WP:	0.000	Y_WP:	0.000	X:	0.086	Y:	0.128	Z:	0.057	yaw:	-2.507	yaw rate:	0.082	Roll:	2.720	Pitch:	4.237	Yaw:	-5.607	Thrust:	0.000
Time:	2.334	Roll Set Point:	-0.166	Pitch Set Point:	-0.260	Yaw Set Point:	0.044	X_WP:	0.000	Y_WP:	0.000	Y_WP:	0.000	X:	0.086	Y:	0.128	Z:	0.057	yaw:	-2.501	yaw rate:	0.537	Roll:	2.743	Pitch:	4.191	Yaw:	-5.324	Thrust:	0.000
Time:	2.345	Roll Set Point:	-0.166	Pitch Set Point:	-0.260	Yaw Set Point:	0.044	X_WP:	0.000	Y_WP:	0.000	Y_WP:	0.000	X:	0.086	Y:	0.128	Z:	0.057	yaw:	-2.504	yaw rate:	-0.308	Roll:	2.733	Pitch:	4.247	Yaw:	-5.721	Thrust:	0.000
Time:	2.356	Roll Set Point:	-0.166	Pitch Set Point:	-0.260	Yaw Set Point:	0.044	X_WP:	0.000	Y_WP:	0.000	Y_WP:	0.000	X:	0.086	Y:	0.128	Z:	0.057	yaw:	-2.505	yaw rate:	-0.018	Roll:	2.723	Pitch:	4.231	Yaw:	-5.660	Thrust:	0.000
Time:	2.366	Roll Set Point:	-0.166	Pitch Set Point:	-0.260	Yaw Set Point:	0.044	X_WP:	0.000	Y_WP:	0.000	Y_WP:	0.000	X:	0.086	Y:	0.128	Z:	0.057	yaw:	-2.509	yaw rate:	-0.456	Roll:	2.672	Pitch:	4.209	Yaw:	-5.614	Thrust:	0.000
Time:	2.377	Roll Set Point:	-0.166	Pitch Set Point:	-0.260	Yaw Set Point:	0.044	X_WP:	0.000	Y_WP:	0.000	Y_WP:	0.000	X:	0.086	Y:	0.128	Z:	0.057	yaw:	-2.503	yaw rate:	0.667	Roll:	2.745	Pitch:	4.202	Yaw:	-5.509	Thrust:	0.000
Time:	2.387	Roll Set Point:	-0.166	Pitch Set Point:	-0.260	Yaw Set Point:	0.044	X_WP:	0.000	Y_WP:	0.000	Y_WP:	0.000	X:	0.086	Y:	0.128	Z:	0.057	yaw:	-2.504	yaw rate:	-0.138	Roll:	2.701	Pitch:	4.224	Yaw:	-5.542	Thrust:	0.000
Time:	2.398	Roll Set Point:	-0.166	Pitch Set Point:	-0.260	Yaw Set Point:	0.044	X_WP:	0.000	Y_WP:	0.000	Y_WP:	0.000	X:	0.086	Y:	0.128	Z:	0.057	yaw:	-2.501	yaw rate:	0.247	Roll:	2.744	Pitch:	4.231	Yaw:	-5.632	Thrust:	0.000
Time:	2.409	Roll Set Point:	-0.166	Pitch Set Point:	-0.260	Yaw Set Point:	0.044	X_WP:	0.000	Y_WP:	0.000	Y_WP:	0.000	X:	0.086	Y:	0.128	Z:	0.057	yaw:	-2.504	yaw rate:	-0.222	Roll:	2.745	Pitch:	4.242	Yaw:	-5.762	Thrust:	0.000
Time:	2.420	Roll Set Point:	-0.166	Pitch Set Point:	-0.260	Yaw Set Point:	0.044	X_WP:	0.000	Y_WP:	0.000	Y_WP:	0.000	X:	0.086	Y:	0.128	Z:	0.057	yaw:	-2.503	yaw rate:	0.095	Roll:	2.721	Pitch:	4.244	Yaw:	-5.664	Thrust:	0.000
Time:	2.430	Roll Set Point:	-0.166	Pitch Set Point:	-0.260	Yaw Set Point:	0.044	X_WP:	0.000	Y_WP:	0.000	Y_WP:	0.000	X:	0.086	Y:	0.128	Z:	0.057	yaw:	-2.500	yaw rate:	0.280	Roll:	2.709	Pitch:	4.167	Yaw:	-5.423	Thrust:	0.000
Time:	2.440	Roll Set Point:	-0.166	Pitch Set Point:	-0.260	Yaw Set Point:	0.044	X_WP:	0.000	Y_WP:	0.000	Y_WP:	0.000	X:	0.086	Y:	0.128	Z:	0.057	yaw:	-2.500	yaw rate:	0.280	Roll:	2.697	Pitch:	4.199	Yaw:	-5.496	Thrust:	0.000
Time:	2.452	Roll Set Point:	-0.166	Pitch Set Point:	-0.260	Yaw Set Point:	0.044	X_WP:	0.000	Y_WP:	0.000	Y_WP:	0.000	X:	0.086	Y:	0.128	Z:	0.057	yaw:	-2.500	yaw rate:	-0.020	Roll:	2.734	Pitch:	4.253	Yaw:	-5.701	Thrust:	0.000
Time:	2.465	Roll Set Point:	-0.166	Pitch Set Point:	-0.260	Yaw Set Point:	0.044	X_WP:	0.000	Y_WP:	0.000	Y_WP:	0.000	X:	0.086	Y:	0.128	Z:	0.057	yaw:	-2.497	yaw rate:	0.266	Roll:	2.686	Pitch:	4.196	Yaw:	-6.047	Thrust:	0.000
Time:	2.476	Roll Set Point:	-0.166	Pitch Set Point:	-0.260	Yaw Set Point:	0.044	X_WP:	0.000	Y_WP:	0.000	Y_WP:	0.000	X:	0.086	Y:	0.128	Z:	0.057	yaw:	-2.507	yaw rate:	-0.705	Roll:	2.855	Pitch:	4.356	Yaw:	-5.947	Thrust:	0.000
Time:	2.486	Roll Set Point:	-0.166	Pitch Set Point:	-0.260	Yaw Set Point:	0.044	X_WP:	0.000	Y_WP:	0.000	Y_WP:	0.000	X:	0.086	Y:	0.128	Z:	0.057	yaw:	-2.507	yaw rate:	-0.705	Roll:	2.697	Pitch:	4.199	Yaw:	-5.506	Thrust:	0.000
Time:	2.497	Roll Set Point:	-0.166	Pitch Set Point:	-0.260	Yaw Set Point:	0.044	X_WP:	0.000	Y_WP:	0.000	Y_WP:	0.000	X:	0.086	Y:	0.128	Z:	0.057	yaw:	-2.505	yaw rate:	0.274	Roll:	2.729	Pitch:	4.245	Yaw:	-5.625	Thrust:	0.000
Time:	2.507	Roll Set Point:	-0.166	Pitch Set Point:	-0.260	Yaw Set Point:	0.044	X_WP:	0.000	Y_WP:	0.000	Y_WP:	0.000	X:	0.086	Y:	0.128	Z:	0.057	yaw:	-2.502	yaw rate:	0.211	Roll:	2.693	Pitch:	4.202	Yaw:	-5.449	Thrust:	0.000
Time:	2.517	Roll Set Point:	-0.166	Pitch Set Point:	-0.260	Yaw Set Point:	0.044	X_WP:	0.000	Y_WP:	0.000	Y_WP:	0.000	X:	0.086	Y:	0.128	Z:	0.057	yaw:	-2.504	yaw rate:	-0.170	Roll:	2.680	Pitch:	4.190	Yaw:	-5.554	Thrust:	0.000
Time:	2.528	Roll Set Point:	-0.166	Pitch Set Point:	-0.260	Yaw Set Point:	0.044	X_WP:	0.000	Y_WP:	0.000	Y_WP:	0.000	X:	0.086	Y:	0.128	Z:	0.057	yaw:	-2.501	yaw rate:	0.342	Roll:	2.747	Pitch:	4.244	Yaw:	-5.616	Thrust:	0.000
Time:	2.539	Roll Set Point:	-0.166	Pitch Set Point:	-0.260	Yaw Set Point:	0.044	X_WP:	0.000	Y_WP:	0.000	Y_WP:	0.000	X:	0.086	Y:	0.128	Z:	0.057	yaw:	-2.505	yaw rate:	-0.449	Roll:	2.746	Pitch:	4.232	Yaw:	-5.799	Thrust:	0.000
Time:	2.549	Roll Set Point:	-0.166	Pitch Set Point:	-0.260	Yaw Set Point:	0.044	X_WP:	0.000	Y_WP:	0.000	Y_WP:	0.000	X:	0.086	Y:	0.128	Z:	0.057	yaw:	-2.502	yaw rate:	0.327	Roll:	2.722	Pitch:	4.181	Yaw:	-5.413	Thrust:	0.000
Time:	2.559	Roll Set Point:	-0.166	Pitch Set Point:	-0.260	Yaw Set Point:	0.044	X_WP:	0.000	Y_WP:	0.000	Y_WP:	0.000	X:	0.086	Y:	0.128	Z:	0.057	yaw:	-2.506	yaw rate:	-0.376	Roll:	2.667	Pitch:	4.217	Yaw:	-5.602	Thrust:	0.000
Time:	2.569	Roll Set Point:	-0.166	Pitch Set Point:	-0.260	Yaw Set Point:	0.044	X_WP:	0.000	Y_WP:	0.000	Y_WP:	0.000	X:	0.086	Y:	0.128	Z:	0.057	yaw:	-2.502	yaw rate:	0.329	Roll:	2.670	Pitch:	4.195	Yaw:	-5.428	Thrust:	0.000
Time:	2.580	Roll Set Point:	-0.166	Pitch Set Point:	-0.260	Yaw Set Point:	0.044	X_WP:	0.000	Y_WP:	0.000	Y_WP:	0.000	X:	0.086	Y:	0.128	Z:	0.057	yaw:	-2.504	yaw rate:	-0.189	Roll:	2.750	Pitch:	4.232	Yaw:	-5.734	Thrust:	0.000
Time:	2.591	Roll Set Point:	-0.166	Pitch Set Point:	-0.260	Yaw Set Point:	0.044	X_WP:	0.000	Y_WP:	0.000	Y_WP:	0.000	X:	0.086	Y:	0.128	Z:	0.057	yaw:	-2.503	yaw rate:	0.137	Roll:	2.712	Pitch:	4.184	Yaw:	-5.470	Thrust:	0.000
Time:	2.601	Roll Set Point:	-0.166	Pitch Set Point:	-0.260	Yaw Set Point:	0.044	X_WP:	0.000	Y_WP:	0.000	Y_WP:	0.000	X:	0.086	Y:	0.128	Z:	0.057	yaw:	-2.502	yaw rate:	0.093	Roll:	2.727	Pitch:	4.262	Yaw:	-5.685	Thrust:	0.000
Time:	2.612	Roll Set Point:	-0.166	Pitch Set Point:	-0.260	Yaw Set Point:	0.044	X_WP:	0.000	Y_WP:	0.000	Y_WP:	0.000	X:	0.086	Y:	0.128	Z:	0.057	yaw:	-2.506	yaw rate:	-0.349	Roll:	2.727	Pitch:	4.229	Yaw:	-5.775	Thrust:	0.000
Time:	2.623	Roll Set Point:	-0.166	Pitch Set Point:	-0.260	Yaw Set Point:	0.044	X_WP:	0.000	Y_WP:	0.000	Y_WP:	0.000	X:	0.086	Y:	0.128	Z:	0.057	yaw:	-2.501	yaw rate:	0.466	Roll:	2.708	Pitch:	4.189	Yaw:	-5.587	Thrust:	0.000
Time:	2.634	Roll Set Point:	-0.166	Pitch Set Point:	-0.260	Yaw Set Point:	0.044	X_WP:	0.000	Y_WP:	0.000	Y_WP:	0.000	X:	0.086	Y:	0.128	Z:	0.057	yaw:	-2.502	yaw rate:	-0.096	Roll:	2.717	Pitch:	4.237	Yaw:	-5.524	Thrust:	0.000
Time:	2.644	Roll Set Point:	-0.166	Pitch Set Point:	-0.260	Yaw Set Point:	0.044	X_WP:	0.000	Y_WP:	0.000	Y_WP:	0.000	X:	0.086	Y:	0.128	Z:	0.057	yaw:	-2.501	yaw rate:	0.086	Roll:	2.751	Pitch:	4.225	Yaw:	-5.683	Thrust:	0.000
Time:	2.656	Roll Set Point:	-0.166	Pitch Set Point:	-0.260	Yaw Set Point:	0.044	X_WP:	0.000	Y_WP:	0.000	Y_WP:	0.000	X:	0.086	Y:	0.128	Z:	0.057	yaw:	-2.503	yaw rate:	-0.243	Roll:	2.738	Pitch:	4.254	Yaw:	-5.766	Thrust:	0.000
Time:	2.666	Roll Set Point:	-0.166	Pitch Set Point:	-0.260	Yaw Set Point:	0.044	X_WP:	0.000	Y_WP:	0.000	Y_WP:	0.000	X:	0.086	Y:	0.128	Z:	0.057	yaw:	-2.502	yaw rate:	0.182	Roll:	2.719	Pitch:	4.236	Yaw:	-5.656	Thrust:	0.000
Time:	2.677	Roll Set Point:	-0.166	Pitch Set Point:	-0.260	Yaw Set Point:	0.044	X_WP:	0.000	Y_WP:	0.000	Y_WP:	0.000	X:	0.086	Y:	0.128	Z:	0.057	yaw:	-2.515	yaw rate:	-1.326	Roll:	2.707	Pitch:	4.265	Yaw:	-6.021	Thrust:	0.000
Time:	2.689	Roll Set Point:	-0.166	Pitch Set Point:	-0.260	Yaw Set Point:	0.044	X_WP:	0.000	Y_WP:	0.000	Y_WP:	0.000	X:	0.086	Y:	0.128	Z:	0.057	yaw:	-2.512	yaw rate:	0.315	Roll:	2.745	Pitch:	4.223	Yaw:	-5.638	Thrust:	0.000
Time:	2.699	Roll Set Point:	-0.166	Pitch Set Point:	-0.260	Yaw Set Point:	0.044	X_WP:	0.000	Y_WP:	0.000	Y_WP:	0.000	X:	0.086	Y:	0.128	Z:	0.057	yaw:	-2.503	yaw rate:	0.823	Roll:	2.761	Pitch:	4.220	Yaw:	-5.506	Thrust:	0.000
Time:	2.710	Roll Set Point:	-0.166	Pitch Set Point:	-0.260	Yaw Set Point:	0.044	X_WP:	0.000	Y_WP:	0.000	Y_WP:	0.000	X:	0.086	Y:	0.128	Z:	0.057	yaw:	-2.502	yaw rate:	0.175	Roll:	2.736	Pitch:	4.243	Yaw:	-5.672	Thrust:	0.000
Time:	2.722	Roll Set Point:	-0.166	Pitch Set Point:	-0.260	Yaw Set Point:	0.044	X_WP:	0.000	Y_WP:	0.000	Y_WP:	0.000	X:	0.086	Y:	0.128	Z:	0.057	yaw:	-2.505	yaw rate:	-0.298	Roll:	2.726	Pitch:	4.232	Yaw:	-5.760	Thrust:	0.000
Time:	2.732	Roll Set Point:	-0.166	Pitch Set Point:	-0.260	Yaw Set Point:	0.044	X_WP:	0.000	Y_WP:	0.000	Y_WP:	0.000	X:	0.086	Y:	0.128	Z:	0.057	yaw:	-2.502	yaw rate:	0.247	Roll:	2.747	Pitch:	4.224	Yaw:	-5.645	Thrust:	0.000
Time:	2.743	Roll Set Point:	-0.166	Pitch Set Point:	-0.260	Yaw Set Point:	0.044	X_WP:	0.000	Y_WP:	0.000	Y_WP:	0.000	X:	0.086	Y:	0.128	Z:	0.057	yaw:	-2.507	yaw rate:	-0.445	Roll:	2.712	Pitch:	4.254	Yaw:	-5.807	Thrust:	0.000
Time:	2.754	Roll Set Point:	-0.166	Pitch Set Point:	-0.260	Yaw Set Point:	0.044	X_WP:	0.000	Y_WP:	0.000	Y_WP:	0.000	X:	0.086	Y:	0.128	Z:	0.057	yaw:	-2.505	yaw rate:	0.207	Roll:	2.757	Pitch:	4.217	Yaw:	-5.654	Thrust:	0.000
Time:	2.766	Roll Set Point:	-0.166	Pitch Set Point:	-0.260	Yaw Set Point:	0.044	X_WP:	0.000	Y_WP:	0.000	Y_WP:	0.000	X:	0.086	Y:	0.128	Z:	0.057	yaw:	-2.502	yaw rate:	0.233	Roll:	2.731	Pitch:	4.250	Yaw:	-5.651	Thrust:	0.000
Time:	2.777	Roll Set Point:	-0.166	Pitch Set Point:	-0.260	Yaw Set Point:	0.044	X_WP:	0.000	Y_WP:	0.000	Y_WP:	0.000	X:	0.086	Y:	0.128	Z:	0.057	yaw:	-2.508	yaw rate:	-0.610	Roll:	2.700	Pitch:	4.256	Yaw:	-5.858	Thrust:	0.000
Time:	2.788	Roll Set Point:	-0.166	Pitch Set Point:	-0.260	Yaw Set Point:	0.044	X_WP:	0.000	Y_WP:	0.000	Y_WP:	0.000	X:	0.086	Y:	0.128	Z:	0.057	yaw:	-2.501	yaw rate:	0.747	Roll:	2.781	Pitch:	4.206	Yaw:	-5.724	Thrust:	0.000
Time:	2.800	Roll Set Point:	-0.166	Pitch Set Point:	-0.260	Yaw Set Point:	0.044	X_WP:	0.000	Y_WP:	0.000	Y_WP:	0.000	X:	0.086	Y:	0.128	Z:	0.057	yaw:	-2.508	yaw rate:	-0.670	Roll:	2.738	Pitch:	4.284	Yaw:	-5.865	Thrust:	0.000
Time:	2.811	Roll Set Point:	-0.166	Pitch Set Point:	-0.260	Yaw Set Point:	0.044	X_WP:	0.000	Y_WP:	0.000	Y_WP:	0.000	X:	0.086	Y:	0.128	Z:	0.057	yaw:	-2.498	yaw rate:	0.962	Roll:	2.773	Pitch:	4.225	Yaw:	-5.480	Thrust:	0.000
Time:	2.823	Roll Set Point:	-0.166	Pitch Set Point:	-0.260	Yaw Set Point:	0.044	X_WP:	0.000	Y_WP:	0.000	Y_WP:	0.000	X:	0.086	Y:	0.128	Z:	0.057	yaw:	-2.502	yaw rate:	-0.400	Roll:	2.729	Pitch:	4.234	Yaw:	-5.781	Thrust:	0.000
