Time:	0.034	Roll Set Point:	-0.151	Pitch Set Point:	-0.397	Yaw Set Point:	0.062	X_WP:	0.000	Y_WP:	0.000	Y_WP:	0.000	X:	0.081	Y:	0.196	Z:	0.057	yaw:	-3.545	yaw rate:	0.887	Roll:	2.006	Pitch:	5.818	Yaw:	-4.950	Thrust:	0.000
Time:	0.045	Roll Set Point:	-0.151	Pitch Set Point:	-0.397	Yaw Set Point:	0.062	X_WP:	0.000	Y_WP:	0.000	Y_WP:	0.000	X:	0.081	Y:	0.196	Z:	0.057	yaw:	-3.548	yaw rate:	-0.236	Roll:	2.007	Pitch:	5.833	Yaw:	-5.020	Thrust:	0.000
Time:	0.057	Roll Set Point:	-0.151	Pitch Set Point:	-0.397	Yaw Set Point:	0.062	X_WP:	0.000	Y_WP:	0.000	Y_WP:	0.000	X:	0.081	Y:	0.196	Z:	0.057	yaw:	-3.554	yaw rate:	-0.620	Roll:	1.970	Pitch:	5.828	Yaw:	-5.137	Thrust:	0.000
Time:	0.070	Roll Set Point:	-0.151	Pitch Set Point:	-0.397	Yaw Set Point:	0.062	X_WP:	0.000	Y_WP:	0.000	Y_WP:	0.000	X:	0.081	Y:	0.196	Z:	0.057	yaw:	-3.552	yaw rate:	0.536	Roll:	2.013	Pitch:	5.845	Yaw:	-4.964	Thrust:	0.000
Time:	0.081	Roll Set Point:	-0.151	Pitch Set Point:	-0.397	Yaw Set Point:	0.062	X_WP:	0.000	Y_WP:	0.000	Y_WP:	0.000	X:	0.081	Y:	0.196	Z:	0.057	yaw:	-3.556	yaw rate:	-0.430	Roll:	1.989	Pitch:	5.842	Yaw:	-5.119	Thrust:	0.000
Time:	0.092	Roll Set Point:	-0.151	Pitch Set Point:	-0.397	Yaw Set Point:	0.062	X_WP:	0.000	Y_WP:	0.000	Y_WP:	0.000	X:	0.081	Y:	0.196	Z:	0.057	yaw:	-3.550	yaw rate:	0.673	Roll:	2.073	Pitch:	5.822	Yaw:	-4.885	Thrust:	0.000
Time:	0.103	Roll Set Point:	-0.151	Pitch Set Point:	-0.397	Yaw Set Point:	0.062	X_WP:	0.000	Y_WP:	0.000	Y_WP:	0.000	X:	0.081	Y:	0.196	Z:	0.057	yaw:	-3.554	yaw rate:	-0.469	Roll:	1.986	Pitch:	5.868	Yaw:	-5.160	Thrust:	0.000
Time:	0.114	Roll Set Point:	-0.151	Pitch Set Point:	-0.397	Yaw Set Point:	0.062	X_WP:	0.000	Y_WP:	0.000	Y_WP:	0.000	X:	0.081	Y:	0.196	Z:	0.057	yaw:	-3.552	yaw rate:	0.283	Roll:	2.027	Pitch:	5.868	Yaw:	-4.988	Thrust:	0.000
Time:	0.124	Roll Set Point:	-0.151	Pitch Set Point:	-0.397	Yaw Set Point:	0.062	X_WP:	0.000	Y_WP:	0.000	Y_WP:	0.000	X:	0.081	Y:	0.196	Z:	0.057	yaw:	-3.560	yaw rate:	-0.862	Roll:	1.994	Pitch:	5.864	Yaw:	-5.285	Thrust:	0.000
Time:	0.134	Roll Set Point:	-0.151	Pitch Set Point:	-0.397	Yaw Set Point:	0.062	X_WP:	0.000	Y_WP:	0.000	Y_WP:	0.000	X:	0.081	Y:	0.196	Z:	0.057	yaw:	-3.558	yaw rate:	0.198	Roll:	2.011	Pitch:	5.872	Yaw:	-5.028	Thrust:	0.000
Time:	0.144	Roll Set Point:	-0.151	Pitch Set Point:	-0.397	Yaw Set Point:	0.062	X_WP:	0.000	Y_WP:	0.000	Y_WP:	0.000	X:	0.081	Y:	0.196	Z:	0.057	yaw:	-3.552	yaw rate:	0.617	Roll:	2.050	Pitch:	5.856	Yaw:	-4.924	Thrust:	0.000
Time:	0.155	Roll Set Point:	-0.151	Pitch Set Point:	-0.397	Yaw Set Point:	0.062	X_WP:	0.000	Y_WP:	0.000	Y_WP:	0.000	X:	0.081	Y:	0.196	Z:	0.057	yaw:	-3.552	yaw rate:	0.617	Roll:	2.026	Pitch:	5.879	Yaw:	-5.110	Thrust:	0.000
Time:	0.166	Roll Set Point:	-0.151	Pitch Set Point:	-0.397	Yaw Set Point:	0.062	X_WP:	0.000	Y_WP:	0.000	Y_WP:	0.000	X:	0.081	Y:	0.196	Z:	0.057	yaw:	-3.555	yaw rate:	0.182	Roll:	2.041	Pitch:	5.900	Yaw:	-5.197	Thrust:	0.000
Time:	0.176	Roll Set Point:	-0.151	Pitch Set Point:	-0.397	Yaw Set Point:	0.062	X_WP:	0.000	Y_WP:	0.000	Y_WP:	0.000	X:	0.081	Y:	0.196	Z:	0.057	yaw:	-3.555	yaw rate:	0.182	Roll:	2.028	Pitch:	5.884	Yaw:	-5.125	Thrust:	0.000
Time:	0.187	Roll Set Point:	-0.151	Pitch Set Point:	-0.397	Yaw Set Point:	0.062	X_WP:	0.000	Y_WP:	0.000	Y_WP:	0.000	X:	0.081	Y:	0.196	Z:	0.057	yaw:	-3.555	yaw rate:	0.014	Roll:	2.002	Pitch:	5.884	Yaw:	-5.151	Thrust:	0.000
Time:	0.198	Roll Set Point:	-0.151	Pitch Set Point:	-0.397	Yaw Set Point:	0.062	X_WP:	0.000	Y_WP:	0.000	Y_WP:	0.000	X:	0.081	Y:	0.196	Z:	0.057	yaw:	-3.556	yaw rate:	-0.107	Roll:	2.034	Pitch:	5.889	Yaw:	-5.180	Thrust:	0.000
Time:	0.208	Roll Set Point:	-0.151	Pitch Set Point:	-0.397	Yaw Set Point:	0.062	X_WP:	0.000	Y_WP:	0.000	Y_WP:	0.000	X:	0.081	Y:	0.196	Z:	0.057	yaw:	-3.560	yaw rate:	-0.374	Roll:	2.016	Pitch:	5.906	Yaw:	-5.267	Thrust:	0.000
Time:	0.218	Roll Set Point:	-0.151	Pitch Set Point:	-0.397	Yaw Set Point:	0.062	X_WP:	0.000	Y_WP:	0.000	Y_WP:	0.000	X:	0.081	Y:	0.196	Z:	0.057	yaw:	-3.558	yaw rate:	0.132	Roll:	2.038	Pitch:	5.905	Yaw:	-5.145	Thrust:	0.000
Time:	0.228	Roll Set Point:	-0.151	Pitch Set Point:	-0.397	Yaw Set Point:	0.062	X_WP:	0.000	Y_WP:	0.000	Y_WP:	0.000	X:	0.081	Y:	0.196	Z:	0.057	yaw:	-3.555	yaw rate:	0.379	Roll:	2.056	Pitch:	5.891	Yaw:	-5.088	Thrust:	0.000
Time:	0.238	Roll Set Point:	-0.151	Pitch Set Point:	-0.397	Yaw Set Point:	0.062	X_WP:	0.000	Y_WP:	0.000	Y_WP:	0.000	X:	0.081	Y:	0.196	Z:	0.057	yaw:	-3.551	yaw rate:	0.338	Roll:	2.062	Pitch:	5.933	Yaw:	-5.106	Thrust:	0.000
Time:	0.248	Roll Set Point:	-0.151	Pitch Set Point:	-0.397	Yaw Set Point:	0.062	X_WP:	0.000	Y_WP:	0.000	Y_WP:	0.000	X:	0.081	Y:	0.196	Z:	0.057	yaw:	-3.548	yaw rate:	0.280	Roll:	2.062	Pitch:	5.908	Yaw:	-5.130	Thrust:	0.000
Time:	0.259	Roll Set Point:	-0.151	Pitch Set Point:	-0.397	Yaw Set Point:	0.062	X_WP:	0.000	Y_WP:	0.000	Y_WP:	0.000	X:	0.081	Y:	0.196	Z:	0.057	yaw:	-3.559	yaw rate:	-1.036	Roll:	1.979	Pitch:	5.920	Yaw:	-5.501	Thrust:	0.000
Time:	0.270	Roll Set Point:	-0.151	Pitch Set Point:	-0.397	Yaw Set Point:	0.062	X_WP:	0.000	Y_WP:	0.000	Y_WP:	0.000	X:	0.081	Y:	0.196	Z:	0.057	yaw:	-3.555	yaw rate:	0.325	Roll:	2.071	Pitch:	5.950	Yaw:	-5.223	Thrust:	0.000
Time:	0.281	Roll Set Point:	-0.151	Pitch Set Point:	-0.397	Yaw Set Point:	0.062	X_WP:	0.000	Y_WP:	0.000	Y_WP:	0.000	X:	0.081	Y:	0.196	Z:	0.057	yaw:	-3.551	yaw rate:	0.497	Roll:	2.066	Pitch:	5.961	Yaw:	-5.154	Thrust:	0.000
Time:	0.292	Roll Set Point:	-0.151	Pitch Set Point:	-0.397	Yaw Set Point:	0.062	X_WP:	0.000	Y_WP:	0.000	Y_WP:	0.000	X:	0.081	Y:	0.196	Z:	0.057	yaw:	-3.555	yaw rate:	-0.490	Roll:	2.012	Pitch:	5.944	Yaw:	-5.409	Thrust:	0.000
Time:	0.303	Roll Set Point:	-0.151	Pitch Set Point:	-0.397	Yaw Set Point:	0.062	X_WP:	0.000	Y_WP:	0.000	Y_WP:	0.000	X:	0.081	Y:	0.196	Z:	0.057	yaw:	-3.553	yaw rate:	0.271	Roll:	2.112	Pitch:	5.953	Yaw:	-5.238	Thrust:	0.000
Time:	0.313	Roll Set Point:	-0.151	Pitch Set Point:	-0.397	Yaw Set Point:	0.062	X_WP:	0.000	Y_WP:	0.000	Y_WP:	0.000	X:	0.081	Y:	0.196	Z:	0.057	yaw:	-3.549	yaw rate:	0.363	Roll:	2.047	Pitch:	5.940	Yaw:	-5.184	Thrust:	0.000
Time:	0.324	Roll Set Point:	-0.151	Pitch Set Point:	-0.397	Yaw Set Point:	0.062	X_WP:	0.000	Y_WP:	0.000	Y_WP:	0.000	X:	0.081	Y:	0.196	Z:	0.057	yaw:	-3.553	yaw rate:	-0.430	Roll:	2.013	Pitch:	5.958	Yaw:	-5.410	Thrust:	0.000
Time:	0.334	Roll Set Point:	-0.151	Pitch Set Point:	-0.397	Yaw Set Point:	0.062	X_WP:	0.000	Y_WP:	0.000	Y_WP:	0.000	X:	0.081	Y:	0.196	Z:	0.057	yaw:	-3.544	yaw rate:	0.905	Roll:	2.124	Pitch:	5.961	Yaw:	-5.118	Thrust:	0.000
Time:	0.345	Roll Set Point:	-0.151	Pitch Set Point:	-0.397	Yaw Set Point:	0.062	X_WP:	0.000	Y_WP:	0.000	Y_WP:	0.000	X:	0.081	Y:	0.196	Z:	0.057	yaw:	-3.552	yaw rate:	-0.748	Roll:	2.014	Pitch:	5.998	Yaw:	-5.533	Thrust:	0.000
Time:	0.355	Roll Set Point:	-0.151	Pitch Set Point:	-0.397	Yaw Set Point:	0.062	X_WP:	0.000	Y_WP:	0.000	Y_WP:	0.000	X:	0.081	Y:	0.196	Z:	0.057	yaw:	-3.559	yaw rate:	-0.690	Roll:	2.029	Pitch:	5.975	Yaw:	-5.523	Thrust:	0.000
Time:	0.365	Roll Set Point:	-0.151	Pitch Set Point:	-0.397	Yaw Set Point:	0.062	X_WP:	0.000	Y_WP:	0.000	Y_WP:	0.000	X:	0.081	Y:	0.196	Z:	0.057	yaw:	-3.552	yaw rate:	0.710	Roll:	2.101	Pitch:	5.966	Yaw:	-5.159	Thrust:	0.000
Time:	0.375	Roll Set Point:	-0.151	Pitch Set Point:	-0.397	Yaw Set Point:	0.062	X_WP:	0.000	Y_WP:	0.000	Y_WP:	0.000	X:	0.081	Y:	0.196	Z:	0.057	yaw:	-3.547	yaw rate:	0.434	Roll:	2.069	Pitch:	5.978	Yaw:	-5.238	Thrust:	0.000
Time:	0.386	Roll Set Point:	-0.151	Pitch Set Point:	-0.397	Yaw Set Point:	0.062	X_WP:	0.000	Y_WP:	0.000	Y_WP:	0.000	X:	0.081	Y:	0.196	Z:	0.057	yaw:	-3.551	yaw rate:	-0.422	Roll:	2.044	Pitch:	5.996	Yaw:	-5.509	Thrust:	0.000
Time:	0.396	Roll Set Point:	-0.151	Pitch Set Point:	-0.397	Yaw Set Point:	0.062	X_WP:	0.000	Y_WP:	0.000	Y_WP:	0.000	X:	0.081	Y:	0.196	Z:	0.057	yaw:	-3.549	yaw rate:	0.230	Roll:	2.088	Pitch:	5.981	Yaw:	-5.318	Thrust:	0.000
Time:	0.406	Roll Set Point:	-0.151	Pitch Set Point:	-0.397	Yaw Set Point:	0.062	X_WP:	0.000	Y_WP:	0.000	Y_WP:	0.000	X:	0.081	Y:	0.196	Z:	0.057	yaw:	-3.549	yaw rate:	0.230	Roll:	2.066	Pitch:	5.994	Yaw:	-5.391	Thrust:	0.000
Time:	0.417	Roll Set Point:	-0.151	Pitch Set Point:	-0.397	Yaw Set Point:	0.062	X_WP:	0.000	Y_WP:	0.000	Y_WP:	0.000	X:	0.081	Y:	0.196	Z:	0.057	yaw:	-3.550	yaw rate:	-0.067	Roll:	2.071	Pitch:	6.025	Yaw:	-5.465	Thrust:	0.000
Time:	0.428	Roll Set Point:	-0.151	Pitch Set Point:	-0.397	Yaw Set Point:	0.062	X_WP:	0.000	Y_WP:	0.000	Y_WP:	0.000	X:	0.081	Y:	0.196	Z:	0.057	yaw:	-3.555	yaw rate:	-0.493	Roll:	2.047	Pitch:	6.028	Yaw:	-5.586	Thrust:	0.000
Time:	0.438	Roll Set Point:	-0.151	Pitch Set Point:	-0.397	Yaw Set Point:	0.062	X_WP:	0.000	Y_WP:	0.000	Y_WP:	0.000	X:	0.081	Y:	0.196	Z:	0.057	yaw:	-3.566	yaw rate:	-1.111	Roll:	2.015	Pitch:	6.022	Yaw:	-5.742	Thrust:	0.000
Time:	0.448	Roll Set Point:	-0.151	Pitch Set Point:	-0.397	Yaw Set Point:	0.062	X_WP:	0.000	Y_WP:	0.000	Y_WP:	0.000	X:	0.081	Y:	0.196	Z:	0.057	yaw:	-3.552	yaw rate:	1.344	Roll:	2.143	Pitch:	5.995	Yaw:	-5.099	Thrust:	0.000
Time:	0.459	Roll Set Point:	-0.151	Pitch Set Point:	-0.397	Yaw Set Point:	0.062	X_WP:	0.000	Y_WP:	0.000	Y_WP:	0.000	X:	0.081	Y:	0.196	Z:	0.057	yaw:	-3.554	yaw rate:	-0.115	Roll:	2.059	Pitch:	6.056	Yaw:	-5.534	Thrust:	0.000
Time:	0.469	Roll Set Point:	-0.151	Pitch Set Point:	-0.397	Yaw Set Point:	0.062	X_WP:	0.000	Y_WP:	0.000	Y_WP:	0.000	X:	0.081	Y:	0.196	Z:	0.057	yaw:	-3.556	yaw rate:	-0.282	Roll:	2.069	Pitch:	6.009	Yaw:	-5.550	Thrust:	0.000
Time:	0.480	Roll Set Point:	-0.151	Pitch Set Point:	-0.397	Yaw Set Point:	0.062	X_WP:	0.000	Y_WP:	0.000	Y_WP:	0.000	X:	0.081	Y:	0.196	Z:	0.057	yaw:	-3.551	yaw rate:	0.585	Roll:	2.148	Pitch:	6.045	Yaw:	-5.392	Thrust:	0.000
Time:	0.490	Roll Set Point:	-0.151	Pitch Set Point:	-0.397	Yaw Set Point:	0.062	X_WP:	0.000	Y_WP:	0.000	Y_WP:	0.000	X:	0.081	Y:	0.196	Z:	0.057	yaw:	-3.545	yaw rate:	0.537	Roll:	2.082	Pitch:	6.033	Yaw:	-5.345	Thrust:	0.000
Time:	0.501	Roll Set Point:	-0.151	Pitch Set Point:	-0.397	Yaw Set Point:	0.062	X_WP:	0.000	Y_WP:	0.000	Y_WP:	0.000	X:	0.081	Y:	0.196	Z:	0.057	yaw:	-3.557	yaw rate:	-1.183	Roll:	2.031	Pitch:	6.086	Yaw:	-5.851	Thrust:	0.000
Time:	0.512	Roll Set Point:	-0.151	Pitch Set Point:	-0.397	Yaw Set Point:	0.062	X_WP:	0.000	Y_WP:	0.000	Y_WP:	0.000	X:	0.081	Y:	0.196	Z:	0.057	yaw:	-3.554	yaw rate:	0.270	Roll:	2.098	Pitch:	6.043	Yaw:	-5.510	Thrust:	0.000
Time:	0.522	Roll Set Point:	-0.151	Pitch Set Point:	-0.397	Yaw Set Point:	0.062	X_WP:	0.000	Y_WP:	0.000	Y_WP:	0.000	X:	0.081	Y:	0.196	Z:	0.057	yaw:	-3.555	yaw rate:	-0.030	Roll:	2.059	Pitch:	6.066	Yaw:	-5.543	Thrust:	0.000
Time:	0.532	Roll Set Point:	-0.151	Pitch Set Point:	-0.397	Yaw Set Point:	0.062	X_WP:	0.000	Y_WP:	0.000	Y_WP:	0.000	X:	0.081	Y:	0.196	Z:	0.057	yaw:	-3.554	yaw rate:	0.020	Roll:	2.104	Pitch:	6.068	Yaw:	-5.542	Thrust:	0.000
Time:	0.542	Roll Set Point:	-0.151	Pitch Set Point:	-0.397	Yaw Set Point:	0.062	X_WP:	0.000	Y_WP:	0.000	Y_WP:	0.000	X:	0.081	Y:	0.196	Z:	0.057	yaw:	-3.556	yaw rate:	-0.168	Roll:	2.097	Pitch:	6.045	Yaw:	-5.606	Thrust:	0.000
Time:	0.552	Roll Set Point:	-0.151	Pitch Set Point:	-0.397	Yaw Set Point:	0.062	X_WP:	0.000	Y_WP:	0.000	Y_WP:	0.000	X:	0.081	Y:	0.196	Z:	0.057	yaw:	-3.561	yaw rate:	-0.447	Roll:	2.075	Pitch:	6.076	Yaw:	-5.697	Thrust:	0.000
Time:	0.562	Roll Set Point:	-0.151	Pitch Set Point:	-0.397	Yaw Set Point:	0.062	X_WP:	0.000	Y_WP:	0.000	Y_WP:	0.000	X:	0.081	Y:	0.196	Z:	0.057	yaw:	-3.553	yaw rate:	0.735	Roll:	2.104	Pitch:	6.051	Yaw:	-5.391	Thrust:	0.000
Time:	0.573	Roll Set Point:	-0.151	Pitch Set Point:	-0.397	Yaw Set Point:	0.062	X_WP:	0.000	Y_WP:	0.000	Y_WP:	0.000	X:	0.081	Y:	0.196	Z:	0.057	yaw:	-3.553	yaw rate:	0.735	Roll:	2.094	Pitch:	6.075	Yaw:	-5.595	Thrust:	0.000
Time:	0.584	Roll Set Point:	-0.151	Pitch Set Point:	-0.397	Yaw Set Point:	0.062	X_WP:	0.000	Y_WP:	0.000	Y_WP:	0.000	X:	0.081	Y:	0.196	Z:	0.057	yaw:	-3.549	yaw rate:	-0.172	Roll:	2.120	Pitch:	6.115	Yaw:	-5.574	Thrust:	0.000
Time:	0.594	Roll Set Point:	-0.151	Pitch Set Point:	-0.397	Yaw Set Point:	0.062	X_WP:	0.000	Y_WP:	0.000	Y_WP:	0.000	X:	0.081	Y:	0.196	Z:	0.057	yaw:	-3.549	yaw rate:	-0.172	Roll:	2.097	Pitch:	6.085	Yaw:	-5.615	Thrust:	0.000
Time:	0.604	Roll Set Point:	-0.151	Pitch Set Point:	-0.397	Yaw Set Point:	0.062	X_WP:	0.000	Y_WP:	0.000	Y_WP:	0.000	X:	0.081	Y:	0.196	Z:	0.057	yaw:	-3.552	yaw rate:	-0.315	Roll:	2.089	Pitch:	6.075	Yaw:	-5.714	Thrust:	0.000
Time:	0.614	Roll Set Point:	-0.151	Pitch Set Point:	-0.397	Yaw Set Point:	0.062	X_WP:	0.000	Y_WP:	0.000	Y_WP:	0.000	X:	0.081	Y:	0.196	Z:	0.057	yaw:	-3.557	yaw rate:	-0.409	Roll:	2.106	Pitch:	6.127	Yaw:	-5.759	Thrust:	0.000
Time:	0.625	Roll Set Point:	-0.151	Pitch Set Point:	-0.397	Yaw Set Point:	0.062	X_WP:	0.000	Y_WP:	0.000	Y_WP:	0.000	X:	0.081	Y:	0.196	Z:	0.057	yaw:	-3.559	yaw rate:	-0.211	Roll:	2.095	Pitch:	6.123	Yaw:	-5.783	Thrust:	0.000
Time:	0.635	Roll Set Point:	-0.151	Pitch Set Point:	-0.397	Yaw Set Point:	0.062	X_WP:	0.000	Y_WP:	0.000	Y_WP:	0.000	X:	0.081	Y:	0.196	Z:	0.057	yaw:	-3.556	yaw rate:	0.301	Roll:	2.085	Pitch:	6.093	Yaw:	-5.593	Thrust:	0.000
Time:	0.647	Roll Set Point:	-0.151	Pitch Set Point:	-0.397	Yaw Set Point:	0.062	X_WP:	0.000	Y_WP:	0.000	Y_WP:	0.000	X:	0.081	Y:	0.196	Z:	0.057	yaw:	-3.550	yaw rate:	0.608	Roll:	2.173	Pitch:	6.162	Yaw:	-5.693	Thrust:	0.000
Time:	0.658	Roll Set Point:	-0.151	Pitch Set Point:	-0.397	Yaw Set Point:	0.062	X_WP:	0.000	Y_WP:	0.000	Y_WP:	0.000	X:	0.081	Y:	0.196	Z:	0.057	yaw:	-3.555	yaw rate:	-0.507	Roll:	2.101	Pitch:	6.162	Yaw:	-5.888	Thrust:	0.000
Time:	0.668	Roll Set Point:	-0.151	Pitch Set Point:	-0.397	Yaw Set Point:	0.062	X_WP:	0.000	Y_WP:	0.000	Y_WP:	0.000	X:	0.081	Y:	0.196	Z:	0.057	yaw:	-3.552	yaw rate:	0.245	Roll:	2.100	Pitch:	6.113	Yaw:	-5.642	Thrust:	0.000
Time:	0.678	Roll Set Point:	-0.151	Pitch Set Point:	-0.397	Yaw Set Point:	0.062	X_WP:	0.000	Y_WP:	0.000	Y_WP:	0.000	X:	0.081	Y:	0.196	Z:	0.057	yaw:	-3.557	yaw rate:	-0.442	Roll:	2.120	Pitch:	6.123	Yaw:	-5.840	Thrust:	0.000
Time:	0.688	Roll Set Point:	-0.151	Pitch Set Point:	-0.397	Yaw Set Point:	0.062	X_WP:	0.000	Y_WP:	0.000	Y_WP:	0.000	X:	0.081	Y:	0.196	Z:	0.057	yaw:	-3.559	yaw rate:	-0.239	Roll:	2.077	Pitch:	6.147	Yaw:	-5.803	Thrust:	0.000
Time:	0.698	Roll Set Point:	-0.151	Pitch Set Point:	-0.397	Yaw Set Point:	0.062	X_WP:	0.000	Y_WP:	0.000	Y_WP:	0.000	X:	0.081	Y:	0.196	Z:	0.057	yaw:	-3.559	yaw rate:	0.015	Roll:	2.100	Pitch:	6.126	Yaw:	-5.749	Thrust:	0.000
Time:	0.708	Roll Set Point:	-0.151	Pitch Set Point:	-0.397	Yaw Set Point:	0.062	X_WP:	0.000	Y_WP:	0.000	Y_WP:	0.000	X:	0.081	Y:	0.196	Z:	0.057	yaw:	-3.553	yaw rate:	0.554	Roll:	2.161	Pitch:	6.126	Yaw:	-5.618	Thrust:	0.000
Time:	0.719	Roll Set Point:	-0.151	Pitch Set Point:	-0.397	Yaw Set Point:	0.062	X_WP:	0.000	Y_WP:	0.000	Y_WP:	0.000	X:	0.081	Y:	0.196	Z:	0.057	yaw:	-3.556	yaw rate:	-0.318	Roll:	2.114	Pitch:	6.190	Yaw:	-5.930	Thrust:	0.000
Time:	0.730	Roll Set Point:	-0.151	Pitch Set Point:	-0.397	Yaw Set Point:	0.062	X_WP:	0.000	Y_WP:	0.000	Y_WP:	0.000	X:	0.081	Y:	0.196	Z:	0.057	yaw:	-3.548	yaw rate:	0.807	Roll:	2.171	Pitch:	6.189	Yaw:	-5.667	Thrust:	0.000
Time:	0.741	Roll Set Point:	-0.151	Pitch Set Point:	-0.397	Yaw Set Point:	0.062	X_WP:	0.000	Y_WP:	0.000	Y_WP:	0.000	X:	0.081	Y:	0.196	Z:	0.057	yaw:	-3.550	yaw rate:	-0.130	Roll:	2.131	Pitch:	6.180	Yaw:	-5.899	Thrust:	0.000
Time:	0.751	Roll Set Point:	-0.151	Pitch Set Point:	-0.397	Yaw Set Point:	0.062	X_WP:	0.000	Y_WP:	0.000	Y_WP:	0.000	X:	0.081	Y:	0.196	Z:	0.057	yaw:	-3.561	yaw rate:	-1.143	Roll:	2.063	Pitch:	6.151	Yaw:	-6.116	Thrust:	0.000
Time:	0.761	Roll Set Point:	-0.151	Pitch Set Point:	-0.397	Yaw Set Point:	0.062	X_WP:	0.000	Y_WP:	0.000	Y_WP:	0.000	X:	0.081	Y:	0.196	Z:	0.057	yaw:	-3.554	yaw rate:	0.740	Roll:	2.176	Pitch:	6.190	Yaw:	-5.627	Thrust:	0.000
Time:	0.772	Roll Set Point:	-0.151	Pitch Set Point:	-0.397	Yaw Set Point:	0.062	X_WP:	0.000	Y_WP:	0.000	Y_WP:	0.000	X:	0.081	Y:	0.196	Z:	0.057	yaw:	-3.554	yaw rate:	0.740	Roll:	2.127	Pitch:	6.171	Yaw:	-5.920	Thrust:	0.000
Time:	0.783	Roll Set Point:	-0.151	Pitch Set Point:	-0.397	Yaw Set Point:	0.062	X_WP:	0.000	Y_WP:	0.000	Y_WP:	0.000	X:	0.081	Y:	0.196	Z:	0.057	yaw:	-3.553	yaw rate:	0.055	Roll:	2.114	Pitch:	6.216	Yaw:	-5.830	Thrust:	0.000
Time:	0.793	Roll Set Point:	-0.151	Pitch Set Point:	-0.397	Yaw Set Point:	0.062	X_WP:	0.000	Y_WP:	0.000	Y_WP:	0.000	X:	0.081	Y:	0.196	Z:	0.057	yaw:	-3.551	yaw rate:	0.827	Roll:	2.166	Pitch:	6.209	Yaw:	-5.897	Thrust:	0.000
Time:	0.804	Roll Set Point:	-0.151	Pitch Set Point:	-0.397	Yaw Set Point:	0.062	X_WP:	0.000	Y_WP:	0.000	Y_WP:	0.000	X:	0.081	Y:	0.196	Z:	0.057	yaw:	-3.551	yaw rate:	0.827	Roll:	2.145	Pitch:	6.223	Yaw:	-5.958	Thrust:	0.000
Time:	0.815	Roll Set Point:	-0.151	Pitch Set Point:	-0.397	Yaw Set Point:	0.062	X_WP:	0.000	Y_WP:	0.000	Y_WP:	0.000	X:	0.081	Y:	0.196	Z:	0.057	yaw:	-3.552	yaw rate:	-0.068	Roll:	2.141	Pitch:	6.215	Yaw:	-5.988	Thrust:	0.000
Time:	0.827	Roll Set Point:	-0.151	Pitch Set Point:	-0.397	Yaw Set Point:	0.062	X_WP:	0.000	Y_WP:	0.000	Y_WP:	0.000	X:	0.081	Y:	0.196	Z:	0.057	yaw:	-3.552	yaw rate:	0.702	Roll:	2.154	Pitch:	6.265	Yaw:	-6.089	Thrust:	0.000
Time:	0.837	Roll Set Point:	-0.151	Pitch Set Point:	-0.397	Yaw Set Point:	0.062	X_WP:	0.000	Y_WP:	0.000	Y_WP:	0.000	X:	0.081	Y:	0.196	Z:	0.057	yaw:	-3.552	yaw rate:	0.702	Roll:	2.138	Pitch:	6.196	Yaw:	-5.910	Thrust:	0.000
Time:	0.848	Roll Set Point:	-0.151	Pitch Set Point:	-0.397	Yaw Set Point:	0.062	X_WP:	0.000	Y_WP:	0.000	Y_WP:	0.000	X:	0.081	Y:	0.196	Z:	0.057	yaw:	-3.551	yaw rate:	0.160	Roll:	2.145	Pitch:	6.229	Yaw:	-5.968	Thrust:	0.000
Time:	0.858	Roll Set Point:	-0.151	Pitch Set Point:	-0.397	Yaw Set Point:	0.062	X_WP:	0.000	Y_WP:	0.000	Y_WP:	0.000	X:	0.081	Y:	0.196	Z:	0.057	yaw:	-3.554	yaw rate:	-0.325	Roll:	2.151	Pitch:	6.203	Yaw:	-6.017	Thrust:	0.000
Time:	0.868	Roll Set Point:	-0.151	Pitch Set Point:	-0.397	Yaw Set Point:	0.062	X_WP:	0.000	Y_WP:	0.000	Y_WP:	0.000	X:	0.081	Y:	0.196	Z:	0.057	yaw:	-3.547	yaw rate:	0.721	Roll:	2.187	Pitch:	6.181	Yaw:	-5.746	Thrust:	0.000
Time:	0.879	Roll Set Point:	-0.151	Pitch Set Point:	-0.397	Yaw Set Point:	0.062	X_WP:	0.000	Y_WP:	0.000	Y_WP:	0.000	X:	0.081	Y:	0.196	Z:	0.057	yaw:	-3.550	yaw rate:	-0.298	Roll:	2.129	Pitch:	6.246	Yaw:	-6.122	Thrust:	0.000
Time:	0.889	Roll Set Point:	-0.151	Pitch Set Point:	-0.397	Yaw Set Point:	0.062	X_WP:	0.000	Y_WP:	0.000	Y_WP:	0.000	X:	0.081	Y:	0.196	Z:	0.057	yaw:	-3.551	yaw rate:	-0.134	Roll:	2.176	Pitch:	6.170	Yaw:	-6.001	Thrust:	0.000
Time:	0.900	Roll Set Point:	-0.151	Pitch Set Point:	-0.397	Yaw Set Point:	0.062	X_WP:	0.000	Y_WP:	0.000	Y_WP:	0.000	X:	0.081	Y:	0.196	Z:	0.057	yaw:	-3.556	yaw rate:	-0.485	Roll:	2.107	Pitch:	6.257	Yaw:	-6.202	Thrust:	0.000
Time:	0.911	Roll Set Point:	-0.151	Pitch Set Point:	-0.397	Yaw Set Point:	0.062	X_WP:	0.000	Y_WP:	0.000	Y_WP:	0.000	X:	0.081	Y:	0.196	Z:	0.057	yaw:	-3.547	yaw rate:	0.884	Roll:	2.191	Pitch:	6.230	Yaw:	-5.879	Thrust:	0.000
Time:	0.922	Roll Set Point:	-0.151	Pitch Set Point:	-0.397	Yaw Set Point:	0.062	X_WP:	0.000	Y_WP:	0.000	Y_WP:	0.000	X:	0.081	Y:	0.196	Z:	0.057	yaw:	-3.555	yaw rate:	-0.822	Roll:	2.150	Pitch:	6.234	Yaw:	-6.308	Thrust:	0.000
Time:	0.933	Roll Set Point:	-0.151	Pitch Set Point:	-0.397	Yaw Set Point:	0.062	X_WP:	0.000	Y_WP:	0.000	Y_WP:	0.000	X:	0.081	Y:	0.196	Z:	0.057	yaw:	-3.553	yaw rate:	0.217	Roll:	2.184	Pitch:	6.217	Yaw:	-6.072	Thrust:	0.000
Time:	0.944	Roll Set Point:	-0.151	Pitch Set Point:	-0.397	Yaw Set Point:	0.062	X_WP:	0.000	Y_WP:	0.000	Y_WP:	0.000	X:	0.081	Y:	0.196	Z:	0.057	yaw:	-3.548	yaw rate:	0.548	Roll:	2.170	Pitch:	6.198	Yaw:	-5.880	Thrust:	0.000
Time:	0.954	Roll Set Point:	-0.151	Pitch Set Point:	-0.397	Yaw Set Point:	0.062	X_WP:	0.000	Y_WP:	0.000	Y_WP:	0.000	X:	0.081	Y:	0.196	Z:	0.057	yaw:	-3.548	yaw rate:	0.012	Roll:	2.171	Pitch:	6.198	Yaw:	-6.038	Thrust:	0.000
Time:	0.964	Roll Set Point:	-0.151	Pitch Set Point:	-0.397	Yaw Set Point:	0.062	X_WP:	0.000	Y_WP:	0.000	Y_WP:	0.000	X:	0.081	Y:	0.196	Z:	0.057	yaw:	-3.559	yaw rate:	-1.139	Roll:	2.088	Pitch:	6.192	Yaw:	-6.359	Thrust:	0.000
Time:	0.975	Roll Set Point:	-0.151	Pitch Set Point:	-0.397	Yaw Set Point:	0.062	X_WP:	0.000	Y_WP:	0.000	Y_WP:	0.000	X:	0.081	Y:	0.196	Z:	0.057	yaw:	-3.557	yaw rate:	0.238	Roll:	2.178	Pitch:	6.236	Yaw:	-6.124	Thrust:	0.000
Time:	0.985	Roll Set Point:	-0.151	Pitch Set Point:	-0.397	Yaw Set Point:	0.062	X_WP:	0.000	Y_WP:	0.000	Y_WP:	0.000	X:	0.081	Y:	0.196	Z:	0.057	yaw:	-3.549	yaw rate:	0.732	Roll:	2.191	Pitch:	6.197	Yaw:	-5.884	Thrust:	0.000
Time:	0.995	Roll Set Point:	-0.151	Pitch Set Point:	-0.397	Yaw Set Point:	0.062	X_WP:	0.000	Y_WP:	0.000	Y_WP:	0.000	X:	0.081	Y:	0.196	Z:	0.057	yaw:	-3.546	yaw rate:	0.306	Roll:	2.213	Pitch:	6.173	Yaw:	-6.003	Thrust:	0.000
Time:	1.005	Roll Set Point:	-0.151	Pitch Set Point:	-0.397	Yaw Set Point:	0.062	X_WP:	0.000	Y_WP:	0.000	Y_WP:	0.000	X:	0.081	Y:	0.196	Z:	0.057	yaw:	-3.550	yaw rate:	-0.422	Roll:	2.135	Pitch:	6.214	Yaw:	-6.212	Thrust:	0.000
Time:	1.015	Roll Set Point:	-0.151	Pitch Set Point:	-0.397	Yaw Set Point:	0.062	X_WP:	0.000	Y_WP:	0.000	Y_WP:	0.000	X:	0.081	Y:	0.196	Z:	0.057	yaw:	-3.557	yaw rate:	-0.656	Roll:	2.098	Pitch:	6.204	Yaw:	-6.299	Thrust:	0.000
Time:	1.025	Roll Set Point:	-0.151	Pitch Set Point:	-0.397	Yaw Set Point:	0.062	X_WP:	0.000	Y_WP:	0.000	Y_WP:	0.000	X:	0.081	Y:	0.196	Z:	0.057	yaw:	-3.557	yaw rate:	0.031	Roll:	2.193	Pitch:	6.180	Yaw:	-6.127	Thrust:	0.000
Time:	1.036	Roll Set Point:	-0.151	Pitch Set Point:	-0.397	Yaw Set Point:	0.062	X_WP:	0.000	Y_WP:	0.000	Y_WP:	0.000	X:	0.081	Y:	0.196	Z:	0.057	yaw:	-3.557	yaw rate:	0.031	Roll:	2.185	Pitch:	6.230	Yaw:	-6.259	Thrust:	0.000
Time:	1.047	Roll Set Point:	-0.151	Pitch Set Point:	-0.397	Yaw Set Point:	0.062	X_WP:	0.000	Y_WP:	0.000	Y_WP:	0.000	X:	0.081	Y:	0.196	Z:	0.057	yaw:	-3.558	yaw rate:	-0.084	Roll:	2.181	Pitch:	6.257	Yaw:	-6.300	Thrust:	0.000
Time:	1.058	Roll Set Point:	-0.151	Pitch Set Point:	-0.397	Yaw Set Point:	0.062	X_WP:	0.000	Y_WP:	0.000	Y_WP:	0.000	X:	0.081	Y:	0.196	Z:	0.057	yaw:	-3.554	yaw rate:	0.398	Roll:	2.183	Pitch:	6.187	Yaw:	-6.064	Thrust:	0.000
Time:	1.068	Roll Set Point:	-0.151	Pitch Set Point:	-0.397	Yaw Set Point:	0.062	X_WP:	0.000	Y_WP:	0.000	Y_WP:	0.000	X:	0.081	Y:	0.196	Z:	0.057	yaw:	-3.561	yaw rate:	-0.721	Roll:	2.178	Pitch:	6.227	Yaw:	-6.483	Thrust:	0.000
Time:	1.078	Roll Set Point:	-0.151	Pitch Set Point:	-0.397	Yaw Set Point:	0.062	X_WP:	0.000	Y_WP:	0.000	Y_WP:	0.000	X:	0.081	Y:	0.196	Z:	0.057	yaw:	-3.551	yaw rate:	0.931	Roll:	2.248	Pitch:	6.188	Yaw:	-5.947	Thrust:	0.000
Time:	1.088	Roll Set Point:	-0.151	Pitch Set Point:	-0.397	Yaw Set Point:	0.062	X_WP:	0.000	Y_WP:	0.000	Y_WP:	0.000	X:	0.081	Y:	0.196	Z:	0.057	yaw:	-3.553	yaw rate:	-0.169	Roll:	2.132	Pitch:	6.209	Yaw:	-6.249	Thrust:	0.000
Time:	1.098	Roll Set Point:	-0.151	Pitch Set Point:	-0.397	Yaw Set Point:	0.062	X_WP:	0.000	Y_WP:	0.000	Y_WP:	0.000	X:	0.081	Y:	0.196	Z:	0.057	yaw:	-3.552	yaw rate:	0.079	Roll:	2.196	Pitch:	6.175	Yaw:	-6.195	Thrust:	0.000
Time:	1.109	Roll Set Point:	-0.151	Pitch Set Point:	-0.397	Yaw Set Point:	0.062	X_WP:	0.000	Y_WP:	0.000	Y_WP:	0.000	X:	0.081	Y:	0.196	Z:	0.057	yaw:	-3.557	yaw rate:	-0.471	Roll:	2.154	Pitch:	6.232	Yaw:	-6.474	Thrust:	0.000
Time:	1.119	Roll Set Point:	-0.151	Pitch Set Point:	-0.397	Yaw Set Point:	0.062	X_WP:	0.000	Y_WP:	0.000	Y_WP:	0.000	X:	0.081	Y:	0.196	Z:	0.057	yaw:	-3.561	yaw rate:	-0.406	Roll:	2.177	Pitch:	6.223	Yaw:	-6.359	Thrust:	0.000
Time:	1.130	Roll Set Point:	-0.151	Pitch Set Point:	-0.397	Yaw Set Point:	0.062	X_WP:	0.000	Y_WP:	0.000	Y_WP:	0.000	X:	0.081	Y:	0.196	Z:	0.057	yaw:	-3.553	yaw rate:	0.807	Roll:	2.269	Pitch:	6.216	Yaw:	-6.194	Thrust:	0.000
Time:	1.142	Roll Set Point:	-0.151	Pitch Set Point:	-0.397	Yaw Set Point:	0.062	X_WP:	0.000	Y_WP:	0.000	Y_WP:	0.000	X:	0.081	Y:	0.196	Z:	0.057	yaw:	-3.549	yaw rate:	0.382	Roll:	2.221	Pitch:	6.253	Yaw:	-6.438	Thrust:	0.000
Time:	1.152	Roll Set Point:	-0.151	Pitch Set Point:	-0.397	Yaw Set Point:	0.062	X_WP:	0.000	Y_WP:	0.000	Y_WP:	0.000	X:	0.081	Y:	0.196	Z:	0.057	yaw:	-3.556	yaw rate:	-0.651	Roll:	2.151	Pitch:	6.223	Yaw:	-6.453	Thrust:	0.000
Time:	1.162	Roll Set Point:	-0.151	Pitch Set Point:	-0.397	Yaw Set Point:	0.062	X_WP:	0.000	Y_WP:	0.000	Y_WP:	0.000	X:	0.081	Y:	0.196	Z:	0.057	yaw:	-3.550	yaw rate:	0.608	Roll:	2.237	Pitch:	6.196	Yaw:	-6.128	Thrust:	0.000
Time:	1.172	Roll Set Point:	-0.151	Pitch Set Point:	-0.397	Yaw Set Point:	0.062	X_WP:	0.000	Y_WP:	0.000	Y_WP:	0.000	X:	0.081	Y:	0.196	Z:	0.057	yaw:	-3.552	yaw rate:	-0.238	Roll:	2.169	Pitch:	6.148	Yaw:	-6.365	Thrust:	0.000
Time:	1.183	Roll Set Point:	-0.151	Pitch Set Point:	-0.397	Yaw Set Point:	0.062	X_WP:	0.000	Y_WP:	0.000	Y_WP:	0.000	X:	0.081	Y:	0.196	Z:	0.057	yaw:	-3.561	yaw rate:	-0.878	Roll:	2.175	Pitch:	6.269	Yaw:	-6.673	Thrust:	0.000
Time:	1.193	Roll Set Point:	-0.151	Pitch Set Point:	-0.397	Yaw Set Point:	0.062	X_WP:	0.000	Y_WP:	0.000	Y_WP:	0.000	X:	0.081	Y:	0.196	Z:	0.057	yaw:	-3.553	yaw rate:	0.806	Roll:	2.235	Pitch:	6.189	Yaw:	-6.115	Thrust:	0.000
Time:	1.204	Roll Set Point:	-0.151	Pitch Set Point:	-0.397	Yaw Set Point:	0.062	X_WP:	0.000	Y_WP:	0.000	Y_WP:	0.000	X:	0.081	Y:	0.196	Z:	0.057	yaw:	-3.554	yaw rate:	-0.101	Roll:	2.201	Pitch:	6.199	Yaw:	-6.506	Thrust:	0.000
Time:	1.214	Roll Set Point:	-0.151	Pitch Set Point:	-0.397	Yaw Set Point:	0.062	X_WP:	0.000	Y_WP:	0.000	Y_WP:	0.000	X:	0.081	Y:	0.196	Z:	0.057	yaw:	-3.554	yaw rate:	0.001	Roll:	2.195	Pitch:	6.229	Yaw:	-6.354	Thrust:	0.000
Time:	1.225	Roll Set Point:	-0.151	Pitch Set Point:	-0.397	Yaw Set Point:	0.062	X_WP:	0.000	Y_WP:	0.000	Y_WP:	0.000	X:	0.081	Y:	0.196	Z:	0.057	yaw:	-3.546	yaw rate:	0.796	Roll:	2.268	Pitch:	6.214	Yaw:	-6.308	Thrust:	0.000
Time:	1.235	Roll Set Point:	-0.151	Pitch Set Point:	-0.397	Yaw Set Point:	0.062	X_WP:	0.000	Y_WP:	0.000	Y_WP:	0.000	X:	0.081	Y:	0.196	Z:	0.057	yaw:	-3.546	yaw rate:	0.796	Roll:	2.204	Pitch:	6.194	Yaw:	-6.369	Thrust:	0.000
Time:	1.246	Roll Set Point:	-0.151	Pitch Set Point:	-0.397	Yaw Set Point:	0.062	X_WP:	0.000	Y_WP:	0.000	Y_WP:	0.000	X:	0.081	Y:	0.196	Z:	0.057	yaw:	-3.555	yaw rate:	-0.951	Roll:	2.190	Pitch:	6.241	Yaw:	-6.763	Thrust:	0.000
Time:	1.257	Roll Set Point:	-0.151	Pitch Set Point:	-0.397	Yaw Set Point:	0.062	X_WP:	0.000	Y_WP:	0.000	Y_WP:	0.000	X:	0.081	Y:	0.196	Z:	0.057	yaw:	-3.555	yaw rate:	-0.015	Roll:	2.214	Pitch:	6.204	Yaw:	-6.411	Thrust:	0.000
Time:	1.267	Roll Set Point:	-0.151	Pitch Set Point:	-0.397	Yaw Set Point:	0.062	X_WP:	0.000	Y_WP:	0.000	Y_WP:	0.000	X:	0.081	Y:	0.196	Z:	0.057	yaw:	-3.555	yaw rate:	0.082	Roll:	2.218	Pitch:	6.235	Yaw:	-6.545	Thrust:	0.000
Time:	1.277	Roll Set Point:	-0.151	Pitch Set Point:	-0.397	Yaw Set Point:	0.062	X_WP:	0.000	Y_WP:	0.000	Y_WP:	0.000	X:	0.081	Y:	0.196	Z:	0.057	yaw:	-3.557	yaw rate:	-0.277	Roll:	2.195	Pitch:	6.184	Yaw:	-6.517	Thrust:	0.000
Time:	1.288	Roll Set Point:	-0.151	Pitch Set Point:	-0.397	Yaw Set Point:	0.062	X_WP:	0.000	Y_WP:	0.000	Y_WP:	0.000	X:	0.081	Y:	0.196	Z:	0.057	yaw:	-3.551	yaw rate:	0.592	Roll:	2.274	Pitch:	6.230	Yaw:	-6.434	Thrust:	0.000
Time:	1.298	Roll Set Point:	-0.151	Pitch Set Point:	-0.397	Yaw Set Point:	0.062	X_WP:	0.000	Y_WP:	0.000	Y_WP:	0.000	X:	0.081	Y:	0.196	Z:	0.057	yaw:	-3.554	yaw rate:	-0.216	Roll:	2.183	Pitch:	6.196	Yaw:	-6.511	Thrust:	0.000
Time:	1.308	Roll Set Point:	-0.151	Pitch Set Point:	-0.397	Yaw Set Point:	0.062	X_WP:	0.000	Y_WP:	0.000	Y_WP:	0.000	X:	0.081	Y:	0.196	Z:	0.057	yaw:	-3.555	yaw rate:	-0.116	Roll:	2.227	Pitch:	6.202	Yaw:	-6.499	Thrust:	0.000
Time:	1.319	Roll Set Point:	-0.151	Pitch Set Point:	-0.397	Yaw Set Point:	0.062	X_WP:	0.000	Y_WP:	0.000	Y_WP:	0.000	X:	0.081	Y:	0.196	Z:	0.057	yaw:	-3.558	yaw rate:	-0.296	Roll:	2.193	Pitch:	6.196	Yaw:	-6.568	Thrust:	0.000
Time:	1.329	Roll Set Point:	-0.151	Pitch Set Point:	-0.397	Yaw Set Point:	0.062	X_WP:	0.000	Y_WP:	0.000	Y_WP:	0.000	X:	0.081	Y:	0.196	Z:	0.057	yaw:	-3.560	yaw rate:	-0.201	Roll:	2.201	Pitch:	6.202	Yaw:	-6.554	Thrust:	0.000
Time:	1.339	Roll Set Point:	-0.151	Pitch Set Point:	-0.397	Yaw Set Point:	0.062	X_WP:	0.000	Y_WP:	0.000	Y_WP:	0.000	X:	0.081	Y:	0.196	Z:	0.057	yaw:	-3.554	yaw rate:	0.592	Roll:	2.263	Pitch:	6.182	Yaw:	-6.350	Thrust:	0.000
Time:	1.350	Roll Set Point:	-0.151	Pitch Set Point:	-0.397	Yaw Set Point:	0.062	X_WP:	0.000	Y_WP:	0.000	Y_WP:	0.000	X:	0.081	Y:	0.196	Z:	0.057	yaw:	-3.546	yaw rate:	0.762	Roll:	2.273	Pitch:	6.220	Yaw:	-6.480	Thrust:	0.000
Time:	1.361	Roll Set Point:	-0.151	Pitch Set Point:	-0.397	Yaw Set Point:	0.062	X_WP:	0.000	Y_WP:	0.000	Y_WP:	0.000	X:	0.081	Y:	0.196	Z:	0.057	yaw:	-3.553	yaw rate:	-0.697	Roll:	2.207	Pitch:	6.250	Yaw:	-6.843	Thrust:	0.000
Time:	1.371	Roll Set Point:	-0.151	Pitch Set Point:	-0.397	Yaw Set Point:	0.062	X_WP:	0.000	Y_WP:	0.000	Y_WP:	0.000	X:	0.081	Y:	0.196	Z:	0.057	yaw:	-3.555	yaw rate:	-0.140	Roll:	2.195	Pitch:	6.178	Yaw:	-6.584	Thrust:	0.000
Time:	1.382	Roll Set Point:	-0.151	Pitch Set Point:	-0.397	Yaw Set Point:	0.062	X_WP:	0.000	Y_WP:	0.000	Y_WP:	0.000	X:	0.081	Y:	0.196	Z:	0.057	yaw:	-3.558	yaw rate:	-0.370	Roll:	2.264	Pitch:	6.248	Yaw:	-6.803	Thrust:	0.000
Time:	1.392	Roll Set Point:	-0.151	Pitch Set Point:	-0.397	Yaw Set Point:	0.062	X_WP:	0.000	Y_WP:	0.000	Y_WP:	0.000	X:	0.081	Y:	0.196	Z:	0.057	yaw:	-3.548	yaw rate:	1.055	Roll:	2.295	Pitch:	6.183	Yaw:	-6.282	Thrust:	0.000
Time:	1.402	Roll Set Point:	-0.151	Pitch Set Point:	-0.397	Yaw Set Point:	0.062	X_WP:	0.000	Y_WP:	0.000	Y_WP:	0.000	X:	0.081	Y:	0.196	Z:	0.057	yaw:	-3.548	yaw rate:	1.055	Roll:	2.232	Pitch:	6.195	Yaw:	-6.571	Thrust:	0.000
Time:	1.413	Roll Set Point:	-0.151	Pitch Set Point:	-0.397	Yaw Set Point:	0.062	X_WP:	0.000	Y_WP:	0.000	Y_WP:	0.000	X:	0.081	Y:	0.196	Z:	0.057	yaw:	-3.551	yaw rate:	-0.348	Roll:	2.219	Pitch:	6.216	Yaw:	-6.837	Thrust:	0.000
Time:	1.424	Roll Set Point:	-0.151	Pitch Set Point:	-0.397	Yaw Set Point:	0.062	X_WP:	0.000	Y_WP:	0.000	Y_WP:	0.000	X:	0.081	Y:	0.196	Z:	0.057	yaw:	-3.549	yaw rate:	0.181	Roll:	2.278	Pitch:	6.256	Yaw:	-6.715	Thrust:	0.000
Time:	1.434	Roll Set Point:	-0.151	Pitch Set Point:	-0.397	Yaw Set Point:	0.062	X_WP:	0.000	Y_WP:	0.000	Y_WP:	0.000	X:	0.081	Y:	0.196	Z:	0.057	yaw:	-3.552	yaw rate:	-0.240	Roll:	2.211	Pitch:	6.202	Yaw:	-6.682	Thrust:	0.000
Time:	1.445	Roll Set Point:	-0.151	Pitch Set Point:	-0.397	Yaw Set Point:	0.062	X_WP:	0.000	Y_WP:	0.000	Y_WP:	0.000	X:	0.081	Y:	0.196	Z:	0.057	yaw:	-3.555	yaw rate:	-0.295	Roll:	2.248	Pitch:	6.224	Yaw:	-6.858	Thrust:	0.000
Time:	1.455	Roll Set Point:	-0.151	Pitch Set Point:	-0.397	Yaw Set Point:	0.062	X_WP:	0.000	Y_WP:	0.000	Y_WP:	0.000	X:	0.081	Y:	0.196	Z:	0.057	yaw:	-3.560	yaw rate:	-0.503	Roll:	2.222	Pitch:	6.174	Yaw:	-6.781	Thrust:	0.000
Time:	1.465	Roll Set Point:	-0.151	Pitch Set Point:	-0.397	Yaw Set Point:	0.062	X_WP:	0.000	Y_WP:	0.000	Y_WP:	0.000	X:	0.081	Y:	0.196	Z:	0.057	yaw:	-3.555	yaw rate:	0.430	Roll:	2.271	Pitch:	6.221	Yaw:	-6.543	Thrust:	0.000
Time:	1.475	Roll Set Point:	-0.151	Pitch Set Point:	-0.397	Yaw Set Point:	0.062	X_WP:	0.000	Y_WP:	0.000	Y_WP:	0.000	X:	0.081	Y:	0.196	Z:	0.057	yaw:	-3.559	yaw rate:	-0.366	Roll:	2.197	Pitch:	6.203	Yaw:	-6.769	Thrust:	0.000
Time:	1.486	Roll Set Point:	-0.151	Pitch Set Point:	-0.397	Yaw Set Point:	0.062	X_WP:	0.000	Y_WP:	0.000	Y_WP:	0.000	X:	0.081	Y:	0.196	Z:	0.057	yaw:	-3.549	yaw rate:	1.021	Roll:	2.305	Pitch:	6.195	Yaw:	-6.601	Thrust:	0.000
Time:	1.496	Roll Set Point:	-0.151	Pitch Set Point:	-0.397	Yaw Set Point:	0.062	X_WP:	0.000	Y_WP:	0.000	Y_WP:	0.000	X:	0.081	Y:	0.196	Z:	0.057	yaw:	-3.555	yaw rate:	-0.578	Roll:	2.255	Pitch:	6.218	Yaw:	-6.843	Thrust:	0.000
Time:	1.508	Roll Set Point:	-0.151	Pitch Set Point:	-0.397	Yaw Set Point:	0.062	X_WP:	0.000	Y_WP:	0.000	Y_WP:	0.000	X:	0.081	Y:	0.196	Z:	0.057	yaw:	-3.553	yaw rate:	0.172	Roll:	2.265	Pitch:	6.226	Yaw:	-7.015	Thrust:	0.000
Time:	1.518	Roll Set Point:	-0.151	Pitch Set Point:	-0.397	Yaw Set Point:	0.062	X_WP:	0.000	Y_WP:	0.000	Y_WP:	0.000	X:	0.081	Y:	0.196	Z:	0.057	yaw:	-3.556	yaw rate:	-0.349	Roll:	2.287	Pitch:	6.236	Yaw:	-6.809	Thrust:	0.000
Time:	1.529	Roll Set Point:	-0.151	Pitch Set Point:	-0.397	Yaw Set Point:	0.062	X_WP:	0.000	Y_WP:	0.000	Y_WP:	0.000	X:	0.081	Y:	0.196	Z:	0.057	yaw:	-3.558	yaw rate:	-0.110	Roll:	2.232	Pitch:	6.229	Yaw:	-6.936	Thrust:	0.000
Time:	1.539	Roll Set Point:	-0.151	Pitch Set Point:	-0.397	Yaw Set Point:	0.062	X_WP:	0.000	Y_WP:	0.000	Y_WP:	0.000	X:	0.081	Y:	0.196	Z:	0.057	yaw:	-3.551	yaw rate:	0.668	Roll:	2.289	Pitch:	6.212	Yaw:	-6.564	Thrust:	0.000
Time:	1.549	Roll Set Point:	-0.151	Pitch Set Point:	-0.397	Yaw Set Point:	0.062	X_WP:	0.000	Y_WP:	0.000	Y_WP:	0.000	X:	0.081	Y:	0.196	Z:	0.057	yaw:	-3.557	yaw rate:	-0.654	Roll:	2.230	Pitch:	6.185	Yaw:	-6.935	Thrust:	0.000
Time:	1.560	Roll Set Point:	-0.151	Pitch Set Point:	-0.397	Yaw Set Point:	0.062	X_WP:	0.000	Y_WP:	0.000	Y_WP:	0.000	X:	0.081	Y:	0.196	Z:	0.057	yaw:	-3.551	yaw rate:	0.594	Roll:	2.308	Pitch:	6.218	Yaw:	-6.805	Thrust:	0.000
Time:	1.570	Roll Set Point:	-0.151	Pitch Set Point:	-0.397	Yaw Set Point:	0.062	X_WP:	0.000	Y_WP:	0.000	Y_WP:	0.000	X:	0.081	Y:	0.196	Z:	0.057	yaw:	-3.555	yaw rate:	-0.381	Roll:	2.249	Pitch:	6.217	Yaw:	-6.879	Thrust:	0.000
Time:	1.580	Roll Set Point:	-0.151	Pitch Set Point:	-0.397	Yaw Set Point:	0.062	X_WP:	0.000	Y_WP:	0.000	Y_WP:	0.000	X:	0.081	Y:	0.196	Z:	0.057	yaw:	-3.555	yaw rate:	0.062	Roll:	2.246	Pitch:	6.177	Yaw:	-6.776	Thrust:	0.000
Time:	1.591	Roll Set Point:	-0.151	Pitch Set Point:	-0.397	Yaw Set Point:	0.062	X_WP:	0.000	Y_WP:	0.000	Y_WP:	0.000	X:	0.081	Y:	0.196	Z:	0.057	yaw:	-3.562	yaw rate:	-0.709	Roll:	2.255	Pitch:	6.251	Yaw:	-7.155	Thrust:	0.000
Time:	1.601	Roll Set Point:	-0.151	Pitch Set Point:	-0.397	Yaw Set Point:	0.062	X_WP:	0.000	Y_WP:	0.000	Y_WP:	0.000	X:	0.081	Y:	0.196	Z:	0.057	yaw:	-3.557	yaw rate:	0.484	Roll:	2.287	Pitch:	6.196	Yaw:	-6.693	Thrust:	0.000
Time:	1.611	Roll Set Point:	-0.151	Pitch Set Point:	-0.397	Yaw Set Point:	0.062	X_WP:	0.000	Y_WP:	0.000	Y_WP:	0.000	X:	0.081	Y:	0.196	Z:	0.057	yaw:	-3.552	yaw rate:	0.530	Roll:	2.294	Pitch:	6.177	Yaw:	-6.686	Thrust:	0.000
Time:	1.621	Roll Set Point:	-0.151	Pitch Set Point:	-0.397	Yaw Set Point:	0.062	X_WP:	0.000	Y_WP:	0.000	Y_WP:	0.000	X:	0.081	Y:	0.196	Z:	0.057	yaw:	-3.552	yaw rate:	0.530	Roll:	2.267	Pitch:	6.194	Yaw:	-6.837	Thrust:	0.000
Time:	1.631	Roll Set Point:	-0.151	Pitch Set Point:	-0.397	Yaw Set Point:	0.062	X_WP:	0.000	Y_WP:	0.000	Y_WP:	0.000	X:	0.081	Y:	0.196	Z:	0.057	yaw:	-3.555	yaw rate:	-0.369	Roll:	2.267	Pitch:	6.200	Yaw:	-6.951	Thrust:	0.000
Time:	1.641	Roll Set Point:	-0.151	Pitch Set Point:	-0.397	Yaw Set Point:	0.062	X_WP:	0.000	Y_WP:	0.000	Y_WP:	0.000	X:	0.081	Y:	0.196	Z:	0.057	yaw:	-3.553	yaw rate:	0.276	Roll:	2.267	Pitch:	6.187	Yaw:	-6.791	Thrust:	0.000
Time:	1.651	Roll Set Point:	-0.151	Pitch Set Point:	-0.397	Yaw Set Point:	0.062	X_WP:	0.000	Y_WP:	0.000	Y_WP:	0.000	X:	0.081	Y:	0.196	Z:	0.057	yaw:	-3.552	yaw rate:	0.094	Roll:	2.287	Pitch:	6.209	Yaw:	-6.850	Thrust:	0.000
Time:	1.661	Roll Set Point:	-0.151	Pitch Set Point:	-0.397	Yaw Set Point:	0.062	X_WP:	0.000	Y_WP:	0.000	Y_WP:	0.000	X:	0.081	Y:	0.196	Z:	0.057	yaw:	-3.558	yaw rate:	-0.621	Roll:	2.228	Pitch:	6.190	Yaw:	-7.062	Thrust:	0.000
Time:	1.671	Roll Set Point:	-0.151	Pitch Set Point:	-0.397	Yaw Set Point:	0.062	X_WP:	0.000	Y_WP:	0.000	Y_WP:	0.000	X:	0.081	Y:	0.196	Z:	0.057	yaw:	-3.551	yaw rate:	0.695	Roll:	2.326	Pitch:	6.183	Yaw:	-6.713	Thrust:	0.000
Time:	1.681	Roll Set Point:	-0.151	Pitch Set Point:	-0.397	Yaw Set Point:	0.062	X_WP:	0.000	Y_WP:	0.000	Y_WP:	0.000	X:	0.081	Y:	0.196	Z:	0.057	yaw:	-3.549	yaw rate:	0.149	Roll:	2.276	Pitch:	6.192	Yaw:	-6.874	Thrust:	0.000
Time:	1.693	Roll Set Point:	-0.151	Pitch Set Point:	-0.397	Yaw Set Point:	0.062	X_WP:	0.000	Y_WP:	0.000	Y_WP:	0.000	X:	0.081	Y:	0.196	Z:	0.057	yaw:	-3.559	yaw rate:	-0.987	Roll:	2.266	Pitch:	6.243	Yaw:	-7.372	Thrust:	0.000
Time:	1.704	Roll Set Point:	-0.151	Pitch Set Point:	-0.397	Yaw Set Point:	0.062	X_WP:	0.000	Y_WP:	0.000	Y_WP:	0.000	X:	0.081	Y:	0.196	Z:	0.057	yaw:	-3.553	yaw rate:	0.671	Roll:	2.346	Pitch:	6.229	Yaw:	-6.975	Thrust:	0.000
Time:	1.714	Roll Set Point:	-0.151	Pitch Set Point:	-0.397	Yaw Set Point:	0.062	X_WP:	0.000	Y_WP:	0.000	Y_WP:	0.000	X:	0.081	Y:	0.196	Z:	0.057	yaw:	-3.545	yaw rate:	0.739	Roll:	2.310	Pitch:	6.186	Yaw:	-6.750	Thrust:	0.000
Time:	1.725	Roll Set Point:	-0.151	Pitch Set Point:	-0.397	Yaw Set Point:	0.062	X_WP:	0.000	Y_WP:	0.000	Y_WP:	0.000	X:	0.081	Y:	0.196	Z:	0.057	yaw:	-3.554	yaw rate:	-0.909	Roll:	2.272	Pitch:	6.255	Yaw:	-7.369	Thrust:	0.000
Time:	1.735	Roll Set Point:	-0.151	Pitch Set Point:	-0.397	Yaw Set Point:	0.062	X_WP:	0.000	Y_WP:	0.000	Y_WP:	0.000	X:	0.081	Y:	0.196	Z:	0.057	yaw:	-3.553	yaw rate:	0.165	Roll:	2.316	Pitch:	6.179	Yaw:	-6.923	Thrust:	0.000
Time:	1.745	Roll Set Point:	-0.151	Pitch Set Point:	-0.397	Yaw Set Point:	0.062	X_WP:	0.000	Y_WP:	0.000	Y_WP:	0.000	X:	0.081	Y:	0.196	Z:	0.057	yaw:	-3.554	yaw rate:	-0.113	Roll:	2.258	Pitch:	6.183	Yaw:	-7.009	Thrust:	0.000
Time:	1.755	Roll Set Point:	-0.151	Pitch Set Point:	-0.397	Yaw Set Point:	0.062	X_WP:	0.000	Y_WP:	0.000	Y_WP:	0.000	X:	0.081	Y:	0.196	Z:	0.057	yaw:	-3.557	yaw rate:	-0.349	Roll:	2.264	Pitch:	6.213	Yaw:	-7.062	Thrust:	0.000
Time:	1.766	Roll Set Point:	-0.151	Pitch Set Point:	-0.397	Yaw Set Point:	0.062	X_WP:	0.000	Y_WP:	0.000	Y_WP:	0.000	X:	0.081	Y:	0.196	Z:	0.057	yaw:	-3.555	yaw rate:	0.251	Roll:	2.342	Pitch:	6.229	Yaw:	-7.111	Thrust:	0.000
Time:	1.777	Roll Set Point:	-0.151	Pitch Set Point:	-0.397	Yaw Set Point:	0.062	X_WP:	0.000	Y_WP:	0.000	Y_WP:	0.000	X:	0.081	Y:	0.196	Z:	0.057	yaw:	-3.558	yaw rate:	-0.350	Roll:	2.302	Pitch:	6.255	Yaw:	-7.244	Thrust:	0.000
Time:	1.787	Roll Set Point:	-0.151	Pitch Set Point:	-0.397	Yaw Set Point:	0.062	X_WP:	0.000	Y_WP:	0.000	Y_WP:	0.000	X:	0.081	Y:	0.196	Z:	0.057	yaw:	-3.552	yaw rate:	0.618	Roll:	2.340	Pitch:	6.161	Yaw:	-6.803	Thrust:	0.000
Time:	1.797	Roll Set Point:	-0.151	Pitch Set Point:	-0.397	Yaw Set Point:	0.062	X_WP:	0.000	Y_WP:	0.000	Y_WP:	0.000	X:	0.081	Y:	0.196	Z:	0.057	yaw:	-3.555	yaw rate:	-0.307	Roll:	2.284	Pitch:	6.191	Yaw:	-7.050	Thrust:	0.000
Time:	1.807	Roll Set Point:	-0.151	Pitch Set Point:	-0.397	Yaw Set Point:	0.062	X_WP:	0.000	Y_WP:	0.000	Y_WP:	0.000	X:	0.081	Y:	0.196	Z:	0.057	yaw:	-3.555	yaw rate:	-0.307	Roll:	2.298	Pitch:	6.194	Yaw:	-6.969	Thrust:	0.000
Time:	1.818	Roll Set Point:	-0.151	Pitch Set Point:	-0.397	Yaw Set Point:	0.062	X_WP:	0.000	Y_WP:	0.000	Y_WP:	0.000	X:	0.081	Y:	0.196	Z:	0.057	yaw:	-3.550	yaw rate:	0.648	Roll:	2.326	Pitch:	6.238	Yaw:	-7.060	Thrust:	0.000
Time:	1.829	Roll Set Point:	-0.151	Pitch Set Point:	-0.397	Yaw Set Point:	0.062	X_WP:	0.000	Y_WP:	0.000	Y_WP:	0.000	X:	0.081	Y:	0.196	Z:	0.057	yaw:	-3.550	yaw rate:	0.648	Roll:	2.331	Pitch:	6.232	Yaw:	-7.162	Thrust:	0.000
Time:	1.840	Roll Set Point:	-0.151	Pitch Set Point:	-0.397	Yaw Set Point:	0.062	X_WP:	0.000	Y_WP:	0.000	Y_WP:	0.000	X:	0.081	Y:	0.196	Z:	0.057	yaw:	-3.552	yaw rate:	0.159	Roll:	2.358	Pitch:	6.231	Yaw:	-7.195	Thrust:	0.000
Time:	1.851	Roll Set Point:	-0.151	Pitch Set Point:	-0.397	Yaw Set Point:	0.062	X_WP:	0.000	Y_WP:	0.000	Y_WP:	0.000	X:	0.081	Y:	0.196	Z:	0.057	yaw:	-3.549	yaw rate:	0.285	Roll:	2.333	Pitch:	6.219	Yaw:	-7.094	Thrust:	0.000
Time:	1.861	Roll Set Point:	-0.151	Pitch Set Point:	-0.397	Yaw Set Point:	0.062	X_WP:	0.000	Y_WP:	0.000	Y_WP:	0.000	X:	0.081	Y:	0.196	Z:	0.057	yaw:	-3.549	yaw rate:	0.285	Roll:	2.308	Pitch:	6.195	Yaw:	-6.966	Thrust:	0.000
Time:	1.872	Roll Set Point:	-0.151	Pitch Set Point:	-0.397	Yaw Set Point:	0.062	X_WP:	0.000	Y_WP:	0.000	Y_WP:	0.000	X:	0.081	Y:	0.196	Z:	0.057	yaw:	-3.550	yaw rate:	-0.100	Roll:	2.326	Pitch:	6.194	Yaw:	-7.182	Thrust:	0.000
Time:	1.883	Roll Set Point:	-0.151	Pitch Set Point:	-0.397	Yaw Set Point:	0.062	X_WP:	0.000	Y_WP:	0.000	Y_WP:	0.000	X:	0.081	Y:	0.196	Z:	0.057	yaw:	-3.555	yaw rate:	-0.446	Roll:	2.303	Pitch:	6.254	Yaw:	-7.087	Thrust:	0.000
Time:	1.894	Roll Set Point:	-0.151	Pitch Set Point:	-0.397	Yaw Set Point:	0.062	X_WP:	0.000	Y_WP:	0.000	Y_WP:	0.000	X:	0.081	Y:	0.196	Z:	0.057	yaw:	-3.549	yaw rate:	0.602	Roll:	2.351	Pitch:	6.216	Yaw:	-7.229	Thrust:	0.000
Time:	1.905	Roll Set Point:	-0.151	Pitch Set Point:	-0.397	Yaw Set Point:	0.062	X_WP:	0.000	Y_WP:	0.000	Y_WP:	0.000	X:	0.081	Y:	0.196	Z:	0.057	yaw:	-3.556	yaw rate:	-0.723	Roll:	2.342	Pitch:	6.244	Yaw:	-7.158	Thrust:	0.000
Time:	1.915	Roll Set Point:	-0.151	Pitch Set Point:	-0.397	Yaw Set Point:	0.062	X_WP:	0.000	Y_WP:	0.000	Y_WP:	0.000	X:	0.081	Y:	0.196	Z:	0.057	yaw:	-3.548	yaw rate:	0.769	Roll:	2.391	Pitch:	6.221	Yaw:	-6.978	Thrust:	0.000
Time:	1.926	Roll Set Point:	-0.151	Pitch Set Point:	-0.397	Yaw Set Point:	0.062	X_WP:	0.000	Y_WP:	0.000	Y_WP:	0.000	X:	0.081	Y:	0.196	Z:	0.057	yaw:	-3.551	yaw rate:	-0.315	Roll:	2.300	Pitch:	6.239	Yaw:	-7.251	Thrust:	0.000
Time:	1.939	Roll Set Point:	-0.151	Pitch Set Point:	-0.397	Yaw Set Point:	0.062	X_WP:	0.000	Y_WP:	0.000	Y_WP:	0.000	X:	0.081	Y:	0.196	Z:	0.057	yaw:	-3.554	yaw rate:	-0.321	Roll:	2.386	Pitch:	6.278	Yaw:	-7.439	Thrust:	0.000
Time:	1.949	Roll Set Point:	-0.151	Pitch Set Point:	-0.397	Yaw Set Point:	0.062	X_WP:	0.000	Y_WP:	0.000	Y_WP:	0.000	X:	0.081	Y:	0.196	Z:	0.057	yaw:	-3.549	yaw rate:	0.534	Roll:	2.380	Pitch:	6.213	Yaw:	-7.021	Thrust:	0.000
Time:	1.959	Roll Set Point:	-0.151	Pitch Set Point:	-0.397	Yaw Set Point:	0.062	X_WP:	0.000	Y_WP:	0.000	Y_WP:	0.000	X:	0.081	Y:	0.196	Z:	0.057	yaw:	-3.554	yaw rate:	-0.492	Roll:	2.282	Pitch:	6.203	Yaw:	-7.096	Thrust:	0.000
Time:	1.969	Roll Set Point:	-0.151	Pitch Set Point:	-0.397	Yaw Set Point:	0.062	X_WP:	0.000	Y_WP:	0.000	Y_WP:	0.000	X:	0.081	Y:	0.196	Z:	0.057	yaw:	-3.549	yaw rate:	0.468	Roll:	2.370	Pitch:	6.192	Yaw:	-6.839	Thrust:	0.000
Time:	1.980	Roll Set Point:	-0.151	Pitch Set Point:	-0.397	Yaw Set Point:	0.062	X_WP:	0.000	Y_WP:	0.000	Y_WP:	0.000	X:	0.081	Y:	0.196	Z:	0.057	yaw:	-3.558	yaw rate:	-0.885	Roll:	2.299	Pitch:	6.240	Yaw:	-7.393	Thrust:	0.000
Time:	1.991	Roll Set Point:	-0.151	Pitch Set Point:	-0.397	Yaw Set Point:	0.062	X_WP:	0.000	Y_WP:	0.000	Y_WP:	0.000	X:	0.081	Y:	0.196	Z:	0.057	yaw:	-3.555	yaw rate:	0.303	Roll:	2.371	Pitch:	6.246	Yaw:	-7.088	Thrust:	0.000
Time:	2.001	Roll Set Point:	-0.151	Pitch Set Point:	-0.397	Yaw Set Point:	0.062	X_WP:	0.000	Y_WP:	0.000	Y_WP:	0.000	X:	0.081	Y:	0.196	Z:	0.057	yaw:	-3.553	yaw rate:	0.216	Roll:	2.343	Pitch:	6.179	Yaw:	-6.909	Thrust:	0.000
Time:	2.011	Roll Set Point:	-0.151	Pitch Set Point:	-0.397	Yaw Set Point:	0.062	X_WP:	0.000	Y_WP:	0.000	Y_WP:	0.000	X:	0.081	Y:	0.196	Z:	0.057	yaw:	-3.552	yaw rate:	0.100	Roll:	2.348	Pitch:	6.190	Yaw:	-6.939	Thrust:	0.000
Time:	2.022	Roll Set Point:	-0.151	Pitch Set Point:	-0.397	Yaw Set Point:	0.062	X_WP:	0.000	Y_WP:	0.000	Y_WP:	0.000	X:	0.081	Y:	0.196	Z:	0.057	yaw:	-3.553	yaw rate:	-0.139	Roll:	2.355	Pitch:	6.237	Yaw:	-7.206	Thrust:	0.000
Time:	2.033	Roll Set Point:	-0.151	Pitch Set Point:	-0.397	Yaw Set Point:	0.062	X_WP:	0.000	Y_WP:	0.000	Y_WP:	0.000	X:	0.081	Y:	0.196	Z:	0.057	yaw:	-3.550	yaw rate:	0.330	Roll:	2.385	Pitch:	6.234	Yaw:	-7.078	Thrust:	0.000
Time:	2.044	Roll Set Point:	-0.151	Pitch Set Point:	-0.397	Yaw Set Point:	0.062	X_WP:	0.000	Y_WP:	0.000	Y_WP:	0.000	X:	0.081	Y:	0.196	Z:	0.057	yaw:	-3.549	yaw rate:	0.113	Roll:	2.380	Pitch:	6.219	Yaw:	-7.134	Thrust:	0.000
Time:	2.055	Roll Set Point:	-0.151	Pitch Set Point:	-0.397	Yaw Set Point:	0.062	X_WP:	0.000	Y_WP:	0.000	Y_WP:	0.000	X:	0.081	Y:	0.196	Z:	0.057	yaw:	-3.550	yaw rate:	-0.115	Roll:	2.342	Pitch:	6.200	Yaw:	-7.006	Thrust:	0.000
Time:	2.066	Roll Set Point:	-0.151	Pitch Set Point:	-0.397	Yaw Set Point:	0.062	X_WP:	0.000	Y_WP:	0.000	Y_WP:	0.000	X:	0.081	Y:	0.196	Z:	0.057	yaw:	-3.548	yaw rate:	0.231	Roll:	2.366	Pitch:	6.238	Yaw:	-7.105	Thrust:	0.000
Time:	2.077	Roll Set Point:	-0.151	Pitch Set Point:	-0.397	Yaw Set Point:	0.062	X_WP:	0.000	Y_WP:	0.000	Y_WP:	0.000	X:	0.081	Y:	0.196	Z:	0.057	yaw:	-3.550	yaw rate:	-0.197	Roll:	2.375	Pitch:	6.226	Yaw:	-7.195	Thrust:	0.000
Time:	2.087	Roll Set Point:	-0.151	Pitch Set Point:	-0.397	Yaw Set Point:	0.062	X_WP:	0.000	Y_WP:	0.000	Y_WP:	0.000	X:	0.081	Y:	0.196	Z:	0.057	yaw:	-3.556	yaw rate:	-0.631	Roll:	2.325	Pitch:	6.199	Yaw:	-7.136	Thrust:	0.000
Time:	2.097	Roll Set Point:	-0.151	Pitch Set Point:	-0.397	Yaw Set Point:	0.062	X_WP:	0.000	Y_WP:	0.000	Y_WP:	0.000	X:	0.081	Y:	0.196	Z:	0.057	yaw:	-3.549	yaw rate:	0.737	Roll:	2.354	Pitch:	6.189	Yaw:	-6.768	Thrust:	0.000
Time:	2.108	Roll Set Point:	-0.151	Pitch Set Point:	-0.397	Yaw Set Point:	0.062	X_WP:	0.000	Y_WP:	0.000	Y_WP:	0.000	X:	0.081	Y:	0.196	Z:	0.057	yaw:	-3.552	yaw rate:	-0.378	Roll:	2.380	Pitch:	6.233	Yaw:	-7.260	Thrust:	0.000
Time:	2.119	Roll Set Point:	-0.151	Pitch Set Point:	-0.397	Yaw Set Point:	0.062	X_WP:	0.000	Y_WP:	0.000	Y_WP:	0.000	X:	0.081	Y:	0.196	Z:	0.057	yaw:	-3.552	yaw rate:	0.066	Roll:	2.380	Pitch:	6.245	Yaw:	-7.145	Thrust:	0.000
Time:	2.129	Roll Set Point:	-0.151	Pitch Set Point:	-0.397	Yaw Set Point:	0.062	X_WP:	0.000	Y_WP:	0.000	Y_WP:	0.000	X:	0.081	Y:	0.196	Z:	0.057	yaw:	-3.549	yaw rate:	0.302	Roll:	2.347	Pitch:	6.169	Yaw:	-6.881	Thrust:	0.000
Time:	2.139	Roll Set Point:	-0.151	Pitch Set Point:	-0.397	Yaw Set Point:	0.062	X_WP:	0.000	Y_WP:	0.000	Y_WP:	0.000	X:	0.081	Y:	0.196	Z:	0.057	yaw:	-3.549	yaw rate:	-0.050	Roll:	2.370	Pitch:	6.200	Yaw:	-6.974	Thrust:	0.000
Time:	2.149	Roll Set Point:	-0.151	Pitch Set Point:	-0.397	Yaw Set Point:	0.062	X_WP:	0.000	Y_WP:	0.000	Y_WP:	0.000	X:	0.081	Y:	0.196	Z:	0.057	yaw:	-3.552	yaw rate:	-0.310	Roll:	2.356	Pitch:	6.205	Yaw:	-7.056	Thrust:	0.000
Time:	2.160	Roll Set Point:	-0.151	Pitch Set Point:	-0.397	Yaw Set Point:	0.062	X_WP:	0.000	Y_WP:	0.000	Y_WP:	0.000	X:	0.081	Y:	0.196	Z:	0.057	yaw:	-3.550	yaw rate:	0.276	Roll:	2.382	Pitch:	6.233	Yaw:	-7.086	Thrust:	0.000
Time:	2.170	Roll Set Point:	-0.151	Pitch Set Point:	-0.397	Yaw Set Point:	0.062	X_WP:	0.000	Y_WP:	0.000	Y_WP:	0.000	X:	0.081	Y:	0.196	Z:	0.057	yaw:	-3.550	yaw rate:	0.276	Roll:	2.358	Pitch:	6.195	Yaw:	-6.962	Thrust:	0.000
Time:	2.181	Roll Set Point:	-0.151	Pitch Set Point:	-0.397	Yaw Set Point:	0.062	X_WP:	0.000	Y_WP:	0.000	Y_WP:	0.000	X:	0.081	Y:	0.196	Z:	0.057	yaw:	-3.555	yaw rate:	-0.535	Roll:	2.384	Pitch:	6.227	Yaw:	-7.297	Thrust:	0.000
Time:	2.192	Roll Set Point:	-0.151	Pitch Set Point:	-0.397	Yaw Set Point:	0.062	X_WP:	0.000	Y_WP:	0.000	Y_WP:	0.000	X:	0.081	Y:	0.196	Z:	0.057	yaw:	-3.556	yaw rate:	-0.134	Roll:	2.381	Pitch:	6.257	Yaw:	-7.203	Thrust:	0.000
Time:	2.204	Roll Set Point:	-0.151	Pitch Set Point:	-0.397	Yaw Set Point:	0.062	X_WP:	0.000	Y_WP:	0.000	Y_WP:	0.000	X:	0.081	Y:	0.196	Z:	0.057	yaw:	-3.549	yaw rate:	0.708	Roll:	2.413	Pitch:	6.216	Yaw:	-6.994	Thrust:	0.000
Time:	2.214	Roll Set Point:	-0.151	Pitch Set Point:	-0.397	Yaw Set Point:	0.062	X_WP:	0.000	Y_WP:	0.000	Y_WP:	0.000	X:	0.081	Y:	0.196	Z:	0.057	yaw:	-3.545	yaw rate:	0.457	Roll:	2.457	Pitch:	6.212	Yaw:	-7.046	Thrust:	0.000
Time:	2.225	Roll Set Point:	-0.151	Pitch Set Point:	-0.397	Yaw Set Point:	0.062	X_WP:	0.000	Y_WP:	0.000	Y_WP:	0.000	X:	0.081	Y:	0.196	Z:	0.057	yaw:	-3.553	yaw rate:	-0.857	Roll:	2.350	Pitch:	6.245	Yaw:	-7.371	Thrust:	0.000
Time:	2.236	Roll Set Point:	-0.151	Pitch Set Point:	-0.397	Yaw Set Point:	0.062	X_WP:	0.000	Y_WP:	0.000	Y_WP:	0.000	X:	0.081	Y:	0.196	Z:	0.057	yaw:	-3.549	yaw rate:	0.381	Roll:	2.405	Pitch:	6.239	Yaw:	-7.072	Thrust:	0.000
Time:	2.247	Roll Set Point:	-0.151	Pitch Set Point:	-0.397	Yaw Set Point:	0.062	X_WP:	0.000	Y_WP:	0.000	Y_WP:	0.000	X:	0.081	Y:	0.196	Z:	0.057	yaw:	-3.553	yaw rate:	-0.407	Roll:	2.361	Pitch:	6.197	Yaw:	-7.079	Thrust:	0.000
Time:	2.258	Roll Set Point:	-0.151	Pitch Set Point:	-0.397	Yaw Set Point:	0.062	X_WP:	0.000	Y_WP:	0.000	Y_WP:	0.000	X:	0.081	Y:	0.196	Z:	0.057	yaw:	-3.561	yaw rate:	-0.724	Roll:	2.375	Pitch:	6.239	Yaw:	-7.529	Thrust:	0.000
Time:	2.268	Roll Set Point:	-0.151	Pitch Set Point:	-0.397	Yaw Set Point:	0.062	X_WP:	0.000	Y_WP:	0.000	Y_WP:	0.000	X:	0.081	Y:	0.196	Z:	0.057	yaw:	-3.554	yaw rate:	0.677	Roll:	2.418	Pitch:	6.227	Yaw:	-6.800	Thrust:	0.000
Time:	2.280	Roll Set Point:	-0.151	Pitch Set Point:	-0.397	Yaw Set Point:	0.062	X_WP:	0.000	Y_WP:	0.000	Y_WP:	0.000	X:	0.081	Y:	0.196	Z:	0.057	yaw:	-3.549	yaw rate:	0.499	Roll:	2.458	Pitch:	6.243	Yaw:	-7.035	Thrust:	0.000
Time:	2.291	Roll Set Point:	-0.151	Pitch Set Point:	-0.397	Yaw Set Point:	0.062	X_WP:	0.000	Y_WP:	0.000	Y_WP:	0.000	X:	0.081	Y:	0.196	Z:	0.057	yaw:	-3.553	yaw rate:	-0.415	Roll:	2.389	Pitch:	6.213	Yaw:	-7.458	Thrust:	0.000
Time:	2.301	Roll Set Point:	-0.151	Pitch Set Point:	-0.397	Yaw Set Point:	0.062	X_WP:	0.000	Y_WP:	0.000	Y_WP:	0.000	X:	0.081	Y:	0.196	Z:	0.057	yaw:	-3.558	yaw rate:	-0.474	Roll:	2.383	Pitch:	6.252	Yaw:	-7.097	Thrust:	0.000
Time:	2.312	Roll Set Point:	-0.151	Pitch Set Point:	-0.397	Yaw Set Point:	0.062	X_WP:	0.000	Y_WP:	0.000	Y_WP:	0.000	X:	0.081	Y:	0.196	Z:	0.057	yaw:	-3.552	yaw rate:	0.582	Roll:	2.431	Pitch:	6.165	Yaw:	-6.813	Thrust:	0.000
Time:	2.323	Roll Set Point:	-0.151	Pitch Set Point:	-0.397	Yaw Set Point:	0.062	X_WP:	0.000	Y_WP:	0.000	Y_WP:	0.000	X:	0.081	Y:	0.196	Z:	0.057	yaw:	-3.559	yaw rate:	-0.676	Roll:	2.407	Pitch:	6.284	Yaw:	-7.523	Thrust:	0.000
Time:	2.336	Roll Set Point:	-0.151	Pitch Set Point:	-0.397	Yaw Set Point:	0.062	X_WP:	0.000	Y_WP:	0.000	Y_WP:	0.000	X:	0.081	Y:	0.196	Z:	0.057	yaw:	-3.555	yaw rate:	0.414	Roll:	2.475	Pitch:	6.270	Yaw:	-7.280	Thrust:	0.000
Time:	2.347	Roll Set Point:	-0.151	Pitch Set Point:	-0.397	Yaw Set Point:	0.062	X_WP:	0.000	Y_WP:	0.000	Y_WP:	0.000	X:	0.081	Y:	0.196	Z:	0.057	yaw:	-3.549	yaw rate:	0.549	Roll:	2.445	Pitch:	6.231	Yaw:	-7.043	Thrust:	0.000
Time:	2.358	Roll Set Point:	-0.151	Pitch Set Point:	-0.397	Yaw Set Point:	0.062	X_WP:	0.000	Y_WP:	0.000	Y_WP:	0.000	X:	0.081	Y:	0.196	Z:	0.057	yaw:	-3.558	yaw rate:	-0.856	Roll:	2.385	Pitch:	6.245	Yaw:	-7.366	Thrust:	0.000
Time:	2.368	Roll Set Point:	-0.151	Pitch Set Point:	-0.397	Yaw Set Point:	0.062	X_WP:	0.000	Y_WP:	0.000	Y_WP:	0.000	X:	0.081	Y:	0.196	Z:	0.057	yaw:	-3.562	yaw rate:	-0.462	Roll:	2.402	Pitch:	6.220	Yaw:	-7.289	Thrust:	0.000
Time:	2.379	Roll Set Point:	-0.151	Pitch Set Point:	-0.397	Yaw Set Point:	0.062	X_WP:	0.000	Y_WP:	0.000	Y_WP:	0.000	X:	0.081	Y:	0.196	Z:	0.057	yaw:	-3.559	yaw rate:	0.363	Roll:	2.430	Pitch:	6.230	Yaw:	-7.098	Thrust:	0.000
Time:	2.390	Roll Set Point:	-0.151	Pitch Set Point:	-0.397	Yaw Set Point:	0.062	X_WP:	0.000	Y_WP:	0.000	Y_WP:	0.000	X:	0.081	Y:	0.196	Z:	0.057	yaw:	-3.557	yaw rate:	0.126	Roll:	2.425	Pitch:	6.241	Yaw:	-7.133	Thrust:	0.000
Time:	2.401	Roll Set Point:	-0.151	Pitch Set Point:	-0.397	Yaw Set Point:	0.062	X_WP:	0.000	Y_WP:	0.000	Y_WP:	0.000	X:	0.081	Y:	0.196	Z:	0.057	yaw:	-3.548	yaw rate:	0.930	Roll:	2.449	Pitch:	6.226	Yaw:	-6.939	Thrust:	0.000
Time:	2.413	Roll Set Point:	-0.151	Pitch Set Point:	-0.397	Yaw Set Point:	0.062	X_WP:	0.000	Y_WP:	0.000	Y_WP:	0.000	X:	0.081	Y:	0.196	Z:	0.057	yaw:	-3.557	yaw rate:	-0.875	Roll:	2.386	Pitch:	6.247	Yaw:	-7.394	Thrust:	0.000
Time:	2.423	Roll Set Point:	-0.151	Pitch Set Point:	-0.397	Yaw Set Point:	0.062	X_WP:	0.000	Y_WP:	0.000	Y_WP:	0.000	X:	0.081	Y:	0.196	Z:	0.057	yaw:	-3.553	yaw rate:	0.402	Roll:	2.446	Pitch:	6.206	Yaw:	-7.055	Thrust:	0.000
Time:	2.435	Roll Set Point:	-0.151	Pitch Set Point:	-0.397	Yaw Set Point:	0.062	X_WP:	0.000	Y_WP:	0.000	Y_WP:	0.000	X:	0.081	Y:	0.196	Z:	0.057	yaw:	-3.550	yaw rate:	0.252	Roll:	2.447	Pitch:	6.237	Yaw:	-7.115	Thrust:	0.000
Time:	2.446	Roll Set Point:	-0.151	Pitch Set Point:	-0.397	Yaw Set Point:	0.062	X_WP:	0.000	Y_WP:	0.000	Y_WP:	0.000	X:	0.081	Y:	0.196	Z:	0.057	yaw:	-3.560	yaw rate:	-0.932	Roll:	2.336	Pitch:	6.247	Yaw:	-7.401	Thrust:	0.000
Time:	2.458	Roll Set Point:	-0.151	Pitch Set Point:	-0.397	Yaw Set Point:	0.062	X_WP:	0.000	Y_WP:	0.000	Y_WP:	0.000	X:	0.081	Y:	0.196	Z:	0.057	yaw:	-3.557	yaw rate:	0.231	Roll:	2.457	Pitch:	6.266	Yaw:	-7.308	Thrust:	0.000
Time:	2.468	Roll Set Point:	-0.151	Pitch Set Point:	-0.397	Yaw Set Point:	0.062	X_WP:	0.000	Y_WP:	0.000	Y_WP:	0.000	X:	0.081	Y:	0.196	Z:	0.057	yaw:	-3.556	yaw rate:	0.095	Roll:	2.406	Pitch:	6.187	Yaw:	-6.952	Thrust:	0.000
Time:	2.479	Roll Set Point:	-0.151	Pitch Set Point:	-0.397	Yaw Set Point:	0.062	X_WP:	0.000	Y_WP:	0.000	Y_WP:	0.000	X:	0.081	Y:	0.196	Z:	0.057	yaw:	-3.554	yaw rate:	0.237	Roll:	2.422	Pitch:	6.240	Yaw:	-7.118	Thrust:	0.000
Time:	2.491	Roll Set Point:	-0.151	Pitch Set Point:	-0.397	Yaw Set Point:	0.062	X_WP:	0.000	Y_WP:	0.000	Y_WP:	0.000	X:	0.081	Y:	0.196	Z:	0.057	yaw:	-3.551	yaw rate:	0.258	Roll:	2.465	Pitch:	6.222	Yaw:	-7.300	Thrust:	0.000
Time:	2.501	Roll Set Point:	-0.151	Pitch Set Point:	-0.397	Yaw Set Point:	0.062	X_WP:	0.000	Y_WP:	0.000	Y_WP:	0.000	X:	0.081	Y:	0.196	Z:	0.057	yaw:	-3.557	yaw rate:	-0.567	Roll:	2.376	Pitch:	6.237	Yaw:	-7.118	Thrust:	0.000
Time:	2.513	Roll Set Point:	-0.151	Pitch Set Point:	-0.397	Yaw Set Point:	0.062	X_WP:	0.000	Y_WP:	0.000	Y_WP:	0.000	X:	0.081	Y:	0.196	Z:	0.057	yaw:	-3.548	yaw rate:	0.938	Roll:	2.508	Pitch:	6.273	Yaw:	-7.167	Thrust:	0.000
Time:	2.528	Roll Set Point:	-0.151	Pitch Set Point:	-0.397	Yaw Set Point:	0.062	X_WP:	0.000	Y_WP:	0.000	Y_WP:	0.000	X:	0.081	Y:	0.196	Z:	0.057	yaw:	-3.556	yaw rate:	-0.830	Roll:	2.346	Pitch:	6.214	Yaw:	-8.108	Thrust:	0.000
Time:	2.538	Roll Set Point:	-0.151	Pitch Set Point:	-0.397	Yaw Set Point:	0.062	X_WP:	0.000	Y_WP:	0.000	Y_WP:	0.000	X:	0.081	Y:	0.196	Z:	0.057	yaw:	-3.551	yaw rate:	-0.110	Roll:	2.575	Pitch:	6.354	Yaw:	-6.841	Thrust:	0.000
Time:	2.548	Roll Set Point:	-0.151	Pitch Set Point:	-0.397	Yaw Set Point:	0.062	X_WP:	0.000	Y_WP:	0.000	Y_WP:	0.000	X:	0.081	Y:	0.196	Z:	0.057	yaw:	-3.555	yaw rate:	-0.336	Roll:	2.355	Pitch:	6.199	Yaw:	-7.066	Thrust:	0.000
Time:	2.558	Roll Set Point:	-0.151	Pitch Set Point:	-0.397	Yaw Set Point:	0.062	X_WP:	0.000	Y_WP:	0.000	Y_WP:	0.000	X:	0.081	Y:	0.196	Z:	0.057	yaw:	-3.550	yaw rate:	0.433	Roll:	2.428	Pitch:	6.189	Yaw:	-6.844	Thrust:	0.000
Time:	2.568	Roll Set Point:	-0.151	Pitch Set Point:	-0.397	Yaw Set Point:	0.062	X_WP:	0.000	Y_WP:	0.000	Y_WP:	0.000	X:	0.081	Y:	0.196	Z:	0.057	yaw:	-3.556	yaw rate:	-0.609	Roll:	2.322	Pitch:	6.200	Yaw:	-7.135	Thrust:	0.000
Time:	2.579	Roll Set Point:	-0.151	Pitch Set Point:	-0.397	Yaw Set Point:	0.062	X_WP:	0.000	Y_WP:	0.000	Y_WP:	0.000	X:	0.081	Y:	0.196	Z:	0.057	yaw:	-3.556	yaw rate:	-0.609	Roll:	2.417	Pitch:	6.230	Yaw:	-7.161	Thrust:	0.000
Time:	2.589	Roll Set Point:	-0.151	Pitch Set Point:	-0.397	Yaw Set Point:	0.062	X_WP:	0.000	Y_WP:	0.000	Y_WP:	0.000	X:	0.081	Y:	0.196	Z:	0.057	yaw:	-3.549	yaw rate:	0.744	Roll:	2.412	Pitch:	6.192	Yaw:	-6.767	Thrust:	0.000
Time:	2.600	Roll Set Point:	-0.151	Pitch Set Point:	-0.397	Yaw Set Point:	0.062	X_WP:	0.000	Y_WP:	0.000	Y_WP:	0.000	X:	0.081	Y:	0.196	Z:	0.057	yaw:	-3.554	yaw rate:	-0.467	Roll:	2.408	Pitch:	6.242	Yaw:	-7.293	Thrust:	0.000
Time:	2.612	Roll Set Point:	-0.151	Pitch Set Point:	-0.397	Yaw Set Point:	0.062	X_WP:	0.000	Y_WP:	0.000	Y_WP:	0.000	X:	0.081	Y:	0.196	Z:	0.057	yaw:	-3.550	yaw rate:	0.554	Roll:	2.475	Pitch:	6.276	Yaw:	-7.280	Thrust:	0.000
Time:	2.624	Roll Set Point:	-0.151	Pitch Set Point:	-0.397	Yaw Set Point:	0.062	X_WP:	0.000	Y_WP:	0.000	Y_WP:	0.000	X:	0.081	Y:	0.196	Z:	0.057	yaw:	-3.550	yaw rate:	0.554	Roll:	2.418	Pitch:	6.231	Yaw:	-7.155	Thrust:	0.000
Time:	2.634	Roll Set Point:	-0.151	Pitch Set Point:	-0.397	Yaw Set Point:	0.062	X_WP:	0.000	Y_WP:	0.000	Y_WP:	0.000	X:	0.081	Y:	0.196	Z:	0.057	yaw:	-3.551	yaw rate:	-0.064	Roll:	2.415	Pitch:	6.213	Yaw:	-7.179	Thrust:	0.000
Time:	2.644	Roll Set Point:	-0.151	Pitch Set Point:	-0.397	Yaw Set Point:	0.062	X_WP:	0.000	Y_WP:	0.000	Y_WP:	0.000	X:	0.081	Y:	0.196	Z:	0.057	yaw:	-3.552	yaw rate:	-0.164	Roll:	2.368	Pitch:	6.186	Yaw:	-7.009	Thrust:	0.000
Time:	2.654	Roll Set Point:	-0.151	Pitch Set Point:	-0.397	Yaw Set Point:	0.062	X_WP:	0.000	Y_WP:	0.000	Y_WP:	0.000	X:	0.081	Y:	0.196	Z:	0.057	yaw:	-3.554	yaw rate:	-0.125	Roll:	2.372	Pitch:	6.215	Yaw:	-6.999	Thrust:	0.000
Time:	2.665	Roll Set Point:	-0.151	Pitch Set Point:	-0.397	Yaw Set Point:	0.062	X_WP:	0.000	Y_WP:	0.000	Y_WP:	0.000	X:	0.081	Y:	0.196	Z:	0.057	yaw:	-3.556	yaw rate:	-0.234	Roll:	2.414	Pitch:	6.232	Yaw:	-7.226	Thrust:	0.000
Time:	2.676	Roll Set Point:	-0.151	Pitch Set Point:	-0.397	Yaw Set Point:	0.062	X_WP:	0.000	Y_WP:	0.000	Y_WP:	0.000	X:	0.081	Y:	0.196	Z:	0.057	yaw:	-3.553	yaw rate:	0.335	Roll:	2.435	Pitch:	6.210	Yaw:	-7.103	Thrust:	0.000
Time:	2.689	Roll Set Point:	-0.151	Pitch Set Point:	-0.397	Yaw Set Point:	0.062	X_WP:	0.000	Y_WP:	0.000	Y_WP:	0.000	X:	0.081	Y:	0.196	Z:	0.057	yaw:	-3.545	yaw rate:	0.755	Roll:	2.495	Pitch:	6.277	Yaw:	-7.389	Thrust:	0.000
Time:	2.700	Roll Set Point:	-0.151	Pitch Set Point:	-0.397	Yaw Set Point:	0.062	X_WP:	0.000	Y_WP:	0.000	Y_WP:	0.000	X:	0.081	Y:	0.196	Z:	0.057	yaw:	-3.556	yaw rate:	-1.087	Roll:	2.369	Pitch:	6.257	Yaw:	-7.434	Thrust:	0.000
Time:	2.711	Roll Set Point:	-0.151	Pitch Set Point:	-0.397	Yaw Set Point:	0.062	X_WP:	0.000	Y_WP:	0.000	Y_WP:	0.000	X:	0.081	Y:	0.196	Z:	0.057	yaw:	-3.554	yaw rate:	0.228	Roll:	2.437	Pitch:	6.216	Yaw:	-7.108	Thrust:	0.000
Time:	2.723	Roll Set Point:	-0.151	Pitch Set Point:	-0.397	Yaw Set Point:	0.062	X_WP:	0.000	Y_WP:	0.000	Y_WP:	0.000	X:	0.081	Y:	0.196	Z:	0.057	yaw:	-3.552	yaw rate:	0.191	Roll:	2.413	Pitch:	6.231	Yaw:	-7.120	Thrust:	0.000
Time:	2.734	Roll Set Point:	-0.151	Pitch Set Point:	-0.397	Yaw Set Point:	0.062	X_WP:	0.000	Y_WP:	0.000	Y_WP:	0.000	X:	0.081	Y:	0.196	Z:	0.057	yaw:	-3.554	yaw rate:	-0.251	Roll:	2.433	Pitch:	6.270	Yaw:	-7.429	Thrust:	0.000
Time:	2.745	Roll Set Point:	-0.151	Pitch Set Point:	-0.397	Yaw Set Point:	0.062	X_WP:	0.000	Y_WP:	0.000	Y_WP:	0.000	X:	0.081	Y:	0.196	Z:	0.057	yaw:	-3.558	yaw rate:	-0.358	Roll:	2.430	Pitch:	6.241	Yaw:	-7.254	Thrust:	0.000
Time:	2.756	Roll Set Point:	-0.151	Pitch Set Point:	-0.397	Yaw Set Point:	0.062	X_WP:	0.000	Y_WP:	0.000	Y_WP:	0.000	X:	0.081	Y:	0.196	Z:	0.057	yaw:	-3.550	yaw rate:	0.764	Roll:	2.454	Pitch:	6.218	Yaw:	-6.988	Thrust:	0.000
Time:	2.768	Roll Set Point:	-0.151	Pitch Set Point:	-0.397	Yaw Set Point:	0.062	X_WP:	0.000	Y_WP:	0.000	Y_WP:	0.000	X:	0.081	Y:	0.196	Z:	0.057	yaw:	-3.558	yaw rate:	-0.423	Roll:	2.413	Pitch:	6.282	Yaw:	-7.528	Thrust:	0.000
Time:	2.780	Roll Set Point:	-0.151	Pitch Set Point:	-0.397	Yaw Set Point:	0.062	X_WP:	0.000	Y_WP:	0.000	Y_WP:	0.000	X:	0.081	Y:	0.196	Z:	0.057	yaw:	-3.553	yaw rate:	0.433	Roll:	2.435	Pitch:	6.228	Yaw:	-7.071	Thrust:	0.000
Time:	2.792	Roll Set Point:	-0.151	Pitch Set Point:	-0.397	Yaw Set Point:	0.062	X_WP:	0.000	Y_WP:	0.000	Y_WP:	0.000	X:	0.081	Y:	0.196	Z:	0.057	yaw:	-3.552	yaw rate:	0.164	Roll:	2.472	Pitch:	6.266	Yaw:	-7.324	Thrust:	0.000
Time:	2.803	Roll Set Point:	-0.151	Pitch Set Point:	-0.397	Yaw Set Point:	0.062	X_WP:	0.000	Y_WP:	0.000	Y_WP:	0.000	X:	0.081	Y:	0.196	Z:	0.057	yaw:	-3.552	yaw rate:	0.004	Roll:	2.443	Pitch:	6.270	Yaw:	-7.364	Thrust:	0.000
Time:	2.815	Roll Set Point:	-0.151	Pitch Set Point:	-0.397	Yaw Set Point:	0.062	X_WP:	0.000	Y_WP:	0.000	Y_WP:	0.000	X:	0.081	Y:	0.196	Z:	0.057	yaw:	-3.552	yaw rate:	-0.076	Roll:	2.481	Pitch:	6.261	Yaw:	-7.383	Thrust:	0.000
Time:	2.828	Roll Set Point:	-0.151	Pitch Set Point:	-0.397	Yaw Set Point:	0.062	X_WP:	0.000	Y_WP:	0.000	Y_WP:	0.000	X:	0.081	Y:	0.196	Z:	0.057	yaw:	-3.551	yaw rate:	0.132	Roll:	2.448	Pitch:	6.264	Yaw:	-7.344	Thrust:	0.000
Time:	2.841	Roll Set Point:	-0.151	Pitch Set Point:	-0.397	Yaw Set Point:	0.062	X_WP:	0.000	Y_WP:	0.000	Y_WP:	0.000	X:	0.081	Y:	0.196	Z:	0.057	yaw:	-3.556	yaw rate:	-0.490	Roll:	2.429	Pitch:	6.295	Yaw:	-7.666	Thrust:	0.000
Time:	2.853	Roll Set Point:	-0.151	Pitch Set Point:	-0.397	Yaw Set Point:	0.062	X_WP:	0.000	Y_WP:	0.000	Y_WP:	0.000	X:	0.081	Y:	0.196	Z:	0.057	yaw:	-3.552	yaw rate:	0.356	Roll:	2.524	Pitch:	6.297	Yaw:	-7.295	Thrust:	0.000
Time:	2.865	Roll Set Point:	-0.151	Pitch Set Point:	-0.397	Yaw Set Point:	0.062	X_WP:	0.000	Y_WP:	0.000	Y_WP:	0.000	X:	0.081	Y:	0.196	Z:	0.057	yaw:	-3.554	yaw rate:	-0.117	Roll:	2.425	Pitch:	6.265	Yaw:	-7.384	Thrust:	0.000
Time:	2.877	Roll Set Point:	-0.151	Pitch Set Point:	-0.397	Yaw Set Point:	0.062	X_WP:	0.000	Y_WP:	0.000	Y_WP:	0.000	X:	0.081	Y:	0.196	Z:	0.057	yaw:	-3.554	yaw rate:	0.005	Roll:	2.468	Pitch:	6.278	Yaw:	-7.367	Thrust:	0.000
Time:	2.890	Roll Set Point:	-0.151	Pitch Set Point:	-0.397	Yaw Set Point:	0.062	X_WP:	0.000	Y_WP:	0.000	Y_WP:	0.000	X:	0.081	Y:	0.196	Z:	0.057	yaw:	-3.551	yaw rate:	0.274	Roll:	2.471	Pitch:	6.257	Yaw:	-7.305	Thrust:	0.000
Time:	2.901	Roll Set Point:	-0.151	Pitch Set Point:	-0.397	Yaw Set Point:	0.062	X_WP:	0.000	Y_WP:	0.000	Y_WP:	0.000	X:	0.081	Y:	0.196	Z:	0.057	yaw:	-3.559	yaw rate:	-0.288	Roll:	2.418	Pitch:	6.281	Yaw:	-7.560	Thrust:	0.000
